~V
VERS. 2.00: Ver 2.00
~W
STRT.M 51.0000:
STOP.M 277.0000:
STEP.M 0.1250:
NULL. -999.2500:
UWI. F11147:
~C
DEPT.M :
DEN.GM/CC :
GR.API :
RML.OHMM :
RI. :
RXO.OHMM :
CALI.CM :
SP.MV :
~A
# ...
  107.2500     2.1530    67.1400     9.7010     7.6650     9.6280    25.7500   -38.0370 
  107.3750     2.1630    68.1650    10.0950     7.9010     9.6360    25.6670   -37.7030 
  107.5000     2.1810    68.3650    10.8680     8.3950     9.9460    25.5510   -37.3350 
  107.6250     2.2120    66.1630    11.9680     9.1540    10.7430    25.3810   -36.9540 
  107.7500     2.2610    62.6340    13.1690    10.0700    12.8610    25.1570   -36.6150 
  107.8750     2.3240    58.4230    13.9830    10.8390    16.5440    24.9110   -36.3540 
  108.0000     2.3540    56.6790    14.0790    11.1550    17.8490    24.8090   -36.1210 
  108.1250     2.3180    58.0430    13.4490    10.9200    14.3040    24.8680   -35.8780 
  108.2500     2.2480    60.7530    12.4230    10.2970    11.2500    24.9860   -35.6020 
  108.3750     2.2070    61.7680    11.4600     9.5910    10.5530    25.0080   -35.2860 
  108.5000     2.2060    61.8070    10.7830     9.0330    10.7150    24.9490   -34.8910 
  108.6250     2.2220    63.0170    10.3750     8.6620    11.2590    24.9360   -34.3630 
  108.7500     2.2370    63.4130    10.1170     8.4230    11.5320    25.0090   -33.6490 
  108.8750     2.2350    61.0930     9.8850     8.2240    11.3260    25.3080   -32.7150 
  109.0000     2.2180    60.3950     9.6440     8.0180    10.6640    25.6630   -31.6340 
  109.1250     2.1900    62.8440     9.4310     7.8220     9.9410    25.8850   -30.4350 
  109.2500     2.1540    64.9860     9.2530     7.6550     9.7930    25.9930   -29.1260 
  109.3750     2.1260    65.4410     9.0200     7.4650     9.6610    25.8920   -27.6920 
  109.5000     2.1270    66.4520     8.6200     7.1670     8.9670    25.6220   -26.1810 
  109.6250     2.1510    68.0740     8.0110     6.7120     8.1460    25.5770   -24.6570 
  109.7500     2.1740    71.9350     7.2570     6.1260     7.5540    25.6590   -23.1990 
  109.8750     2.1880    80.6360     6.5300     5.5140     6.1160    25.2230   -21.8960 
  110.0000     2.2110    91.3860     5.9800     4.9970     4.9110    24.4990   -20.7370 
  110.1250     2.2440   100.1590     5.6480     4.6270     4.5360    23.8840   -19.7280 
  110.2500     2.2660   102.5810     5.5030     4.4010     4.7880    23.5420   -18.9030 
  110.3750     2.2680    98.0700     5.4880     4.3050     4.9800    23.4480   -18.2750 
  110.5000     2.2730    92.3120     5.5240     4.2810     4.8070    23.4710   -17.8160 
  110.6250     2.2910    91.8910     5.5930     4.3150     4.5760    23.5130   -17.4940 
  110.7500     2.3180    96.9160     5.7030     4.4000     4.4510    23.5040   -17.2670 
  110.8750     2.3400   102.0680     5.8610     4.5340     4.5660    23.3890   -17.0790 
  111.0000     2.3580   104.2270     6.0380     4.6880     4.8310    23.3320   -16.9070 
  111.1250     2.3810   102.3810     6.1970     4.8450     5.4490    23.3320   -16.7340 
  111.2500     2.4070    95.9460     6.3040     4.9820     6.4210    23.3380   -16.5530 
  111.3750     2.4210    91.3910     6.3330     5.0660     6.2340    23.3510   -16.3700 
  111.5000     2.4160    94.1120     6.3210     5.0910     5.4610    23.3840   -16.1960 
  111.6250     2.4030    99.8610     6.2880     5.0630     5.4530    23.3780   -16.0490 
  111.7500     2.3900   100.1830     6.2240     4.9850     5.9970    23.3320   -15.9300 
  111.8750     2.3700    95.0240     6.0910     4.8580     5.5450    23.3400   -15.8580 
  112.0000     2.3420    91.4380     5.8860     4.7000     4.9670    23.3720   -15.8170 
  112.1250     2.3180    91.1880     5.6260     4.5170     4.7180    23.4070   -15.8130 
  112.2500     2.3130    94.5640     5.3540     4.3180     4.7140    23.4220   -15.8200 
  112.3750     2.3290   104.0870     5.1350     4.1330     4.5710    23.3340   -15.8570 
  112.5000     2.3510   111.8950     4.9900     3.9840     4.3430    23.1040   -15.9180 
  112.6250     2.3700   112.4240     4.9150     3.8780     4.2940    22.8030   -15.9790 
  112.7500     2.3850   108.8730     4.9010     3.8160     4.3980    22.6100   -16.0220 
  112.8750     2.3960   106.2300     4.9450     3.8140     4.5280    22.6980   -16.0280 
  113.0000     2.4000   102.4800     5.0260     3.8630     4.6740    22.8870   -16.0220 
  113.1250     2.3950    99.2790     5.1340     3.9550     4.9240    23.0030   -16.0020 
  113.2500     2.3850   100.4370     5.2720     4.0780     5.3570    23.0320   -15.9910 
  113.3750     2.3780   103.1010     5.4480     4.2320     5.7750    23.0470   -15.9820 
  113.5000     2.3760   101.5940     5.6440     4.4050     6.1280    23.1220   -15.9700 
  113.6250     2.3730    98.7330     5.8300     4.5840     6.5890    23.2240   -15.9710 
  113.7500     2.3650    99.5310     5.9650     4.7380     7.1540    23.3410   -15.9970 
  113.8750     2.3550   102.7700     5.9930     4.8100     7.1680    23.4950   -16.0430 
  114.0000     2.3470   103.3150     5.9130     4.7870     6.5810    23.6130   -16.0950 
  114.1250     2.3360   101.2570     5.7350     4.6730     5.5570    23.6150   -16.1610 
  114.2500     2.3250   101.1060     5.4910     4.4990     4.6570    23.4540   -16.2230 
  114.3750     2.3180   102.1790     5.2280     4.3030     4.4130    23.2630   -16.2840 
  114.5000     2.3170   100.2610     4.9910     4.1190     4.4540    23.1650   -16.3450 
  114.6250     2.3250    98.7780     4.7950     3.9590     4.5480    23.2020   -16.3970 
  114.7500     2.3410   102.1640     4.6430     3.8280     4.4480    23.3680   -16.4180 
  114.8750     2.3600   107.4000     4.5630     3.7440     4.2900    23.5750   -16.3880 
  115.0000     2.3740   109.9390     4.5820     3.7250     4.2080    23.6970   -16.3120 
  115.1250     2.3760   111.2910     4.7320     3.7960     4.2440    23.7480   -16.1990 
  115.2500     2.3700   111.9790     5.0160     3.9660     4.3200    23.7430   -16.0770 
  115.3750     2.3620   109.3120     5.3900     4.2120     4.5110    23.6830   -15.9470 
  115.5000     2.3540   108.4680     5.7180     4.4460     4.8570    23.6140   -15.8200 
  115.6250     2.3410   111.6080     5.8770     4.5800     5.2920    23.5780   -15.7030 
  115.7500     2.3230   113.3980     5.7850     4.5480     5.2410    23.5880   -15.6070 
  115.8750     2.3110   109.2020     5.4280     4.3290     4.8770    23.5960   -15.5640 
  116.0000     2.3130   104.3480     4.9990     4.0430     4.5750    23.5560   -15.5940 
  116.1250     2.3210   100.5020     4.6940     3.8130     4.5190    23.5260   -15.7070 
  116.2500     2.3300    97.1070     4.7060     3.7630     4.5880    23.5610   -15.8750 
  116.3750     2.3420    96.8500     5.3050     4.0720     4.9630    23.6690   -16.1120 
  116.5000     2.3690    98.6160     6.5710     4.8360     6.3780    23.8500   -16.4030 
  116.6250     2.4150    97.3090     8.6010     6.2100     9.7590    24.0550   -16.7820 
  116.7500     2.4740    90.2850    11.3740     8.3060    14.4920    24.1760   -17.2420 
  116.8750     2.5240    79.6210    14.5100    11.0350    18.1550    24.2780   -17.7840 
  117.0000     2.5430    71.1670    16.8780    13.4870    22.1290    24.3840   -18.3560 
  117.1250     2.5280    66.5600    17.3680    14.5820    26.2690    24.4360   -18.9010 
  117.2500     2.4870    67.2340    15.8100    13.8690    24.6370    24.4610   -19.3660 
  117.3750     2.4190    67.9320    13.2830    11.9750    16.7930    24.5060   -19.6990 
  117.5000     2.3450    65.9480    11.1320    10.1100    11.3210    24.5900   -19.8640 
  117.6250     2.2920    63.9830     9.7220     8.7050     9.2910    24.7090   -19.8270 
  117.7500     2.2750    61.9790     9.0390     7.8530     8.6990    24.8470   -19.5980 
  117.8750     2.2980    60.4860     8.9920     7.5780     8.2690    24.8260   -19.1890 
  118.0000     2.3350    59.3310     9.2500     7.6640     7.8080    24.6710   -18.6770 
  118.1250     2.3640    58.7120     9.6090     7.9610     7.6240    24.6030   -18.1140 
  118.2500     2.3750    59.4270     9.9620     8.3590     7.9320    24.7150   -17.5540 
  118.3750     2.3730    60.8480    10.3920     8.8680     8.6820    24.8970   -17.0330 
