~V
VERS. 2.00: Ver 2.00
~W
STRT.M 63.0000:
STOP.M 244.0000:
STEP.M 0.1250:
NULL. -999.2500:
UWI. F11131:
~C
DEPT.M :
SP.MV :
DEN.GM/CC :
GR.API :
RML.OHMM :
RI. :
RXO.OHMM :
CALI.CM :
~A
# ...
  119.2500   -26.0530     2.1650    67.0770    12.5450     9.9620    11.5820    23.9720 
  119.3750   -26.4570     2.1530    65.7790    13.4830    10.8280    12.5490    23.9400 
  119.5000   -26.7640     2.1490    66.6730    13.9480    11.4350    14.3550    23.8370 
  119.6250   -26.9790     2.1480    69.7790    13.6990    11.5420    15.3070    23.7340 
  119.7500   -27.1030     2.1510    71.5080    13.0650    11.2940    14.8790    23.6750 
  119.8750   -27.1070     2.1550    70.8870    12.4390    10.9320    13.4230    23.6410 
  120.0000   -27.0020     2.1600    70.6460    12.3260    10.8590    13.1270    23.6350 
  120.1250   -26.7960     2.1690    72.6000    12.1340    10.6670    11.3750    23.6140 
  120.2500   -26.5080     2.1920    78.4120    12.2660    10.6590    10.5110    23.6140 
  120.3750   -26.1780     2.2340    83.3810    12.4440    10.6880    10.8430    23.6230 
  120.5000   -25.8300     2.2880    87.0990    12.2720    10.4990    12.8160    23.6250 
  120.6250   -25.4730     2.3250    89.9520    11.3510     9.7890    13.6080    23.6200 
  120.7500   -25.1400     2.3340    90.2080     9.9280     8.6930    10.6070    23.6170 
  120.8750   -24.8850     2.3190    88.4830     8.4320     7.4870     7.5550    23.6180 
  121.0000   -24.7250     2.3020    86.3310     7.2880     6.4800     6.7110    23.6210 
  121.1250   -24.6640     2.3020    82.6550     6.8850     5.9940     6.2150    23.6220 
  121.2500   -24.6950     2.3160    75.9120     7.2110     6.0730     5.8480    23.6230 
  121.3750   -24.8080     2.3280    68.9870     8.2670     6.7510     6.1040    23.6250 
  121.5000   -24.9940     2.3190    64.1160    10.0190     8.0220     6.5880    23.6260 
  121.6250   -25.2520     2.2910    63.4150    10.4890     8.3860     6.6870    23.6260 
  121.7500   -25.5370     2.2540    60.3430    12.9610    10.3420     7.6140    23.6260 
  121.8750   -25.8220     2.2130    58.9510    15.6130    12.5890    10.0410    23.6250 
  122.0000   -26.0800     2.1720    59.7120    17.9220    14.7420    13.8480    23.6230 
  122.1250   -26.2890     2.1380    61.6570    19.0420    16.0900    16.4390    23.6280 
  122.2500   -26.4220     2.1160    63.0690    18.7830    16.3200    18.8810    23.6280 
  122.3750   -26.4820     2.1170    64.5260    17.3640    15.5060    20.6780    23.5800 
  122.5000   -26.4650     2.1550    66.6070    15.3300    14.0430    21.3620    23.4470 
  122.6250   -26.3550     2.2120    68.7270    13.2790    12.3940    19.6680    23.2750 
  122.7500   -26.1810     2.2590    68.8000    11.6180    10.9460    16.7160    23.1580 
  122.8750   -25.9340     2.2750    66.4220    10.5110     9.8740    13.3370    23.1180 
  123.0000   -25.6290     2.2580    63.5650     9.9560     9.2250    10.7150    23.1190 
  123.1250   -25.2930     2.2310    62.6640     9.8740     9.0120    10.1090    23.1220 
  123.2500   -24.9570     2.2070    63.4240     9.9380     9.0040    10.0280    23.1220 
  123.3750   -24.6120     2.1910    67.1200    10.1810     9.0780     9.5180    23.1180 
  123.5000   -24.2550     2.1870    71.6320    10.4590     9.2440     8.9870    23.1120 
  123.6250   -23.8860     2.1970    72.4700    10.4840     9.2800    10.1440    23.1120 
  123.7500   -23.4950     2.2270    69.1850    10.1520     9.0700    10.8600    23.1160 
  123.8750   -23.0770     2.2750    64.4340     9.5500     8.6500    10.1430    23.1180 
  124.0000   -22.6260     2.3300    61.6730     8.9400     8.1880     9.2330    23.1180 
  124.1250   -22.1530     2.3820    60.6070     8.7720     7.9960     9.0060    23.1160 
  124.2500   -21.6830     2.4240    59.0540     9.3170     8.2850     8.5140    23.1130 
  124.3750   -21.2360     2.4570    56.2840    10.7390     9.2020     7.6270    23.1110 
  124.5000   -20.8250     2.4820    54.5310    13.0190    10.8000     7.6650    23.1120 
  124.6250   -20.4410     2.4970    55.7620    15.8270    12.9700     9.4890    23.1150 
  124.7500   -20.0930     2.4940    56.5440    17.4600    14.3210    11.3830    23.1170 
  124.8750   -19.8000     2.4720    56.1060    18.6590    15.4370    14.0270    23.1180 
  125.0000   -19.5620     2.4400    54.2640    19.7770    16.6680    16.6030    23.1190 
  125.1250   -19.3850     2.4140    53.3160    19.5850    16.8200    16.3320    23.1170 
  125.2500   -19.2410     2.4010    54.5290    18.9980    16.5160    15.4520    23.1180 
  125.3750   -19.1160     2.4000    55.5340    18.6240    16.2360    14.2350    23.1250 
  125.5000   -19.0190     2.4050    54.9520    18.7360    16.2480    13.6540    23.1310 
  125.6250   -18.9790     2.4120    53.2840    19.4060    16.6710    14.1490    23.1250 
  125.7500   -18.9730     2.4210    51.2520    20.4310    17.3870    14.6620    23.1220 
  125.8750   -19.0080     2.4360    49.6750    21.6820    18.3120    14.8590    23.1400 
  126.0000   -19.0920     2.4590    48.2150    22.9680    19.3200    15.0570    23.1680 
  126.1250   -19.2020     2.4850    48.2210    23.8840    20.1370    15.3600    23.1740 
  126.2500   -19.3210     2.5110    48.2710    24.1310    20.5060    16.0710    23.1570 
  126.3750   -19.4300     2.5370    48.2200    24.0730    20.5410    16.3580    23.1470 
  126.5000   -19.5250     2.5510    48.3680    23.4540    20.2210    17.2870    23.1280 
  126.6250   -19.5880     2.5200    49.4090    22.2010    19.3960    15.5780    23.1170 
  126.7500   -19.6110     2.4300    51.1200    20.8630    18.4270    13.7730    23.1050 
  126.8750   -19.5740     2.2980    51.9760    19.8270    17.6190    12.4540    23.1370 
  127.0000   -19.4700     2.1650    50.0550    19.3580    17.2020    11.2370    23.5250 
  127.1250   -19.3080     2.0660    48.2600    19.6220    17.3490    10.8890    24.7450 
  127.2500   -19.1010     2.0260    49.5040    20.3630    17.9060    12.0130    26.4290 
  127.3750   -18.8610     2.0630    52.9860    21.2970    18.6840    14.1200    27.7250 
  127.5000   -18.5790     2.1850    56.2580    22.0460    19.3980    16.9640    27.8260 
  127.6250   -18.2860     2.3360    57.0610    22.1520    19.6610    20.7410    26.6830 
  127.7500   -18.0240     2.4590    56.3170    21.6350    19.4120    23.3100    25.4470 
  127.8750   -17.8070     2.5180    54.0170    20.7040    18.7610    22.6390    24.7740 
  128.0000   -17.6390     2.5090    51.0760    19.6510    17.9240    19.8080    24.6620 
  128.1250   -17.4970     2.4600    49.3200    18.7430    17.1280    17.3700    24.8380 
  128.2500   -17.3770     2.3850    47.6280    18.0390    16.4800    16.6900    25.3560 
  128.3750   -17.2840     2.3010    46.2550    17.5030    15.9960    16.2180    26.6240 
  128.5000   -17.2240     2.2340    45.8080    17.0880    15.6510    15.9360    28.6850 
  128.6250   -17.1740     2.2080    46.4720    16.8070    15.4500    15.7030    30.6830 
  128.7500   -17.0990     2.2410    46.8310    16.6760    15.3770    15.3670    31.6260 
  128.8750   -17.0060     2.3350    47.1090    16.7300    15.4490    14.6670    31.3630 
  129.0000   -16.9010     2.4480    46.9050    16.9870    15.6820    14.0740    30.3460 
  129.1250   -16.8240     2.5120    46.5240    17.0730    15.7580    14.0440    30.0960 
  129.2500   -16.7940     2.5140    44.3820    17.5340    16.1700    13.9120    28.9110 
  129.3750   -16.8180     2.4800    43.3820    17.7360    16.3530    13.8700    28.4780 
  129.5000   -16.8880     2.4420    42.6080    18.1330    16.7300    13.4960    28.0350 
  129.6250   -17.0070     2.4110    43.3230    18.4830    17.1050    13.9390    28.3780 
  129.7500   -17.1910     2.3880    43.9790    18.5820    17.2860    15.0310    29.3700 
  129.8750   -17.3920     2.3670    44.9490    18.4010    17.2280    15.8220    30.3760 
  130.0000   -17.5780     2.3450    47.3810    18.0190    16.9730    16.5370    31.0200 
  130.1250   -17.7290     2.3280    49.5110    17.6240    16.6560    16.7800    31.4150 
  130.2500   -17.8280     2.3230    49.6720    17.4070    16.4390    16.3880    31.6760 
  130.3750   -17.8820     2.3310    48.5320    17.4490    16.4030    15.6710    31.6830 
