~V
VERS. 2.00: Ver 2.00
~W
STRT.M 63.0000:
STOP.M 208.0000:
STEP.M 0.1250:
NULL. -999.2500:
UWI. F11108:
~C
DEPT.M :
GR.API :
RML.OHMM :
RI. :
RXO.OHMM :
CALI.CM :
SP.MV :
DEN.GM/CC :
~A
# ...
   74.2500    81.0420    17.9490    13.3470    30.4220    23.3840   -18.8870     2.3910 
   74.3750    85.9190    20.6550    16.3980    55.5660    23.6710   -17.8160     2.4990 
   74.5000    88.9390    20.4620    17.4460    60.3690    23.7590   -16.6960     2.5820 
   74.6250    92.0210    16.8820    15.4480    40.7220    23.6870   -15.5100     2.6060 
   74.7500    98.9790    12.2740    12.0100    20.4270    23.6530   -14.3460     2.5780 
   74.8750   106.9120     8.3580     8.6670     9.0860    23.7540   -13.3380     2.5150 
   75.0000   112.4310     5.8150     6.2670     5.2610    24.1450   -12.5880     2.4420 
   75.1250   118.1870     4.6430     4.9990     4.5490    24.4970   -12.1120     2.3830 
   75.2500   125.1020     4.2520     4.4020     4.5810    24.6480   -11.8010     2.3440 
   75.3750   128.6130     4.3180     4.2300     4.7970    24.6210   -11.6590     2.3210 
   75.5000   123.6080     4.5410     4.2940     5.1430    24.4350   -11.6910     2.3070 
   75.6250   114.6280     4.7250     4.4510     5.7330    24.1940   -11.9630     2.3010 
   75.7500   109.5880     4.8490     4.6010     5.7360    24.1200   -12.4360     2.3030 
   75.8750   108.1480     4.9510     4.7350     5.2470    24.1770   -13.0640     2.3100 
   76.0000   105.7390     5.0900     4.8800     4.9230    24.2140   -13.7910     2.3170 
   76.1250    97.9390     5.3130     5.0720     5.4370    24.1860   -14.6940     2.3110 
   76.2500    89.4930     5.5860     5.3030     6.5270    24.2630   -15.7650     2.2880 
   76.3750    83.9890     5.8530     5.5380     7.3650    24.6380   -16.8910     2.2560 
   76.5000    81.5250     6.0530     5.7240     7.5640    25.1230   -18.0020     2.2250 
   76.6250    79.2560     6.1260     5.7970     7.5260    25.2140   -19.0210     2.2050 
   76.7500    75.1270     6.0950     5.7610     7.5100    25.2380   -19.9280     2.1890 
   76.8750    70.7870     5.9950     5.6460     7.5740    25.7140   -20.7200     2.1650 
   77.0000    68.6310     5.8720     5.4920     7.4550    26.7360   -21.4080     2.1280 
   77.1250    70.2410     5.7620     5.3400     7.2230    27.7090   -21.9140     2.0880 
   77.2500    72.0880     5.6800     5.2080     7.0860    28.1280   -22.2200     2.0680 
   77.3750    71.0180     5.6300     5.0960     6.8710    27.9080   -22.3830     2.0740 
   77.5000    66.9970     5.6130     5.0070     6.4460    27.3860   -22.4940     2.0950 
   77.6250    64.4190     5.6450     4.9540     6.2580    27.2800   -22.6620     2.0980 
   77.7500    64.5620     5.7280     4.9460     6.2740    27.6590   -22.9090     2.0660 
   77.8750    65.8550     5.8670     4.9950     6.3730    28.0950   -23.1700     2.0090 
   78.0000    67.2550     6.0570     5.1020     6.5680    27.9240   -23.3550     1.9600 
   78.1250    68.2880     6.2800     5.2640     7.0870    26.6430   -23.4190     1.9570 
   78.2500    68.7830     6.4980     5.4460     7.6100    25.0820   -23.4430     1.9990 
   78.3750    68.6320     6.6890     5.6210     7.8130    24.0990   -23.5040     2.0610 
   78.5000    69.1720     6.8380     5.7660     8.0220    23.7730   -23.5690     2.1150 
   78.6250    71.1530     6.9440     5.8650     8.5030    23.7350   -23.5240     2.1430 
   78.7500    73.0610     7.0260     5.9270     8.6820    23.7100   -23.3700     2.1500 
   78.8750    73.4990     7.0890     5.9590     8.6190    23.7120   -23.1750     2.1460 
   79.0000    71.7470     7.1250     5.9650     8.3790    23.7410   -22.9950     2.1390 
   79.1250    68.2340     7.1000     5.9310     8.3670    23.7550   -22.8190     2.1310 
   79.2500    67.5100     6.9980     5.8530     8.5340    23.7500   -22.5710     2.1260 
   79.3750    71.0800     6.8190     5.7260     8.6650    23.7350   -22.2030     2.1280 
   79.5000    74.1550     6.5880     5.5590     8.5480    23.7310   -21.7860     2.1370 
   79.6250    72.1610     6.3570     5.3790     8.2190    23.6540   -21.4540     2.1530 
   79.7500    69.4980     6.1790     5.2250     7.8930    23.4790   -21.2160     2.1670 
   79.8750    70.7410     6.0900     5.1310     7.8300    23.2670   -21.0330     2.1750 
   80.0000    74.6330     6.1000     5.1140     8.0130    23.1090   -20.8890     2.1770 
   80.1250    75.7430     6.2100     5.1890     8.1070    23.0410   -20.8250     2.1750 
   80.2500    72.7430     6.3720     5.3240     8.0830    23.0320   -20.8800     2.1740 
   80.3750    68.0920     6.5460     5.4890     8.0260    23.0810   -21.0220     2.1730 
   80.5000    67.7050     6.6870     5.6480     7.9470    23.1460   -21.1390     2.1690 
   80.6250    73.7840     6.7220     5.7390     7.9300    23.2270   -21.0080     2.1600 
   80.7500    78.4990     6.6120     5.7210     7.9310    23.3810   -20.5440     2.1510 
   80.8750    78.4340     6.3400     5.5630     7.9430    23.5420   -19.7690     2.1530 
   81.0000    79.0850     5.9300     5.2700     7.8720    23.6650   -18.7410     2.1710 
   81.1250    86.7280     5.4570     4.8790     7.2210    23.8820   -17.4790     2.2060 
   81.2500    98.5330     5.0360     4.4870     5.9860    24.2170   -16.0920     2.2460 
   81.3750   109.9540     4.7370     4.1610     5.1450    24.5050   -14.6820     2.2800 
   81.5000   115.4900     4.5780     3.9390     4.8680    24.5710   -13.3570     2.3010 
   81.6250   113.0330     4.5600     3.8450     4.9120    24.3680   -12.3460     2.3040 
   81.7500   108.8090     4.6480     3.8570     5.1510    23.9880   -11.7890     2.2950 
   81.8750   106.5160     4.8720     3.9870     5.5850    23.5780   -11.6760     2.2780 
   82.0000   103.5110     5.3080     4.2770     5.8230    23.3400   -11.8800     2.2600 
   82.1250    96.6580     6.0830     4.8330     5.8350    23.3210   -12.3700     2.2510 
   82.2500    89.4850     7.1160     5.6400     6.4980    23.4210   -13.0090     2.2570 
   82.3750    83.4240     8.2080     6.6060     8.4650    23.5810   -13.6490     2.2820 
   82.5000    78.6820     9.0110     7.4890    12.0190    23.6680   -14.1870     2.3180 
   82.6250    77.0980     9.0370     7.8540    15.2390    23.5950   -14.4940     2.3460 
   82.7500    80.6710     8.3200     7.5740    12.3240    23.4700   -14.4650     2.3550 
   82.8750    89.3160     7.1390     6.7730     8.4580    23.3710   -14.0930     2.3440 
   83.0000    99.1280     5.9220     5.7650     6.1510    23.4180   -13.4920     2.3240 
   83.1250   105.1280     5.0790     4.9100     5.1230    23.5330   -12.7130     2.3040 
   83.2500   108.8490     4.6540     4.3450     4.6840    23.7050   -11.8710     2.2910 
   83.3750   111.4210     4.5650     4.0690     4.6890    23.8490   -11.0520     2.2810 
   83.5000   114.0450     4.6840     4.0160     4.9300    23.9610   -10.3060     2.2740 
   83.6250   117.9640     4.8930     4.1180     5.1360    24.1370    -9.6560     2.2750 
   83.7500   123.1090     5.0980     4.2740     5.1860    24.3630    -9.1640     2.2860 
   83.8750   125.6350     5.2660     4.4410     5.2810    24.4930    -8.9160     2.3040 
   84.0000   124.9010     5.3990     4.5970     5.3640    24.5290    -8.8960     2.3230 
   84.1250   122.3870     5.5190     4.7390     5.6050    24.5290    -9.0350     2.3310 
   84.2500   118.0310     5.6600     4.8820     5.8900    24.5290    -9.2130     2.3240 
   84.3750   110.6620     5.8430     5.0440     6.1360    24.5280    -9.4190     2.2960 
   84.5000   101.5250     6.0780     5.2360     6.3520    24.4750    -9.6770     2.2500 
   84.6250    95.0470     6.3840     5.4750     6.5170    24.1820   -10.0220     2.1990 
   84.7500    93.5010     6.7500     5.7570     6.8760    23.7220   -10.3790     2.1660 
   84.8750    95.3910     7.1650     6.0770     7.1320    23.5060   -10.6120     2.1680 
   85.0000    98.0140     7.5900     6.4190     6.9940    23.6440   -10.7020     2.2070 
   85.1250    99.6180     7.9430     6.7310     6.8060    23.8470   -10.7070     2.2700 
   85.2500   100.6190     8.1530     6.9530     7.1060    23.8160   -10.7180     2.3260 
   85.3750    99.1120     8.1780     7.0370     7.5060    23.4830   -10.7600     2.3560 
