~V
VERS. 2.00: Ver 2.00
~W
STRT.M 60.0000:
STOP.M 282.0000:
STEP.M 0.1250:
NULL. -999.2500:
UWI. F11159:
~C
DEPT.M :
GR.API :
RML.OHMM :
RI. :
RXO.OHMM :
CALI.CM :
SP.MV :
DEN.GM/CC :
~A
   60.0000    56.2240     0.0660     0.0480     1.4790    25.6080    76.7880     2.4550 
   60.1250    57.5720     0.0460     0.0480     1.7230    25.5650    70.8010     2.3510 
   60.2500    61.5010     0.0900     0.0780     2.0370    25.3980    63.1620     2.2260 
   60.3750    66.6320     0.2050     0.1810     2.7380    25.3960    54.0080     2.1060 
   60.5000    68.5860     0.4530     0.4430     4.7220    28.3490    43.8720     2.0040 
   60.6250    68.6240     1.1360     1.0600     6.3950    33.7150    33.4080     1.9240 
   60.7500    72.0630     2.5770     2.0800     7.3030    36.8680    23.1050     1.8540 
   60.8750    77.4880     4.4210     3.3160     7.0350    38.6570    13.3420     1.7920 
   61.0000    79.8490     5.3980     4.3040     6.2820    40.3770     4.5530     1.7460 
   61.1250    79.0420     5.2720     4.7180     5.9870    41.7160    -2.5050     1.7430 
   61.2500    80.1700     5.0150     4.8620     5.9090    41.6810    -7.7640     1.7920 
   61.3750    84.2220     4.8290     4.9420     5.8070    39.5010   -11.3010     1.8880 
   61.5000    88.7070     4.6270     5.0080     5.6430    34.1780   -13.6050     2.0100 
   61.6250    93.6820     4.4320     5.0530     5.6130    28.4600   -15.2080     2.1230 
   61.7500    99.9400     4.4080     5.1530     5.8240    25.6540   -16.4860     2.2100 
   61.8750   102.7250     4.6320     5.4130     6.0620    25.1820   -17.5520     2.2770 
   62.0000    99.3290     5.1000     5.9110     6.0220    25.1250   -18.5240     2.3320 
   62.1250    94.6650     5.7980     6.6750     7.1270    25.0290   -19.5020     2.3610 
   62.2500    92.9870     6.5940     7.5270    10.4810    24.8080   -20.5470     2.3540 
   62.3750    92.3360     7.3030     8.2450    14.9230    24.4920   -21.7030     2.3190 
   62.5000    90.8310     7.7170     8.6270    14.5580    24.3720   -23.0160     2.2810 
   62.6250    89.2990     7.7730     8.5920    10.1930    24.3090   -24.4860     2.2640 
   62.7500    85.8300     7.7150     8.3720     9.3250    24.2450   -26.0130     2.2610 
   62.8750    80.7840     7.6970     8.1480     9.8610    24.0700   -27.5630     2.2530 
   63.0000    77.9270     7.7600     8.0230    10.5360    23.6890   -29.1080     2.2270 
   63.1250    80.5400     7.8480     7.9980    10.0900    23.5830   -30.5920     2.1860 
   63.2500    83.3470     7.8740     7.9820     9.3320    23.4560   -31.9950     2.1500 
   63.3750    81.6910     7.8350     7.9380     9.3430    23.2430   -33.2690     2.1300 
   63.5000    77.6540     7.7840     7.8860     9.6920    23.0660   -34.3750     2.1260 
   63.6250    78.1170     7.8080     7.8890     9.7680    22.7270   -35.2130     2.1320 
   63.7500    81.1240     7.9250     7.9690     9.5590    22.4700   -35.8700     2.1350 
   63.8750    80.7200     8.1130     8.1100     9.7720    22.4100   -36.3720     2.1330 
   64.0000    75.8510     8.3210     8.2700    10.1220    22.3980   -36.7370     2.1280 
   64.1250    72.8990     8.4720     8.3850    10.4010    22.3740   -36.9060     2.1250 
   64.2500    73.2050     8.5110     8.4010    10.4900    22.3250   -36.8710     2.1280 
   64.3750    73.6770     8.4200     8.2870    10.2670    22.3170   -36.6990     2.1400 
   64.5000    72.9520     8.2330     8.0590     9.7600    22.3170   -36.4200     2.1540 
   64.6250    72.1880     8.0130     7.7760     9.2950    22.3330   -36.0930     2.1650 
   64.7500    75.3410     7.8090     7.5030     8.8930    22.3870   -35.7700     2.1690 
   64.8750    81.3070     7.6360     7.2570     8.7310    22.5170   -35.4740     2.1690 
   65.0000    85.5440     7.5160     7.0540     9.4580    22.6450   -35.2600     2.1710 
   65.1250    85.6880     7.5140     6.9340     9.2590    22.7950   -35.2100     2.1840 
   65.2500    86.8590     7.6740     6.9310     8.6540    23.0160   -35.3390     2.2050 
   65.3750    88.8130     8.0330     7.0810     8.3520    23.2960   -35.5930     2.2250 
   65.5000    85.6510     8.5900     7.4020     8.4970    23.6970   -36.0050     2.2330 
   65.6250    79.2640     9.2990     7.8910     8.7940    23.9810   -36.5430     2.2210 
   65.7500    76.1210    10.0160     8.4420     9.4150    24.0210   -37.1790     2.2010 
   65.8750    75.2820    10.6330     8.9650    10.2410    23.9800   -37.9070     2.1840 
   66.0000    72.1930    11.1070     9.4010    10.8150    23.8860   -38.6780     2.1820 
   66.1250    68.0140    11.4790     9.7490    11.0560    23.7860   -39.4580     2.1970 
   66.2500    67.7150    11.8490    10.0840    11.3490    23.6800   -40.1820     2.2140 
   66.3750    69.0350    12.2310    10.4420    12.3210    23.5370   -40.8840     2.2220 
   66.5000    68.6100    12.5610    10.7990    15.3070    23.4400   -41.4920     2.2140 
   66.6250    66.0780    12.6870    11.0380    14.7700    23.4650   -42.0120     2.1900 
   66.7500    64.4140    12.5550    11.0630    13.8940    23.6290   -42.4440     2.1620 
   66.8750    64.5640    12.1930    10.8440    13.4930    23.8200   -42.7890     2.1390 
   67.0000    65.0530    11.6940    10.4290    13.5090    24.0430   -43.0540     2.1250 
   67.1250    64.8150    11.1630     9.9090    13.4100    24.1840   -43.2490     2.1200 
   67.2500    65.0470    10.6860     9.4000    13.2910    24.2470   -43.3810     2.1200 
   67.3750    65.5650    10.2960     8.9540    12.6960    24.3210   -43.4610     2.1220 
   67.5000    64.7420     9.9960     8.5810    12.5570    24.4210   -43.4940     2.1270 
   67.6250    63.4510     9.7830     8.2820    12.3710    24.7440   -43.4550     2.1330 
   67.7500    62.7050     9.6470     8.0480    11.8880    25.3310   -43.3810     2.1400 
   67.8750    63.3960     9.6220     7.9100    11.3970    25.9230   -43.3010     2.1450 
   68.0000    63.4750     9.7600     7.9080    11.0750    26.3460   -43.2130     2.1430 
   68.1250    63.0880    10.1580     8.1220    10.9200    26.6130   -43.1410     2.1300 
   68.2500    64.3740    10.7780     8.5350    11.0860    26.6900   -43.1060     2.1110 
   68.3750    66.5250    11.5190     9.1000    12.0280    26.6580   -43.0530     2.0930 
   68.5000    68.1530    12.1940     9.6950    14.5570    26.4620   -43.0240     2.0820 
   68.6250    66.9110    12.5130    10.0950    18.3170    25.8300   -43.0160     2.0820 
   68.7500    62.8930    12.3960    10.1800    19.0090    25.2770   -43.0210     2.0870 
   68.8750    59.3480    11.9040     9.9410    15.9440    25.1950   -42.9840     2.0910 
   69.0000    58.6170    11.2330     9.4860    13.0460    25.3140   -42.9560     2.0900 
   69.1250    60.9620    10.6390     8.9820    11.7510    25.5010   -42.8450     2.0870 
   69.2500    62.5110    10.2490     8.5620    11.1750    25.6290   -42.6910     2.0850 
   69.3750    62.2960    10.0740     8.2750    10.8920    25.7330   -42.5410     2.0850 
   69.5000    62.0530    10.0650     8.1230    10.7890    25.9090   -42.3640     2.0890 
   69.6250    63.9570    10.1610     8.0940    10.9020    26.1060   -42.1740     2.0970 
   69.7500    67.4380    10.3190     8.1470    10.9590    26.2190   -41.9860     2.1120 
   69.8750    68.6980    10.5780     8.2950    10.9710    26.3070   -41.7980     2.1310 
   70.0000    66.0520    10.9790     8.5630    11.0330    26.4670   -41.6200     2.1510 
   70.1250    62.6430    11.5010     8.9540    11.2190    26.5800   -41.4840     2.1660 
   70.2500    60.6580    11.9920     9.3660    11.5220    26.6680   -41.3570     2.1720 
   70.3750    60.7100    12.2970     9.6850    13.0740    26.6650   -41.2260     2.1690 
   70.5000    63.1520    12.3130     9.8140    16.3720    26.5330   -41.1190     2.1580 
   70.6250    64.4990    12.0340     9.7050    19.4570    25.8950   -41.0490     2.1420 
   70.7500    61.2930    11.6750     9.4880    15.3810    25.3580   -41.0000     2.1240 
   70.8750    57.3170    11.3890     9.2650    13.4370    25.2050   -41.0160     2.1060 
   71.0000    58.3000    11.2410     9.0990    15.8550    25.1290   -41.0160     2.0920 
   71.1250    62.4670    11.2100     9.0060    15.9900    25.0920   -41.0520     2.0840 
