~V
VERS. 2.00: Ver 2.00
~W
STRT.M 53.0000:
STOP.M 212.0000:
STEP.M 0.1250:
NULL. -999.2500:
UWI. F11124:
~C
DEPT.M :
SP.MV :
DEN.GM/CC :
GR.API :
RML.OHMM :
RI. :
RXO.OHMM :
CALI.CM :
~A
# ...
  154.2500   -10.8390     2.2290    72.6530    15.2110    12.6280    13.3270    28.2040 
  154.3750   -10.7800     2.2300    70.5590    14.9600    12.5340    12.7840    28.0940 
  154.5000   -10.7000     2.2300    66.7000    14.5150    12.2230    11.9620    27.9550 
  154.6250   -10.6070     2.2320    65.4540    14.1090    11.8810    11.3060    27.8180 
  154.7500   -10.5090     2.2360    65.8960    13.8880    11.6630    11.0290    27.7280 
  154.8750   -10.4100     2.2440    67.4950    13.8690    11.6190    11.1240    27.6860 
  155.0000   -10.3180     2.2500    73.1150    13.9810    11.7200    11.4380    27.6730 
  155.1250   -10.2510     2.2510    81.3010    14.0750    11.8720    11.5940    27.6650 
  155.2500   -10.1910     2.2490    82.9580    14.0160    11.9450    11.5950    27.6570 
  155.3750   -10.1530     2.2470    76.2820    13.7500    11.8690    11.4230    27.6440 
  155.5000   -10.1550     2.2470    68.9650    13.3000    11.6360    11.0540    27.6190 
  155.6250   -10.1850     2.2530    68.7690    12.7170    11.2680    10.5140    27.6040 
  155.7500   -10.2510     2.2610    69.8590    12.0660    10.8180     9.9440    27.6070 
  155.8750   -10.3500     2.2680    69.1670    11.3560    10.2980     9.5210    27.6240 
  156.0000   -10.4630     2.2730    68.9910    10.6160     9.7280     9.2240    27.6300 
  156.1250   -10.5720     2.2820    72.0710     9.9420     9.1800     8.7020    27.5960 
  156.2500   -10.6960     2.2930    75.2530     9.4440     8.7470     8.0130    27.5500 
  156.3750   -10.8300     2.3050    76.4060     9.2110     8.5070     7.4570    27.5100 
  156.5000   -10.9480     2.3120    76.8210     9.2870     8.5110     7.3670    27.4980 
  156.6250   -11.0550     2.3120    76.8160     9.6840     8.8100     7.9630    27.5350 
  156.7500   -11.1590     2.3070    76.2910    10.2360     9.2950     8.6300    27.6070 
  156.8750   -11.2450     2.2970    75.8690    10.7760     9.8400     9.0550    27.7530 
  157.0000   -11.3160     2.2860    73.0310    11.1330    10.2810     9.2240    27.8650 
  157.1250   -11.3930     2.2810    68.2850    11.1500    10.4290     9.2870    27.9570 
  157.2500   -11.4610     2.2790    69.3010    10.9110    10.3050     9.1620    28.0860 
  157.3750   -11.5010     2.2780    75.2820    10.5480    10.0080     8.8140    28.2180 
  157.5000   -11.5260     2.2770    77.5660    10.2300     9.6850     8.4090    28.2980 
  157.6250   -11.5630     2.2750    71.8180    10.1750     9.5350     8.3540    28.3400 
  157.7500   -11.5850     2.2720    68.3990    10.4880     9.6730     8.7550    28.3850 
  157.8750   -11.6070     2.2710    71.6270    11.2450    10.1870     9.7840    28.4600 
  158.0000   -11.6690     2.2710    75.9720    12.4730    11.1330    11.2680    28.5370 
  158.1250   -11.7900     2.2690    75.2260    14.1550    12.5720    13.4500    28.6300 
  158.2500   -11.9480     2.2660    70.1270    16.0170    14.3040    15.7080    28.7440 
  158.3750   -12.1650     2.2660    63.5360    17.7930    16.1030    17.2720    28.8370 
  158.5000   -12.4590     2.2680    60.8730    19.2260    17.7030    17.9160    28.8760 
  158.6250   -12.7920     2.2710    65.4450    20.0380    18.7690    18.2600    28.8590 
  158.7500   -13.1650     2.2720    68.5740    20.3030    19.2810    18.4180    28.8270 
  158.8750   -13.5930     2.2700    65.7670    20.1560    19.3210    18.2680    28.7740 
  159.0000   -14.0600     2.2670    62.6650    19.7950    19.0560    18.0000    28.7370 
  159.1250   -14.5610     2.2630    66.1060    19.4730    18.6880    17.6550    28.7230 
  159.2500   -15.0930     2.2630    71.0410    19.4590    18.4740    17.1070    28.7130 
  159.3750   -15.6570     2.2620    72.6480    20.0250    18.6520    17.1680    28.6680 
  159.5000   -16.2420     2.2600    71.8040    21.4800    19.4840    18.5050    28.6170 
  159.6250   -16.8530     2.2600    70.2870    25.6820    21.5130    22.3950    28.6630 
  159.7500   -17.5060     2.2640    68.1880    34.5570    25.0550    29.4920    28.9330 
  159.8750   -18.1830     2.2690    64.8270    42.9840    30.6920    40.2770    29.2270 
  160.0000   -18.8440     2.2750    58.9940    54.6510    39.0560    54.8410    29.4180 
  160.1250   -19.4700     2.2820    52.3690    70.0250    50.9110    74.5710    29.4940 
  160.2500   -20.0910     2.2880    48.5960    87.0280    64.7460    95.2150    29.5610 
  160.3750   -20.6690     2.2890    47.6180   102.4390    78.1210   110.0740    29.6500 
  160.5000   -21.1840     2.2760    48.4140   112.2400    87.8970   115.6620    29.7580 
  160.6250   -21.6290     2.2520    49.7740   112.8920    90.9340   114.5150    29.8920 
  160.7500   -21.9910     2.2310    51.3000   107.6860    88.9090   106.2300    30.0060 
  160.8750   -22.2850     2.2180    55.3520   100.2520    84.2260    89.3920    30.0950 
  161.0000   -22.5540     2.2090    60.8590    93.3470    79.1640    71.7200    30.1650 
  161.1250   -22.8320     2.2020    63.5570    88.6080    75.3660    64.9940    30.2030 
  161.2500   -23.0950     2.1980    62.1200    85.8700    73.1200    66.3000    30.2650 
  161.3750   -23.3860     2.2010    58.4520    84.7750    72.3040    69.7450    30.3780 
  161.5000   -23.7100     2.2110    56.9040    84.9170    72.6270    70.1830    30.4930 
  161.6250   -24.0780     2.2260    59.9000    86.2920    74.0070    66.5710    30.6150 
  161.7500   -24.4980     2.2350    64.0990    89.0310    76.4360    62.6630    30.7340 
  161.8750   -24.9550     2.2290    65.3540    93.7030    80.3780    64.0210    30.8050 
  162.0000   -25.4210     2.2130    61.9430   100.7850    86.3430    72.1470    30.8560 
  162.1250   -25.8750     2.1970    57.6140   110.6400    94.8310    85.9310    30.9420 
  162.2500   -26.3410     2.1880    54.8720   121.9360   104.8010   100.0600    31.0310 
  162.3750   -26.7930     2.1830    54.1620   133.0790   114.9060   111.8450    31.0990 
  162.5000   -27.2240     2.1780    56.8090   142.2310   123.5090   119.9720    31.1610 
  162.6250   -27.6250     2.1750    61.6690   147.5650   128.8440   125.0870    31.2280 
  162.7500   -27.9940     2.1740    64.9490   149.8130   131.2970   127.6490    31.2980 
  162.8750   -28.3090     2.1720    65.0940   150.0510   131.6710   127.1980    31.3620 
  163.0000   -28.5570     2.1680    62.9760   149.4550   130.9920   125.2160    31.4010 
  163.1250   -28.7470     2.1620    60.7000   148.9650   130.1890   123.6280    31.4170 
  163.2500   -28.8760     2.1580    58.9350   148.9880   129.8400   122.9190    31.4360 
  163.3750   -28.9310     2.1550    59.1530   149.5970   130.1420   122.7730    31.4790 
  163.5000   -28.9260     2.1500    61.1270   150.7310   131.1080   123.1980    31.5290 
  163.6250   -28.8550     2.1410    61.3310   152.3650   132.7480   124.9430    31.5640 
  163.7500   -28.7190     2.1330    59.4650   154.3580   134.8540   128.2730    31.6150 
  163.8750   -28.5390     2.1280    58.2050   156.6480   137.3300   133.0230    31.6970 
  164.0000   -28.3360     2.1240    58.4050   159.1190   140.0790   138.5000    31.7810 
  164.1250   -28.1110     2.1240    58.5530   161.5580   142.9870   143.6140    31.8140 
  164.2500   -27.8640     2.1270    57.1260   163.6970   145.8280   147.5870    31.8210 
  164.3750   -27.6180     2.1340    56.0440   165.2540   148.3520   149.3490    31.8080 
  164.5000   -27.3990     2.1400    57.0980   165.8990   150.2540   148.7910    31.7760 
  164.6250   -27.2330     2.1480    59.8230   164.6580   150.7300   146.8400    31.7380 
  164.7500   -27.0760     2.1610    59.9750   160.4300   148.7680   143.4920    31.7450 
  164.8750   -26.9470     2.1770    57.0520   151.9540   142.9640   137.6340    31.7750 
  165.0000   -26.8520     2.1890    54.6370   139.3110   132.7710   128.0760    31.8010 
  165.1250   -26.7500     2.1910    56.0200   124.9590   119.5160   114.0880    31.7400 
  165.2500   -26.6790     2.1850    59.9310   113.0590   107.1310    96.2520    31.5630 
  165.3750   -26.6350     2.1760    62.3730   106.4530    98.6420    77.5310    31.3600 
