~V
VERS. 2.00: Ver 2.00
~W
STRT.M 62.0000:
STOP.M 219.0000:
STEP.M 0.1250:
NULL. -999.2500:
UWI. F11127:
~C
DEPT.M :
SP.MV :
DEN.GM/CC :
GR.API :
RML.OHMM :
RI. :
RXO.OHMM :
CALI.CM :
~A
# ...
  174.5000   -20.3220     2.2970    81.5070    26.9790    23.4340    26.3700    23.7000 
  174.6250   -20.1480     2.2970    81.7240    26.9930    23.0500    25.4080    23.5940 
  174.7500   -19.9550     2.3010    80.3810    28.3140    23.6340    25.1650    23.5680 
  174.8750   -19.7270     2.3020    79.1720    30.8320    25.2420    27.7730    23.7120 
  175.0000   -19.5140     2.3010    76.9410    34.2850    27.8000    33.2740    24.0430 
  175.1250   -19.3420     2.2990    73.5760    38.1510    31.0040    39.4230    24.2780 
  175.2500   -19.1600     2.3020    72.5000    41.5040    34.1990    45.0780    24.2920 
  175.3750   -18.9760     2.3120    74.1270    43.4880    36.5270    47.5840    24.2650 
  175.5000   -18.8310     2.3290    75.9990    43.4770    37.2800    46.6050    24.2850 
  175.6250   -18.7160     2.3520    76.0250    41.2660    36.0750    46.8610    24.2880 
  175.7500   -18.6290     2.3760    75.4010    36.9700    32.7970    46.6290    24.2140 
  175.8750   -18.6340     2.3900    74.4490    31.7830    28.4620    40.4100    24.1480 
  176.0000   -18.6800     2.3890    73.5270    26.6300    23.9250    29.2770    24.1390 
  176.1250   -18.7320     2.3780    75.4130    22.3120    19.9560    21.8740    24.1920 
  176.2500   -18.7880     2.3690    82.1400    19.6790    17.3020    17.5030    24.2480 
  176.3750   -18.8170     2.3650    87.9650    18.8100    16.0480    15.5260    24.2840 
  176.5000   -18.8810     2.3650    88.3300    19.7830    16.3090    15.3330    24.2860 
  176.6250   -19.0520     2.3660    83.8040    22.4720    18.1260    17.8080    24.2690 
  176.7500   -19.2460     2.3650    79.5700    26.4820    21.5000    24.0500    24.2440 
  176.8750   -19.3420     2.3630    77.0010    30.4620    25.4410    33.0850    24.1910 
  177.0000   -19.4340     2.3620    74.7020    33.0540    28.7620    42.3570    24.1020 
  177.1250   -19.6110     2.3710    72.3210    33.0680    30.1270    46.9060    23.9810 
  177.2500   -19.8240     2.3950    71.8630    29.7100    28.2130    42.3950    23.8370 
  177.3750   -20.0190     2.4210    74.7040    24.6120    24.1640    28.9250    23.7170 
  177.5000   -20.1600     2.4300    78.6010    19.4380    19.5730    18.3200    23.6600 
  177.6250   -20.2270     2.4220    82.0300    15.3780    15.7210    12.7720    23.7380 
  177.7500   -20.2300     2.4070    86.6670    12.9710    13.2400    10.5840    23.7730 
  177.8750   -20.1960     2.3830    92.0670    11.6790    11.7650     9.4780    23.7730 
  178.0000   -20.1230     2.3480    95.8070    11.1480    11.0310     9.0590    23.8340 
  178.1250   -20.0290     2.3150    96.6560    11.1010    10.8130     9.0530    24.0540 
  178.2500   -19.9200     2.3110    94.6950    11.3840    10.9720     9.3930    24.2420 
  178.3750   -19.8000     2.3280    92.0980    11.8210    11.3170     9.9150    24.3340 
  178.5000   -19.6980     2.3440    91.4170    12.3290    11.7490    10.6230    24.4120 
  178.6250   -19.6290     2.3520    92.8150    12.8290    12.1790    11.4520    24.4720 
  178.7500   -19.6150     2.3620    93.6190    13.2560    12.5070    12.1930    24.4930 
  178.8750   -19.6590     2.3760    92.7730    13.6780    12.7300    12.9720    24.4950 
  179.0000   -19.7510     2.3860    91.3650    14.3430    12.9670    13.5960    24.4900 
  179.1250   -19.9040     2.3830    89.2010    15.7580    13.5490    13.9380    24.4640 
  179.2500   -20.1430     2.3640    86.7050    19.1810    15.4380    15.7970    24.4130 
  179.3750   -20.4410     2.3290    83.8740    25.7560    19.7820    25.0420    24.4310 
  179.5000   -20.7550     2.2810    79.0530    37.1940    28.3630    50.5770    24.5060 
  179.6250   -21.0880     2.2290    71.8720    55.4980    43.2760    89.6200    24.5860 
  179.7500   -21.4290     2.1930    65.0870    83.7010    67.2980   142.1750    24.6700 
  179.8750   -21.7160     2.1810    60.6810   119.5190    98.0420   190.4670    24.7110 
  180.0000   -21.8860     2.1860    59.0350   159.1910   131.7200   201.9530    24.7230 
  180.1250   -21.9390     2.1920    60.2770   196.6640   162.7760   195.2490    24.7970 
  180.2500   -21.9420     2.1950    62.8820   223.6570   185.0480   207.9850    24.8770 
  180.3750   -21.9120     2.2050    63.5840   240.6830   199.9350   222.6990    24.9150 
  180.5000   -21.7730     2.2280    61.7730   251.5140   210.1080   235.4060    24.9280 
  180.6250   -21.6030     2.2730    59.7460   257.8370   216.5210   248.8250    24.9470 
  180.7500   -21.4800     2.3590    59.9110   256.5090   216.8430   258.6110    24.8060 
  180.8750   -21.4110     2.4780    60.9120   247.1480   210.8300   262.8780    24.5000 
  181.0000   -21.3450     2.5960    61.4890   231.6180   199.6790   254.7390    24.1560 
  181.1250   -21.3100     2.6680    61.7400   214.0340   186.3340   220.4500    23.9540 
  181.2500   -21.2940     2.6890    62.5760   199.6380   174.9370   189.2640    23.9630 
  181.3750   -21.2400     2.7010    63.4530   190.8720   168.0400   173.4410    23.9560 
  181.5000   -21.2190     2.7150    64.4660   188.0440   166.4760   167.9200    24.0010 
  181.6250   -21.2370     2.7230    65.7280   189.1090   169.1390   166.5100    24.0860 
  181.7500   -21.2510     2.7170    65.5100   188.3530   171.8740   178.9640    24.1670 
  181.8750   -21.2580     2.7020    63.0390   179.2250   168.4750   207.1410    24.1880 
  182.0000   -21.3320     2.6830    59.8660   157.3130   154.0650   234.8860    24.1990 
  182.1250   -21.4570     2.6650    59.0940   123.0220   127.1930   236.4290    24.1910 
  182.2500   -21.5910     2.6480    62.1290    85.1500    92.4130   191.0870    24.1170 
  182.3750   -21.7160     2.6330    64.8590    55.1170    61.0560   118.1610    24.0280 
  182.5000   -21.8140     2.6200    66.7290    35.6680    38.7760    54.0050    23.9520 
  182.6250   -21.8780     2.6020    70.4400    24.7540    25.6900    23.4950    23.8810 
  182.7500   -21.8830     2.5790    76.6960    19.9880    19.8220    16.7080    23.9400 
  182.8750   -21.8870     2.5680    82.4660    18.1110    17.3070    16.6000    24.1060 
  183.0000   -21.8250     2.5840    85.8130    17.7440    16.5360    18.6210    24.1920 
  183.1250   -21.5970     2.6170    86.3570    17.8500    16.4460    21.7170    24.1620 
  183.2500   -21.2140     2.6300    84.2500    17.5100    16.1590    24.8130    24.0710 
  183.3750   -20.8430     2.6170    81.0220    16.3570    15.1950    26.3280    23.9570 
  183.5000   -20.5430     2.5990    77.4260    14.5050    13.5560    24.7460    23.8010 
  183.6250   -20.2510     2.5740    72.3970    12.4210    11.6370    19.8970    23.6180 
  183.7500   -20.0700     2.5160    65.7150    10.7390    10.0190    13.5760    23.6130 
  183.8750   -20.0440     2.4390    62.4980     9.6760     8.9220     9.3830    23.8590 
  184.0000   -20.1780     2.3830    64.0440     9.1790     8.3220     7.8810    24.0920 
  184.1250   -20.4380     2.3660    66.5710     9.0680     8.0860     7.9550    24.1870 
  184.2500   -20.8250     2.3720    65.6020     9.1420     8.0600     8.5280    24.1790 
  184.3750   -21.2650     2.3760    63.4950     9.1790     8.0560     8.8250    24.1250 
  184.5000   -21.6810     2.3770    62.6760     9.1120     7.9960     8.5720    23.9930 
  184.6250   -22.0640     2.3800    61.6090     8.9370     7.8670     8.2030    23.7710 
  184.7500   -22.3460     2.3880    58.9910     8.6780     7.7090     8.1570    23.6580 
  184.8750   -22.4850     2.3910    56.4960     8.5070     7.5750     8.2080    23.7120 
  185.0000   -22.5010     2.3890    55.5230     8.4030     7.4880     8.2140    23.8030 
  185.1250   -22.4880     2.3880    55.9920     8.3190     7.4440     8.3360    23.8310 
  185.2500   -22.4940     2.3970    56.6850     8.2610     7.4250     8.6420    23.8210 
  185.3750   -22.5280     2.4070    56.6550     8.1900     7.4050     8.9550    23.9000 
  185.5000   -22.5680     2.4100    55.8330     8.1090     7.3740     9.3270    24.0570 
  185.6250   -22.5860     2.4070    55.0490     8.0170     7.3350     9.6750    24.2100 
