~V
VERS. 2.00: Ver 2.00
~W
STRT.M 60.0000:
STOP.M 282.0000:
STEP.M 0.1250:
NULL. -999.2500:
UWI. F11159:
~C
DEPT.M :
GR.API :
RML.OHMM :
RI. :
RXO.OHMM :
CALI.CM :
SP.MV :
DEN.GM/CC :
~A
# ...
   93.7500    75.3150    19.6320    13.0810    18.2310    23.8120   -24.3440     2.4060 
   93.8750    72.3690    23.6100    16.0680    25.1080    23.9230   -24.9330     2.4290 
   94.0000    67.1220    26.3720    18.6900    41.0060    23.9480   -25.4700     2.3910 
   94.1250    64.0860    25.9810    19.4270    47.7930    23.9400   -25.9950     2.3110 
   94.2500    64.8920    23.0220    18.1660    36.3730    23.9110   -26.4740     2.2330 
   94.3750    66.7250    19.1030    15.7800    23.9060    23.9030   -26.9390     2.1750 
   94.5000    67.8770    15.7360    13.3510    16.7270    23.9630   -27.3740     2.1450 
   94.6250    70.1050    13.7630    11.6230    14.6570    24.1580   -27.8120     2.1390 
   94.7500    71.2490    12.8670    10.6140    13.9210    24.2550   -28.2590     2.1430 
   94.8750    70.3660    12.7200    10.2120    13.6430    24.3280   -28.6880     2.1520 
   95.0000    69.2740    13.0050    10.2510    13.7420    24.3610   -29.0770     2.1670 
   95.1250    69.5110    13.4900    10.5830    14.2250    24.4140   -29.3940     2.1900 
   95.2500    69.2480    13.9820    11.0110    14.9010    24.4400   -29.6660     2.2150 
   95.3750    68.0530    14.3740    11.4180    16.2890    24.5100   -29.9150     2.2300 
   95.5000    67.3000    14.5780    11.7030    19.7130    24.5540   -30.1210     2.2260 
   95.6250    66.2310    14.5210    11.7760    24.9490    24.4440   -30.2890     2.1990 
   95.7500    67.0000    14.3190    11.6960    24.8580    24.1610   -30.4080     2.1650 
   95.8750    72.1760    14.1000    11.5500    19.8560    23.9580   -30.4760     2.1350 
   96.0000    76.9680    13.9810    11.4290    16.6210    24.2470   -30.4870     2.1160 
   96.1250    74.5480    14.0350    11.4090    16.0780    24.4600   -30.4370     2.1110 
   96.2500    68.9650    14.1620    11.4560    16.7500    24.5060   -30.3340     2.1140 
   96.3750    66.9360    14.2270    11.4890    17.3580    24.5350   -30.1680     2.1220 
   96.5000    69.4050    14.1110    11.4110    17.1980    24.5780   -29.9860     2.1310 
   96.6250    71.9830    13.7520    11.1440    16.4850    24.6090   -29.7180     2.1370 
   96.7500    72.0420    13.2710    10.7540    15.6350    24.6730   -29.4310     2.1380 
   96.8750    69.6790    12.7850    10.3280    14.8740    24.7470   -29.1080     2.1340 
   97.0000    68.7770    12.3880     9.9520    14.4830    24.8350   -28.7960     2.1270 
   97.1250    72.6490    12.1370     9.6980    14.2630    24.9980   -28.4970     2.1210 
   97.2500    76.5670    11.9920     9.5540    14.1330    25.3170   -28.2380     2.1160 
   97.3750    76.4340    11.9170     9.5020    13.9670    25.7510   -28.0150     2.1120 
   97.5000    72.5450    11.8840     9.5170    13.8270    25.9530   -27.8380     2.1060 
   97.6250    71.0040    11.8750     9.5830    13.7510    26.0430   -27.7500     2.0990 
   97.7500    70.7270    11.8860     9.6690    13.5590    26.2360   -27.7100     2.0940 
   97.8750    69.0670    11.9150     9.7570    13.5150    26.4600   -27.6840     2.0930 
   98.0000    66.6700    11.9330     9.8140    13.7790    26.5380   -27.6790     2.0970 
   98.1250    64.5140    11.8600     9.7810    14.0980    26.6200   -27.6560     2.1010 
   98.2500    63.7310    11.6560     9.6390    14.3890    26.7910   -27.6030     2.1030 
   98.3750    65.9960    11.3250     9.3960    14.5350    27.4110   -27.5310     2.1020 
   98.5000    71.5790    10.9280     9.0910    15.4650    28.1340   -27.4230     2.0970 
   98.6250    75.0320    10.5790     8.8000    16.3550    28.5150   -27.2990     2.0930 
   98.7500    73.7160    10.3490     8.5840    15.8780    28.3390   -27.1540     2.0900 
   98.8750    70.5210    10.2460     8.4640    13.5330    27.7850   -27.0600     2.0890 
   99.0000    68.4590    10.2270     8.4240    12.2150    27.4480   -26.9410     2.0900 
   99.1250    67.2900    10.2340     8.4320    12.1050    27.4360   -26.8480     2.0900 
   99.2500    65.4770    10.2210     8.4420    11.8310    27.6260   -26.7700     2.0880 
   99.3750    64.4200    10.1870     8.4410    11.6880    27.8910   -26.6970     2.0850 
   99.5000    65.5090    10.1530     8.4390    11.7540    27.6480   -26.6420     2.0830 
   99.6250    66.8130    10.1440     8.4500    11.7150    27.5670   -26.5940     2.0830 
   99.7500    66.5020    10.1570     8.4700    11.7330    27.5140   -26.5590     2.0850 
   99.8750    66.6820    10.1860     8.4910    11.9090    27.4940   -26.5110     2.0870 
  100.0000    68.6680    10.2180     8.5070    11.9400    27.5790   -26.5140     2.0900 
  100.1250    70.7270    10.2210     8.5050    11.6250    27.7670   -26.5590     2.0920 
  100.2500    72.5880    10.1700     8.4760    11.2860    28.0300   -26.6510     2.0940 
  100.3750    75.2230    10.0490     8.4020    11.0510    28.1660   -26.7790     2.0930 
  100.5000    77.0880     9.8580     8.2690    11.1090    28.2740   -26.9290     2.0890 
  100.6250    75.0780     9.6300     8.0860    11.1820    28.7010   -27.0960     2.0800 
  100.7500    71.2840     9.4490     7.9130    10.9110    29.1220   -27.3070     2.0700 
  100.8750    69.1230     9.3880     7.8160    10.5760    29.2340   -27.5500     2.0610 
  101.0000    69.2710     9.5040     7.8520    10.3710    29.2110   -27.8320     2.0560 
  101.1250    67.5310     9.8480     8.0770    10.6610    28.9720   -28.1250     2.0530 
  101.2500    64.4300    10.3340     8.4430    11.4150    28.7810   -28.4330     2.0510 
  101.3750    62.9530    10.8650     8.8830    12.1950    28.7350   -28.7370     2.0470 
  101.5000    63.7820    11.3260     9.3040    12.7190    28.7420   -29.0590     2.0430 
  101.6250    65.2370    11.6130     9.6020    12.8850    28.8270   -29.3760     2.0380 
  101.7500    66.7940    11.7620     9.7730    12.8980    28.9650   -29.7000     2.0320 
  101.8750    67.9840    11.8450     9.8610    12.7880    29.1180   -30.0410     2.0260 
  102.0000    67.1190    11.9430     9.9340    12.5890    29.2000   -30.3710     2.0210 
  102.1250    65.1030    12.1160    10.0590    12.5830    28.9990   -30.7300     2.0180 
  102.2500    66.2290    12.3530    10.2400    12.8930    28.5780   -31.0670     2.0150 
  102.3750    69.6610    12.6200    10.4530    13.3200    28.3230   -31.4360     2.0130 
  102.5000    71.5190    12.8750    10.6610    13.5970    28.2520   -31.8050     2.0110 
  102.6250    69.1010    13.0680    10.8270    13.6540    28.2270   -32.1870     2.0120 
  102.7500    67.2890    13.1870    10.9510    13.6960    28.1720   -32.5190     2.0150 
  102.8750    68.7580    13.2410    11.0430    13.7980    28.0740   -32.8060     2.0200 
  103.0000    71.5160    13.2530    11.1140    13.8740    28.0260   -33.0320     2.0250 
  103.1250    71.9000    13.2540    11.1660    13.8610    28.0170   -33.2050     2.0310 
  103.2500    72.6870    13.2610    11.2010    13.8540    28.0080   -33.3560     2.0340 
  103.3750    75.1410    13.2740    11.2160    13.8880    27.9530   -33.4610     2.0350 
  103.5000    76.3280    13.2800    11.2140    13.9470    27.8570   -33.5080     2.0330 
  103.6250    72.9960    13.2560    11.1990    13.9620    27.7100   -33.5340     2.0300 
  103.7500    68.4290    13.1970    11.1780    13.9360    27.4980   -33.5270     2.0270 
  103.8750    66.5880    13.1110    11.1560    13.9060    27.3260   -33.4910     2.0250 
  104.0000    67.0870    13.0210    11.1360    13.8760    27.1980   -33.4290     2.0260 
  104.1250    67.9840    12.9690    11.1340    13.8710    27.0740   -33.3210     2.0300 
  104.2500    67.9240    12.9830    11.1640    13.9020    26.9460   -33.1820     2.0350 
  104.3750    67.9210    13.0780    11.2400    13.9460    26.8050   -32.9970     2.0400 
  104.5000    69.2130    13.2410    11.3690    13.9000    26.5840   -32.8060     2.0430 
  104.6250    71.8590    13.3860    11.5140    13.8680    26.3280   -32.5590     2.0460 
  104.7500    72.9770    13.3640    11.5630    13.9750    26.0810   -32.3330     2.0520 
  104.8750    71.1530    13.0490    11.3950    14.2110    25.8090   -32.0890     2.0610 
