~V
VERS. 2.00: Ver 2.00
~W
STRT.M 55.0000:
STOP.M 210.0000:
STEP.M 0.1250:
NULL. -999.2500:
UWI. F11105:
~C
DEPT.M :
DEN.GM/CC :
GR.API :
RML.OHMM :
RI. :
RXO.OHMM :
CALI.CM :
SP.MV :
~A
   55.0000  -999.2500  -999.2500  -999.2500  -999.2500  -999.2500  -999.2500   -30.6680 
   55.1250  -999.2500  -999.2500  -999.2500  -999.2500  -999.2500  -999.2500   -30.5330 
   55.2500  -999.2500  -999.2500  -999.2500  -999.2500  -999.2500  -999.2500   -30.4490 
   55.3750  -999.2500  -999.2500  -999.2500  -999.2500  -999.2500  -999.2500   -30.4020 
   55.5000  -999.2500  -999.2500  -999.2500  -999.2500  -999.2500  -999.2500   -30.3650 
   55.6250  -999.2500  -999.2500  -999.2500  -999.2500  -999.2500  -999.2500   -30.3300 
   55.7500  -999.2500  -999.2500  -999.2500  -999.2500  -999.2500  -999.2500   -30.2920 
   55.8750  -999.2500  -999.2500  -999.2500  -999.2500  -999.2500  -999.2500   -30.2370 
   56.0000  -999.2500  -999.2500  -999.2500  -999.2500  -999.2500  -999.2500   -30.2320 
   56.1250  -999.2500  -999.2500  -999.2500  -999.2500  -999.2500  -999.2500   -30.3150 
   56.2500  -999.2500  -999.2500  -999.2500  -999.2500  -999.2500  -999.2500   -30.3740 
   56.3750  -999.2500  -999.2500  -999.2500  -999.2500  -999.2500  -999.2500   -30.3820 
   56.5000  -999.2500  -999.2500  -999.2500  -999.2500  -999.2500  -999.2500   -30.3570 
   56.6250  -999.2500  -999.2500  -999.2500  -999.2500  -999.2500  -999.2500   -30.3220 
   56.7500  -999.2500  -999.2500  -999.2500  -999.2500  -999.2500  -999.2500   -30.3270 
   56.8750     1.9250  -999.2500  -999.2500  -999.2500  -999.2500  -999.2500   -30.3780 
   57.0000     1.9250    49.9250     0.2590     0.1830     2.1970    25.2740   -30.3950 
   57.1250     1.9300    49.9250     0.2590     0.1830     2.1970    25.2740   -30.3240 
   57.2500     1.9440    51.6280     0.2310     0.1820     2.2970    25.2740   -30.2130 
   57.3750     1.9630    52.4550     0.2010     0.1800     2.1520    25.2740   -30.1300 
   57.5000     1.9820    53.1920     0.1840     0.1760     2.0900    25.2740   -30.0860 
   57.6250     1.9920    53.6990     0.1940     0.1690     2.2290    25.2740   -30.0580 
   57.7500     1.9950    53.4050     0.2200     0.1590     2.2460    25.2740   -29.9890 
   57.8750     1.9910    51.9320     0.2510     0.1500     2.1850    25.2740   -29.9170 
   58.0000     1.9840    51.5370     0.2730     0.1460     2.0950    25.2740   -29.8990 
   58.1250     1.9740    51.5040     0.2690     0.1470     2.3300    25.2740   -29.9600 
   58.2500     1.9610    50.1920     0.2400     0.1500     2.4180    25.2740   -30.0430 
   58.3750     1.9480    48.5350     0.1950     0.1530     2.2590    25.2740   -30.1080 
   58.5000     1.9380    47.7890     0.1500     0.1550     1.9960    25.2740   -30.1630 
   58.6250     1.9370    49.1530     0.1300     0.1560     1.8810    25.2740   -30.1900 
   58.7500     1.9440    51.2380     0.1460     0.1560     2.0960    25.2740   -30.2380 
   58.8750     1.9590    52.0520     0.1920     0.1580     2.2760    25.2740   -30.2990 
   59.0000     1.9780    49.4190     0.2470     0.1630     2.1340    25.2740   -30.3420 
   59.1250     1.9960    46.5950     0.2770     0.1700     2.1630    25.2740   -30.3190 
   59.2500     2.0110    44.8980     0.2690     0.1760     2.5770    25.2740   -30.3130 
   59.3750     2.0210    42.2380     0.2310     0.1810     3.0170    25.2740   -30.3350 
   59.5000     2.0260    38.7740     0.1880     0.1820     3.0520    25.2740   -30.3380 
   59.6250     2.0260    38.1930     0.1650     0.1840     2.6100    25.2740   -30.3500 
   59.7500     2.0190    40.2910     0.1680     0.1860     2.7630    25.2740   -30.3390 
   59.8750     2.0060    42.0320     0.1860     0.1870     3.2390    25.2740   -30.3250 
   60.0000     1.9910    42.4820     0.1980     0.1890     3.3330    25.2740   -30.3220 
   60.1250     1.9790    43.2430     0.1890     0.1930     2.8780    25.2740   -30.3230 
   60.2500     1.9730    44.5710     0.1690     0.1990     2.5210    25.2740   -30.2770 
   60.3750     1.9720    45.4330     0.1530     0.2030     2.5550    25.2740   -30.1960 
   60.5000     1.9720    46.7590     0.1520     0.2040     2.7290    25.2740   -30.0680 
   60.6250     1.9760    48.5680     0.1700     0.2040     2.5510    25.2740   -29.9250 
   60.7500     1.9900    48.5740     0.1940     0.2030     2.5190    25.2740   -29.7640 
   60.8750     2.0220    47.3590     0.2130     0.2050     2.6690    25.2740   -29.5480 
   61.0000     2.0730    47.7280     0.2210     0.2060     3.0490    25.2740   -29.3130 
   61.1250     2.1320    50.2250     0.2220     0.2060     3.2540    25.2740   -29.0600 
   61.2500     2.1700    49.9150     0.2130     0.2040     3.0810    25.2740   -28.7920 
   61.3750     2.1650    46.4500     0.1910     0.2000     3.2550    25.2740   -28.5470 
   61.5000     2.1130    43.0350     0.1550     0.1980     3.8530    25.2740   -28.4240 
   61.6250     2.0370    42.1730     0.1150     0.1970     4.0200    25.2750   -28.4400 
   61.7500     1.9750    42.2410     0.0860     0.1980     4.0560    25.2780   -28.5320 
   61.8750     1.9480    42.3650     0.0800     0.1990     4.0610    25.2980   -28.6380 
   62.0000     1.9590    42.6850     0.1000     0.1990     4.2320    25.2790   -28.7310 
   62.1250     2.0000    43.2290     0.1330     0.1930     4.1540    25.2760   -28.8810 
   62.2500     2.0510    43.4550     0.1540     0.1810     3.9230    25.2740   -29.0950 
   62.3750     2.1010    43.8410     0.1500     0.1630     4.1130    25.2740   -29.3190 
   62.5000     2.1440    44.8220     0.1220     0.1410     4.9170    25.2740   -29.4840 
   62.6250     2.1800    46.1890     0.0850     0.1170     5.2330    25.2740   -29.5350 
   62.7500     2.2080    48.4590     0.0570     0.0970     3.8510    25.2740   -29.5580 
   62.8750     2.2140    51.5140     0.0410     0.0800     2.6260    25.2860   -29.6140 
   63.0000     2.1800    53.4260     0.0310     0.0680     2.6750    25.3380   -29.6510 
   63.1250     2.0950    52.2380     0.0240     0.0660     3.5270    25.7490   -29.6120 
   63.2500     1.9880    51.0490     0.0190     0.0740     4.3920    26.6190   -29.4750 
   63.3750     1.8800    51.7840     0.0270     0.1030     4.8470    27.9090   -29.2600 
   63.5000     1.7920    51.6520     0.0740     0.1830     4.9290    29.7290   -29.0060 
   63.6250     1.7370    48.8950     0.2390     0.3980     4.9360    31.5880   -28.7960 
   63.7500     1.7120    47.4110     0.6050     0.8290     4.8910    32.9950   -28.5950 
   63.8750     1.7080    48.1990     1.2720     1.5620     4.7840    33.2850   -28.4120 
   64.0000     1.7170    49.2860     2.2420     2.5970     4.6980    33.1530   -28.2760 
   64.1250     1.7320    49.3210     3.1720     3.7030     4.7280    33.0880   -28.2140 
   64.2500     1.7430    50.7160     3.6640     4.5360     4.9080    33.3330   -28.2220 
   64.3750     1.7520    53.4120     3.7880     5.0200     5.1950    34.1400   -28.2250 
   64.5000     1.7650    57.0930     3.8230     5.2840     5.4620    34.8540   -28.1250 
   64.6250     1.8020    61.3520     3.9430     5.4770     5.5890    32.2760   -27.9410 
   64.7500     1.8700    64.0680     4.1300     5.6640     5.8420    27.8180   -27.8850 
   64.8750     1.9630    67.0820     4.3480     5.8530     6.3300    24.5670   -27.9300 
   65.0000     2.0590    70.8360     4.5820     6.0450     6.6840    23.5850   -27.8220 
   65.1250     2.1240    70.0650     4.8110     6.2220     6.5370    23.4890   -27.6300 
   65.2500     2.1500    65.4810     4.9970     6.3500     6.5000    23.5520   -27.4450 
   65.3750     2.1460    64.1780     5.1170     6.4010     6.3310    24.1950   -27.3550 
   65.5000     2.1300    70.7670     5.1700     6.3730     5.9940    25.1980   -27.4150 
   65.6250     2.1150    77.1260     5.1920     6.2860     5.9480    25.3980   -27.4960 
   65.7500     2.1070    76.6720     5.2450     6.1990     6.1590    25.3450   -27.3860 
   65.8750     2.1050    71.7020     5.3600     6.1520     6.2980    24.9940   -27.1420 
   66.0000     2.1090    66.7500     5.5220     6.1620     6.4010    25.0260   -27.0690 
   66.1250     2.1140    66.6810     5.6670     6.2130     6.5570    25.5950   -27.1110 
