~V
VERS. 2.00: Ver 2.00
~W
STRT.M 49.0000:
STOP.M 247.0000:
STEP.M 0.1250:
NULL. -999.2500:
UWI. F11144:
~C
DEPT.M :
DEN.GM/CC :
SP.MV :
GR.API :
RML.OHMM :
RI. :
RXO.OHMM :
CALI.CM :
~A
# ...
  229.0000     2.3100   -13.4580    70.2060     7.8280     7.2340     7.6710    22.6930 
  229.1250     2.3130   -13.4400    71.3700     7.8640     7.2700     7.6530    22.5740 
  229.2500     2.3200   -13.3850    70.7230     7.9240     7.3400     7.8530    22.5230 
  229.3750     2.3320   -13.2960    69.0320     8.0150     7.4420     8.0190    22.4930 
  229.5000     2.3490   -13.1350    69.2430     8.1410     7.5770     8.1220    22.4160 
  229.6250     2.3640   -12.9820    70.9580     8.3010     7.7400     8.1890    22.3790 
  229.7500     2.3720   -12.8560    72.4140     8.4910     7.9200     8.4180    22.5020 
  229.8750     2.3720   -12.6590    73.4710     8.6940     8.1090     8.6940    22.7580 
  230.0000     2.3620   -12.4710    72.9940     8.8940     8.3020     9.0720    22.9840 
  230.1250     2.3460   -12.3660    70.7730     9.0740     8.4920     9.4820    23.1080 
  230.2500     2.3350   -12.2630    69.3640     9.2150     8.6640     9.6790    23.1220 
  230.3750     2.3320   -12.2470    70.4880     9.3100     8.8020     9.7870    23.0620 
  230.5000     2.3350   -12.3080    73.0580     9.3500     8.8900     9.8470    22.9430 
  230.6250     2.3490   -12.3720    75.4330     9.3350     8.9180     9.7010    22.8230 
  230.7500     2.3690   -12.4500    75.7300     9.2700     8.8810     9.3890    22.7910 
  230.8750     2.3820   -12.5730    72.5850     9.1880     8.8130     9.0140    22.8340 
  231.0000     2.3840   -12.6880    68.7870     9.1210     8.7470     8.6130    22.8790 
  231.1250     2.3830   -12.7560    70.0230     9.1000     8.7190     8.3590    22.8820 
  231.2500     2.3800   -12.8360    73.9460     9.1510     8.7690     8.6120    22.8610 
  231.3750     2.3690   -12.8480    73.4640     9.2620     8.8870     8.9690    22.8540 
  231.5000     2.3550   -12.8280    68.6420     9.4080     9.0480     9.0950    22.8620 
  231.6250     2.3540   -12.8300    65.5360     9.5590     9.2120     9.0470    22.8940 
  231.7500     2.3760   -12.8390    67.6410     9.6930     9.3460     8.9910    22.9680 
  231.8750     2.4070   -12.8630    69.2620     9.8200     9.4600     9.1760    23.0220 
  232.0000     2.4260   -12.8970    69.4740     9.9560     9.5720     9.6910    23.0380 
  232.1250     2.4180   -12.9270    70.2550    10.1000     9.6910    10.6020    23.0030 
  232.2500     2.3970   -12.9530    72.3570    10.2290     9.8040    11.8900    22.8900 
  232.3750     2.3870   -12.9880    74.7760    10.3080     9.8870    11.8020    22.7730 
  232.5000     2.3920   -13.0230    76.6530    10.3240     9.9260    10.9900    22.7540 
  232.6250     2.4040   -13.0550    77.9430    10.3070     9.9350    10.2490    22.7850 
  232.7500     2.4120   -13.0830    77.8920    10.3090     9.9500    10.2270    22.8120 
  232.8750     2.4160   -13.0740    76.8260    10.3570     9.9900    11.1580    22.7900 
  233.0000     2.4240   -13.0050    76.2050    10.4640    10.0720    12.1900    22.7410 
  233.1250     2.4430   -12.9270    78.3480    10.6410    10.2200    11.9060    22.6870 
  233.2500     2.4700   -12.8940    80.9530    10.9160    10.4650    11.7590    22.6580 
  233.3750     2.4780   -12.8720    80.3080    11.2640    10.7920    12.0180    22.6500 
  233.5000     2.4550   -12.8230    77.6740    11.6360    11.1700    12.5690    22.5710 
  233.6250     2.4180   -12.7620    75.6640    11.9280    11.5160    12.2850    22.3440 
  233.7500     2.3950   -12.6860    73.5300    11.9550    11.6660    12.2340    22.0830 
  233.8750     2.3990   -12.5980    70.3920    11.7020    11.5610    12.3740    21.9450 
  234.0000     2.4250   -12.5730    69.4300    11.2480    11.2330    12.6710    21.9070 
  234.1250     2.4500   -12.5300    71.6560    10.7330    10.7860    13.1940    22.0020 
  234.2500     2.4530   -12.3980    72.0330    10.3010    10.3580    13.2820    22.2700 
  234.3750     2.4440   -12.3080    67.5780     9.9970    10.0350    12.0360    22.5650 
  234.5000     2.4370   -12.2450    64.0590     9.8080     9.8320    11.3280    22.6820 
  234.6250     2.4320   -12.1580    65.0400     9.7000     9.7270    11.5540    22.6960 
  234.7500     2.4240   -12.1110    67.5270     9.6680     9.7040    10.2990    22.6950 
  234.8750     2.4180   -12.1120    67.0230     9.7010     9.7340     9.6300    22.7000 
  235.0000     2.4170   -12.0770    67.2060     9.7850     9.8070     9.6700    22.7140 
  235.1250     2.4160   -12.0850    71.2890     9.8940     9.9090    10.0440    22.7370 
  235.2500     2.4160   -12.1470    72.9940    10.0040    10.0330    10.0020    22.7600 
  235.3750     2.4220   -12.1520    71.8710    10.1020    10.1610     9.9300    22.7690 
  235.5000     2.4300   -12.1980    71.5290    10.1830    10.2760    10.1470    22.7690 
  235.6250     2.4310   -12.2740    73.5090    10.2400    10.3560    10.3970    22.7630 
  235.7500     2.4270   -12.3120    73.1740    10.2440    10.3690    10.1810    22.7550 
  235.8750     2.4290   -12.3140    70.7010    10.1850    10.3090     9.7370    22.7510 
  236.0000     2.4360   -12.3380    71.0380    10.0640    10.1800     9.3510    22.7570 
  236.1250     2.4360   -12.3720    75.4680     9.9090    10.0050     8.9540    22.7680 
  236.2500     2.4200   -12.4050    80.7390     9.7710     9.8310     8.8430    22.7780 
  236.3750     2.3910   -12.4730    81.2700     9.6970     9.7090     9.3740    22.8120 
  236.5000     2.3610   -12.5080    77.2700     9.7210     9.6730     9.8740    22.8880 
  236.6250     2.3370   -12.5730    73.8100     9.8560     9.7540    10.1590    22.9720 
  236.7500     2.3300   -12.6880    73.9160    10.1110     9.9750    10.5640    23.0650 
  236.8750     2.3400   -12.8170    74.3720    10.4300    10.2820    11.5040    23.1600 
  237.0000     2.3600   -12.9700    72.0180    10.7670    10.6280    13.1030    23.1970 
  237.1250     2.3810   -13.0860    71.3780    11.0590    10.9520    15.3290    23.1550 
  237.2500     2.4050   -13.1840    71.3780    11.2110    11.1570    14.9330    23.0210 
  237.3750     2.4350   -13.3150    71.3780    11.1840    11.1900    13.3370    22.8380 
  237.5000     2.4580   -13.4460    71.3780    10.9650    11.0280    11.7890    22.6260 
  237.6250     2.4600   -13.4950    71.3780    10.5870    10.6930    10.7320    22.4930 
  237.7500     2.4340   -13.4370    71.3780    10.1230    10.2390    10.1950    22.4270 
  237.8750     2.3980   -13.3940    71.3780     9.6780     9.7770    10.1760    22.3550 
  238.0000     2.3670   -13.3420    71.3780     9.3210     9.3880    10.6430    22.3540 
  238.1250     2.3500   -13.2750    71.3780     9.0950     9.1270    10.6780    22.5310 
  238.2500     2.3480   -13.1710    71.3780     9.0380     9.0370    11.0260    22.7210 
  238.3750     2.3560   -13.0460    71.3780     9.0920     9.0670    11.5320    22.8810 
  238.5000     2.3680   -12.9170    71.3780     9.1960     9.1660    12.1420    23.0240 
  238.6250     2.3830   -12.8230    71.3780     9.2860     9.2810    11.4180    23.1230 
  238.7500     2.4000   -12.7810    71.3780     9.3110     9.3590    10.4510    23.1500 
  238.8750     2.4130   -12.7500    71.3780     9.2940     9.3910     9.7170    23.1500 
  239.0000     2.4180   -12.7200    71.3780     9.2670     9.3840     9.4080    23.1390 
  239.1250     2.4140   -12.7200    71.3780     9.2300     9.3430     9.4970    23.1180 
  239.2500     2.4050   -12.7140    71.3780     9.1430     9.2630     9.7290    23.0680 
  239.3750     2.3990   -12.6860    71.3780     8.9790     9.1460    10.5190    23.0010 
  239.5000     2.3960   -12.6500    71.3780     8.7430     8.9880    11.4220    22.9380 
  239.6250     2.3960   -12.5980    71.3780     8.4760     8.7940    11.2500    22.9220 
  239.7500     2.4000   -12.5470    71.3780     8.2450     8.5730    10.4500    22.9890 
  239.8750     2.4120   -12.4300    71.3780     8.0740     8.3510     9.3620    23.1070 
  240.0000     2.4280   -12.2940    71.3780     7.9470     8.1520     8.4230    23.2130 
  240.1250     2.4390   -12.1890    71.3780     7.8360     7.9960     8.0350    23.2810 
