~V
VERS. 2.00: Ver 2.00
~W
STRT.M 55.0000:
STOP.M 240.0000:
STEP.M 0.1250:
NULL. -999.2500:
UWI. F11138:
~C
DEPT.M :
SP.MV :
DEN.GM/CC :
GR.API :
RML.OHMM :
RI. :
RXO.OHMM :
CALI.CM :
~A
# ...
  145.0000   -10.6200     2.1190    91.5210     9.2140     7.5780     7.7770    21.5270 
  145.1250   -10.7120     2.1300    89.7050     9.0400     7.4540     7.4200    21.6020 
  145.2500   -10.7700     2.1470    88.9200     8.9440     7.3710     7.3350    21.8250 
  145.3750   -10.8180     2.1690    89.4600     8.9300     7.3420     7.4140    22.0570 
  145.5000   -10.8220     2.1950    90.2740     8.9620     7.3490     7.5760    22.2170 
  145.6250   -10.7240     2.2170    90.0440     8.9860     7.3600     7.7200    22.3390 
  145.7500   -10.5590     2.2350    88.5820     8.9680     7.3450     7.8130    22.4840 
  145.8750   -10.3710     2.2490    86.8510     8.9010     7.2910     7.7890    22.6030 
  146.0000   -10.1870     2.2570    86.4400     8.7880     7.1950     7.6140    22.6750 
  146.1250   -10.0560     2.2560    88.8510     8.6390     7.0650     7.5110    22.6910 
  146.2500    -9.9910     2.2470    92.9490     8.4740     6.9260     7.4570    22.6930 
  146.3750    -9.9360     2.2380    95.8770     8.3110     6.7950     7.3550    22.6780 
  146.5000    -9.8880     2.2330    95.1740     8.1760     6.6940     7.0510    22.6460 
  146.6250    -9.8970     2.2320    92.7930     8.1030     6.6420     6.8470    22.6300 
  146.7500    -9.9490     2.2340    92.7070     8.0850     6.6360     6.8520    22.6240 
  146.8750   -10.0140     2.2380    93.9860     8.1010     6.6670     6.9720    22.6240 
  147.0000   -10.0710     2.2410    93.8390     8.1220     6.7130     7.0800    22.6240 
  147.1250   -10.0830     2.2370    92.5760     8.1070     6.7420     7.1130    22.6240 
  147.2500   -10.0370     2.2320    92.7090     8.0490     6.7330     7.0950    22.6240 
  147.3750    -9.9730     2.2320    94.1380     7.9550     6.6800     7.0830    22.6240 
  147.5000    -9.9240     2.2370    95.9210     7.8400     6.5850     7.0730    22.6240 
  147.6250    -9.8940     2.2440    98.0490     7.7080     6.4510     6.9210    22.6240 
  147.7500    -9.8600     2.2480    99.3350     7.5630     6.2920     6.6210    22.6250 
  147.8750    -9.8130     2.2490    99.2220     7.4060     6.1190     6.5030    22.6310 
  148.0000    -9.7590     2.2480    99.2990     7.2380     5.9410     6.6600    22.6370 
  148.1250    -9.7150     2.2480   102.2420     7.0680     5.7760     6.5920    22.6280 
  148.2500    -9.6740     2.2510   105.5440     6.9200     5.6430     6.0440    22.5880 
  148.3750    -9.6240     2.2570   105.4480     6.8230     5.5670     5.8530    22.5650 
  148.5000    -9.5400     2.2690   102.0560     6.8280     5.5830     6.0140    22.5610 
  148.6250    -9.3630     2.2780    98.9120     7.0760     5.7910     6.2490    22.5620 
  148.7500    -9.1460     2.2810    99.4190     7.6720     6.2590     6.3540    22.5680 
  148.8750    -8.9340     2.2860   101.9630     8.7110     7.0740     6.5390    22.5840 
  149.0000    -8.7590     2.2980   101.8270    10.2030     8.2760     7.1990    22.6080 
  149.1250    -8.6300     2.2980    97.3140    11.9660     9.7990     8.7130    22.5500 
  149.2500    -8.5080     2.2740    93.0770    13.4710    11.2480    11.2200    22.3840 
  149.3750    -8.3860     2.2390    92.3230    14.1890    12.1680    14.5140    22.2200 
  149.5000    -8.2760     2.2210    94.0240    13.7510    12.1490    16.6640    22.1700 
  149.6250    -8.1820     2.2350    94.7110    12.0950    10.9740    16.0900    22.0840 
  149.7500    -8.0780     2.2640    96.1890    10.0300     9.2840    14.5150    21.8960 
  149.8750    -8.0110     2.2920   100.2650     8.1920     7.6430    11.1190    21.7190 
  150.0000    -7.9830     2.3060   105.4660     6.9430     6.3980     6.9730    21.6230 
  150.1250    -8.0000     2.3030   108.3720     6.4220     5.7170     5.5730    21.6010 
  150.2500    -8.1180     2.2980   108.9400     6.3650     5.4450     5.3150    21.5900 
  150.3750    -8.3130     2.2970   108.7990     6.6010     5.4860     5.5430    21.5660 
  150.5000    -8.5450     2.3000   105.7510     6.9820     5.7410     5.8950    21.5120 
  150.6250    -8.8150     2.3030    98.3790     7.4630     6.1690     6.3580    21.4710 
  150.7500    -9.1400     2.3030    92.8370     8.1230     6.7720     6.8800    21.4470 
  150.8750    -9.4830     2.3000    92.5620     9.1550     7.6630     7.2500    21.4200 
  151.0000    -9.8450     2.2910    95.2470    10.7510     8.9930     7.2610    21.3990 
  151.1250   -10.2230     2.2770    94.8080    13.0620    10.9390     8.4690    21.3810 
  151.2500   -10.5830     2.2610    89.5430    15.7270    13.2820    11.0060    21.3460 
  151.3750   -10.9120     2.2500    82.0410    18.2530    15.6530    14.5080    21.2780 
  151.5000   -11.1880     2.2420    76.3570    20.0410    17.5250    17.8030    21.2110 
  151.6250   -11.4350     2.2230    74.8450    20.4170    18.2000    17.7280    21.1860 
  151.7500   -11.6520     2.1860    75.1290    19.6610    17.7790    16.1720    21.2020 
  151.8750   -11.8270     2.1410    77.6070    18.3240    16.6870    14.6970    21.2740 
  152.0000   -11.9510     2.1030    81.7190    17.0280    15.4830    13.9070    21.3500 
  152.1250   -12.0030     2.0820    83.9800    16.2350    14.6060    13.0510    21.2720 
  152.2500   -11.9990     2.0730    83.5230    15.9190    14.1090    12.2840    21.0460 
  152.3750   -11.9600     2.0810    83.3950    15.9660    13.9410    12.2910    20.8520 
  152.5000   -11.9320     2.1050    85.6200    16.2590    14.0260    12.5430    20.7010 
  152.6250   -11.8880     2.1260    88.4380    16.7780    14.3520    12.1970    20.5560 
  152.7500   -11.8260     2.1200    89.5580    17.5390    14.8950    11.7820    20.4570 
  152.8750   -11.8000     2.0920    88.9330    18.5880    15.6780    11.7660    20.3620 
  153.0000   -11.8100     2.0670    88.5080    19.8500    16.6450    12.5080    20.3360 
  153.1250   -11.7860     2.0600    89.0220    20.9640    17.5520    14.4220    20.5760 
  153.2500   -11.7340     2.0510    87.5460    21.4670    18.0600    16.9060    21.0990 
  153.3750   -11.7230     2.0280    84.4090    21.0590    17.9220    19.6230    21.7750 
  153.5000   -11.7370     2.0080    82.8590    19.8230    17.1520    19.8480    22.5250 
  153.6250   -11.8000     2.0150    82.8780    18.3890    16.1580    16.8260    23.1210 
  153.7500   -11.8990     2.0410    81.3240    17.6530    15.6050    14.3410    23.3840 
  153.8750   -11.9840     2.0750    78.8850    18.1110    15.9060    14.0310    23.4480 
  154.0000   -12.0420     2.1120    77.6680    19.8250    17.1960    16.1700    23.4480 
  154.1250   -12.1320     2.1470    77.8010    22.3890    19.3290    20.3850    23.4290 
  154.2500   -12.2800     2.1740    77.3500    24.6790    21.4720    25.0380    23.3940 
  154.3750   -12.3960     2.1910    76.6410    25.6910    22.7700    26.9880    23.3710 
  154.5000   -12.4390     2.2000    76.7430    24.7470    22.4980    27.3220    23.3740 
  154.6250   -12.3860     2.2010    79.0000    21.7860    20.3210    25.6910    23.4370 
  154.7500   -12.2470     2.1980    81.9820    18.2390    17.3640    21.9980    23.4820 
  154.8750   -12.0440     2.1980    83.8000    15.1350    14.5610    17.3450    23.5070 
  155.0000   -11.8040     2.2050    85.3510    12.9810    12.4470    13.2920    23.5050 
  155.1250   -11.5660     2.2210    88.1640    11.9340    11.2420    10.6940    23.5100 
  155.2500   -11.2640     2.2360    92.2330    11.5400    10.6270     9.8080    23.5640 
  155.3750   -10.9070     2.2480    95.3730    11.4500    10.3480     9.5730    23.6550 
  155.5000   -10.5410     2.2610    95.5540    11.3420    10.1540     9.6230    23.7040 
  155.6250   -10.2020     2.2790    92.7100    10.9760     9.8320     9.7710    23.6250 
  155.7500    -9.8970     2.2910    90.3800    10.4620     9.4040    10.2270    23.4310 
  155.8750    -9.6650     2.2900    89.8130    10.0810     9.0500    10.2340    23.2440 
  156.0000    -9.5340     2.2780    89.9440    10.1630     9.0100     9.0050    23.1570 
  156.1250    -9.4250     2.2630    88.4600    11.0420     9.5590     7.8850    23.2130 
