~V
VERS. 2.00: Ver 2.00
~W
STRT.M 56.0000:
STOP.M 269.0000:
STEP.M 0.1250:
NULL. -999.2500:
UWI. F11148:
~C
DEPT.M :
GR.API :
RML.OHMM :
RI. :
RXO.OHMM :
SP.MV :
DEN.GM/CC :
CALI.CM :
~A
# ...
  168.5000    63.3420   136.8450   127.8220    58.1900   -27.5140     2.2130    23.5340 
  168.6250    60.6960   143.3890   134.4660    63.0930   -27.5950     2.1970    23.3960 
  168.7500    59.7320   147.4390   139.4450    65.5510   -27.6660     2.1890    23.2740 
  168.8750    60.4930   146.6210   140.4830    66.9700   -27.6800     2.1940    23.1580 
  169.0000    61.2340   139.3340   135.7780    71.8790   -27.6890     2.2080    23.1290 
  169.1250    61.3270   126.4670   125.4140    80.0760   -27.7400     2.2240    23.2100 
  169.2500    63.4500   111.6610   111.9120    84.8560   -27.7980     2.2400    23.3720 
  169.3750    66.4800    99.0950    99.5020    77.5720   -27.8500     2.2550    23.4520 
  169.5000    68.8780    90.4420    90.3090    62.1110   -27.9060     2.2660    23.4700 
  169.6250    69.3070    85.7500    84.8920    55.1920   -27.9770     2.2730    23.4360 
  169.7500    67.5280    84.0690    82.7410    63.0610   -28.0530     2.2790    23.3820 
  169.8750    65.1700    83.1320    81.7170    73.0680   -28.1410     2.2880    23.3380 
  170.0000    64.3670    81.9730    80.7610    71.8190   -28.2300     2.2990    23.3090 
  170.1250    65.4270    80.8970    79.8750    65.4820   -28.3180     2.3080    23.2980 
  170.2500    65.5450    82.2440    80.9230    58.9750   -28.4630     2.3150    23.2860 
  170.3750    63.2700    88.3630    86.2550    55.5280   -28.6070     2.3160    23.2660 
  170.5000    61.0820   101.2080    98.1580    62.8830   -28.7470     2.3080    23.3070 
  170.6250    60.8930   121.5800   117.7740    86.1320   -28.9150     2.2860    23.5780 
  170.7500    61.1710   147.5980   143.4770   126.2900   -29.1470     2.2510    24.1810 
  170.8750    59.7390   169.3690   166.1080   152.5560   -29.3870     2.2180    24.7660 
  171.0000    57.9240   175.6940   175.6200   156.2170   -29.5920     2.1980    25.0310 
  171.1250    57.2330   162.7520   167.1180   144.4940   -29.7380     2.1980    25.0890 
  171.2500    57.6940   139.0300   145.3440   113.3610   -29.8640     2.2120    25.1240 
  171.3750    59.1660   117.6320   123.2200    87.8600   -30.0610     2.2260    25.1870 
  171.5000    61.9500   102.5500   106.3610    72.6860   -30.2570     2.2330    25.2230 
  171.6250    63.6580    94.0500    96.1440    67.2990   -30.3960     2.2330    25.1680 
  171.7500    62.3630    91.9110    92.6820    66.4810   -30.5240     2.2340    25.0630 
  171.8750    60.7260    93.9520    93.7270    66.7410   -30.7100     2.2380    24.9990 
  172.0000    59.6200    99.0180    98.1160    68.1570   -30.9690     2.2420    24.9440 
  172.1250    59.5640   105.9110   104.6350    69.8750   -31.2670     2.2500    24.8350 
  172.2500    61.6890   113.4200   112.0400    76.0340   -31.5720     2.2600    24.7000 
  172.3750    63.1400   120.4000   119.0270    93.6140   -31.8620     2.2680    24.6390 
  172.5000    61.7540   126.3400   124.9300   102.2090   -32.2060     2.2720    24.6270 
  172.6250    59.3610   131.2980   129.6300    97.8430   -32.5910     2.2700    24.6240 
  172.7500    59.5750   135.9720   133.5730    93.9090   -32.9380     2.2660    24.6170 
  172.8750    59.0900   141.3860   137.7530    98.8470   -33.2830     2.2630    24.6140 
  173.0000    55.9870   148.0510   142.7350   108.9190   -33.6320     2.2590    24.6240 
  173.1250    54.0290   155.7340   148.4790   117.5880   -33.9810     2.2560    24.6320 
  173.2500    56.3200   163.0740   153.9930   121.2540   -34.2910     2.2510    24.6320 
  173.3750    59.1520   168.5740   158.0850   124.0110   -34.5450     2.2450    24.6210 
  173.5000    59.7540   171.6050   160.2070   125.7360   -34.7450     2.2420    24.5920 
  173.6250    58.4990   172.3900   160.4550   124.7290   -34.9080     2.2410    24.5690 
  173.7500    58.8340   171.4110   159.1540   120.4960   -35.0230     2.2390    24.5460 
  173.8750    61.1230   169.5450   157.0690   115.9690   -35.0600     2.2360    24.4980 
  174.0000    62.8550   167.1190   154.5330   112.9930   -35.0180     2.2320    24.4060 
  174.1250    61.8370   164.3690   151.7840   112.2840   -34.9490     2.2270    24.2550 
  174.2500    60.3490   161.6200   149.1070   112.4080   -34.8640     2.2230    24.0220 
  174.3750    61.6460   159.3420   146.8850   110.0730   -34.7080     2.2230    23.7250 
  174.5000    63.8980   157.9130   145.4710   105.1160   -34.4330     2.2260    23.4820 
  174.6250    65.3920   157.3880   144.9570   101.1960   -34.1240     2.2290    23.3410 
  174.7500    66.8410   157.3120   144.9860   100.5430   -33.8740     2.2280    23.3070 
  174.8750    66.2220   156.8190   144.7300   100.9020   -33.6230     2.2280    23.2980 
  175.0000    62.5340   155.4360   143.6760   103.3860   -33.3180     2.2310    23.2900 
  175.1250    59.5870   153.2210   141.7830   102.8710   -32.9630     2.2410    23.2620 
  175.2500    61.4850   150.3140   139.1670    88.6050   -32.6460     2.2580    23.2010 
  175.3750    65.1110   146.4220   135.6140    74.1030   -32.3890     2.2780    23.1630 
  175.5000    68.0420   141.0510   130.6520    71.3270   -32.1460     2.2990    23.1500 
  175.6250    69.0110   134.3610   124.3580    71.3900   -31.8760     2.3150    23.1700 
  175.7500    67.0090   127.5430   117.7410    71.5920   -31.6240     2.3210    23.2780 
  175.8750    65.0280   122.2990   112.3910    68.9570   -31.4110     2.3130    23.5090 
  176.0000    64.3470   119.9190   109.5760    64.2990   -31.2040     2.2960    23.8630 
  176.1250    62.7430   120.9200   109.9410    70.6720   -31.0080     2.2730    24.2920 
  176.2500    60.7270   124.9620   113.3410    84.4960   -30.8490     2.2460    24.5870 
  176.3750    60.7150   130.0200   117.8830    95.9240   -30.7080     2.2250    24.7450 
  176.5000    62.8690   134.7510   122.2930   106.5230   -30.5810     2.2140    24.7990 
  176.6250    64.6150   138.2940   125.7070   112.4890   -30.4330     2.2140    24.8200 
  176.7500    65.7370   140.3410   127.7540   106.3380   -30.2190     2.2220    24.8300 
  176.8750    67.2540   141.4450   128.9730    96.7280   -29.9900     2.2350    24.8300 
  177.0000    67.0090   141.5050   129.4170   103.1270   -29.7930     2.2490    24.8440 
  177.1250    65.3390   139.9950   128.6780   123.2100   -29.5770     2.2600    24.8680 
  177.2500    63.9530   136.6320   126.3380   118.0900   -29.2380     2.2630    24.9320 
  177.3750    63.5920   132.6240   123.2260    96.9860   -28.8170     2.2610    25.0280 
  177.5000    62.3470   128.8370   120.0410    78.6320   -28.3960     2.2560    25.1020 
  177.6250    58.8750   125.3780   116.9860    74.2460   -28.0380     2.2480    25.1100 
  177.7500    57.1340   120.9140   113.1490    80.4830   -27.6810     2.2390    25.0910 
  177.8750    58.5550   113.5360   106.9610    85.5620   -27.2500     2.2320    25.0940 
  178.0000    60.5050   101.9330    97.0120    81.9810   -26.7650     2.2290    25.1350 
  178.1250    60.0380    86.4700    83.0920    67.4510   -26.2790     2.2310    25.2460 
  178.2500    57.7760    69.4640    66.9330    54.1930   -25.8820     2.2380    25.4070 
  178.3750    57.5520    54.2630    52.2610    41.8490   -25.5190     2.2490    25.5490 
  178.5000    60.6120    42.6990    41.2070    31.8950   -25.1320     2.2650    25.5800 
  178.6250    65.3910    35.4690    34.3250    24.7550   -24.7090     2.2890    25.4900 
  178.7500    69.7880    33.2200    31.7940    21.6860   -24.3230     2.3140    25.3450 
  178.8750    72.6700    34.7690    32.4640    21.0440   -24.0590     2.3280    25.1790 
  179.0000    73.4310    39.2510    35.8970    26.5700   -23.8950     2.3280    25.0590 
  179.1250    71.2210    45.0880    41.1610    40.4840   -23.7740     2.3220    24.9500 
  179.2500    69.8260    49.3890    45.8200    51.7960   -23.6780     2.3190    24.8690 
  179.3750    72.7130    50.1740    47.3510    52.1750   -23.6640     2.3210    24.8020 
  179.5000    77.2550    47.6970    45.5220    42.8120   -23.7100     2.3250    24.7220 
  179.6250    79.2170    44.2290    42.3090    31.4040   -23.7730     2.3300    24.5810 
