~V
VERS. 2.00: Ver 2.00
~W
STRT.M 63.0000:
STOP.M 244.0000:
STEP.M 0.1250:
NULL. -999.2500:
UWI. F11131:
~C
DEPT.M :
SP.MV :
DEN.GM/CC :
GR.API :
RML.OHMM :
RI. :
RXO.OHMM :
CALI.CM :
~A
# ...
  209.2500   -21.3130     2.2480    74.1930    15.4560    13.6920    15.1660    24.0930 
  209.3750   -21.3270     2.2480    76.0310    15.0410    13.3960    13.6120    24.0930 
  209.5000   -21.2950     2.2470    76.1410    14.9390    13.3560    13.8170    24.0920 
  209.6250   -21.2450     2.2390    75.2780    15.2090    13.6600    15.2680    24.0930 
  209.7500   -21.1730     2.2300    74.8920    15.6240    14.1460    17.0660    24.0940 
  209.8750   -21.0830     2.2280    74.6650    15.8770    14.5670    17.7550    24.0970 
  210.0000   -20.9590     2.2430    73.6800    15.6620    14.6410    18.0700    24.0990 
  210.1250   -20.8390     2.2620    72.6120    14.8070    14.1580    18.9010    24.0980 
  210.2500   -20.7400     2.2770    75.7530    13.6760    13.3620    18.6230    24.0980 
  210.3750   -20.6820     2.2830    82.2200    12.6570    12.5490    15.4740    24.0980 
  210.5000   -20.6420     2.2860    85.0300    12.0260    11.9590    11.6830    24.0940 
  210.6250   -20.6190     2.2900    81.8670    11.8380    11.6810    12.0330    24.0890 
  210.7500   -20.5870     2.2930    79.4860    11.7730    11.5060    14.2800    24.0890 
  210.8750   -20.5410     2.3000    80.0300    11.6040    11.2520    16.1070    24.0900 
  211.0000   -20.5140     2.3210    79.5540    11.2880    10.8660    15.6230    24.0880 
  211.1250   -20.5020     2.3560    78.0900    11.1520    10.5680    13.4250    24.0950 
  211.2500   -20.5020     2.3920    78.2420    11.7950    10.7940    11.2970    24.0880 
  211.3750   -20.4970     2.4050    78.4980    13.9300    12.0780    11.6050    24.0170 
  211.5000   -20.4830     2.3750    75.5290    18.3380    15.0730    16.5640    23.9300 
  211.6250   -20.4360     2.3210    70.3550    26.4690    21.0930    30.1720    24.0340 
  211.7500   -20.3920     2.2650    67.4320    32.8560    25.9910    38.4900    24.1870 
  211.8750   -20.3750     2.2270    65.1450    41.0450    32.4850    46.6180    24.3800 
  212.0000   -20.3610     2.2120    61.4300    55.9040    44.4820    70.9340    24.6200 
  212.1250   -20.3520     2.2100    60.9060    68.6330    55.1390    95.3330    24.6730 
  212.2500   -20.3310     2.2080    63.8570    75.6460    61.5890   105.0330    24.6670 
  212.3750   -20.3000     2.1990    67.2610    77.3360    63.8910    97.4480    24.6680 
  212.5000   -20.2510     2.1890    68.8250    76.0980    63.5630    94.2480    24.6630 
  212.6250   -20.1800     2.1870    68.4030    73.2630    61.5960    85.3280    24.6660 
  212.7500   -20.0840     2.1980    65.8490    68.9790    58.4430    86.4030    24.6470 
  212.8750   -19.9510     2.2140    62.1090    62.8350    53.9230    87.7490    24.5460 
  213.0000   -19.7880     2.2210    59.9610    55.0890    48.1590    75.5470    24.3760 
  213.1250   -19.5500     2.2180    61.8640    47.0230    41.9400    56.6380    24.2570 
  213.2500   -19.2660     2.2080    64.4550    40.0400    36.3510    42.6260    24.2250 
  213.3750   -18.9730     2.1950    65.0750    34.6870    31.9140    33.0790    24.2050 
  213.5000   -18.7260     2.1810    64.5720    30.9670    28.7450    28.6340    24.1210 
  213.6250   -18.5160     2.1640    66.6770    28.7650    26.8570    28.6850    23.9610 
  213.7500   -18.2830     2.1490    69.0110    27.8460    26.0860    29.1040    23.8510 
  213.8750   -18.0310     2.1380    70.9590    27.3110    25.6790    28.3660    23.7590 
  214.0000   -17.8100     2.1330    71.1930    26.8230    25.3890    26.3000    23.7010 
  214.1250   -17.6350     2.1360    67.8440    26.9140    25.6270    24.9220    23.8670 
  214.2500   -17.4590     2.1410    64.6570    27.3770    26.1510    26.1430    24.1530 
  214.3750   -17.2880     2.1490    63.8410    28.0900    26.8200    28.5830    24.3990 
  214.5000   -17.1140     2.1590    65.0160    28.8650    27.4710    29.9510    24.5160 
  214.6250   -16.9480     2.1720    65.9210    29.2950    27.7900    29.3630    24.5270 
  214.7500   -16.8460     2.1860    65.1580    29.0480    27.5410    27.6580    24.5180 
  214.8750   -16.8080     2.2020    64.2850    27.9860    26.6190    27.8360    24.5000 
  215.0000   -16.8030     2.2170    65.8230    26.2690    25.1470    29.2570    24.4680 
  215.1250   -16.8210     2.2260    69.6230    24.3530    23.4680    29.4160    24.4290 
  215.2500   -16.8580     2.2260    71.4480    22.8310    22.0420    26.1190    24.4100 
  215.3750   -16.9130     2.2170    69.0910    22.0710    21.1650    22.8560    24.4190 
  215.5000   -16.9800     2.2050    64.2800    22.2090    20.9940    23.4170    24.4410 
  215.6250   -17.0270     2.1960    61.6400    23.2390    21.6420    26.9090    24.4500 
  215.7500   -17.0930     2.1910    61.8780    24.6710    22.8110    30.3700    24.4490 
  215.8750   -17.1580     2.1860    62.7310    26.0580    24.1780    32.2960    24.4480 
  216.0000   -17.1570     2.1800    62.6620    27.0230    25.3690    32.7910    24.4470 
  216.1250   -17.1510     2.1830    61.7190    27.5370    26.1600    32.3980    24.4430 
  216.2500   -17.1780     2.2120    60.5940    28.2080    26.9010    31.9460    24.4430 
  216.3750   -17.1600     2.2740    60.0620    29.4110    27.9220    31.2410    24.4490 
  216.5000   -17.0840     2.3480    60.0490    30.8270    29.0800    30.2420    24.4580 
  216.6250   -17.0750     2.3940    58.6050    31.0010    29.2800    34.3500    24.3840 
  216.7500   -17.0650     2.3950    55.7830    28.7870    27.5120    45.9970    24.2010 
  216.8750   -17.0380     2.3640    53.9250    24.1770    23.6480    58.4070    24.0120 
  217.0000   -17.1080     2.3270    56.4040    18.5230    18.7470    43.1570    23.9380 
  217.1250   -17.2300     2.2990    64.2300    13.7670    14.4320    19.3050    23.9800 
  217.2500   -17.3860     2.2740    72.1470    10.5720    11.3680     8.6040    24.0290 
  217.3750   -17.6510     2.2460    76.3630     8.8530     9.5650     6.2000    24.0700 
  217.5000   -17.9630     2.2210    76.4980     8.4030     8.8890     6.7590    24.1190 
  217.6250   -18.2650     2.2080    75.3340     9.2730     9.3930     9.2200    24.1440 
  217.7500   -18.5940     2.2100    73.5110    11.1260    10.7990    13.1040    24.1330 
  217.8750   -18.9470     2.2200    69.9200    13.6710    12.9040    17.8940    24.0760 
  218.0000   -19.3050     2.2310    65.4970    16.3840    15.3140    20.7920    23.9680 
  218.1250   -19.6550     2.2350    63.9720    18.3460    17.2510    21.6260    23.8920 
  218.2500   -19.9950     2.2310    65.4480    19.0730    18.1560    21.2410    23.9250 
  218.3750   -20.3350     2.2200    66.0860    18.6970    18.0080    21.0160    24.0460 
  218.5000   -20.6970     2.2100    64.0830    17.8960    17.3150    20.5670    24.1680 
  218.6250   -21.0600     2.2110    61.9440    17.6420    16.8480    19.9800    24.2200 
  218.7500   -21.4690     2.2240    61.5240    18.5200    17.1270    19.4940    24.2350 
  218.8750   -21.9010     2.2390    61.3990    20.9000    18.4530    20.1140    24.2480 
  219.0000   -22.2780     2.2410    59.9760    24.9320    21.0000    23.1010    24.2760 
  219.1250   -22.6460     2.2360    58.9150    30.4700    24.8480    33.0460    24.3010 
  219.2500   -22.9460     2.2410    60.1610    36.1670    29.1620    51.2270    24.3060 
  219.3750   -23.1280     2.2810    62.7300    40.6690    32.9870    65.5190    24.3030 
  219.5000   -23.2300     2.3680    63.6840    43.2040    35.6140    59.9370    24.2990 
  219.6250   -23.1930     2.4700    60.0570    43.9800    36.9070    47.8810    24.2940 
  219.7500   -22.9890     2.5460    54.7530    44.1120    37.5140    44.2320    24.2910 
  219.8750   -22.6420     2.5670    52.0380    43.5220    37.3930    54.8430    24.2940 
  220.0000   -22.1370     2.5170    52.3580    41.1770    35.8360    70.6500    24.2990 
  220.1250   -21.4660     2.4270    51.2780    35.6280    31.6850    76.8620    24.3040 
  220.2500   -20.7210     2.3220    47.7210    28.1340    25.8200    61.1710    24.3240 
  220.3750   -19.9360     2.2320    44.6310    20.5820    19.6880    39.3060    24.3640 
