~V
VERS. 2.00: Ver 2.00
~W
STRT.M 45.0000:
STOP.M 270.0000:
STEP.M 0.1250:
NULL. -999.2500:
UWI. F11186:
~C
DEPT.M :
SP.MV :
GR.API :
RI. :
RML.OHMM :
RXO.OHMM :
DEN.GM/CC :
~A
# ...
  212.3750   -16.7330    85.0840     4.4640     5.4590     7.7210     2.2830 
  212.5000   -17.1730    83.5440     4.6030     5.6300     8.4470     2.2800 
  212.6250   -17.4510    81.2810     4.8080     5.8680     9.0940     2.2740 
  212.7500   -17.5320    78.3140     5.1320     6.2540     9.7520     2.2650 
  212.8750   -17.3760    76.8030     5.5720     6.8110    10.2830     2.2470 
  213.0000   -17.0000    76.2730     6.0640     7.3750    11.3380     2.2250 
  213.1250   -16.4070    74.7430     6.6350     8.0150    12.6820     2.2250 
  213.2500   -15.6520    72.8280     7.2480     8.6570    13.0040     2.2620 
  213.3750   -14.7720    72.8570     7.9030     9.3740    13.8040     2.3090 
  213.5000   -13.8220    73.6540     8.6620    10.3600    16.1600     2.3330 
  213.6250   -12.8390    71.3400     9.8950    12.3820    18.2160     2.3310 
  213.7500   -11.8540    67.0780    11.7950    15.6040    21.2660     2.3490 
  213.8750   -10.8950    63.6160    12.9740    17.5640    29.6890     2.4210 
  214.0000    -9.9820    62.2840    12.1810    16.4810    38.3980     2.5250 
  214.1250    -9.1520    62.7840     9.4840    12.5330    35.0420     2.5910 
  214.2500    -8.4280    65.2260     5.7790     7.1600    20.3900     2.5540 
  214.3750    -7.8540    68.6550     3.1770     3.7190     7.2280     2.4270 
  214.5000    -7.4320    71.7160     1.8720     2.1520     2.6160     2.3170 
  214.6250    -7.1670    76.4910     1.3110     1.5460     2.4270     2.2870 
  214.7500    -7.0180    81.9220     1.1280     1.4140     2.2910     2.2960 
  214.8750    -6.9520    84.4380     1.1550     1.5290     2.2130     2.3010 
  215.0000    -6.9260    84.9560     1.2640     1.6960     2.1960     2.3080 
  215.1250    -6.9200    87.2720     1.3790     1.8500     2.2530     2.3120 
  215.2500    -6.9200    90.1490     1.4770     1.9480     2.2740     2.2990 
  215.3750    -6.9260    88.4530     1.5240     1.9730     2.2260     2.2730 
  215.5000    -6.9380    83.5000     1.5220     1.9470     2.2540     2.2580 
  215.6250    -6.9600    80.4960     1.4690     1.8590     2.3050     2.2640 
  215.7500    -6.9980    81.6090     1.4000     1.7620     2.3380     2.2720 
  215.8750    -7.0670    83.1650     1.3480     1.6950     2.4280     2.2720 
  216.0000    -7.1740    83.0620     1.3080     1.6510     2.4870     2.2710 
  216.1250    -7.3300    81.0510     1.2720     1.6230     2.5150     2.2790 
  216.2500    -7.5320    79.0810     1.2490     1.6090     2.5280     2.2810 
  216.3750    -7.7770    81.3950     1.2490     1.6190     2.4910     2.2740 
  216.5000    -8.0500    87.2030     1.2950     1.6920     2.6800     2.2720 
  216.6250    -8.3330    91.9410     1.4110     1.8680     3.1730     2.2790 
  216.7500    -8.7060    89.3160     1.6920     2.2900     4.0770     2.2840 
  216.8750    -8.9260    85.0930     1.9300     2.6420     4.8240     2.2820 
  217.0000    -9.0970    84.1460     2.1510     2.9450     5.2520     2.2870 
  217.1250    -9.2140    86.3940     2.2650     3.0710     5.0220     2.3010 
  217.2500    -9.2890    89.5470     2.2640     3.0190     4.9570     2.3140 
  217.3750    -9.3330    89.5790     2.1630     2.8610     4.9020     2.3190 
  217.5000    -9.3640    86.7300     2.0200     2.6420     4.4100     2.3130 
  217.6250    -9.4000    85.0440     1.8690     2.4330     3.8150     2.3100 
  217.7500    -9.4590    87.8210     1.8090     2.3430     3.5680     2.3100 
  217.8750    -9.5660    92.4050     1.8390     2.3700     3.6290     2.3020 
  218.0000    -9.7370    92.9520     1.9280     2.4880     4.4460     2.2830 
  218.1250    -9.9820    89.1980     2.0540     2.6620     6.0500     2.2650 
  218.2500   -10.2870    85.4800     2.2620     2.9550     5.9890     2.2640 
  218.3750   -10.6270    85.1740     2.5270     3.3010     4.5800     2.2730 
  218.5000   -10.9670    88.2470     2.7270     3.5520     5.2670     2.2860 
  218.6250   -11.2720    91.3800     2.8580     3.7170     7.7180     2.3010 
  218.7500   -11.5340    90.9090     2.8380     3.6700     8.0530     2.3020 
  218.8750   -11.7760    87.6360     2.6670     3.4210     5.7480     2.2850 
  219.0000   -12.0600    86.6760     2.4400     3.0730     4.0730     2.2690 
  219.1250   -12.4870    87.5840     2.1660     2.6870     3.7830     2.2700 
  219.2500   -13.1330    86.0070     1.9640     2.4030     3.7690     2.2820 
  219.3750   -14.0840    81.9670     2.0010     2.4650     3.9920     2.2850 
  219.5000   -15.3310    80.3990     2.2870     2.8360     4.5190     2.2690 
  219.6250   -16.8400    81.8680     2.8780     3.6080     5.4280     2.2330 
  219.7500   -18.4700    81.6310     3.7250     4.6830     7.5910     2.1880 
  219.8750   -20.0630    78.0680     4.7460     5.9450    10.6210     2.1610 
  220.0000   -21.4800    74.1700     5.7250     7.0920    11.8220     2.1560 
  220.1250   -22.6300    71.2860     6.4280     7.7730    10.8030     2.1530 
  220.2500   -23.5420    68.9140     6.7460     8.0070    10.3060     2.1360 
  220.3750   -24.2580    67.3860     6.7880     7.9460    11.0540     2.1180 
  220.5000   -24.8540    67.4610     6.7580     7.8670    11.1490     2.1160 
  220.6250   -25.3610    68.7290     6.6860     7.7540    10.4600     2.1230 
  220.7500   -25.7980    69.3190     6.5300     7.5220    10.1330     2.1280 
  220.8750   -26.1620    69.3200     6.2470     7.1300     9.7290     2.1300 
  221.0000   -26.4560    69.7360     5.8980     6.6980     8.7880     2.1340 
  221.1250   -26.6740    69.2740     5.7380     6.4940     8.2300     2.1420 
  221.2500   -26.8270    66.6300     5.7830     6.5510     8.9210     2.1500 
  221.3750   -26.9160    64.1990     6.0110     6.8710    10.2630     2.1570 
  221.5000   -26.9510    64.3350     6.3890     7.3000    10.7030     2.1590 
  221.6250   -26.9290    66.4010     6.8580     7.7960    10.2270     2.1460 
  221.7500   -26.8570    68.0540     7.3620     8.2940    10.2020     2.1260 
  221.8750   -26.7430    68.9970     8.0220     8.9240    10.6090     2.1140 
  222.0000   -26.6120    69.5920     8.8670     9.8160    11.2620     2.1160 
  222.1250   -26.4910    67.8250     9.8830    10.9600    12.8220     2.1240 
  222.2500   -26.3960    63.9680    11.0670    12.2930    14.2950     2.1250 
  222.3750   -26.3350    62.1920    12.0230    13.2880    14.3740     2.1190 
  222.5000   -26.3010    62.8790    12.5990    13.7980    13.8730     2.1120 
  222.6250   -26.2790    63.8480    12.7080    13.7360    13.6350     2.1070 
  222.7500   -26.2510    62.7430    12.5780    13.4480    13.3170     2.1030 
  222.8750   -26.2080    62.4160    12.6120    13.4250    12.6650     2.1030 
  223.0000   -26.1490    63.4180    13.0590    13.9170    12.8630     2.1090 
  223.1250   -26.0800    65.0970    14.0990    15.0680    15.3040     2.1160 
  223.2500   -26.0080    66.4420    15.5420    16.6610    18.3670     2.1250 
  223.3750   -25.9330    66.4000    17.2240    18.4710    19.8340     2.1340 
  223.5000   -25.8490    64.7680    18.7880    20.0900    20.0690     2.1400 
  223.6250   -25.7540    63.3000    19.8320    21.0750    20.6350     2.1400 
  223.7500   -25.6480    63.5700    20.4560    21.5950    21.2870     2.1400 
  223.8750   -25.5370    64.5150    20.5150    21.4950    20.3960     2.1450 
  224.0000   -25.4300    65.2360    20.2040    21.0370    19.1600     2.1500 
  224.1250   -25.3330    65.2830    19.5400    20.2140    18.5640     2.1430 
  224.2500   -25.2550    65.4020    18.6550    19.1930    17.8620     2.1230 
  224.3750   -25.2120    66.4810    17.5480    17.9430    17.5840     2.1030 
  224.5000   -25.2110    68.7350    16.4400    16.7120    18.0130     2.0980 
  224.6250   -25.2560    69.1750    15.5710    15.7760    17.9100     2.1100 
  224.7500   -25.3240    68.1800    15.1600    15.3170    16.6100     2.1260 
  224.8750   -25.3870    67.3440    15.2650    15.4270    19.7440     2.1260 
  225.0000   -25.4190    67.4960    15.7320    15.9390    27.1660     2.1130 
  225.1250   -25.3980    65.5400    16.7210    16.9940    26.7010     2.1080 
