~V
VERS. 2.00: Ver 2.00
~W
STRT.M 49.0000:
STOP.M 247.0000:
STEP.M 0.1250:
NULL. -999.2500:
UWI. F11144:
~C
DEPT.M :
DEN.GM/CC :
SP.MV :
GR.API :
RML.OHMM :
RI. :
RXO.OHMM :
CALI.CM :
~A
# ...
  217.7500     2.3110   -28.6770    50.3320     5.9160     5.5730     6.4910    23.3490 
  217.8750     2.3030   -28.7690    51.0910     6.4100     5.9080     6.8210    23.3280 
  218.0000     2.2960   -28.9790    50.2670     7.0210     6.4200     7.8830    23.4070 
  218.1250     2.2960   -29.1560    47.7460     7.5760     6.9820     9.2540    23.6720 
  218.2500     2.3010   -29.1850    46.2950     7.8210     7.3680     9.8680    24.0270 
  218.3750     2.3100   -29.0680    48.5630     7.7030     7.4550     9.1920    24.3030 
  218.5000     2.3220   -28.7120    54.6760     7.3170     7.2530     7.9560    24.4350 
  218.6250     2.3350   -28.2100    61.5620     6.8640     6.8960     7.0890    24.4350 
  218.7500     2.3470   -27.5530    65.0630     6.5840     6.5870     6.6940    24.3280 
  218.8750     2.3580   -26.8430    66.0820     6.5470     6.4490     6.5500    24.2010 
  219.0000     2.3680   -26.1840    64.7580     6.7240     6.4990     6.7220    24.1090 
  219.1250     2.3670   -25.6040    61.2420     7.0040     6.6790     7.1360    24.0690 
  219.2500     2.3470   -25.1890    57.5830     7.1810     6.8350     7.6850    24.1290 
  219.3750     2.3240   -24.8780    56.8480     7.0980     6.8010     8.1030    24.2170 
  219.5000     2.3130   -24.6400    57.7360     6.7290     6.5060     8.1850    24.3120 
  219.6250     2.3190   -24.4570    58.8730     6.2060     6.0290     7.7970    24.3730 
  219.7500     2.3370   -24.3220    61.3850     5.7790     5.5670     6.9450    24.2320 
  219.8750     2.3520   -24.1880    63.2290     5.6020     5.2790     6.4820    24.0340 
  220.0000     2.3540   -24.0260    64.0810     5.7070     5.2250     6.0850    23.9900 
  220.1250     2.3470   -23.8520    66.0580     6.0400     5.3950     6.2130    24.1070 
  220.2500     2.3400   -23.6680    70.7960     6.4860     5.7290     6.9970    24.3320 
  220.3750     2.3380   -23.5350    76.4730     6.8710     6.0790     7.4730    24.5430 
  220.5000     2.3340   -23.4620    81.5750     7.0980     6.3480     7.4910    24.6730 
  220.6250     2.3230   -23.4130    85.8560     7.1600     6.4930     7.4170    24.7260 
  220.7500     2.3040   -23.3520    91.7170     7.1280     6.5300     7.4870    24.7140 
  220.8750     2.2830   -23.2600    96.2390     7.1230     6.5540     7.5580    24.6900 
  221.0000     2.2560   -23.1550    95.8210     7.2050     6.6200     7.5830    24.6450 
  221.1250     2.2270   -23.0290    92.9340     7.3780     6.7510     7.7150    24.5270 
  221.2500     2.2150   -22.9200    91.1130     7.6070     6.9390     8.2430    24.3640 
  221.3750     2.2260   -22.7570    90.7200     7.8180     7.1320     8.9500    24.1400 
  221.5000     2.2470   -22.5840    89.7530     7.9580     7.2820     9.2390    23.9260 
  221.6250     2.2610   -22.4060    88.3580     8.0110     7.3560     8.8940    23.7730 
  221.7500     2.2660   -22.1470    86.8890     8.0060     7.3570     8.4890    23.7160 
  221.8750     2.2800   -21.8780    86.0220     8.0060     7.3410     8.4430    23.6990 
  222.0000     2.3050   -21.5320    91.1440     8.0250     7.3410     8.3830    23.6760 
  222.1250     2.3310   -21.0810   100.4370     8.0330     7.3560     8.2160    23.6210 
  222.2500     2.3450   -20.5670   102.0840     7.9430     7.3280     8.4460    23.4570 
  222.3750     2.3470   -19.9860    97.2750     7.7030     7.1900     8.7050    23.1470 
  222.5000     2.3470   -19.3540    94.2670     7.3190     6.9110     8.3200    22.8630 
  222.6250     2.3500   -18.7190    96.8340     6.8620     6.5260     7.6500    22.7480 
  222.7500     2.3530   -18.1110    98.9050     6.4480     6.1210     6.9900    22.6520 
  222.8750     2.3530   -17.5200    98.2200     6.1450     5.7820     6.4700    22.4490 
  223.0000     2.3510   -17.0070    98.3410     5.9720     5.5520     6.2720    22.2120 
  223.1250     2.3520   -16.5770    99.8260     5.9060     5.4350     6.3410    22.0610 
  223.2500     2.3550   -16.1910   100.8890     5.9110     5.4140     6.4370    22.0220 
  223.3750     2.3530   -15.9150    99.4760     5.9410     5.4370     6.4470    21.9810 
  223.5000     2.3470   -15.7030    95.8010     5.9800     5.4830     6.4230    21.8950 
  223.6250     2.3450   -15.5270    92.2550     6.0230     5.5410     6.4340    21.7930 
  223.7500     2.3490   -15.4300    93.0830     6.0670     5.6050     6.5040    21.7440 
  223.8750     2.3530   -15.3290    95.2070     6.1050     5.6660     6.6090    21.7190 
  224.0000     2.3540   -15.2190    95.0740     6.1280     5.7130     6.6900    21.6870 
  224.1250     2.3560   -15.1370    91.6330     6.1330     5.7360     6.7050    21.6570 
  224.2500     2.3570   -15.0830    87.9950     6.1080     5.7260     6.6930    21.6350 
  224.3750     2.3560   -15.0210    87.3110     6.0570     5.6900     6.6700    21.6150 
  224.5000     2.3510   -14.9440    86.7530     5.9800     5.6340     6.6430    21.6430 
  224.6250     2.3440   -14.8620    85.1320     5.8820     5.5610     6.6040    21.8430 
  224.7500     2.3410   -14.7340    82.8110     5.7670     5.4680     6.5840    22.2950 
  224.8750     2.3430   -14.6180    81.0410     5.6470     5.3630     6.5090    22.7240 
  225.0000     2.3460   -14.4880    81.6960     5.5370     5.2580     6.3670    22.9340 
  225.1250     2.3480   -14.3680    84.0150     5.4570     5.1720     6.2200    22.9790 
  225.2500     2.3480   -14.3010    85.0400     5.4360     5.1310     6.1830    22.9750 
  225.3750     2.3460   -14.2180    83.7710     5.4660     5.1340     6.2490    22.9680 
  225.5000     2.3430   -14.1910    83.1520     5.5240     5.1660     6.2980    22.9760 
  225.6250     2.3370   -14.1660    85.5740     5.5810     5.2060     6.3330    22.9870 
  225.7500     2.3310   -14.1590    86.8870     5.6020     5.2300     6.3220    22.9990 
  225.8750     2.3280   -14.2150    85.9450     5.5910     5.2310     6.3240    23.0210 
  226.0000     2.3330   -14.2580    84.1430     5.5710     5.2190     6.2770    23.0490 
  226.1250     2.3430   -14.2640    82.2040     5.5730     5.2140     6.1780    23.0650 
  226.2500     2.3500   -14.2210    83.3660     5.6420     5.2480     6.1210    23.0650 
  226.3750     2.3480   -14.1510    87.2860     5.7820     5.3340     6.1650    23.0590 
  226.5000     2.3440   -14.0440    89.9090     5.9840     5.4760     6.3910    23.0570 
  226.6250     2.3520   -13.9400    86.9220     6.2190     5.6610     6.8340    23.0620 
  226.7500     2.3680   -13.8060    77.5660     6.4410     5.8630     7.1980    23.0620 
  226.8750     2.3790   -13.6290    70.2140     6.6160     6.0430     7.0540    23.0230 
  227.0000     2.3800   -13.4750    67.8340     6.7360     6.1800     6.7790    22.9230 
  227.1250     2.3730   -13.3480    69.3060     6.8190     6.2800     6.7830    22.8180 
  227.2500     2.3610   -13.2400    71.6850     6.9070     6.3740     7.1570    22.7730 
  227.3750     2.3510   -13.1410    70.7030     7.0370     6.5040     7.4190    22.7760 
  227.5000     2.3480   -13.0870    68.0830     7.2210     6.6870     7.4240    22.8240 
  227.6250     2.3470   -13.0250    67.4970     7.4510     6.9120     7.4900    22.9060 
  227.7500     2.3420   -13.0230    71.2350     7.6960     7.1480     7.9740    22.9690 
  227.8750     2.3360   -13.0650    75.7350     7.9120     7.3530     8.2580    22.9910 
  228.0000     2.3330   -13.0920    76.7700     8.0630     7.4980     7.9230    22.9930 
  228.1250     2.3300   -13.1470    75.5420     8.1260     7.5690     7.2900    22.9850 
  228.2500     2.3280   -13.2020    76.3100     8.0890     7.5550     7.1510    22.9660 
  228.3750     2.3270   -13.2660    76.4770     7.9990     7.4870     7.1680    22.9430 
  228.5000     2.3270   -13.3300    71.9390     7.9010     7.3920     7.2620    22.9380 
  228.6250     2.3230   -13.3910    65.4080     7.8310     7.3030     7.5550    22.9520 
  228.7500     2.3150   -13.4150    64.1640     7.8060     7.2470     7.9340    22.9260 
  228.8750     2.3100   -13.4280    67.3690     7.8080     7.2250     7.9250    22.8390 
