~V
VERS. 2.00: Ver 2.00
~W
STRT.M 40.0000:
STOP.M 232.0000:
STEP.M 0.1250:
NULL. -999.2500:
UWI. F11121:
~C
DEPT.M :
SP.MV :
DEN.GM/CC :
GR.API :
RML.OHMM :
RI. :
RXO.OHMM :
CALI.CM :
~A
# ...
   62.5000     4.1810     2.2690    85.2930     6.8490     6.8460     6.7000    23.1580 
   62.6250     3.6870     2.2510    87.9690     6.2880     6.2710     6.1190    23.3210 
   62.7500     3.1730     2.2530    90.1650     5.9500     5.8880     5.6830    23.4820 
   62.8750     2.6310     2.2550    90.2240     5.8760     5.7520     5.7520    23.5800 
   63.0000     2.0800     2.2450    90.0940     6.0250     5.8330     6.0890    23.5470 
   63.1250     1.5620     2.2220    90.9460     6.3450     6.0750     5.7990    23.2110 
   63.2500     1.0530     2.2020    89.6510     6.7560     6.3950     6.0350    22.6820 
   63.3750     0.5540     2.1920    83.1720     7.2270     6.7640     6.6190    22.2340 
   63.5000     0.0880     2.1920    73.5720     7.7410     7.1620     7.1900    22.0440 
   63.6250    -0.3680     2.1960    67.0340     8.2670     7.5550     7.6030    22.0280 
   63.7500    -0.8000     2.1950    66.1690     8.7090     7.8700     7.5890    22.0200 
   63.8750    -1.2000     2.1880    69.4150     8.9360     8.0110     7.7910    22.0200 
   64.0000    -1.5670     2.1790    72.6890     8.8500     7.9050     7.9940    22.0390 
   64.1250    -1.8800     2.1770    73.9740     8.3990     7.5090     7.8980    22.1180 
   64.2500    -2.1380     2.1790    75.1810     7.7740     6.9570     7.4710    22.3070 
   64.3750    -2.3600     2.1760    76.8330     7.2260     6.4220     6.6080    22.6100 
   64.5000    -2.5750     2.1650    76.7160     7.0570     6.1270     6.1350    22.9450 
   64.6250    -2.7830     2.1580    73.7000     7.7000     6.4030     6.6410    23.2390 
   64.7500    -2.9820     2.1830    71.6010     9.3220     7.3880     7.8590    23.5450 
   64.8750    -3.1530     2.2630    70.0770    12.1300     9.2110    11.2100    23.8630 
   65.0000    -3.3150     2.4010    67.1710    16.0530    11.7970    22.5680    24.1020 
   65.1250    -3.5060     2.5320    62.3670    19.7530    14.4000    36.3370    24.1560 
   65.2500    -3.7250     2.5680    58.3420    20.7390    15.6360    36.5550    23.9470 
   65.3750    -3.9390     2.5010    55.5390    18.3670    14.8370    23.8560    23.4270 
   65.5000    -4.1350     2.3810    54.3310    14.5330    12.6340    13.8140    22.7610 
   65.6250    -4.3070     2.2640    56.5020    11.4390    10.2950     9.2690    22.3380 
   65.7500    -4.4620     2.1770    59.7170     9.5140     8.5360     7.8310    22.2290 
   65.8750    -4.6210     2.1240    61.5740     8.5390     7.4310     7.5310    22.2550 
   66.0000    -4.7710     2.1010    62.7640     8.2130     6.8630     7.5590    22.2720 
   66.1250    -4.8820     2.0960    64.5660     8.3040     6.7050     7.5800    22.2590 
   66.2500    -4.9700     2.0970    63.7320     8.5210     6.7300     7.5550    22.2370 
   66.3750    -5.0390     2.1010    60.5300     8.7130     6.8150     7.5340    22.2450 
   66.5000    -5.0960     2.1060    60.4820     8.7970     6.8760     7.5240    22.3020 
   66.6250    -5.1230     2.1200    65.8560     8.7430     6.8620     7.6020    22.4120 
   66.7500    -5.1330     2.1450    69.0550     8.6530     6.8120     7.7630    22.5820 
   66.8750    -5.1470     2.1770    69.5290     8.6480     6.7910     7.9160    22.8410 
   67.0000    -5.1820     2.2080    70.6660     8.8090     6.8560     7.8740    23.2010 
   67.1250    -5.2530     2.2340    71.3370     9.1570     7.0410     8.4590    23.6170 
   67.2500    -5.3200     2.2550    67.9260     9.5600     7.2850    11.3980    23.9190 
   67.3750    -5.3880     2.2670    63.8880     9.8760     7.5050    17.3490    23.9520 
   67.5000    -5.4460     2.2580    62.5530     9.9870     7.6070    18.4890    23.7320 
   67.6250    -5.4730     2.2130    61.0430     9.8370     7.5240    11.3100    23.4870 
   67.7500    -5.4560     2.1470    58.3410     9.5710     7.3270     8.4280    23.3900 
   67.8750    -5.3850     2.0810    57.5160     9.3060     7.0920     7.7100    23.3190 
   68.0000    -5.2580     2.0380    59.0240     9.1140     6.8830     7.8170    23.1020 
   68.1250    -5.0450     2.0310    60.5750     8.9940     6.7300     7.8550    22.7740 
   68.2500    -4.7860     2.0520    63.0830     8.8620     6.5880     8.0270    22.5630 
   68.3750    -4.4950     2.0880    66.9430     8.6570     6.4130     8.0490    22.5670 
   68.5000    -4.1860     2.1260    70.0070     8.3830     6.2000     7.5670    22.7160 
   68.6250    -3.8690     2.1530    70.4350     8.1320     6.0100     6.7750    22.8480 
   68.7500    -3.5670     2.1660    69.8600     8.0110     5.9130     6.3210    22.8650 
   68.8750    -3.2880     2.1590    68.4050     8.0850     5.9500     6.4060    22.7720 
   69.0000    -3.0150     2.1300    64.6830     8.3880     6.1320     7.4010    22.6920 
   69.1250    -2.7670     2.0880    59.6210     8.9380     6.4620     8.0890    22.8650 
   69.2500    -2.5060     2.0570    59.2610     9.5760     6.8480     8.3510    23.2970 
   69.3750    -2.1910     2.0640    64.6720    10.0950     7.1800     8.1470    23.7760 
   69.5000    -1.8200     2.1290    71.1550    10.2430     7.3120     8.0260    24.0960 
   69.6250    -1.4280     2.2450    75.7190     9.7470     7.0680     8.0010    24.2590 
   69.7500    -1.0550     2.3460    80.4100     8.7720     6.5100     7.4810    24.4050 
   69.8750    -0.6860     2.3880    86.8700     7.6100     5.7830     6.1060    24.5120 
   70.0000    -0.3140     2.3770    93.0270     6.5820     5.0790     4.8370    24.5260 
   70.1250     0.0440     2.3530    95.0010     5.9490     4.5800     4.0250    24.4890 
   70.2500     0.3470     2.3440    94.1900     5.7140     4.3270     3.8460    24.4670 
   70.3750     0.5590     2.3510    92.5530     5.8740     4.3430     4.3180    24.4620 
   70.5000     0.6920     2.3600    92.6130     6.3970     4.6280     4.8900    24.4630 
   70.6250     0.7510     2.3690    93.7610     7.2290     5.1670     5.2980    24.4620 
   70.7500     0.7700     2.3830    91.9330     8.1370     5.8070     5.9420    24.4600 
   70.8750     0.7580     2.3990    85.1480     8.8890     6.3840     7.1770    24.4600 
   71.0000     0.7150     2.4090    77.5560     9.2580     6.7250     8.3430    24.4620 
   71.1250     0.6490     2.3960    75.9540     9.0450     6.6740     8.0450    24.4630 
   71.2500     0.5580     2.3620    80.1670     8.4670     6.3460     6.5160    24.4620 
   71.3750     0.4360     2.3220    84.1290     7.7790     5.8920     5.5840    24.4560 
   71.5000     0.2920     2.2880    86.5750     7.1960     5.4610     5.2710    24.4450 
   71.6250     0.1360     2.2740    88.7670     6.8650     5.1780     5.0500    24.3890 
   71.7500    -0.0350     2.2740    88.7580     6.7570     5.0540     4.7750    24.2130 
   71.8750    -0.2380     2.2770    85.4190     6.8400     5.0710     4.8550    23.8270 
   72.0000    -0.4900     2.2760    79.3640     7.0710     5.1940     5.4290    23.2220 
   72.1250    -0.7990     2.2610    73.9630     7.3920     5.3860     6.3840    22.6140 
   72.2500    -1.0980     2.2390    72.5460     7.7090     5.5820     6.8250    22.2470 
   72.3750    -1.3660     2.2140    74.2420     7.9340     5.7260     6.9420    22.1410 
   72.5000    -1.6330     2.1950    75.6410     8.0020     5.7640     7.0140    22.1540 
   72.6250    -1.9080     2.1920    77.0950     7.9110     5.6720     7.0260    22.1590 
   72.7500    -2.1710     2.2030    80.6090     7.7930     5.5370     6.9290    22.1530 
   72.8750    -2.4250     2.2230    83.0820     7.7430     5.4410     6.7210    22.1470 
   73.0000    -2.6840     2.2370    81.1000     7.8140     5.4400     6.5280    22.1620 
   73.1250    -2.9550     2.2300    76.2960     8.0350     5.5650     7.0100    22.2360 
   73.2500    -3.2340     2.2020    72.6390     8.3400     5.7540     8.6600    22.3250 
   73.3750    -3.5050     2.1640    69.9980     8.6550     5.9440    11.4170    22.3440 
   73.5000    -3.7360     2.1330    69.5750     8.8990     6.0690    12.4040    22.2500 
   73.6250    -3.9340     2.1220    71.9070     8.9980     6.0800     9.8620    22.1140 
