~V
VERS. 2.00: Ver 2.00
~W
STRT.M 60.0000:
STOP.M 281.0000:
STEP.M 0.1250:
NULL. -999.2500:
UWI. F11154:
~C
DEPT.M :
DEN.GM/CC :
GR.API :
RML.OHMM :
RI. :
RXO.OHMM :
CALI.CM :
SP.MV :
~A
# ...
  127.5000     2.6130    39.9550    26.1410    23.1020    25.5020    24.2360    -0.2300 
  127.6250     2.6170    41.1960    26.6610    23.6370    25.1390    24.2570    -0.1200 
  127.7500     2.6200    42.3500    27.3290    24.3260    25.4160    24.2550    -0.0840 
  127.8750     2.6270    42.2440    28.0760    25.1100    26.3490    24.2220    -0.1160 
  128.0000     2.6340    41.6310    28.7580    25.8670    27.9230    24.1640    -0.1630 
  128.1250     2.6340    41.8340    29.1520    26.4000    29.5400    24.1050    -0.2190 
  128.2500     2.6290    42.6570    29.1830    26.6190    30.8200    24.1590    -0.2760 
  128.3750     2.6250    43.9180    28.8580    26.4960    31.1070    24.2140    -0.2960 
  128.5000     2.6250    45.4570    28.3060    26.0840    31.0800    24.2270    -0.2910 
  128.6250     2.6250    47.0230    27.6840    25.4670    30.5350    24.2160    -0.2530 
  128.7500     2.6250    47.7120    27.1450    24.7960    29.1420    24.2080    -0.1870 
  128.8750     2.6270    47.3770    26.7730    24.1530    26.4990    24.1740    -0.1490 
  129.0000     2.6270    45.9160    26.4140    23.5790    23.8070    24.1130    -0.1870 
  129.1250     2.6170    44.1330    25.8840    23.0940    22.7990    24.0510    -0.2850 
  129.2500     2.6030    44.4020    25.4790    22.6690    22.5210    24.0070    -0.4340 
  129.3750     2.5940    46.2790    25.1180    22.2760    22.2690    23.9880    -0.6430 
  129.5000     2.5920    48.1050    24.6700    21.8900    21.5490    23.9880    -0.8890 
  129.6250     2.5870    47.6740    24.1250    21.4880    20.7160    23.9800    -1.1810 
  129.7500     2.5720    46.1130    23.5570    21.0630    20.2090    23.9850    -1.4600 
  129.8750     2.5520    44.9080    22.9760    20.6210    19.9190    24.0690    -1.6610 
  130.0000     2.5390    44.4130    22.4120    20.1820    19.4670    24.2300    -1.7800 
  130.1250     2.5370    44.1680    21.9280    19.7990    18.9640    24.4030    -1.8120 
  130.2500     2.5400    43.0340    21.5680    19.5120    18.6960    24.6470    -1.7650 
  130.3750     2.5450    41.0960    21.3770    19.3600    18.7870    24.8950    -1.6580 
  130.5000     2.5570    39.4340    21.3840    19.3690    19.6640    25.0000    -1.5120 
  130.6250     2.5800    39.6320    21.6100    19.5630    21.3660    24.9330    -1.3210 
  130.7500     2.6040    41.1950    21.9790    19.8820    22.7940    24.8490    -1.1360 
  130.8750     2.6230    42.5470    22.4130    20.2740    23.4080    24.7850    -0.9700 
  131.0000     2.6320    42.2660    22.8220    20.6660    23.4070    24.7220    -0.8220 
  131.1250     2.6320    40.7030    23.1040    20.9650    22.0500    24.6800    -0.7140 
  131.2500     2.6320    39.7370    23.2520    21.1530    21.3360    24.6250    -0.5930 
  131.3750     2.6330    39.9870    23.3050    21.2490    21.3410    24.5780    -0.4730 
  131.5000     2.6320    40.1870    23.3410    21.3120    21.3550    24.4820    -0.3700 
  131.6250     2.6280    40.3060    23.4670    21.4290    21.9580    24.3480    -0.3230 
  131.7500     2.6240    41.1390    23.7080    21.6410    22.9750    24.2160    -0.3180 
  131.8750     2.6190    42.1880    24.0240    21.9290    24.1890    24.0600    -0.3830 
  132.0000     2.6110    42.9050    24.3320    22.2350    24.6820    23.8920    -0.5350 
  132.1250     2.6020    43.6660    24.5260    22.4730    24.4010    23.8830    -0.7340 
  132.2500     2.5940    45.0760    24.6040    22.6190    24.3600    24.0110    -0.9960 
  132.3750     2.5870    45.8380    24.6130    22.6920    24.1350    24.1790    -1.3450 
  132.5000     2.5820    44.3280    24.6120    22.7340    23.6940    24.3220    -1.7440 
  132.6250     2.5840    42.6790    24.5970    22.7420    24.2260    24.4930    -2.1080 
  132.7500     2.5910    43.1090    24.4920    22.6640    24.8030    24.6280    -2.4180 
  132.8750     2.5950    43.7880    24.2100    22.4350    25.0820    24.7070    -2.6640 
  133.0000     2.5900    42.3120    23.7160    22.0230    24.5660    24.7430    -2.8120 
  133.1250     2.5720    40.1650    23.0600    21.4540    22.7260    24.7620    -2.8940 
  133.2500     2.5470    39.6720    22.6590    21.0960    21.6750    24.7770    -2.9550 
  133.3750     2.5210    40.4340    22.3200    20.7770    21.0710    24.8030    -2.9570 
  133.5000     2.5050    42.4580    21.9260    20.3760    20.6490    24.8650    -2.8850 
  133.6250     2.5090    45.1870    21.9040    20.2830    20.6730    24.9120    -2.7800 
  133.7500     2.5310    47.4890    22.2130    20.4850    20.9250    24.8750    -2.6810 
  133.8750     2.5590    47.5610    22.7800    20.9400    21.5700    24.7580    -2.5860 
  134.0000     2.5810    45.3450    23.4840    21.5580    22.3730    24.6110    -2.4940 
  134.1250     2.5840    43.8480    24.1640    22.2110    23.2770    24.4220    -2.4090 
  134.2500     2.5780    44.6470    24.6890    22.7680    24.4940    24.2950    -2.2960 
  134.3750     2.5720    46.6990    24.9930    23.1490    25.8250    24.3430    -2.1240 
  134.5000     2.5680    47.5530    25.0780    23.3350    26.2570    24.6000    -1.9210 
  134.6250     2.5600    46.0580    25.0220    23.3650    25.9300    24.8640    -1.7210 
  134.7500     2.5540    44.4750    24.9890    23.3790    24.9700    25.0490    -1.5730 
  134.8750     2.5510    44.0560    25.0740    23.4680    24.7430    25.2230    -1.4980 
  135.0000     2.5470    44.0350    25.2880    23.6590    25.7750    25.3410    -1.4870 
  135.1250     2.5350    43.6740    25.5350    23.8900    26.8040    25.3460    -1.5320 
  135.2500     2.5220    45.0010    25.6540    24.0280    28.1500    25.3240    -1.6280 
  135.3750     2.5110    47.6350    25.5530    23.9870    28.8280    25.3090    -1.8290 
  135.5000     2.4990    48.6810    25.2340    23.7510    28.0060    25.3120    -2.1340 
  135.6250     2.4910    46.5680    24.7900    23.3790    25.7810    25.3140    -2.4940 
  135.7500     2.4940    44.1900    24.3640    22.9940    23.8570    25.2610    -2.8480 
  135.8750     2.5090    42.9130    24.0060    22.6520    22.6800    25.1160    -3.1700 
  136.0000     2.5290    42.4180    23.7040    22.3570    22.4230    24.8910    -3.4650 
  136.1250     2.5410    42.3460    23.4250    22.0950    22.4460    24.5900    -3.7620 
  136.2500     2.5410    43.1110    23.1550    21.8540    22.1300    24.2390    -4.0480 
  136.3750     2.5340    44.0510    22.9350    21.6600    21.0110    23.8610    -4.2960 
  136.5000     2.5270    44.4480    22.8280    21.5600    20.1720    23.7070    -4.4960 
  136.6250     2.5280    45.5480    22.8840    21.5990    20.5940    23.7040    -4.6500 
  136.7500     2.5300    47.2860    23.0110    21.7090    21.3800    23.5740    -4.7620 
  136.8750     2.5290    47.9450    23.0810    21.7870    21.9510    23.3870    -4.8410 
  137.0000     2.5250    47.8140    22.9720    21.7190    22.0770    23.3690    -4.9420 
  137.1250     2.5150    48.5280    22.5810    21.3940    21.8600    23.5200    -5.0470 
  137.2500     2.5030    49.9070    22.0050    20.8780    21.4400    23.6970    -5.1400 
  137.3750     2.4900    49.4790    21.3760    20.2810    20.6580    23.8150    -5.1970 
  137.5000     2.4800    46.4000    20.8400    19.7410    19.8040    23.8030    -5.2230 
  137.6250     2.4710    43.1580    20.5200    19.3830    19.7610    23.7470    -5.2130 
  137.7500     2.4590    41.1920    20.3880    19.2020    19.7930    23.7920    -5.1590 
  137.8750     2.4440    40.1610    20.3850    19.1550    20.1440    23.9270    -5.0760 
  138.0000     2.4350    39.0010    20.4340    19.1820    20.8910    24.0700    -4.9600 
  138.1250     2.4400    37.8390    20.4780    19.2330    21.0760    24.1510    -4.7910 
  138.2500     2.4510    37.6720    20.5120    19.2920    20.6700    24.0830    -4.6310 
  138.3750     2.4640    37.9510    20.5570    19.3680    20.0540    23.9540    -4.5300 
  138.5000     2.4800    38.4660    20.6190    19.4650    20.0340    23.8770    -4.5020 
  138.6250     2.4980    39.5100    20.6810    19.5660    20.7800    23.8240    -4.5630 
