~V
VERS. 2.00: Ver 2.00
~W
STRT.M 55.0000:
STOP.M 210.0000:
STEP.M 0.1250:
NULL. -999.2500:
UWI. F11105:
~C
DEPT.M :
DEN.GM/CC :
GR.API :
RML.OHMM :
RI. :
RXO.OHMM :
CALI.CM :
SP.MV :
~A
# ...
   88.7500     2.1250    73.8350     7.2130     5.9040     5.8780    26.3970   -27.3460 
   88.8750     2.1210    73.9710     6.9860     5.8010     5.8960    26.4980   -27.0370 
   89.0000     2.1190    76.7010     6.7410     5.6700     5.9290    26.5360   -26.6080 
   89.1250     2.1180    80.0110     6.5260     5.5340     5.9990    26.4160   -26.0760 
   89.2500     2.1190    79.9820     6.3770     5.4190     6.0620    26.3070   -25.5110 
   89.3750     2.1200    77.0980     6.3220     5.3460     6.0690    26.3050   -24.9180 
   89.5000     2.1250    75.3990     6.3630     5.3250     6.0490    26.3200   -24.3220 
   89.6250     2.1330    77.7730     6.4740     5.3490     5.8920    26.3660   -23.8100 
   89.7500     2.1460    80.7570     6.5790     5.3800     5.7390    26.3710   -23.3680 
   89.8750     2.1610    82.1450     6.6090     5.3810     5.7310    26.3060   -22.9800 
   90.0000     2.1710    82.8620     6.5200     5.3170     5.7800    26.4450   -22.6820 
   90.1250     2.1660    86.1830     6.2960     5.1590     5.6560    26.7800   -22.5100 
   90.2500     2.1380    90.6770     6.0220     4.9460     5.2230    27.2390   -22.4570 
   90.3750     2.0880    94.8010     5.7840     4.7370     4.8690    27.5350   -22.5320 
   90.5000     2.0240    96.7450     5.6820     4.6080     4.7460    27.5670   -22.7020 
   90.6250     1.9700    92.4430     5.8780     4.6750     4.8040    27.2730   -22.9520 
   90.7500     1.9540    85.2810     6.4640     5.0110     5.0030    26.4010   -23.2770 
   90.8750     1.9980    79.8140     7.5830     5.7310     5.9140    25.4520   -23.6850 
   91.0000     2.1120    76.2750     9.3720     6.9730     8.2110    24.7330   -24.1510 
   91.1250     2.2830    71.9020    11.9940     8.9840    13.6130    24.4180   -24.6430 
   91.2500     2.4540    67.4510    15.0590    11.5990    21.5230    24.3200   -25.1470 
   91.3750     2.5770    65.6180    17.8500    14.3470    31.4100    24.2520   -25.6460 
   91.5000     2.6240    64.7000    19.2800    16.2630    40.7290    24.2320   -26.1490 
   91.6250     2.5910    62.6550    18.2030    16.0550    46.7180    24.2810   -26.6590 
   91.7500     2.5160    60.0410    15.5690    14.2480    43.3070    24.3340   -27.1570 
   91.8750     2.4220    58.2610    12.6100    11.8530    28.9180    24.2200   -27.6320 
   92.0000     2.3290    59.0360    10.1930     9.6880    15.0360    23.6370   -28.0920 
   92.1250     2.2530    63.0210     8.6920     8.1750     9.7410    23.5480   -28.5520 
   92.2500     2.1990    67.4770     7.8230     7.1870     8.1240    23.7340   -29.0110 
   92.3750     2.1680    70.1010     7.3870     6.6030     7.6620    23.9720   -29.4530 
   92.5000     2.1550    69.8600     7.2350     6.3120     7.5530    24.0730   -29.8700 
   92.6250     2.1560    68.9760     7.3020     6.2660     7.3220    24.4600   -30.2200 
   92.7500     2.1620    69.0920     7.5080     6.3870     7.1770    24.5540   -30.5180 
   92.8750     2.1670    69.0850     7.8090     6.6420     7.5610    24.1290   -30.7700 
   93.0000     2.1650    68.0030     8.1430     6.9830     8.5430    23.5930   -31.0070 
   93.1250     2.1540    66.5760     8.4190     7.3270     8.7590    23.4380   -31.2460 
   93.2500     2.1380    63.6700     8.5710     7.5830     8.3890    23.4810   -31.4480 
   93.3750     2.1240    58.9680     8.5770     7.7070     8.0320    23.4850   -31.5990 
   93.5000     2.1150    54.4930     8.4740     7.7060     8.0670    23.3610   -31.6990 
   93.6250     2.1130    52.7890     8.3390     7.6280     8.2930    23.0730   -31.7850 
   93.7500     2.1180    53.3360     8.2470     7.5510     8.2780    23.2380   -31.8980 
   93.8750     2.1270    54.7150     8.2250     7.5090     8.2110    23.3890   -32.0940 
   94.0000     2.1390    55.6080     8.2660     7.5080     8.4140    23.3870   -32.3360 
   94.1250     2.1510    56.2920     8.3520     7.5310     8.6760    23.2040   -32.5700 
   94.2500     2.1570    58.1680     8.4430     7.5520     8.8500    23.0890   -32.7730 
   94.3750     2.1550    61.2130     8.5140     7.5540     8.8030    22.8670   -32.9490 
   94.5000     2.1450    63.7710     8.5460     7.5320     8.5160    22.7520   -33.1370 
   94.6250     2.1320    65.1250     8.5240     7.4860     8.1440    23.1700   -33.3240 
   94.7500     2.1210    66.4020     8.4610     7.4330     8.0540    23.5070   -33.4740 
   94.8750     2.1130    68.5630     8.3730     7.3820     8.1920    23.6150   -33.5560 
   95.0000     2.1070    71.5340     8.2780     7.3370     8.0450    24.1790   -33.5670 
   95.1250     2.1030    74.0040     8.2150     7.3140     7.9380    24.2530   -33.5000 
   95.2500     2.1040    74.3430     8.2310     7.3370     7.8600    24.0920   -33.4120 
   95.3750     2.1140    71.8450     8.3720     7.4410     7.9140    23.9130   -33.3150 
   95.5000     2.1300    68.0860     8.6510     7.6440     8.1150    23.4590   -33.1900 
   95.6250     2.1470    66.7450     9.0290     7.9380     8.2600    23.1810   -33.0550 
   95.7500     2.1540    67.6720     9.3650     8.2360     8.2190    23.5870   -32.9200 
   95.8750     2.1490    68.2820     9.5250     8.4370     8.0570    24.3510   -32.7660 
   96.0000     2.1320    67.0750     9.4220     8.4560     7.7430    24.8470   -32.6190 
   96.1250     2.1120    66.8690     9.0460     8.2400     7.5490    24.7970   -32.5220 
   96.2500     2.0980    68.5780     8.5830     7.9010     7.5450    24.6940   -32.4790 
   96.3750     2.0970    68.4190     8.1810     7.5470     7.6660    24.5840   -32.4870 
   96.5000     2.1060    65.5750     7.9380     7.2720     7.7430    24.6300   -32.4990 
   96.6250     2.1200    62.9560     7.9020     7.1550     7.7680    24.5610   -32.4900 
   96.7500     2.1310    61.6070     7.9830     7.1670     7.7120    24.5760   -32.4690 
   96.8750     2.1370    60.3140     8.0900     7.2510     7.7270    25.0260   -32.4300 
   97.0000     2.1370    60.0560     8.1410     7.3270     7.8290    25.4050   -32.3730 
   97.1250     2.1350    61.1060     8.0580     7.3050     7.9390    25.3520   -32.2890 
   97.2500     2.1320    58.0700     7.8730     7.1770     7.9210    25.4650   -32.1660 
   97.3750     2.1310    53.0180     7.6580     6.9840     7.6430    25.8140   -32.0250 
   97.5000     2.1340    53.9790     7.4990     6.8040     7.2190    25.6850   -31.8860 
   97.6250     2.1430    62.5740     7.4680     6.7250     7.0430    25.1330   -31.7750 
   97.7500     2.1610    68.3310     7.5350     6.7520     7.2950    24.7610   -31.6920 
   97.8750     2.1840    68.0600     7.6460     6.8540     7.8330    24.3070   -31.6500 
   98.0000     2.2080    66.4050     7.7350     6.9700     8.5890    23.7620   -31.6320 
   98.1250     2.2190    67.0990     7.7230     7.0190     8.8730    23.5400   -31.6450 
   98.2500     2.2150    67.4990     7.6130     6.9750     8.2220    23.3960   -31.6700 
   98.3750     2.1960    68.1570     7.4410     6.8590     7.5640    23.1230   -31.6720 
   98.5000     2.1690    68.4720     7.2610     6.7180     7.0630    23.1070   -31.6650 
   98.6250     2.1450    65.4310     7.1420     6.6110     6.7700    23.4090   -31.6210 
   98.7500     2.1300    61.1390     7.1070     6.5660     6.7120    23.4830   -31.5340 
   98.8750     2.1240    60.7880     7.1520     6.5890     6.8850    23.0880   -31.3840 
   99.0000     2.1240    64.4510     7.2560     6.6700     7.1680    22.5720   -31.1600 
   99.1250     2.1290    66.4060     7.3950     6.7920     7.4490    22.2690   -30.8490 
   99.2500     2.1350    64.7680     7.5230     6.9140     7.8380    22.1100   -30.5110 
   99.3750     2.1430    62.5280     7.5880     6.9890     8.0590    22.1490   -30.1500 
   99.5000     2.1540    61.5290     7.5150     6.9580     8.1560    22.4990   -29.7280 
   99.6250     2.1650    62.3800     7.2260     6.7520     8.1370    22.8830   -29.2510 
   99.7500     2.1760    65.4960     6.7890     6.4170     7.8140    23.1790   -28.7580 
   99.8750     2.1830    71.1500     6.3180     6.0300     7.1920    23.3370   -28.2890 
