~V
VERS. 2.00: Ver 2.00
~W
STRT.M 40.0000:
STOP.M 206.0000:
STEP.M 0.1250:
NULL. -999.2500:
UWI. F11104:
~C
DEPT.M :
GR.API :
RML.OHMM :
RI. :
RXO.OHMM :
CALI.CM :
SP.MV :
DEN.GM/CC :
~A
# ...
   85.0000    92.9870     6.1910     4.7370     5.3680    28.1440    -3.4060     2.1890 
   85.1250    90.5030     6.1710     4.7280     5.3900    28.1440    -3.5400     2.1710 
   85.2500    87.9140     6.1770     4.7270     5.4890    28.1440    -3.7380     2.1600 
   85.3750    85.9200     6.2160     4.7450     5.5950    28.1360    -3.9840     2.1600 
   85.5000    85.7370     6.2810     4.7830     5.8110    28.1170    -4.2820     2.1680 
   85.6250    85.7860     6.3570     4.8400     6.0280    28.0980    -4.6530     2.1710 
   85.7500    83.2320     6.4420     4.9070     6.2120    28.0850    -5.0860     2.1540 
   85.8750    78.7320     6.5430     4.9860     6.4740    28.0800    -5.5670     2.1240 
   86.0000    74.5230     6.6720     5.0780     6.7410    28.0680    -6.0640     2.0990 
   86.1250    74.1980     6.8410     5.1920     7.0980    28.0430    -6.5490     2.1120 
   86.2500    74.7360     7.0340     5.3220     7.4130    28.0230    -7.0040     2.1630 
   86.3750    72.6460     7.2240     5.4530     7.7220    28.0050    -7.4370     2.2240 
   86.5000    68.2460     7.3820     5.5610     7.9140    27.9180    -7.8580     2.2540 
   86.6250    66.5080     7.4740     5.6190     7.9410    27.7100    -8.2820     2.2300 
   86.7500    68.7570     7.5050     5.6250     7.9860    27.5090    -8.7170     2.1900 
   86.8750    72.1160     7.4930     5.5900     8.0960    27.4150    -9.1460     2.1580 
   87.0000    74.1090     7.4780     5.5360     8.2250    27.4110    -9.5490     2.1430 
   87.1250    74.3750     7.5100     5.4890     8.2180    27.4170    -9.9020     2.1370 
   87.2500    75.1560     7.5960     5.4590     8.0830    27.4100   -10.2110     2.1300 
   87.3750    78.2240     7.7040     5.4420     7.9730    27.3770   -10.4830     2.1200 
   87.5000    79.7190     7.7750     5.4270     8.0520    27.3050   -10.7250     2.1110 
   87.6250    75.5060     7.7430     5.4030     8.2350    27.2290   -10.9470     2.1150 
   87.7500    70.5270     7.7010     5.4090     8.4030    27.1920   -11.1430     2.1470 
   87.8750    69.2340     7.8780     5.5600     8.3530    27.1890   -11.3030     2.2180 
   88.0000    71.0620     8.5520     5.9940     8.1500    27.1920   -11.4120     2.3290 
   88.1250    72.1360    10.0440     6.8980     7.9830    27.1940   -11.4560     2.4590 
   88.2500    72.7880    12.1630     8.1940     7.8800    27.1940   -11.4450     2.5680 
   88.3750    72.0220    14.4740     9.6820     8.0970    27.1940   -11.3920     2.6430 
   88.5000    67.9210    16.2230    10.9640     9.8870    27.1960   -11.3270     2.6900 
   88.6250    64.1850    16.3990    11.4200    14.3880    27.2000   -11.2990     2.6970 
   88.7500    63.9390    15.1920    11.0160    17.1240    27.2010   -11.3360     2.6500 
   88.8750    65.3450    13.2500    10.0230    13.9020    27.2120   -11.4510     2.5480 
   89.0000    65.2380    11.2930     8.8350    10.8280    27.2630   -11.6410     2.4210 
   89.1250    63.4760     9.8600     7.8060    10.2140    27.3730   -11.9130     2.3040 
   89.2500    62.5850     8.9700     7.0580    10.1270    27.4960   -12.2530     2.2180 
   89.3750    62.3900     8.5280     6.5940     9.9920    27.5880   -12.6560     2.1690 
   89.5000    62.5120     8.4030     6.3720     9.7740    27.6360   -13.1090     2.1500 
   89.6250    62.8370     8.4910     6.3530     9.4780    27.6320   -13.5710     2.1480 
   89.7500    63.8690     8.6380     6.4340     9.2200    27.5500   -14.0030     2.1510 
   89.8750    65.1960     8.7370     6.5320     9.2920    27.3760   -14.3680     2.1570 
   90.0000    65.5520     8.6980     6.5680     9.5130    27.1280   -14.6160     2.1650 
   90.1250    64.0320     8.4440     6.4620     9.7460    26.8590   -14.6830     2.1760 
   90.2500    63.7460     8.0280     6.2340     9.8720    26.6440   -14.5960     2.1890 
   90.3750    65.7620     7.5350     5.9300     9.6820    26.5280   -14.3790     2.2010 
   90.5000    68.9690     7.0960     5.6340     9.1270    26.5040   -14.0770     2.2070 
   90.6250    71.9060     6.8800     5.4550     8.4920    26.5150   -13.7440     2.2040 
   90.7500    73.7970     6.9170     5.4310     8.0600    26.5170   -13.4420     2.1950 
   90.8750    73.4370     7.1810     5.5590     7.9850    26.5130   -13.2090     2.1840 
   91.0000    70.0570     7.5810     5.7950     8.8410    26.5110   -13.0700     2.1730 
   91.1250    65.6910     7.9680     6.0610     9.4790    26.5010   -13.0730     2.1640 
   91.2500    62.8200     8.2230     6.2740    10.1110    26.5000   -13.2030     2.1590 
   91.3750    61.0440     8.3440     6.4140     9.8860    26.5370   -13.4490     2.1550 
   91.5000    59.3630     8.4110     6.5100     9.8880    26.6040   -13.7810     2.1520 
   91.6250    59.3740     8.5410     6.6190    10.2590    26.6490   -14.1510     2.1500 
   91.7500    61.5210     8.7640     6.7730    10.2890    26.6600   -14.5150     2.1490 
   91.8750    62.7700     9.0300     6.9540    10.4000    26.6560   -14.8510     2.1490 
   92.0000    61.9550     9.2310     7.1080    10.5740    26.6200   -15.1540     2.1470 
   92.1250    61.0820     9.2150     7.1420    10.9160    26.5290   -15.4080     2.1430 
   92.2500    62.9480     8.9870     7.0410    11.1850    26.4460   -15.6240     2.1390 
   92.3750    67.5900     8.6250     6.8410    11.2480    26.4130   -15.8250     2.1360 
   92.5000    72.1110     8.2560     6.6180    11.1920    26.3980   -16.0330     2.1350 
   92.6250    72.5520     8.0140     6.4630    11.0470    26.3320   -16.2590     2.1360 
   92.7500    70.2380     7.9320     6.4000    10.8540    26.2030   -16.4720     2.1400 
   92.8750    67.2220     7.9850     6.4100    10.6530    26.0330   -16.6430     2.1460 
   93.0000    64.7880     8.1010     6.4470    10.4150    25.8730   -16.7400     2.1550 
   93.1250    64.5830     8.1460     6.4340    10.0420    25.7870   -16.7440     2.1640 
   93.2500    66.1870     8.0060     6.3150     9.6820    25.7510   -16.6760     2.1740 
   93.3750    65.9460     7.6430     6.0700     9.3240    25.7260   -16.5440     2.1870 
   93.5000    62.6760     7.1290     5.7350     8.9380    25.7020   -16.3640     2.2030 
   93.6250    63.0970     6.6480     5.4080     8.4810    25.7000   -16.1410     2.2140 
   93.7500    67.2410     6.3670     5.1890     7.4760    25.7050   -15.9110     2.2150 
   93.8750    69.3580     6.3750     5.1460     6.5940    25.6920   -15.6990     2.2030 
   94.0000    67.0640     6.6860     5.3060     6.7860    25.6590   -15.5410     2.1850 
   94.1250    63.2730     7.2610     5.6640     8.2650    25.6290   -15.5100     2.1700 
   94.2500    61.6420     7.9170     6.1090     9.2680    25.6200   -15.6200     2.1640 
   94.3750    62.3360     8.5030     6.5470     9.7030    25.6220   -15.8780     2.1640 
   94.5000    63.6500     8.8820     6.8840     9.7830    25.6190   -16.2730     2.1690 
   94.6250    63.6640     8.9350     7.0210     9.8780    25.6160   -16.7770     2.1770 
   94.7500    63.9640     8.7380     6.9760    10.0670    25.6170   -17.3030     2.1870 
   94.8750    65.6370     8.3580     6.7760    10.1020    25.6190   -17.7810     2.1970 
   95.0000    66.7520     7.8720     6.4790     9.6320    25.6210   -18.1510     2.2080 
   95.1250    65.6450     7.4010     6.1690     8.7800    25.6230   -18.3720     2.2160 
   95.2500    64.1990     7.0810     5.9390     8.2150    25.6250   -18.4830     2.2180 
   95.3750    63.4300     6.9870     5.8390     8.1170    25.6230   -18.5400     2.2140 
   95.5000    64.1180     7.1280     5.8750     8.1840    25.6200   -18.6000     2.2060 
   95.6250    66.1960     7.4400     6.0240     8.4200    25.6140   -18.7010     2.1960 
   95.7500    66.1610     7.7510     6.1980     9.2870    25.6200   -18.8620     2.1910 
   95.8750    63.3980     7.9440     6.3340     9.6600    25.6770   -19.0680     2.1890 
   96.0000    61.2320     7.9900     6.4050     9.5150    25.7750   -19.2950     2.1890 
   96.1250    61.9720     7.9500     6.4270     9.3440    25.8060   -19.5210     2.1900 
