~V
VERS. 2.00: Ver 2.00
~W
STRT.M 63.0000:
STOP.M 219.0000:
STEP.M 0.1250:
NULL. -999.2500:
UWI. F11123:
~C
DEPT.M :
GR.API :
RML.OHMM :
RI. :
RXO.OHMM :
CALI.CM :
SP.MV :
DEN.GM/CC :
~A
# ...
  108.0000    63.2700     9.6110     8.3750     9.1890    24.5120   -13.7400     2.1650 
  108.1250    61.8280     9.3500     8.2890     9.3500    24.5140   -13.3280     2.1690 
  108.2500    59.7630     8.9400     8.0430     9.3720    24.5160   -12.7850     2.1710 
  108.3750    61.2500     8.4280     7.6100     9.3200    24.5510   -12.1170     2.1820 
  108.5000    68.2360     7.8820     7.0350     8.9450    24.6930   -11.3550     2.2070 
  108.6250    75.7890     7.4000     6.4380     7.5780    24.8140   -10.5880     2.2410 
  108.7500    77.4050     7.0900     5.9790     6.1320    24.8020    -9.9210     2.2630 
  108.8750    74.3180     7.1050     5.7950     5.9260    24.7060    -9.4280     2.2560 
  109.0000    71.0760     7.6600     6.0210     6.6940    24.5500    -9.1560     2.2260 
  109.1250    69.1840     9.2830     6.9550     8.0570    24.4650    -9.1170     2.2090 
  109.2500    66.8040    12.3770     8.8110    10.1390    24.4480    -9.2350     2.2400 
  109.3750    62.1070    17.4670    11.9920    14.4670    24.4530    -9.4720     2.3360 
  109.5000    58.2080    24.7430    16.8630    23.9180    24.4630    -9.7900     2.4690 
  109.6250    58.7330    33.1880    23.2860    35.4520    24.5220   -10.1700     2.5660 
  109.7500    61.5230    39.2190    28.8580    46.2160    24.7070   -10.6060     2.5930 
  109.8750    63.0160    39.3930    30.5940    55.8160    24.9500   -11.1180     2.5630 
  110.0000    61.5810    33.4910    27.5110    51.1200    25.0040   -11.7410     2.5030 
  110.1250    58.4000    25.2020    21.8290    31.9600    24.8130   -12.5010     2.4270 
  110.2500    57.5370    18.4060    16.7180    17.4000    24.5620   -13.3450     2.3460 
  110.3750    59.9640    13.8910    13.0280    11.9060    24.4960   -14.2040     2.2730 
  110.5000    63.6220    11.3290    10.7060    10.5840    24.3980   -15.0270     2.2220 
  110.6250    65.0010    10.2800     9.5680    10.6740    24.5470   -15.7230     2.2100 
  110.7500    64.0360     9.9570     9.0970    10.6680    24.4650   -16.2900     2.2240 
  110.8750    61.5840     9.9600     9.0150    10.6360    24.4570   -16.7180     2.2450 
  111.0000    58.6910    10.0020     9.0730    10.7050    24.4430   -17.0190     2.2520 
  111.1250    59.4370     9.9480     9.1060    10.6410    24.4550   -17.2120     2.2380 
  111.2500    63.0390     9.8760     9.1070    10.2930    24.4660   -17.3520     2.2150 
  111.3750    65.9060     9.8860     9.1330    10.2630    24.4930   -17.4580     2.1940 
  111.5000    65.6270    10.0220     9.2200    10.5700    24.5300   -17.5510     2.1830 
  111.6250    62.7260    10.2420     9.3480    11.1080    24.5770   -17.6280     2.1860 
  111.7500    60.6230    10.4160     9.4230    11.6010    24.6010   -17.7010     2.1960 
  111.8750    61.5770    10.4400     9.3570    12.0050    24.5790   -17.7470     2.2060 
  112.0000    65.4110    10.2550     9.1070    11.7780    24.5240   -17.7420     2.2080 
  112.1250    67.0550     9.8540     8.6790    11.5160    24.5530   -17.6860     2.2020 
  112.2500    63.3520     9.3980     8.2200    11.2680    24.5710   -17.5400     2.1890 
  112.3750    57.9290     9.0910     7.8850    11.1860    24.5680   -17.2830     2.1720 
  112.5000    56.3490     9.1690     7.8340    11.1280    24.5750   -16.8810     2.1580 
  112.6250    59.1860    10.0030     8.3010    11.5530    24.6020   -16.2930     2.1670 
  112.7500    62.5600    11.6950     9.3460    13.6040    24.6990   -15.5810     2.2170 
  112.8750    65.0550    14.2350    11.0300    18.9120    24.8250   -14.8020     2.3100 
  113.0000    66.2090    17.2620    13.2430    27.6610    24.8270   -14.0260     2.4230 
  113.1250    66.1410    19.7170    15.4210    31.2890    24.8420   -13.3810     2.5000 
  113.2500    66.1790    20.5310    16.6260    30.8900    24.8690   -12.9580     2.5180 
  113.3750    66.4040    19.3290    16.2950    28.1130    24.8200   -12.8450     2.4860 
  113.5000    65.0460    16.6820    14.6310    22.0470    24.6880   -13.0520     2.4220 
  113.6250    63.5940    13.7380    12.4120    16.7570    24.5310   -13.5940     2.3450 
  113.7500    64.2550    11.3550    10.4230    14.7500    24.5640   -14.3190     2.2720 
  113.8750    66.0350     9.7150     8.9040    13.3220    24.5530   -15.1450     2.2150 
  114.0000    67.4250     8.7680     7.8890    11.5580    24.5200   -15.9810     2.1790 
  114.1250    66.5040     8.4530     7.3970    10.7740    24.5080   -16.7010     2.1700 
  114.2500    64.5540     8.5000     7.2600    10.6550    24.5110   -17.2710     2.1740 
  114.3750    63.4060     8.7550     7.3790    10.8070    24.5100   -17.6730     2.1830 
  114.5000    64.7030     9.0970     7.6600    11.0700    24.5090   -17.9150     2.1880 
  114.6250    66.4700     9.4290     8.0080    11.5200    24.5100   -18.0340     2.1860 
  114.7500    65.8190     9.6810     8.3080    12.0600    24.5060   -18.0780     2.1800 
  114.8750    63.7880     9.7930     8.4700    12.3550    24.5060   -18.0770     2.1730 
  115.0000    61.9190     9.7280     8.4330    11.9830    24.5030   -18.0440     2.1700 
  115.1250    60.6650     9.4660     8.1780    11.1900    24.4560   -17.9550     2.1710 
  115.2500    59.4280     9.0980     7.8230    10.4240    24.4530   -17.8010     2.1720 
  115.3750    58.3130     8.7010     7.4670    10.0020    24.4430   -17.5530     2.1740 
  115.5000    57.7640     8.3550     7.1840     9.8060    24.4470   -17.1800     2.1770 
  115.6250    58.1690     8.1400     7.0220     9.7160    24.4440   -16.6890     2.1810 
  115.7500    59.7730     8.0600     6.9530     9.6700    24.4470   -16.0670     2.1850 
  115.8750    61.6390     8.0910     6.9470     9.5910    24.4490   -15.3600     2.1860 
  116.0000    62.5380     8.1830     6.9780     9.5290    24.4530   -14.6230     2.1830 
  116.1250    62.6100     8.2780     7.0370     9.4450    24.4720   -13.8590     2.1750 
  116.2500    61.7430     8.3620     7.1130     9.4310    24.5120   -13.0880     2.1650 
  116.3750    59.5450     8.4550     7.1920     9.4910    24.4920   -12.2930     2.1580 
  116.5000    57.5330     8.5620     7.2440     9.5380    24.5370   -11.4400     2.1570 
  116.6250    59.8820     8.6060     7.1990     9.8240    24.5460   -10.4960     2.1740 
  116.7500    66.0770     8.4810     7.0200    10.0880    24.5550    -9.4290     2.2090 
  116.8750    72.3620     8.1220     6.7000     9.8860    24.7330    -8.2620     2.2530 
  117.0000    76.0530     7.5720     6.2840     9.0680    25.0300    -7.0440     2.2900 
  117.1250    77.6650     7.0110     5.8770     7.5230    25.1060    -5.9060     2.3030 
  117.2500    78.0990     6.6580     5.5970     6.2520    25.1150    -4.9810     2.2940 
  117.3750    78.2130     6.6300     5.5250     5.6860    25.0330    -4.3580     2.2700 
  117.5000    78.9630     6.9740     5.7080     5.8970    24.8960    -4.1020     2.2450 
  117.6250    78.8590     7.7390     6.2020     6.8700    24.7510    -4.2600     2.2240 
  117.7500    75.9030     8.7690     6.9120     8.4110    24.6610    -4.6630     2.2050 
  117.8750    71.9180     9.8550     7.7110     9.5490    24.6440    -5.1720     2.1870 
  118.0000    69.5850    10.6980     8.4010    10.0370    24.7100    -5.6190     2.1720 
  118.1250    68.1750    10.9200     8.6970    10.1220    24.6890    -5.8340     2.1670 
  118.2500    67.4330    10.5180     8.5460     9.7650    24.6700    -5.7560     2.1750 
  118.3750    69.4820     9.6500     8.0130     8.7580    24.6670    -5.3760     2.1950 
  118.5000    74.3210     8.6520     7.3000     7.1880    24.6710    -4.7430     2.2230 
  118.6250    79.3800     7.9370     6.6950     6.1100    24.6830    -3.9340     2.2500 
  118.7500    83.3940     7.6590     6.3590     5.9480    24.7000    -3.0880     2.2810 
  118.8750    85.5140     7.8270     6.3420     6.2900    24.7150    -2.2830     2.3230 
  119.0000    83.1760     8.3440     6.6120     6.9920    24.7240    -1.5730     2.3740 
  119.1250    77.5040     8.9490     7.0330     8.4050    24.7250    -1.0150     2.4100 
