~V
VERS. 2.00: Ver 2.00
~W
STRT.M 45.0000:
STOP.M 264.0000:
STEP.M 0.1250:
NULL. -999.2500:
UWI. F11189:
~C
DEPT.M :
SP.MV :
GR.API :
RI. :
RML.OHMM :
RXO.OHMM :
DEN.GM/CC :
~A
# ...
  212.3750     2.1440    88.6690     2.7560     3.2150     3.7800     2.2920 
  212.5000     1.9480    88.3470     2.9150     3.3830     4.5620     2.2780 
  212.6250     1.7290    85.2570     3.0050     3.4350     5.0490     2.2690 
  212.7500     1.5050    81.9180     3.0580     3.4320     4.6260     2.2680 
  212.8750     1.2690    80.8460     3.1840     3.5220     4.2130     2.2700 
  213.0000     1.0050    81.8360     3.5310     3.9050     4.6720     2.2770 
  213.1250     0.6870    83.3730     4.2240     4.7220     6.0620     2.2970 
  213.2500     0.3080    82.2280     5.2440     5.9240    11.2830     2.3250 
  213.3750    -0.1410    77.0170     6.6020     7.4670    16.2210     2.3480 
  213.5000    -0.6440    71.7760     7.8330     8.7080    18.4680     2.3520 
  213.6250    -1.1930    70.2310     8.6850     9.4760    16.5460     2.3310 
  213.7500    -1.7660    70.4730     9.1540     9.7980    13.2590     2.2900 
  213.8750    -2.3430    69.7840     9.3670     9.9270    11.4090     2.2480 
  214.0000    -2.9020    69.1980     9.8520    10.4620    11.6200     2.2180 
  214.1250    -3.4210    68.8690    10.7830    11.5000    12.1000     2.1970 
  214.2500    -3.8880    68.5170    11.9330    12.7630    12.2400     2.1830 
  214.3750    -4.2900    69.3180    13.1090    14.0330    12.9870     2.1710 
  214.5000    -4.6260    69.8550    14.0610    15.0290    14.0660     2.1580 
  214.6250    -4.8920    68.5000    14.6480    15.5980    14.8580     2.1440 
  214.7500    -5.1010    67.6670    14.8850    15.7380    15.1930     2.1350 
  214.8750    -5.2630    70.1810    14.7750    15.4840    15.4130     2.1330 
  215.0000    -5.3980    73.9440    14.5670    15.1350    15.6290     2.1290 
  215.1250    -5.5170    75.3630    14.5050    14.9950    15.5770     2.1270 
  215.2500    -5.6280    73.4970    14.7910    15.2600    15.3800     2.1260 
  215.3750    -5.7280    69.9770    15.4310    15.9160    15.3620     2.1240 
  215.5000    -5.8170    68.6940    16.1910    16.6750    15.8450     2.1210 
  215.6250    -5.8970    68.0770    16.7940    17.2010    16.2730     2.1200 
  215.7500    -5.9740    68.1460    17.0010    17.2530    16.1430     2.1220 
  215.8750    -6.0550    68.4450    16.7310    16.7940    15.3460     2.1220 
  216.0000    -6.1380    68.7100    16.1490    16.0300    14.8240     2.1220 
  216.1250    -6.2180    68.1470    15.4620    15.2180    14.2760     2.1180 
  216.2500    -6.2880    67.5070    14.8330    14.4960    13.8680     2.1100 
  216.3750    -6.3430    66.6300    14.3370    13.9500    13.6530     2.1030 
  216.5000    -6.3820    65.0840    14.1640    13.7470    13.6810     2.1080 
  216.6250    -6.4040    65.8530    14.2780    13.8430    14.0290     2.1320 
  216.7500    -6.4110    68.7070    14.6660    14.2270    14.6200     2.1580 
  216.8750    -6.4040    68.3890    15.3140    14.8780    15.2760     2.1680 
  217.0000    -6.3870    66.1070    16.1140    15.6590    15.6650     2.1580 
  217.1250    -6.3670    66.0020    16.8980    16.3910    15.8210     2.1420 
  217.2500    -6.3480    67.1190    17.5420    16.9540    16.1390     2.1320 
  217.3750    -6.3300    67.3820    17.8820    17.2280    16.8640     2.1260 
  217.5000    -6.3090    66.7160    18.0460    17.3730    17.7730     2.1180 
  217.6250    -6.2850    66.3020    18.2000    17.5580    18.5460     2.1070 
  217.7500    -6.2590    65.1180    18.3070    17.7060    19.2770     2.1010 
  217.8750    -6.2370    65.1420    18.2970    17.7190    20.0710     2.1010 
  218.0000    -6.2190    65.9250    18.1650    17.6000    20.6000     2.0980 
  218.1250    -6.2040    65.1780    17.9080    17.3540    20.6680     2.0890 
  218.2500    -6.1930    64.1240    17.6730    17.1160    20.6480     2.0850 
  218.3750    -6.1860    65.1720    17.5490    16.9870    21.0200     2.0900 
  218.5000    -6.1780    67.8090    17.6080    17.0430    21.8090     2.1010 
  218.6250    -6.1600    67.8010    17.9830    17.4180    22.5790     2.1140 
  218.7500    -6.1290    65.7330    18.7340    18.1970    24.8540     2.1260 
  218.8750    -6.0850    62.9200    19.9950    19.4850    25.7260     2.1330 
  219.0000    -6.0410    59.6580    21.4960    21.0100    26.3670     2.1280 
  219.1250    -6.0130    58.1070    22.7880    22.2970    27.7800     2.1090 
  219.2500    -6.0060    60.1110    23.1980    22.6470    29.0120     2.0860 
  219.3750    -6.0230    64.5070    22.2610    21.6360    28.7070     2.0740 
  219.5000    -6.0530    66.2480    20.4620    19.8100    27.0600     2.0730 
  219.6250    -6.0890    65.2310    18.4630    17.8400    24.1220     2.0810 
  219.7500    -6.1220    64.6700    17.0270    16.5050    20.3010     2.1020 
  219.8750    -6.1510    65.9250    16.5070    16.1310    19.0490     2.1380 
  220.0000    -6.1740    68.6060    16.9020    16.7120    21.8160     2.1640 
  220.1250    -6.1910    71.0420    18.1000    18.0790    24.7700     2.1560 
  220.2500    -6.2030    71.1770    19.8790    19.9420    25.0360     2.1300 
  220.3750    -6.2070    68.5910    21.5850    21.6470    24.7330     2.1140 
  220.5000    -6.2040    66.1400    22.9370    22.9380    25.7490     2.1180 
  220.6250    -6.1890    64.8010    23.9590    23.9560    26.5760     2.1290 
  220.7500    -6.1640    64.1320    24.9480    24.9910    26.4560     2.1330 
  220.8750    -6.1310    65.1000    25.8970    25.9680    26.4970     2.1270 
  221.0000    -6.0940    66.2490    26.5140    26.5760    27.3910     2.1160 
  221.1250    -6.0540    65.4400    26.5570    26.5590    28.8560     2.1090 
  221.2500    -6.0110    63.4040    26.2010    26.1240    29.3190     2.1100 
  221.3750    -5.9600    62.6310    25.6340    25.4850    26.4170     2.1110 
  221.5000    -5.8950    62.5120    25.0170    24.8200    22.6300     2.1110 
  221.6250    -5.8130    62.1760    24.4970    24.2660    23.2300     2.1120 
  221.7500    -5.7170    62.3860    24.1110    23.8330    25.9270     2.1150 
  221.8750    -5.6150    62.8880    23.7850    23.4230    26.1640     2.1160 
  222.0000    -5.5200    62.7780    23.3200    22.8560    25.1210     2.1120 
  222.1250    -5.4420    61.8500    22.6460    22.0870    24.4070     2.1110 
  222.2500    -5.3820    61.4500    21.7590    21.1400    23.7420     2.1140 
  222.3750    -5.3350    62.3350    20.7910    20.1510    22.7850     2.1220 
  222.5000    -5.2900    64.8670    19.9420    19.3090    21.7780     2.1300 
  222.6250    -5.2390    66.7970    19.2940    18.7080    21.1350     2.1320 
  222.7500    -5.1750    67.6870    19.0990    18.6000    20.8920     2.1280 
  222.8750    -5.1000    68.5960    19.5220    19.1490    21.2870     2.1280 
  223.0000    -5.0230    69.1170    20.5270    20.2900    22.3080     2.1330 
  223.1250    -4.9540    67.7380    22.1690    22.0870    23.8900     2.1310 
  223.2500    -4.8990    64.4470    24.2420    24.3210    26.1690     2.1220 
  223.3750    -4.8600    62.6380    26.5330    26.7990    28.6030     2.1120 
  223.5000    -4.8280    62.6590    28.7210    29.1580    29.7250     2.1100 
  223.6250    -4.7950    63.1710    30.2740    30.8240    29.8420     2.1130 
  223.7500    -4.7550    63.6080    31.1040    31.7370    29.9120     2.1200 
  223.8750    -4.7050    64.3070    31.2290    31.8920    29.2810     2.1230 
  224.0000    -4.6490    64.2560    30.9330    31.6180    28.4630     2.1210 
  224.1250    -4.5900    63.4990    30.3860    31.0830    28.3190     2.1250 
  224.2500    -4.5310    62.7310    29.7490    30.4760    28.6710     2.1390 
  224.3750    -4.4710    62.9150    29.3370    30.1060    28.6570     2.1510 
  224.5000    -4.4100    64.8280    29.2930    30.0990    27.8540     2.1590 
  224.6250    -4.3490    68.4300    29.5260    30.3110    27.8440     2.1750 
  224.7500    -4.2840    70.0220    29.6940    30.3890    30.0700     2.2120 
  224.8750    -4.2110    67.9770    29.5360    30.0590    31.0310     2.2490 
  225.0000    -4.1290    66.4240    28.7450    29.0310    27.9050     2.2490 
  225.1250    -4.0380    67.0850    27.6010    27.6700    24.7270     2.2010 
