~V
VERS. 2.00: Ver 2.00
~W
STRT.M 58.0000:
STOP.M 208.0000:
STEP.M 0.1250:
NULL. -999.2500:
UWI. F11103:
~C
DEPT.M :
DEN.GM/CC :
SP.MV :
GR.API :
RML.OHMM :
RI. :
RXO.OHMM :
CALI.CM :
~A
# ...
   69.2500     2.0860   -34.4750    64.1070     6.3660     5.7530     8.0820    27.0290 
   69.3750     2.1020   -33.7950    66.5500     6.3330     5.6950     7.7710    26.7710 
   69.5000     2.1210   -33.1050    69.7620     6.2750     5.6710     8.3380    26.5240 
   69.6250     2.1400   -32.3930    69.6450     6.1800     5.6430     8.9240    26.4400 
   69.7500     2.1570   -31.6580    67.4860     6.1010     5.6120     8.8510    26.6220 
   69.8750     2.1730   -30.9410    67.5370     6.1330     5.6210     8.0350    26.7240 
   70.0000     2.1890   -30.1960    69.7440     6.3730     5.7470     7.4380    26.6120 
   70.1250     2.2070   -29.4190    70.9180     6.7430     5.9720     7.8190    26.4430 
   70.2500     2.2270   -28.5610    71.8680     7.0840     6.2020     9.1210    26.4030 
   70.3750     2.2470   -27.6540    72.8800     7.1660     6.2760    11.9500    26.4150 
   70.5000     2.2650   -26.7330    72.9620     6.7320     5.9780    13.9480    26.4540 
   70.6250     2.2790   -25.8630    74.6770     5.9140     5.3670    11.2160    26.4650 
   70.7500     2.2880   -25.0860    81.5200     4.9850     4.6140     6.7600    26.6180 
   70.8750     2.2930   -24.4390    92.0690     4.2560     3.9400     4.5740    26.9940 
   71.0000     2.2970   -24.0030    98.8150     4.0080     3.5710     4.2410    27.0920 
   71.1250     2.3030   -23.7810   100.1800     4.2430     3.5580     4.4370    27.1670 
   71.2500     2.3140   -23.8110    97.1150     4.9630     3.9290     5.0570    27.2910 
   71.3750     2.3280   -24.0880    88.7130     6.1260     4.6820     7.2930    27.3400 
   71.5000     2.3390   -24.6250    77.0880     7.5710     5.7650    13.8910    27.3870 
   71.6250     2.3420   -25.3220    69.0610     8.8130     6.8650    20.7490    27.6220 
   71.7500     2.3310   -26.0960    65.7970     9.4080     7.6390    16.5070    28.4530 
   71.8750     2.3070   -26.8550    64.6290     9.2120     7.8590    10.7700    29.0230 
   72.0000     2.2730   -27.5560    63.3080     8.4860     7.5470     8.8120    29.1180 
   72.1250     2.2370   -28.1650    62.9500     7.7780     7.0780     8.7280    29.1340 
   72.2500     2.2090   -28.6690    61.6920     7.3040     6.6520     8.7910    29.3490 
   72.3750     2.1910   -29.0910    59.0350     7.0650     6.3460     8.6450    29.6780 
   72.5000     2.1850   -29.4590    59.2720     6.9780     6.1650     8.5210    29.9400 
   72.6250     2.1830   -29.8340    62.7210     6.9660     6.0720     8.3530    30.0440 
   72.7500     2.1820   -30.2770    66.1810     7.0510     6.0820     7.9860    30.1200 
   72.8750     2.1800   -30.7960    64.9790     7.2540     6.2060     7.8210    30.0950 
   73.0000     2.1760   -31.3820    59.8680     7.5450     6.4320     8.5910    29.7660 
   73.1250     2.1680   -31.9900    57.0300     7.8140     6.6710     9.4340    29.5040 
   73.2500     2.1560   -32.6210    55.5930     7.9750     6.8520     9.6960    29.5160 
   73.3750     2.1420   -33.2030    53.8250     7.9930     6.9270     9.4470    29.6150 
   73.5000     2.1270   -33.7280    54.8220     7.8930     6.8780     9.0210    29.6900 
   73.6250     2.1130   -34.1140    59.4340     7.7790     6.7720     8.4490    29.8650 
   73.7500     2.1020   -34.3610    62.7210     7.7090     6.6610     8.3790    30.0220 
   73.8750     2.0950   -34.4690    60.4720     7.7000     6.5800     9.2760    29.9890 
   74.0000     2.0950   -34.4540    56.7120     7.7280     6.5320    10.4840    29.7120 
   74.1250     2.0980   -34.3600    56.0530     7.7540     6.4900    10.5770    29.6650 
   74.2500     2.1050   -34.2060    57.3110     7.7660     6.4410    10.3980    29.7530 
   74.3750     2.1140   -34.0310    58.2760     7.7680     6.3850    10.2420    29.9110 
   74.5000     2.1240   -33.8700    58.7930     7.7770     6.3340    10.1170    30.0970 
   74.6250     2.1340   -33.7490    59.1860     7.7950     6.2980     9.9060    30.1700 
   74.7500     2.1450   -33.6460    59.1490     7.8130     6.2750     9.9560    30.0810 
   74.8750     2.1550   -33.5760    59.6470     7.8190     6.2570    10.2270    29.9050 
   75.0000     2.1630   -33.5580    60.0650     7.8080     6.2360    10.1940    29.9160 
   75.1250     2.1680   -33.6170    60.2690     7.7880     6.2230     9.7990    30.0510 
   75.2500     2.1700   -33.7350    59.9530     7.7660     6.2310     9.4370    30.2360 
   75.3750     2.1680   -33.9260    58.4840     7.7510     6.2700     9.5060    30.4220 
   75.5000     2.1630   -34.1360    54.6690     7.7540     6.3460    10.0800    30.6020 
   75.6250     2.1560   -34.3790    50.9310     7.7680     6.4340    10.3390    30.7630 
   75.7500     2.1490   -34.6400    50.7850     7.7710     6.5060    10.2540    30.8240 
   75.8750     2.1430   -34.9170    52.8970     7.7330     6.5420    10.1130    30.8930 
   76.0000     2.1370   -35.1880    53.1370     7.6250     6.5300    10.1960    31.1720 
   76.1250     2.1310   -35.4430    51.3070     7.4700     6.4860    10.2880    31.4260 
   76.2500     2.1240   -35.6620    50.7260     7.3030     6.4210    10.0880    31.5230 
   76.3750     2.1150   -35.8350    52.5880     7.1610     6.3430     9.4830    31.5910 
   76.5000     2.1050   -35.9220    53.9470     7.0800     6.2620     8.6410    31.8730 
   76.6250     2.0960   -35.9550    52.2250     7.0500     6.1940     8.0470    32.1210 
   76.7500     2.0870   -35.9140    48.3490     7.0570     6.1550     7.8400    32.1820 
   76.8750     2.0820   -35.8130    45.0830     7.0860     6.1570     7.8970    32.0490 
   77.0000     2.0810   -35.6040    45.3120     7.1300     6.2060     7.9600    32.0130 
   77.1250     2.0840   -35.3260    49.0040     7.1790     6.2820     7.8190    32.0270 
   77.2500     2.0900   -34.9970    52.0540     7.2310     6.3690     7.7740    31.9780 
   77.3750     2.0970   -34.6310    50.0800     7.2830     6.4480     7.9840    31.7960 
   77.5000     2.1050   -34.2550    46.7640     7.3280     6.5050     8.0490    31.6590 
   77.6250     2.1100   -33.8420    46.9990     7.3720     6.5470     7.8210    31.5120 
   77.7500     2.1130   -33.4010    48.9840     7.4220     6.5860     7.6320    31.2850 
   77.8750     2.1130   -32.9240    48.9760     7.4680     6.6210     7.6770    31.0160 
   78.0000     2.1110   -32.4100    48.5420     7.4600     6.6350     8.1130    30.8000 
   78.1250     2.1090   -31.8540    51.8960     7.3840     6.6110     8.6350    30.7450 
   78.2500     2.1080   -31.2570    58.5710     7.2680     6.5520     8.6900    30.7530 
   78.3750     2.1090   -30.5950    64.0490     7.1790     6.4900     7.7320    30.8540 
   78.5000     2.1140   -29.8600    64.6670     7.2100     6.4910     6.5680    30.8400 
   78.6250     2.1230   -29.0790    61.9600     7.3630     6.5830     6.4120    30.5450 
   78.7500     2.1360   -28.2440    59.7070     7.5700     6.7460     7.1500    29.9850 
   78.8750     2.1520   -27.3560    59.5350     7.7060     6.9020     8.0300    29.4260 
   79.0000     2.1690   -26.4610    61.9400     7.6100     6.9090     7.7830    29.2130 
   79.1250     2.1850   -25.5410    64.9440     7.2840     6.7100     7.2040    29.0150 
   79.2500     2.1980   -24.6720    66.9050     6.8100     6.3340     6.4100    28.7510 
   79.3750     2.2080   -23.8670    69.5640     6.3310     5.8900     5.6810    28.4100 
   79.5000     2.2160   -23.2280    75.0610     5.9960     5.5190     5.4430    28.2370 
   79.6250     2.2220   -22.7090    79.0450     5.8090     5.2720     5.4290    28.2000 
   79.7500     2.2270   -22.3450    78.6050     5.7210     5.1340     5.5540    28.1920 
   79.8750     2.2320   -22.1360    76.4850     5.6910     5.0730     5.7760    28.1770 
   80.0000     2.2390   -22.1110    76.9500     5.7850     5.1160     6.0300    28.0650 
   80.1250     2.2500   -22.2590    77.0720     6.1250     5.3330     6.1610    27.8350 
   80.2500     2.2660   -22.5590    76.4640     6.8510     5.8300     6.0550    27.5090 
   80.3750     2.2860   -22.9870    77.7840     8.0270     6.6790     6.4770    27.1260 
