~V
VERS. 2.00: Ver 2.00
~W
STRT.M 52.0000:
STOP.M 239.0000:
STEP.M 0.1250:
NULL. -999.2500:
UWI. F11118:
~C
DEPT.M :
DEN.GM/CC :
GR.API :
RML.OHMM :
RI. :
RXO.OHMM :
CALI.CM :
SP.MV :
~A
# ...
   97.0000     2.1530    70.2180     8.7210     7.0550    11.0540    25.0590   -27.5470 
   97.1250     2.2310    70.7900     9.5730     7.5530    11.6880    25.1690   -27.0500 
   97.2500     2.3310    70.8780    10.4240     8.1890    12.2920    25.5500   -26.5610 
   97.3750     2.4130    71.6370    10.9810     8.7440    12.8020    25.9620   -26.0860 
   97.5000     2.4400    72.9760    10.9980     8.9830    12.9390    25.9460   -25.6600 
   97.6250     2.3950    73.1400    10.4200     8.7610    11.9760    25.6560   -25.3840 
   97.7500     2.3240    71.8320     9.6700     8.3310    10.9970    25.3150   -25.2600 
   97.8750     2.2620    70.8110     9.0610     7.9270    10.5280    25.2490   -25.3280 
   98.0000     2.2290    73.1510     8.7430     7.6860    10.6000    25.2590   -25.5730 
   98.1250     2.2240    78.8480     8.7540     7.6680    10.9080    25.2890   -25.9410 
   98.2500     2.2270    81.1210     8.9350     7.7810    11.1110    25.3420   -26.3600 
   98.3750     2.2270    77.0440     9.1680     7.9460    11.1970    25.3670   -26.8160 
   98.5000     2.2190    71.3450     9.3810     8.0960    10.9330    25.4200   -27.2690 
   98.6250     2.2090    67.9470     9.5430     8.2010    10.7460    25.4340   -27.6560 
   98.7500     2.2010    65.8710     9.6460     8.2800    11.4730    25.6280   -27.9940 
   98.8750     2.1970    64.9280     9.6690     8.3420    12.7660    26.0000   -28.2870 
   99.0000     2.1940    66.4510     9.6080     8.3710    13.3120    26.4050   -28.5370 
   99.1250     2.1890    67.7140     9.5050     8.3560    12.7510    26.1890   -28.7550 
   99.2500     2.1880    65.7430     9.4320     8.3390    12.3800    25.6480   -28.9640 
   99.3750     2.1990    63.3080     9.4360     8.3600    12.1230    25.4140   -29.1490 
   99.5000     2.2290    62.8890     9.5310     8.4480    11.8160    25.4320   -29.3110 
   99.6250     2.2710    64.6970     9.6880     8.5830    11.2920    25.8340   -29.4250 
   99.7500     2.3030    65.1280     9.7940     8.6720    10.8620    26.4320   -29.4630 
   99.8750     2.3060    61.8340     9.7440     8.6430    10.6520    26.6910   -29.4500 
  100.0000     2.2760    58.4880     9.5160     8.4830    10.6150    26.3940   -29.4010 
  100.1250     2.2310    59.6530     9.2010     8.2450    10.6330    25.6930   -29.3000 
  100.2500     2.1940    63.4900     8.9300     8.0010    10.7280    25.4570   -29.1560 
  100.3750     2.1760    66.2220     8.7210     7.7450    10.9210    25.3050   -28.9900 
  100.5000     2.1750    66.1090     8.4970     7.4370    11.1220    25.2720   -28.7900 
  100.6250     2.1840    63.4580     8.1430     7.0420    10.9860    25.3450   -28.5950 
  100.7500     2.1970    61.7280     7.7060     6.6300    10.2200    25.6460   -28.4410 
  100.8750     2.2100    64.0550     7.3460     6.3120     9.1040    26.1500   -28.3460 
  101.0000     2.2220    69.3900     7.2450     6.2000     8.2940    26.2460   -28.3300 
  101.1250     2.2280    70.2360     7.5750     6.4100     7.9640    25.9630   -28.5150 
  101.2500     2.2260    65.2080     8.2340     6.8940     8.7780    25.4470   -28.8460 
  101.3750     2.2140    58.6330     9.0610     7.5770    10.1740    25.0830   -29.3000 
  101.5000     2.1960    56.2650     9.8330     8.3280    11.5640    25.0000   -29.8370 
  101.6250     2.1760    60.1350    10.3020     8.9370    13.6660    25.1420   -30.4240 
  101.7500     2.1600    63.6240    10.4530     9.2760    16.7880    25.2020   -31.0080 
  101.8750     2.1510    63.0760    10.3660     9.3250    17.3050    24.8520   -31.5600 
  102.0000     2.1490    61.4860    10.1510     9.1500    13.6590    24.3960   -32.0450 
  102.1250     2.1540    63.2360     9.8880     8.8410    11.3360    24.0600   -32.3820 
  102.2500     2.1620    66.4280     9.6140     8.5220    10.5200    23.8910   -32.6120 
  102.3750     2.1690    69.3030     9.3430     8.2630    10.3610    23.8630   -32.7640 
  102.5000     2.1730    70.6130     9.0840     8.0970    10.3440    23.8610   -32.8550 
  102.6250     2.1730    68.8050     8.8490     8.0210    10.3510    23.8610   -32.9090 
  102.7500     2.1720    65.6890     8.6500     7.9760    10.3120    23.8610   -32.9280 
  102.8750     2.1700    64.6120     8.5020     7.9170    10.2140    23.8610   -32.9150 
  103.0000     2.1680    66.4310     8.4080     7.8160    10.0500    23.8610   -32.8600 
  103.1250     2.1660    68.7420     8.3440     7.6670     9.9160    23.8600   -32.7470 
  103.2500     2.1640    69.3560     8.2750     7.5060     9.8130    23.8530   -32.6030 
  103.3750     2.1620    67.7820     8.2020     7.3640     9.7640    23.8100   -32.4370 
  103.5000     2.1600    64.4660     8.1500     7.2630     9.7240    23.7950   -32.2850 
  103.6250     2.1600    62.6890     8.1500     7.2260     9.6580    23.8350   -32.1480 
  103.7500     2.1610    64.0340     8.2010     7.2310     9.5390    23.8860   -32.0650 
  103.8750     2.1620    67.1320     8.2860     7.2550     9.4330    23.8340   -32.0320 
  104.0000     2.1620    68.4890     8.3670     7.2890     9.4330    23.7390   -32.0580 
  104.1250     2.1600    67.0060     8.4060     7.3280     9.4530    23.7250   -32.1310 
  104.2500     2.1540    65.9630     8.4060     7.3670     9.3270    23.7450   -32.1980 
  104.3750     2.1450    66.2280     8.3850     7.3930     8.9710    23.7680   -32.2420 
  104.5000     2.1340    66.8740     8.3410     7.3730     8.5850    23.7690   -32.2220 
  104.6250     2.1270    67.1850     8.2150     7.2580     8.5470    23.7470   -32.1240 
  104.7500     2.1270    67.1040     7.9700     7.0620     8.9370    23.7070   -31.9160 
  104.8750     2.1330    66.8430     7.6420     6.8170     9.1900    23.7200   -31.6070 
  105.0000     2.1430    67.4230     7.3390     6.5780     8.9840    23.7960   -31.1950 
  105.1250     2.1520    69.6940     7.1990     6.4000     8.5450    23.9180   -30.7250 
  105.2500     2.1570    71.5960     7.2150     6.2980     8.6510    23.9440   -30.2480 
  105.3750     2.1590    72.6380     7.3170     6.2540     9.0460    23.9490   -29.8080 
  105.5000     2.1610    72.4710     7.4060     6.2380     9.3090    23.9530   -29.4050 
  105.6250     2.1650    72.3450     7.4110     6.2110     9.3270    23.9800   -29.0400 
  105.7500     2.1700    73.7370     7.3590     6.1530     9.0890    24.0430   -28.7390 
  105.8750     2.1710    74.6770     7.3000     6.0690     8.5940    24.2470   -28.5160 
  106.0000     2.1650    73.4260     7.2820     5.9990     7.9370    24.2480   -28.3910 
  106.1250     2.1550    71.8050     7.3690     6.0000     7.9420    23.5720   -28.4060 
  106.2500     2.1430    73.1490     7.5830     6.0980     8.1490    23.3790   -28.5180 
  106.3750     2.1360    75.8760     7.9260     6.2990     8.5270    23.2710   -28.7230 
  106.5000     2.1340    75.9580     8.3550     6.5790     8.9420    23.1930   -29.0430 
  106.6250     2.1400    72.3430     8.7630     6.8950     9.2380    23.1800   -29.4790 
  106.7500     2.1470    68.5490     9.0320     7.1900     9.4590    23.1790   -29.9820 
  106.8750     2.1540    65.7290     9.1140     7.4320     9.6540    23.1870   -30.5130 
  107.0000     2.1580    63.8770     9.0390     7.5960     9.7530    23.1960   -31.0070 
  107.1250     2.1560    63.4810     8.8960     7.6450     9.7270    23.2350   -31.3680 
  107.2500     2.1520    64.5760     8.7640     7.5920     9.6370    23.2570   -31.5740 
  107.3750     2.1460    65.6180     8.6490     7.4450     9.4920    23.2870   -31.6050 
  107.5000     2.1420    64.8920     8.5250     7.2350     9.3150    23.3900   -31.4630 
  107.6250     2.1430    65.4880     8.4060     7.0380     9.1640    23.4230   -31.1500 
  107.7500     2.1510    69.2570     8.3540     6.9240     9.0830    23.4300   -30.7240 
  107.8750     2.1670    73.0130     8.4200     6.9280     9.1210    23.4350   -30.2290 
  108.0000     2.1890    73.5170     8.6210     7.0550     9.4900    23.4600   -29.6920 
  108.1250     2.2090    70.0720     8.9410     7.2810    10.2510    23.6080   -29.1620 
