~V
VERS. 2.00: Ver 2.00
~W
STRT.M 59.0000:
STOP.M 221.0000:
STEP.M 0.1250:
NULL. -999.2500:
UWI. F11122:
~C
DEPT.M :
GR.API :
RML.OHMM :
RI. :
RXO.OHMM :
CALI.CM :
SP.MV :
DEN.GM/CC :
~A
# ...
   81.5000    81.2780     7.9650     5.9130     7.2870    25.1010   -11.2860     2.2090 
   81.6250    85.2100     7.9680     5.8520     7.2840    24.9880   -11.3180     2.2330 
   81.7500    86.4270     8.0890     5.8650     7.8140    24.9070   -11.4880     2.2480 
   81.8750    85.3100     8.2890     5.9510     8.5380    24.9210   -11.7580     2.2480 
   82.0000    81.6380     8.4990     6.0790     8.9300    25.1990   -12.0670     2.2370 
   82.1250    77.2610     8.6290     6.1880     8.7890    25.6700   -12.3510     2.2190 
   82.2500    75.2280     8.6520     6.2340     8.4400    25.9080   -12.5860     2.1990 
   82.3750    75.5080     8.5800     6.2090     8.3860    25.7680   -12.7160     2.1780 
   82.5000    76.4130     8.4540     6.1310     8.4600    25.5300   -12.7020     2.1600 
   82.6250    78.4510     8.3220     6.0350     8.3570    25.1980   -12.5130     2.1550 
   82.7500    81.2030     8.2160     5.9530     8.0310    24.8600   -12.2170     2.1630 
   82.8750    82.2650     8.1440     5.8940     7.9320    24.6670   -11.9030     2.1800 
   83.0000    81.0830     8.1070     5.8600     8.2740    24.6000   -11.6520     2.1980 
   83.1250    79.1420     8.1100     5.8540     8.3890    24.5600   -11.4660     2.2140 
   83.2500    77.7530     8.1450     5.8740     8.4460    24.5840   -11.3070     2.2330 
   83.3750    77.2050     8.1920     5.9090     8.4480    24.7350   -11.1850     2.2610 
   83.5000    78.2440     8.2030     5.9300     8.3670    24.8930   -11.0720     2.2940 
   83.6250    80.8050     8.0950     5.8800     8.5170    24.8830   -10.8830     2.3150 
   83.7500    83.5820     7.8420     5.7320     8.3800    24.8030   -10.5540     2.3120 
   83.8750    88.0480     7.4670     5.4900     7.5250    24.7360   -10.0550     2.2820 
   84.0000    94.5940     7.0590     5.2010     5.9200    24.6390    -9.4000     2.2390 
   84.1250    98.5100     6.7710     4.9570     4.5150    24.5360    -8.6810     2.2060 
   84.2500    99.0620     6.6830     4.8350     4.3280    24.6040    -8.0180     2.1920 
   84.3750    99.4960     6.8050     4.8690     5.0000    24.7430    -7.4450     2.1930 
   84.5000    99.5500     7.0710     5.0430     5.8300    24.9500    -6.9590     2.1940 
   84.6250    96.2290     7.3450     5.2900     6.7010    25.1740    -6.5570     2.1880 
   84.7500    92.1480     7.4910     5.4910     7.2310    25.3500    -6.2110     2.1790 
   84.8750    90.6280     7.4660     5.5820     6.9660    25.4300    -5.8830     2.1810 
   85.0000    92.3190     7.3160     5.5630     6.3200    25.3980    -5.5550     2.2030 
   85.1250    96.6990     7.1610     5.4880     5.9450    25.3910    -5.1830     2.2440 
   85.2500    99.9690     7.0890     5.4360     5.6810    25.4350    -4.7400     2.2850 
   85.3750    99.2420     7.0980     5.4250     5.2270    25.4680    -4.2610     2.3080 
   85.5000    97.9830     7.1120     5.4250     5.2040    25.3960    -3.7790     2.3060 
   85.6250    99.9080     7.0020     5.3650     5.6950    25.1750    -3.3350     2.2890 
   85.7500   103.0840     6.7350     5.2080     5.3530    24.9930    -2.9460     2.2740 
   85.8750   105.9360     6.3520     4.9620     4.5210    24.9480    -2.6530     2.2720 
   86.0000   108.9870     5.9450     4.6770     4.1260    24.9870    -2.4240     2.2790 
   86.1250   110.2150     5.6320     4.4300     4.0640    25.0810    -2.2210     2.2910 
   86.2500   110.8750     5.4560     4.2700     3.9570    25.1820    -2.0210     2.3000 
   86.3750   115.1890     5.4130     4.2120     3.9310    25.1720    -1.7980     2.3060 
   86.5000   122.4570     5.4730     4.2410     4.0550    25.0730    -1.5750     2.3120 
   86.6250   124.7960     5.5970     4.3380     4.0100    24.9980    -1.3770     2.3200 
   86.7500   119.5200     5.7330     4.4580     4.0830    24.9960    -1.2120     2.3290 
   86.8750   111.7500     5.8460     4.5730     4.1860    25.0500    -1.0520     2.3360 
   87.0000   108.6010     5.9050     4.6590     4.3710    25.1130    -0.9040     2.3350 
   87.1250   111.3750     5.8820     4.6860     4.6050    25.0920    -0.7960     2.3180 
   87.2500   117.1410     5.8010     4.6620     4.6460    25.0280    -0.7210     2.2970 
   87.3750   122.5530     5.6940     4.6010     4.3180    25.0060    -0.6740     2.2840 
   87.5000   126.0480     5.5980     4.5290     4.1120    25.0280    -0.6600     2.2920 
   87.6250   127.9560     5.5550     4.4740     4.1740    24.9920    -0.6860     2.3210 
   87.7500   129.7970     5.5680     4.4510     4.2130    24.9710    -0.7300     2.3540 
   87.8750   130.5210     5.6280     4.4630     4.2270    24.9610    -0.7970     2.3760 
   88.0000   130.0600     5.7170     4.5010     4.2180    24.9520    -0.8980     2.3830 
   88.1250   131.6220     5.8100     4.5510     4.1920    24.9280    -1.0470     2.3780 
   88.2500   134.3330     5.8940     4.5980     4.2150    24.9170    -1.2150     2.3720 
   88.3750   131.9720     5.9720     4.6410     4.2320    24.9330    -1.3650     2.3660 
   88.5000   124.8720     6.0530     4.6870     4.2030    24.9560    -1.4660     2.3560 
   88.6250   118.4160     6.1460     4.7420     4.1830    24.9550    -1.5600     2.3360 
   88.7500   116.6320     6.2560     4.8080     4.3860    24.9280    -1.6790     2.3090 
   88.8750   116.1300     6.3980     4.8860     4.9810    24.8960    -1.8440     2.2830 
   89.0000   112.3500     6.6280     5.0010     5.7860    24.8760    -2.0450     2.2670 
   89.1250   107.6280     7.0890     5.2340     6.0600    24.9010    -2.2620     2.2710 
   89.2500   106.0220     7.8590     5.6570     6.0120    24.9000    -2.5030     2.2980 
   89.3750   105.3200     8.9520     6.3200     5.9910    24.8980    -2.7810     2.3430 
   89.5000   100.7190    10.2280     7.1910     7.5090    24.8810    -3.0890     2.3950 
   89.6250    94.4810    11.2870     8.0720    11.5280    24.7750    -3.4160     2.4290 
   89.7500    93.2030    11.7460     8.6520    15.3940    24.6290    -3.7820     2.4310 
   89.8750    93.9520    11.4630     8.7380    14.3150    24.3880    -4.1890     2.3990 
   90.0000    93.0530    10.6410     8.3580    10.5650    24.1580    -4.6270     2.3520 
   90.1250    91.3950     9.7990     7.7800     9.1740    23.9610    -5.0740     2.3170 
   90.2500    90.8140     9.4030     7.3790     8.7280    23.8980    -5.4880     2.3030 
   90.3750    90.5100     9.5780     7.3260     9.0380    23.9910    -5.8330     2.3010 
   90.5000    89.4280    10.1640     7.6130    10.8990    24.2200    -6.1160     2.3040 
   90.6250    87.9540    10.7560     8.0510    15.3230    24.4410    -6.3450     2.3120 
   90.7500    87.4140    10.9590     8.3280    18.8110    24.5370    -6.4700     2.3300 
   90.8750    87.8000    10.6450     8.2760    15.3750    24.5640    -6.4810     2.3500 
   91.0000    89.6050     9.9450     7.9010    10.2300    24.5910    -6.4220     2.3590 
   91.1250    91.9770     9.1900     7.3710     7.4690    24.6100    -6.3590     2.3350 
   91.2500    92.9290     8.6740     6.9230     7.5990    24.5920    -6.3420     2.2870 
   91.3750    92.1100     8.4720     6.6630    10.3050    24.4640    -6.4030     2.2350 
   91.5000    90.7180     8.5170     6.5950    13.2160    24.3920    -6.5380     2.1930 
   91.6250    90.1910     8.6690     6.6620    12.1180    24.4510    -6.7210     2.1710 
   91.7500    89.7750     8.7770     6.7450     9.8840    24.3620    -7.0010     2.1600 
   91.8750    91.1410     8.7900     6.7830     9.0000    24.0760    -7.3780     2.1540 
   92.0000    92.3830     8.7140     6.7570     8.9010    23.8440    -7.8380     2.1530 
   92.1250    90.0300     8.5840     6.6770     8.7370    23.8840    -8.3760     2.1550 
   92.2500    85.1130     8.4480     6.5810     8.4770    24.1310    -8.9270     2.1540 
   92.3750    81.9050     8.3260     6.4920     8.2640    24.5150    -9.4370     2.1450 
   92.5000    81.6980     8.2300     6.4210     8.2460    24.8990    -9.8820     2.1330 
   92.6250    82.9630     8.1760     6.3850     8.5140    25.1080   -10.2360     2.1260 
