~V
VERS. 2.00: Ver 2.00
~W
STRT.M 63.0000:
STOP.M 244.0000:
STEP.M 0.1250:
NULL. -999.2500:
UWI. F11131:
~C
DEPT.M :
SP.MV :
DEN.GM/CC :
GR.API :
RML.OHMM :
RI. :
RXO.OHMM :
CALI.CM :
~A
# ...
  231.7500    -8.9900     2.2460    84.1450     6.6360     4.8940     4.3590    24.5780 
  231.8750    -9.0360     2.2570    84.1450     6.6430     4.8960     4.3460    24.5790 
  232.0000    -9.0880     2.2730    84.1450     6.6420     4.8990     4.2520    24.5690 
  232.1250    -9.1350     2.2860    84.1450     6.6120     4.9000     4.2000    24.5030 
  232.2500    -9.1830     2.2890    84.1450     6.5640     4.9010     4.2470    24.3960 
  232.3750    -9.2070     2.2710    84.1450     6.5180     4.9000     4.3470    24.3190 
  232.5000    -9.2160     2.2250    84.1450     6.4860     4.9000     4.5130    24.3270 
  232.6250    -9.2640     2.1680    84.1450     6.4730     4.8990     4.7270    24.3940 
  232.7500    -9.3380     2.1230    84.1450     6.4690     4.9000     4.7950    24.4330 
  232.8750    -9.3670     2.1090    84.1450     6.4700     4.9030     4.6510    24.4350 
  233.0000    -9.3570     2.1310    84.1450     6.4710     4.9090     4.5270    24.4270 
  233.1250    -9.3510     2.1600    84.1450     6.5080     4.9310     4.5450    24.4240 
  233.2500    -9.2990     2.1620    84.1450     7.0300     5.2680     4.6600    24.4250 
  233.3750    -9.2420     2.1290    84.1450    10.7520     8.0620     4.7140    24.4490 
  233.5000    -9.2220     2.0850    84.1450    24.0990    18.6920     4.6870    24.5160 
  233.6250    -9.1670     2.0570    84.1450    24.0990    18.6930     4.5480    24.4320 
  233.7500    -9.0590     2.0520    84.1450    24.0990    18.6930     4.4800    23.9720 
  233.8750    -8.9940     2.0650    84.1450    24.0990    18.6930     4.4810    23.0290 
  234.0000    -8.9690     2.0840    84.1450    24.0990    18.6930     4.5110    21.4820 
  234.1250    -8.9420     2.0940    84.1450    24.0990    18.6930     4.5510    19.2260 
  234.2500    -8.8900     2.0940    84.1450    24.0990    18.6930     4.6660    16.9040 
  234.3750    -8.8650     2.0900    84.1450    24.0990    18.6930     4.8140    15.2010 
  234.5000    -8.8130     2.0890    84.1450    24.0990    18.6930     4.9770    14.3170 
  234.6250    -8.7710     2.0950    84.1450    24.0990    18.6930     5.0510    13.8460 
  234.7500    -8.7710     2.1060    84.1450    24.0990    18.6930     4.9880    13.3530 
  234.8750    -8.7710     2.1190    84.1450    24.0990    18.6930     4.9000    12.8920 
  235.0000  -999.2500     2.1280    84.1450    24.0990    18.6930     4.8530    12.6050 
  235.1250  -999.2500     2.1330    84.1450    24.0990    18.6930     4.8370    12.5490 
  235.2500  -999.2500  -999.2500    84.1450    24.0990    18.6930     4.8360    12.5620 
  235.3750  -999.2500  -999.2500    84.1450    24.0990    18.6930     4.8350    12.5660 
  235.5000  -999.2500  -999.2500    84.1450    24.0990    18.6930     4.8340    12.5650 
  235.6250  -999.2500  -999.2500    84.1450    24.0990    18.6930     4.8330    12.5610 
  235.7500  -999.2500  -999.2500    84.1450    24.0990    18.6930     4.8310    12.5550 
  235.8750  -999.2500  -999.2500    84.1450    24.0990    18.6930     4.8310    12.5480 
  236.0000  -999.2500  -999.2500    84.1450    24.0990    18.6930     4.8310    12.5440 
  236.1250  -999.2500  -999.2500    84.1450    24.0990    18.6930     4.8320    12.5430 
  236.2500  -999.2500  -999.2500    84.1450    24.0990    18.6930     4.8330    12.5390 
  236.3750  -999.2500  -999.2500    84.1450    24.0990    18.6930     4.8350    12.5290 
  236.5000  -999.2500  -999.2500    84.1450    24.0990    18.6930     4.8380    12.5190 
  236.6250  -999.2500  -999.2500    84.1450    24.0990    18.6930     4.8400    12.5130 
  236.7500  -999.2500  -999.2500    84.1450    24.0990    18.6930     4.8400    12.5090 
  236.8750  -999.2500  -999.2500    84.1450    24.0990    18.6930     4.8410    12.5030 
  237.0000  -999.2500  -999.2500    84.1450    24.0990    18.6930     4.8420    12.4960 
  237.1250  -999.2500  -999.2500    84.1450    24.0990    18.6930     4.8420    12.4920 
  237.2500  -999.2500  -999.2500    84.1450    24.0990    18.6930     4.8420    12.4890 
  237.3750  -999.2500  -999.2500    84.1450    24.0990    18.6930     4.8410    12.4880 
  237.5000  -999.2500  -999.2500    84.1450    24.0990    18.6930     4.8390    12.4890 
  237.6250  -999.2500  -999.2500    84.1450    24.0990    18.6930     4.8380    12.4900 
  237.7500  -999.2500  -999.2500    84.1450    24.0990    18.6930     4.8400    12.4850 
  237.8750  -999.2500  -999.2500    84.1450    24.0990    18.6930     4.8460    12.4680 
  238.0000  -999.2500  -999.2500    84.1450    24.0990    18.6930     4.8600    12.4450 
  238.1250  -999.2500  -999.2500    84.1450    24.0990    18.6930     4.8700    12.4500 
  238.2500  -999.2500  -999.2500    84.1450    24.0990    18.6930     4.8750    12.5860 
  238.3750  -999.2500  -999.2500    84.1450    24.0990    18.6930     4.8770    11.3950 
  238.5000  -999.2500  -999.2500  -999.2500  -999.2500  -999.2500  -999.2500  -999.2500 
  238.6250  -999.2500  -999.2500  -999.2500  -999.2500  -999.2500  -999.2500  -999.2500 
  238.7500  -999.2500  -999.2500  -999.2500  -999.2500  -999.2500  -999.2500  -999.2500 
  238.8750  -999.2500  -999.2500  -999.2500  -999.2500  -999.2500  -999.2500  -999.2500 
  239.0000  -999.2500  -999.2500  -999.2500  -999.2500  -999.2500  -999.2500  -999.2500 
  239.1250  -999.2500  -999.2500  -999.2500  -999.2500  -999.2500  -999.2500  -999.2500 
  239.2500  -999.2500  -999.2500  -999.2500  -999.2500  -999.2500  -999.2500  -999.2500 
  239.3750  -999.2500  -999.2500  -999.2500  -999.2500  -999.2500  -999.2500  -999.2500 
  239.5000  -999.2500  -999.2500  -999.2500  -999.2500  -999.2500  -999.2500  -999.2500 
  239.6250  -999.2500  -999.2500  -999.2500  -999.2500  -999.2500  -999.2500  -999.2500 
  239.7500  -999.2500  -999.2500  -999.2500  -999.2500  -999.2500  -999.2500  -999.2500 
  239.8750  -999.2500  -999.2500  -999.2500  -999.2500  -999.2500  -999.2500  -999.2500 
  240.0000  -999.2500  -999.2500  -999.2500  -999.2500  -999.2500  -999.2500  -999.2500 
  240.1250  -999.2500  -999.2500  -999.2500  -999.2500  -999.2500  -999.2500  -999.2500 
  240.2500  -999.2500  -999.2500  -999.2500  -999.2500  -999.2500  -999.2500  -999.2500 
  240.3750  -999.2500  -999.2500  -999.2500  -999.2500  -999.2500  -999.2500  -999.2500 
  240.5000  -999.2500  -999.2500  -999.2500  -999.2500  -999.2500  -999.2500  -999.2500 
  240.6250  -999.2500  -999.2500  -999.2500  -999.2500  -999.2500  -999.2500  -999.2500 
  240.7500  -999.2500  -999.2500  -999.2500  -999.2500  -999.2500  -999.2500  -999.2500 
  240.8750  -999.2500  -999.2500  -999.2500  -999.2500  -999.2500  -999.2500  -999.2500 
  241.0000  -999.2500  -999.2500  -999.2500  -999.2500  -999.2500  -999.2500  -999.2500 
  241.1250  -999.2500  -999.2500  -999.2500  -999.2500  -999.2500  -999.2500  -999.2500 
  241.2500  -999.2500  -999.2500  -999.2500  -999.2500  -999.2500  -999.2500  -999.2500 
  241.3750  -999.2500  -999.2500  -999.2500  -999.2500  -999.2500  -999.2500  -999.2500 
  241.5000  -999.2500  -999.2500  -999.2500  -999.2500  -999.2500  -999.2500  -999.2500 
  241.6250  -999.2500  -999.2500  -999.2500  -999.2500  -999.2500  -999.2500  -999.2500 
  241.7500  -999.2500  -999.2500  -999.2500  -999.2500  -999.2500  -999.2500  -999.2500 
  241.8750  -999.2500  -999.2500  -999.2500  -999.2500  -999.2500  -999.2500  -999.2500 
  242.0000  -999.2500  -999.2500  -999.2500  -999.2500  -999.2500  -999.2500  -999.2500 
  242.1250  -999.2500  -999.2500  -999.2500  -999.2500  -999.2500  -999.2500  -999.2500 
  242.2500  -999.2500  -999.2500  -999.2500  -999.2500  -999.2500  -999.2500  -999.2500 
  242.3750  -999.2500  -999.2500  -999.2500  -999.2500  -999.2500  -999.2500  -999.2500 
  242.5000  -999.2500  -999.2500  -999.2500  -999.2500  -999.2500  -999.2500  -999.2500 
  242.6250  -999.2500  -999.2500  -999.2500  -999.2500  -999.2500  -999.2500  -999.2500 
  242.7500  -999.2500  -999.2500  -999.2500  -999.2500  -999.2500  -999.2500  -999.2500 
  242.8750  -999.2500  -999.2500  -999.2500  -999.2500  -999.2500  -999.2500  -999.2500 
