~V
VERS. 2.00: Ver 2.00
~W
STRT.M 14.0000:
STOP.M 209.0000:
STEP.M 0.1250:
NULL. -999.2500:
UWI. F11100:
~C
DEPT.M :
GR.API :
RML.OHMM :
RI. :
RXO.OHMM :
CALI.CM :
SP.MV :
DEN.GM/CC :
~A
# ...
  115.2500    68.6680     8.0060     6.0450    16.9400    27.7720    -4.2150     2.3960 
  115.3750    63.8750     9.4660     7.1060    20.6490    27.7970    -4.3900     2.3850 
  115.5000    63.8620    10.5160     8.0260    15.3560    27.8070    -4.7380     2.3290 
  115.6250    66.8240    10.9020     8.5640    11.0180    27.8050    -5.1930     2.2560 
  115.7500    67.9970    10.8390     8.7680     9.6870    27.8030    -5.6390     2.1960 
  115.8750    66.6060    10.4850     8.7230    10.0350    27.8020    -5.9940     2.1590 
  116.0000    63.7770     9.9060     8.4830    11.4670    27.8160    -6.2180     2.1420 
  116.1250    61.3990     9.0970     8.0240    11.5100    27.8960    -6.3110     2.1400 
  116.2500    61.2700     8.2590     7.4460     9.6190    28.0280    -6.3290     2.1440 
  116.3750    64.0900     7.6690     6.9140     7.8960    28.1490    -6.3150     2.1550 
  116.5000    66.4490     7.5800     6.6260     7.0470    28.1990    -6.3070     2.1700 
  116.6250    64.7580     8.2730     6.8250     7.0350    28.1640    -6.3270     2.1810 
  116.7500    60.9760     9.6880     7.5340     7.9070    28.1280    -6.3810     2.1780 
  116.8750    58.6640    11.7390     8.7340    10.3080    28.1390    -6.4660     2.1570 
  117.0000    58.5740    14.1370    10.2770    14.6310    28.1730    -6.5590     2.1190 
  117.1250    59.4880    16.2270    11.7990    17.4900    28.0990    -6.6680     2.0770 
  117.2500    59.7950    17.3530    12.8300    17.1990    27.9120    -6.7880     2.0440 
  117.3750    58.8240    17.1650    13.0630    16.0200    27.7330    -6.9270     2.0270 
  117.5000    58.3350    15.7980    12.4770    15.4210    27.6590    -7.0720     2.0260 
  117.6250    60.3960    13.8110    11.3270    14.7370    27.7150    -7.1990     2.0440 
  117.7500    62.4790    11.9940    10.1390    13.0060    27.8180    -7.2930     2.0780 
  117.8750    62.6650    10.7480     9.2070    10.2860    27.9190    -7.3660     2.1220 
  118.0000    61.5010    10.2620     8.7000     8.3150    27.9270    -7.4130     2.1620 
  118.1250    61.3260    10.6580     8.7520     9.0240    27.7810    -7.4410     2.1770 
  118.2500    62.1430    11.6040     9.2130    11.6140    27.6080    -7.4410     2.1700 
  118.3750    62.6900    12.7660     9.9150    13.9790    27.5160    -7.4250     2.1500 
  118.5000    61.4020    13.7320    10.6140    14.5940    27.5320    -7.4020     2.1300 
  118.6250    58.5590    14.0620    11.0120    14.1800    27.6190    -7.3310     2.1120 
  118.7500    56.3250    13.8420    11.0620    13.5930    27.7190    -7.2160     2.0910 
  118.8750    56.4920    13.3330    10.8650    12.8310    27.7940    -7.0240     2.0700 
  119.0000    59.3550    12.8030    10.5710    12.2580    27.8200    -6.7570     2.0690 
  119.1250    61.7370    12.4000    10.2930    11.6200    27.8160    -6.4240     2.1270 
  119.2500    61.5800    12.1140    10.0700    10.8400    27.8100    -6.0660     2.2320 
  119.3750    60.0500    11.9450     9.9150    10.0640    27.8070    -5.7020     2.3350 
  119.5000    59.0480    11.9150     9.8460     9.8660    27.8080    -5.3350     2.3750 
  119.6250    58.2620    12.0950     9.9140    10.0840    27.8100    -4.9390     2.3270 
  119.7500    56.9970    12.4620    10.1140    10.9890    27.8100    -4.5200     2.2480 
  119.8750    57.0760    12.9440    10.4110    12.2010    27.8110    -4.0590     2.1830 
  120.0000    58.4840    13.4040    10.7270    12.8900    27.8150    -3.5380     2.1620 
  120.1250    58.8930    13.6460    10.9390    12.9480    27.8150    -2.9470     2.2030 
  120.2500    57.5150    13.6310    11.0020    12.4840    27.8120    -2.2850     2.2820 
  120.3750    54.3290    13.4410    10.9540    11.4230    27.8130    -1.5750     2.3650 
  120.5000    50.3140    13.2490    10.8960    10.5500    27.8090    -0.8740     2.4200 
  120.6250    47.0980    13.2250    10.9490    10.7050    27.7590    -0.2350     2.4330 
  120.7500    46.1300    13.3400    11.1140    11.5400    27.6630     0.3110     2.4320 
  120.8750    47.2660    13.4930    11.3380    12.4090    27.5660     0.7470     2.4310 
  121.0000    50.4330    13.5740    11.5450    13.3760    27.5140     1.0680     2.4310 
  121.1250    53.0200    13.5530    11.6740    13.4810    27.5120     1.2740     2.4250 
  121.2500    51.6200    13.6130    11.7940    12.1470    27.5170     1.4240     2.4140 
  121.3750    47.1860    13.9600    12.0260    10.6600    27.5150     1.5380     2.4050 
  121.5000    44.1500    14.6370    12.4280    10.4200    27.5100     1.6540     2.4080 
  121.6250    45.4520    15.3040    12.8290    11.1460    27.5090     1.7860     2.4310 
  121.7500    48.5030    15.3210    12.8330    12.5300    27.5090     1.9200     2.4640 
  121.8750    52.2790    14.2220    12.1100    14.7690    27.5090     2.0300     2.4870 
  122.0000    56.8630    12.0650    10.6480    15.6410    27.5100     2.1030     2.4780 
  122.1250    61.9570     9.5820     8.8600    11.2160    27.5110     2.1210     2.4290 
  122.2500    67.4670     7.6640     7.3550     7.2580    27.5120     2.1130     2.3680 
  122.3750    71.3160     6.6610     6.4210     5.4790    27.5110     2.0900     2.3210 
  122.5000    71.9410     6.6630     6.1760     5.2250    27.5100     2.0750     2.3070 
  122.6250    69.6450     7.8550     6.7930     6.6410    27.5080     2.0750     2.3340 
  122.7500    65.8570    10.0270     8.1580    10.2890    27.5090     2.0800     2.3800 
  122.8750    60.0600    12.9320    10.1550    15.4420    27.5100     2.0790     2.4260 
  123.0000    53.5000    15.9430    12.4220    19.8640    27.5070     2.0560     2.4560 
  123.1250    50.5080    17.8660    14.1670    19.2540    27.5020     2.0040     2.4640 
  123.2500    51.1600    18.2520    14.9050    16.8960    27.5030     1.9150     2.4580 
  123.3750    52.5240    17.4220    14.6990    15.4420    27.5080     1.7970     2.4430 
  123.5000    53.8170    16.0920    13.9610    14.3040    27.5100     1.6710     2.4240 
  123.6250    57.3390    14.8740    13.0950    12.5300    27.5190     1.5400     2.4050 
  123.7500    60.6870    13.9700    12.3310    11.6600    27.4950     1.4350     2.3850 
  123.8750    61.8430    13.3660    11.7210    12.7300    27.4280     1.3350     2.3600 
  124.0000    61.0620    12.9770    11.2540    12.8680    27.3830     1.2500     2.3330 
  124.1250    59.1510    12.7220    10.9140    11.0810    27.4290     1.1660     2.3150 
  124.2500    56.1680    12.5300    10.6610    11.1010    27.4960     1.0840     2.3110 
  124.3750    53.9710    12.4080    10.4920    13.1800    27.5150     0.9880     2.3180 
  124.5000    56.7430    12.4010    10.4280    13.4150    27.5030     0.8640     2.3270 
  124.6250    62.8530    12.6010    10.5250    11.0060    27.5670     0.7370     2.3240 
  124.7500    66.7320    12.9520    10.7400    10.6800    27.7010     0.6300     2.3090 
  124.8750    67.5950    13.3140    10.9840    13.1450    27.8380     0.5750     2.2850 
  125.0000    67.1650    13.5340    11.1550    14.8110    27.8980     0.5700     2.2550 
  125.1250    67.7110    13.5210    11.1840    12.6520    27.8160     0.6320     2.2260 
  125.2500    68.4380    13.4070    11.1370    10.7910    27.6370     0.7350     2.2030 
  125.3750    68.1460    13.3930    11.1230     9.5200    27.4300     0.8740     2.1960 
  125.5000    66.2890    13.6940    11.2750     9.5690    27.2850     1.0260     2.2100 
  125.6250    62.8640    14.4900    11.7420    11.2270    27.2420     1.1850     2.2400 
  125.7500    59.4470    15.6060    12.4610    14.0960    27.2340     1.3530     2.2700 
  125.8750    56.9280    16.8380    13.3300    15.7580    27.2280     1.5370     2.2910 
  126.0000    55.3330    18.0220    14.2340    16.2610    27.2180     1.7320     2.3020 
  126.1250    54.4840    19.1310    15.1140    16.7190    27.2060     1.9280     2.3140 
  126.2500    54.7410    20.2560    15.9880    18.6000    27.1990     2.0940     2.3420 
  126.3750    55.3500    21.3280    16.8180    20.4110    27.1980     2.2040     2.3910 
