~V
VERS. 2.00: Ver 2.00
~W
STRT.M 50.0000:
STOP.M 248.0000:
STEP.M 0.1250:
NULL. -999.2500:
UWI. F11129:
~C
DEPT.M :
SP.MV :
DEN.GM/CC :
GR.API :
RML.OHMM :
RI. :
RXO.OHMM :
CALI.CM :
~A
# ...
   61.2500   -16.8800     2.2390    96.9680     3.9400     5.6600     5.3130    22.4310 
   61.3750   -17.3990     2.2350   100.3570     3.8040     5.4530     4.8510    22.4140 
   61.5000   -17.8590     2.2240   101.9510     3.7560     5.3430     4.6540    22.3980 
   61.6250   -18.2590     2.2090   101.3290     3.8290     5.3520     4.7020    22.3720 
   61.7500   -18.5880     2.1990    99.3970     4.0270     5.4980     4.9400    22.3500 
   61.8750   -18.8600     2.1960    95.6960     4.3200     5.7820     5.2640    22.3510 
   62.0000   -19.1320     2.1980    90.4090     4.6390     6.1560     5.6570    22.3970 
   62.1250   -19.4130     2.2000    86.1180     4.9130     6.5440     6.0920    22.4520 
   62.2500   -19.6470     2.2030    85.1490     5.0540     6.8210     6.4740    22.4310 
   62.3750   -19.7820     2.2080    86.4730     5.0040     6.8720     6.7990    22.3380 
   62.5000   -19.8350     2.2130    89.3140     4.7890     6.6630     6.8110    22.3110 
   62.6250   -19.8560     2.2150    94.9820     4.4820     6.2240     6.2320    22.4390 
   62.7500   -19.9200     2.2180   100.3290     4.1800     5.6520     5.5630    22.6180 
   62.8750   -20.0630     2.2280   101.9670     3.9820     5.1140     5.3900    22.7280 
   63.0000   -20.2500     2.2450   103.5630     3.9920     4.8010     5.4750    22.8620 
   63.1250   -20.4970     2.2720   105.2150     4.3390     4.8970     5.4580    23.1270 
   63.2500   -20.9250     2.3120   100.8950     5.2140     5.6490     5.8270    23.4960 
   63.3750   -21.6110     2.3660    90.5960     6.8060     7.2860     8.3990    23.8080 
   63.5000   -22.4890     2.4250    81.2990     9.1160     9.7930    16.8280    23.9450 
   63.6250   -23.5300     2.4690    74.8820    11.7090    12.7580    31.4310    23.9050 
   63.7500   -24.7130     2.4670    68.9410    13.1410    14.8440    39.1460    23.7620 
   63.8750   -25.9700     2.4070    63.7950    12.3180    14.7290    30.7190    23.5340 
   64.0000   -27.2610     2.3160    62.1970    10.2500    12.8250    18.5020    23.2010 
   64.1250   -28.5750     2.2300    65.3160     8.3110    10.4520    11.6900    22.8030 
   64.2500   -29.8400     2.1800    71.4080     7.0920     8.6040     9.3960    22.4550 
   64.3750   -30.9520     2.1700    74.5580     6.5520     7.5310     9.0810    22.2340 
   64.5000   -31.9180     2.1800    72.3800     6.4300     7.0280     9.3120    22.1860 
   64.6250   -32.7690     2.1940    69.7540     6.5780     6.9390     9.6680    22.3480 
   64.7500   -33.4680     2.2030    70.9690     6.8770     7.1500     9.8310    22.6370 
   64.8750   -34.0250     2.2070    74.2710     7.2380     7.5500     9.7330    22.8580 
   65.0000   -34.5420     2.2030    75.9260     7.5920     8.0130     9.6610    22.9170 
   65.1250   -35.0640     2.1890    74.8130     7.8930     8.4380     9.8580    22.8760 
   65.2500   -35.5850     2.1610    71.3800     8.0610     8.6980    10.0620    22.7100 
   65.3750   -36.0930     2.1270    67.9640     8.0240     8.6980     9.9940    22.3950 
   65.5000   -36.5520     2.1070    66.2930     7.7930     8.4600     9.9600    22.0920 
   65.6250   -36.9280     2.1130    64.9630     7.4370     8.0650    10.2280    22.0170 
   65.7500   -37.2390     2.1340    63.0590     7.0910     7.6340    10.5880    22.2590 
   65.8750   -37.4950     2.1540    62.3280     6.8790     7.2800    10.6020    22.7440 
   66.0000   -37.6790     2.1610    63.8140     6.8400     7.0540    10.2930    23.2530 
   66.1250   -37.8070     2.1600    66.2090     6.9450     6.9500    10.0030    23.7200 
   66.2500   -37.8630     2.1510    67.5190     7.1320     6.9300    10.0340    24.2300 
   66.3750   -37.8520     2.1350    67.9190     7.3240     6.9410    10.3530    24.6910 
   66.5000   -37.8330     2.1170    68.6710     7.4560     6.9400    10.7450    24.8830 
   66.6250   -37.8030     2.1050    68.8230     7.4980     6.8990    10.8970    24.7830 
   66.7500   -37.7160     2.1060    67.2290     7.4440     6.8060    10.8830    24.5330 
   66.8750   -37.5860     2.1200    65.1040     7.3250     6.6670    10.8830    24.3070 
   67.0000   -37.4270     2.1350    65.1780     7.2000     6.5090    10.8070    24.2340 
   67.1250   -37.1520     2.1440    66.6970     7.1260     6.3620    10.6260    24.3570 
   67.2500   -36.7220     2.1460    66.3620     7.1760     6.2830    10.3520    24.6630 
   67.3750   -36.1760     2.1460    64.3560     7.4060     6.3290    10.1330    24.9610 
   67.5000   -35.5390     2.1450    64.0040     7.8000     6.5170    10.0520    25.0100 
   67.6250   -34.8070     2.1400    65.1780     8.2900     6.8150    10.0920    24.8000 
   67.7500   -33.9870     2.1380    65.4140     8.7110     7.1210    10.2070    24.3690 
   67.8750   -33.0920     2.1510    65.2760     8.8570     7.2780    10.3370    23.7810 
   68.0000   -32.1630     2.1680    66.9750     8.6350     7.1790    10.3860    23.2870 
   68.1250   -31.2610     2.1660    70.1230     8.1080     6.8300    10.2160    23.0800 
   68.2500   -30.4330     2.1370    72.7850     7.4830     6.3490     9.7180    23.1210 
   68.3750   -29.7070     2.1070    74.3210     6.9760     5.8940     8.9650    23.2330 
   68.5000   -29.1240     2.1000    75.5190     6.6930     5.5760     8.2420    23.2170 
   68.6250   -28.7210     2.1170    77.2870     6.6340     5.4270     7.7680    23.0580 
   68.7500   -28.5120     2.1450    79.7560     6.7550     5.4380     7.7790    22.8570 
   68.8750   -28.4830     2.1690    79.9520     7.0030     5.5730     8.2790    22.6850 
   69.0000   -28.6000     2.1810    76.0620     7.3210     5.7800     8.7740    22.5060 
   69.1250   -28.8310     2.1850    71.5270     7.6700     6.0260     9.2510    22.3260 
   69.2500   -29.1300     2.1870    68.9410     7.9950     6.2710     9.8180    22.2150 
   69.3750   -29.4320     2.1870    67.9150     8.2250     6.4700    10.5830    22.1910 
   69.5000   -29.6640     2.1840    67.9090     8.3150     6.5800    11.2220    22.2180 
   69.6250   -29.7880     2.1770    69.5080     8.2550     6.5810    11.2610    22.2920 
   69.7500   -29.7440     2.1660    70.6590     8.0830     6.4760    10.7770    22.4350 
   69.8750   -29.4940     2.1560    68.3450     7.8740     6.3010    10.2620    22.6610 
   70.0000   -29.0380     2.1540    64.8080     7.6970     6.1090     9.8890    22.9080 
   70.1250   -28.3720     2.1630    63.5450     7.5720     5.9360     9.5560    23.0200 
   70.2500   -27.5720     2.1800    65.9230     7.4930     5.8010     9.1720    22.8960 
   70.3750   -26.7460     2.1940    70.2990     7.4370     5.7040     8.8720    22.6930 
   70.5000   -25.9280     2.1990    74.2960     7.3890     5.6340     8.7900    22.5860 
   70.6250   -25.1270     2.2000    77.0240     7.3630     5.5900     8.6480    22.5540 
   70.7500   -24.4430     2.2010    77.2440     7.3880     5.5890     8.3510    22.5540 
   70.8750   -23.9490     2.2040    75.1630     7.4820     5.6460     8.1230    22.5770 
   71.0000   -23.5940     2.2060    73.6360     7.6270     5.7530     8.0580    22.6400 
   71.1250   -23.3510     2.2040    74.4290     7.7830     5.8840     8.1810    22.7630 
   71.2500   -23.2010     2.1980    76.4420     7.8710     5.9860     8.3580    22.9080 
   71.3750   -23.0950     2.1900    77.2940     7.8210     5.9990     8.3920    22.9370 
   71.5000   -23.0070     2.1820    76.5010     7.6220     5.8970     8.2070    22.7720 
   71.6250   -22.9480     2.1770    75.8650     7.3170     5.6940     8.0020    22.5460 
   71.7500   -22.9140     2.1780    78.3590     6.9830     5.4370     7.6770    22.3790 
   71.8750   -22.9270     2.1840    83.5010     6.7010     5.1880     7.0790    22.3260 
   72.0000   -23.0670     2.1900    87.2110     6.5160     4.9940     6.5240    22.3780 
   72.1250   -23.3710     2.1950    86.3420     6.4430     4.8780     6.2920    22.5540 
   72.2500   -23.8410     2.1970    81.8560     6.4880     4.8560     6.3480    22.7890 
   72.3750   -24.4890     2.1930    78.1410     6.6460     4.9300     6.5500    22.9240 
