~V
VERS. 2.00: Ver 2.00
~W
STRT.M 45.0000:
STOP.M 250.0000:
STEP.M 0.1250:
NULL. -999.2500:
UWI. F11133:
~C
DEPT.M :
SP.MV :
DEN.GM/CC :
GR.API :
RML.OHMM :
RI. :
RXO.OHMM :
CALI.CM :
~A
# ...
  135.0000   -17.9220     2.4780    48.5130    17.0080    15.5890    13.7370    24.2780 
  135.1250   -17.8690     2.4800    48.1710    16.7300    15.2450    12.9800    24.2540 
  135.2500   -17.8310     2.4770    46.3780    16.6820    15.0870    12.6730    24.2290 
  135.3750   -17.8160     2.4720    44.0800    16.7810    15.0710    12.9040    24.2100 
  135.5000   -17.8140     2.4650    43.1100    16.9280    15.1300    13.3680    24.2430 
  135.6250   -17.8090     2.4570    43.0100    17.0820    15.2320    13.6530    24.3340 
  135.7500   -17.7970     2.4500    42.2140    17.2370    15.3540    13.8160    24.4580 
  135.8750   -17.7920     2.4460    41.4840    17.3650    15.4540    14.3520    24.5540 
  136.0000   -17.8180     2.4490    43.0700    17.4100    15.4710    15.0340    24.5300 
  136.1250   -17.8640     2.4600    45.9520    17.3320    15.3660    14.7630    24.3460 
  136.2500   -17.9190     2.4760    46.6090    17.1590    15.1530    13.6920    24.0790 
  136.3750   -17.9810     2.4890    44.6070    16.9720    14.9000    12.8600    23.9060 
  136.5000   -18.0420     2.4960    42.6970    16.8310    14.6740    12.5070    23.9100 
  136.6250   -18.1030     2.5000    41.7350    16.7380    14.4960    12.6090    24.0680 
  136.7500   -18.1780     2.5040    42.1220    16.6330    14.3400    13.0930    24.3090 
  136.8750   -18.2730     2.5030    43.9720    16.4170    14.1340    13.4860    24.5160 
  137.0000   -18.3640     2.4940    45.3000    16.0100    13.7990    13.4130    24.6150 
  137.1250   -18.4390     2.4830    44.3820    15.3930    13.2970    13.1550    24.6400 
  137.2500   -18.5090     2.4740    43.3300    14.6260    12.6620    12.9490    24.6410 
  137.3750   -18.5810     2.4670    45.4970    13.8400    11.9930    12.3680    24.6340 
  137.5000   -18.6520     2.4590    49.8210    13.1860    11.4120    11.2110    24.6100 
  137.6250   -18.7210     2.4490    53.4440    12.7790    11.0120    10.4150    24.5800 
  137.7500   -18.7710     2.4400    55.7150    12.6820    10.8560    10.3290    24.5660 
  137.8750   -18.7770     2.4350    57.9230    12.8410    10.9170    10.3490    24.5760 
  138.0000   -18.7430     2.4340    60.0590    13.0720    11.0630    10.2890    24.5890 
  138.1250   -18.6790     2.4330    61.2950    13.1900    11.1540    10.6510    24.5850 
  138.2500   -18.5920     2.4340    62.4370    13.0150    11.0440    11.1800    24.5660 
  138.3750   -18.4850     2.4320    64.5700    12.4740    10.6600    11.0500    24.5580 
  138.5000   -18.3770     2.4230    67.0360    11.6520    10.0470    10.3310    24.5630 
  138.6250   -18.2690     2.4030    69.9820    10.6440     9.2720     9.5710    24.5670 
  138.7500   -18.1360     2.3770    73.7870     9.5500     8.4130     8.6800    24.5680 
  138.8750   -17.9840     2.3500    76.4290     8.4760     7.5630     7.4730    24.5680 
  139.0000   -17.8300     2.3310    76.9700     7.5260     6.8090     6.3690    24.5680 
  139.1250   -17.6810     2.3190    77.1870     6.7630     6.2010     5.6630    24.5680 
  139.2500   -17.5360     2.3080    78.1340     6.2310     5.7650     5.3790    24.5680 
  139.3750   -17.4050     2.2910    79.0240     5.9360     5.5010     5.3110    24.5680 
  139.5000   -17.2730     2.2740    79.6820     5.8170     5.3700     5.2290    24.5680 
  139.6250   -17.1480     2.2670    80.2900     5.8110     5.3390     5.0970    24.5670 
  139.7500   -17.0620     2.2740    79.9620     5.8430     5.3650     5.0050    24.5650 
  139.8750   -17.0190     2.2910    78.2460     5.8560     5.4060     5.0150    24.5630 
  140.0000   -16.9980     2.3050    75.3940     5.8330     5.4340     5.1040    24.5620 
  140.1250   -16.9850     2.3150    72.9050     5.7860     5.4420     5.1910    24.5620 
  140.2500   -16.9800     2.3210    73.6440     5.7380     5.4320     5.2250    24.5610 
  140.3750   -16.9880     2.3200    77.5350     5.7060     5.4090     5.2340    24.5570 
  140.5000   -17.0140     2.3140    81.2650     5.6860     5.3790     5.2670    24.5550 
  140.6250   -17.0490     2.3070    82.5470     5.6730     5.3460     5.3070    24.5580 
  140.7500   -17.0570     2.3060    80.1730     5.6620     5.3150     5.3230    24.5640 
  140.8750   -17.0300     2.3120    75.6010     5.6590     5.2900     5.3130    24.5670 
  141.0000   -16.9970     2.3200    73.2270     5.6670     5.2730     5.2670    24.5680 
  141.1250   -16.9870     2.3250    74.4670     5.6810     5.2560     5.2340    24.5680 
  141.2500   -17.0070     2.3240    76.0360     5.6840     5.2270     5.2150    24.5680 
  141.3750   -17.0370     2.3190    76.0920     5.6590     5.1800     5.1970    24.5680 
  141.5000   -17.0510     2.3130    76.8600     5.6110     5.1210     5.1660    24.5650 
  141.6250   -17.0530     2.3080    79.1690     5.5580     5.0600     5.1010    24.5550 
  141.7500   -17.0590     2.3060    81.8070     5.5300     5.0120     5.0340    24.5330 
  141.8750   -17.0720     2.3080    82.9340     5.5490     4.9880     5.0290    24.5100 
  142.0000   -17.0760     2.3130    82.2720     5.6050     4.9890     5.0680    24.5010 
  142.1250   -17.0650     2.3160    80.4190     5.6780     5.0090     5.1150    24.4990 
  142.2500   -17.0410     2.3150    78.9440     5.7380     5.0420     5.1400    24.4990 
  142.3750   -17.0170     2.3110    78.4980     5.7620     5.0740     5.1430    24.4990 
  142.5000   -17.0040     2.3040    78.7650     5.7520     5.0900     5.1610    24.4980 
  142.6250   -16.9970     2.2980    79.6180     5.7220     5.0870     5.1950    24.4970 
  142.7500   -16.9930     2.2930    80.2400     5.6970     5.0740     5.2070    24.4970 
  142.8750   -17.0010     2.2910    81.0000     5.6980     5.0650     5.1850    24.4950 
  143.0000   -17.0140     2.2940    81.7580     5.7300     5.0680     5.1680    24.4940 
  143.1250   -17.0240     2.2990    81.5610     5.7880     5.0860     5.1770    24.4930 
  143.2500   -17.0300     2.3040    81.3580     5.8530     5.1140     5.2110    24.4930 
  143.3750   -17.0390     2.3070    82.9820     5.9010     5.1400     5.2530    24.4930 
  143.5000   -17.0630     2.3110    84.9950     5.9180     5.1530     5.2690    24.4930 
  143.6250   -17.1020     2.3180    84.3600     5.9010     5.1490     5.2620    24.4910 
  143.7500   -17.1550     2.3270    82.9090     5.8530     5.1260     5.2390    24.4770 
  143.8750   -17.2110     2.3370    84.9790     5.7910     5.0920     5.2160    24.4450 
  144.0000   -17.2760     2.3500    89.5630     5.7330     5.0580     5.2340    24.3970 
  144.1250   -17.3590     2.3600    91.8500     5.6920     5.0350     5.2260    24.3350 
  144.2500   -17.4680     2.3630    89.8910     5.6750     5.0300     5.1860    24.2210 
  144.3750   -17.5870     2.3650    86.5670     5.6810     5.0420     5.1650    24.0230 
  144.5000   -17.6940     2.3710    84.5400     5.7050     5.0630     5.1840    23.8150 
  144.6250   -17.7810     2.3780    84.0690     5.7500     5.0940     5.1670    23.7380 
  144.7500   -17.8510     2.3810    85.2180     5.8260     5.1400     5.1000    23.8750 
  144.8750   -17.9010     2.3770    86.7160     5.9350     5.2100     5.0920    24.1280 
  145.0000   -17.9440     2.3710    85.9810     6.0650     5.2990     5.2060    24.3110 
  145.1250   -17.9800     2.3660    82.6110     6.1900     5.3930     5.3250    24.3690 
  145.2500   -17.9960     2.3630    79.4510     6.2790     5.4610     5.3780    24.3590 
  145.3750   -18.0040     2.3590    78.5470     6.3050     5.4750     5.3520    24.3470 
  145.5000   -18.0130     2.3510    79.3560     6.2620     5.4280     5.2460    24.3400 
  145.6250   -18.0320     2.3440    81.2370     6.1520     5.3290     5.0740    24.3270 
  145.7500   -18.0730     2.3430    82.6920     5.9920     5.1980     4.9080    24.3130 
  145.8750   -18.1350     2.3480    82.3890     5.8140     5.0630     4.8100    24.3080 
  146.0000   -18.1850     2.3560    81.2410     5.6540     4.9490     4.7610    24.3170 
  146.1250   -18.2190     2.3620    81.1360     5.5360     4.8680     4.7360    24.3540 
