~V
VERS. 2.00: Ver 2.00
~W
STRT.M 49.0000:
STOP.M 247.0000:
STEP.M 0.1250:
NULL. -999.2500:
UWI. F11144:
~C
DEPT.M :
DEN.GM/CC :
SP.MV :
GR.API :
RML.OHMM :
RI. :
RXO.OHMM :
CALI.CM :
~A
# ...
  206.5000     2.2750   -22.1250    76.9660     9.4040     8.3790    10.5560    24.1740 
  206.6250     2.2800   -22.0700    77.5200     9.7560     8.7130    10.0930    24.2000 
  206.7500     2.2830   -22.0310    79.6970    10.3280     9.1110     9.6920    24.2140 
  206.8750     2.2830   -21.9910    80.0710    11.3880     9.8090    10.2260    24.1960 
  207.0000     2.2850   -21.9190    76.7190    13.0850    10.9900    12.5200    24.1780 
  207.1250     2.2920   -21.8990    71.3600    15.4280    12.7630    16.5160    24.1610 
  207.2500     2.2940   -21.8920    69.6620    18.2790    15.1740    19.9660    24.1760 
  207.3750     2.2820   -21.8870    71.5680    21.1710    17.8650    21.4580    24.1840 
  207.5000     2.2630   -21.9150    70.7670    23.7200    20.4580    22.6900    24.1880 
  207.6250     2.2470   -21.9790    66.1320    25.6740    22.6200    25.2130    24.1880 
  207.7500     2.2350   -21.9970    64.4510    26.8830    24.1140    27.9720    24.1780 
  207.8750     2.2120   -22.0030    65.5860    27.5400    25.0810    28.3820    24.1500 
  208.0000     2.1740   -21.9950    65.5350    27.7150    25.5880    26.4860    24.1130 
  208.1250     2.1380   -21.9360    64.0130    27.4220    25.6530    25.6210    24.0790 
  208.2500     2.1240   -21.8350    64.9030    26.5730    25.1810    26.5830    24.0710 
  208.3750     2.1320   -21.6920    67.2490    25.3180    24.2860    26.2330    24.0570 
  208.5000     2.1540   -21.5160    69.6900    23.8420    23.1200    24.9460    24.0680 
  208.6250     2.1910   -21.3380    71.0020    22.4010    21.9050    23.3610    24.0790 
  208.7500     2.2590   -21.2190    70.3290    21.3540    20.9460    21.0780    24.0850 
  208.8750     2.3420   -21.0940    69.8730    20.8590    20.4100    21.1530    24.0710 
  209.0000     2.3960   -21.0240    71.2660    20.9270    20.3510    26.4630    24.0320 
  209.1250     2.3870   -20.9840    73.4700    21.3820    20.6900    30.9880    23.8340 
  209.2500     2.3400   -20.9610    75.1480    21.8180    21.1590    27.0760    23.5060 
  209.3750     2.3120   -20.9960    76.7580    21.7670    21.3150    21.2200    23.2510 
  209.5000     2.3140   -21.0810    79.6800    20.9770    20.8450    19.1670    23.1600 
  209.6250     2.3260   -21.1490    84.2120    19.5520    19.7300    18.8700    23.1750 
  209.7500     2.3220   -21.2160    87.2410    17.9670    18.3030    17.3650    23.3060 
  209.8750     2.3010   -21.2920    86.1950    16.8160    17.1200    15.0930    23.5590 
  210.0000     2.2750   -21.3450    82.2170    16.4630    16.5380    14.2320    23.8420 
  210.1250     2.2550   -21.4660    80.1210    17.1050    16.7950    15.4370    24.1200 
  210.2500     2.2430   -21.6400    78.7300    19.2240    18.1630    18.9160    24.3600 
  210.3750     2.2410   -21.8170    74.4670    22.7680    20.3970    23.0620    24.4580 
  210.5000     2.2490   -22.0440    70.2510    25.7070    23.1190    25.7900    24.4800 
  210.6250     2.2560   -22.2900    71.7700    28.0180    25.5880    27.6770    24.4850 
  210.7500     2.2480   -22.5160    80.1450    28.5290    26.6100    29.5710    24.5130 
  210.8750     2.2280   -22.7600    86.1460    27.3040    25.9730    30.0130    24.5540 
  211.0000     2.2100   -22.9900    85.9540    24.9750    24.1160    27.4970    24.5970 
  211.1250     2.2000   -23.1810    83.1590    22.4930    21.8690    23.4880    24.6230 
  211.2500     2.2030   -23.3610    82.6310    20.8520    20.1500    20.5400    24.6210 
  211.3750     2.2110   -23.5930    81.6050    20.2830    19.3190    18.5580    24.5910 
  211.5000     2.2220   -23.8110    77.2060    20.6370    19.3710    17.7590    24.5670 
  211.6250     2.2330   -24.0780    72.0700    21.4930    20.0490    19.2180    24.5670 
  211.7500     2.2440   -24.3960    69.0500    22.2180    20.9000    24.3250    24.5770 
  211.8750     2.2620   -24.7310    65.7340    22.3190    21.3980    30.6380    24.5750 
  212.0000     2.2980   -25.1310    62.5980    21.6090    21.2360    29.6090    24.4980 
  212.1250     2.3510   -25.5430    62.1380    20.1860    20.3430    23.1480    24.3410 
  212.2500     2.4020   -26.0180    64.4040    18.2920    18.8050    19.6030    24.1580 
  212.3750     2.4230   -26.4370    66.5860    16.2550    16.9450    21.2360    23.9670 
  212.5000     2.4140   -26.8290    66.5030    14.2190    14.9430    19.4760    23.7710 
  212.6250     2.3930   -27.2520    63.7730    12.3180    12.9800    14.1870    23.6330 
  212.7500     2.3710   -27.6790    59.8060    10.7410    11.2760    10.6280    23.5190 
  212.8750     2.3480   -28.1550    57.2680     9.5320     9.8980     8.8870    23.4330 
  213.0000     2.3290   -28.6820    55.3400     8.6890     8.8590     8.6110    23.3220 
  213.1250     2.3160   -29.2970    51.1130     8.1330     8.1180     8.7510    22.9670 
  213.2500     2.3080   -30.0640    44.7070     7.7820     7.6320     8.4360    22.4280 
  213.3750     2.3010   -31.0180    40.3960     7.5980     7.3350     8.0650    22.1510 
  213.5000     2.3000   -32.2050    40.4130     7.6910     7.2800     8.0050    22.0680 
  213.6250     2.3090   -33.6120    43.2260     8.2090     7.5680     8.4780    22.0220 
  213.7500     2.3260   -35.1850    44.2580     9.3390     8.3780     9.7860    21.9730 
  213.8750     2.3460   -36.8320    42.1950    10.9510     9.6700    12.4940    21.9460 
  214.0000     2.3650   -38.4550    38.7300    12.8560    11.3540    15.5140    21.9150 
  214.1250     2.3820   -39.9960    35.4920    14.7530    13.1980    16.1430    21.9420 
  214.2500     2.3930   -41.3540    33.0390    16.2540    14.8040    14.5330    22.3540 
  214.3750     2.3930   -42.4890    31.0100    17.2760    15.9650    14.3260    23.2530 
  214.5000     2.3820   -43.3870    31.0970    17.9010    16.6950    15.6440    24.1940 
  214.6250     2.3620   -43.9450    33.0420    18.2560    17.1080    17.8920    24.6540 
  214.7500     2.3400   -44.1850    33.6990    18.3140    17.2100    19.2910    24.7060 
  214.8750     2.3330   -44.1890    31.8380    17.9990    16.9600    20.7170    24.6450 
  215.0000     2.3490   -43.9650    30.6050    17.2070    16.2560    21.1090    24.5200 
  215.1250     2.3770   -43.5910    31.9630    15.9410    15.0880    19.2430    24.3160 
  215.2500     2.3890   -43.0280    34.7280    14.2940    13.5390    15.7150    24.1070 
  215.3750     2.3850   -42.3800    37.3120    12.2170    11.8860    12.4900    24.1240 
  215.5000     2.3760   -41.6080    39.8990    10.3100    10.3280    10.8170    24.2400 
  215.6250     2.3730   -40.7710    43.0290     9.0590     9.0230    10.0110    24.2570 
  215.7500     2.3650   -39.9630    45.9610     8.2930     8.1530     9.0790    23.9950 
  215.8750     2.3480   -39.1360    46.4940     8.0120     7.7190     8.4670    23.7090 
  216.0000     2.3270   -38.3820    44.5560     8.2150     7.7340     8.4740    23.5780 
  216.1250     2.3120   -37.6710    42.7980     8.8430     8.1810     9.1730    23.6030 
  216.2500     2.3150   -36.9340    43.5480     9.7820     9.0290    10.3080    23.6360 
  216.3750     2.3360   -36.1720    45.3120    10.7090    10.0080    11.3520    23.6560 
  216.5000     2.3640   -35.4020    46.2590    11.3140    10.8130    11.6250    23.7110 
  216.6250     2.3780   -34.5760    45.9460    11.3520    11.1320    11.4000    23.8260 
  216.7500     2.3680   -33.6790    44.1830    10.6950    10.7260    10.9120    24.0200 
  216.8750     2.3530   -32.7790    42.7990     9.6660     9.8590    10.2450    24.2030 
  217.0000     2.3440   -31.8240    42.8800     8.5330     8.7950     8.7700    24.2440 
  217.1250     2.3390   -30.8960    44.5880     7.4850     7.7480     7.5250    24.0290 
  217.2500     2.3320   -30.0920    48.3600     6.6510     6.8580     6.9200    23.7060 
  217.3750     2.3220   -29.4310    52.1310     6.0460     6.1600     6.8050    23.4970 
  217.5000     2.3150   -28.9670    53.2150     5.7050     5.6920     6.7100    23.4100 
  217.6250     2.3140   -28.7110    51.0620     5.6480     5.4800     6.5910    23.3790 
