~V
VERS. 2.00: Ver 2.00
~W
STRT.M 63.0000:
STOP.M 244.0000:
STEP.M 0.1250:
NULL. -999.2500:
UWI. F11131:
~C
DEPT.M :
SP.MV :
DEN.GM/CC :
GR.API :
RML.OHMM :
RI. :
RXO.OHMM :
CALI.CM :
~A
   63.0000    40.8750     1.8150    66.5460    12.2890     0.9970    20.0790    25.4920 
   63.1250    39.3340     1.7300    65.3560    11.2740     0.9580    23.6340    25.4860 
   63.2500    37.4600     1.6620    62.8790     9.0330     0.8550    24.9050    25.4780 
   63.3750    35.2200     1.6550    61.0620     5.6880     0.6740    23.4600    25.4720 
   63.5000    32.5990     1.7860    59.8170     2.6900     0.4460    21.4380    25.4720 
   63.6250    29.5090     2.0290    58.7510     1.1550     0.2510    19.5760    25.4740 
   63.7500    26.0560     2.2530    58.3620     0.4630     0.1340    18.2390    25.4600 
   63.8750    22.2590     2.3250    59.4610     0.2070     0.0980     5.4300    25.4260 
   64.0000    18.1820     2.2610    63.7340     0.1670     0.1380     0.7150    25.5500 
   64.1250    13.8950     2.1590    68.9490     0.2660     0.2760     1.0340    26.3480 
   64.2500     9.5370     2.0700    73.8210     0.4980     0.5350     2.1190    28.0510 
   64.3750     5.1880     2.0270    77.0600     0.9370     0.9620     2.6460    30.2660 
   64.5000     0.9280     2.0470    77.8650     1.6730     1.5860     2.7250    31.6530 
   64.6250    -3.1360     2.0920    77.6610     2.7370     2.4020     3.2200    30.8520 
   64.7500    -6.9730     2.1300    78.2680     3.7510     3.2780     4.8590    28.9060 
   64.8750   -10.5090     2.1510    80.6300     4.4580     4.1180     6.2120    27.2290 
   65.0000   -13.7330     2.1700    82.4890     4.9900     4.9030     8.3690    26.4640 
   65.1250   -16.5890     2.1900    79.5060     5.6700     5.6890     9.2470    26.2220 
   65.2500   -19.0950     2.1970    73.2110     6.5600     6.5170     7.7650    25.8900 
   65.3750   -21.2570     2.1830    67.2990     7.5340     7.3360     7.2990    25.4140 
   65.5000   -23.0900     2.1540    64.4330     8.3730     8.0190     7.9060    25.0030 
   65.6250   -24.5220     2.1280    63.6790     8.7680     8.3490     8.2340    24.8910 
   65.7500   -25.6320     2.1150    63.6910     8.6590     8.2750     8.0440    24.9080 
   65.8750   -26.4390     2.1090    63.9040     8.5170     8.1630     7.9230    24.9190 
   66.0000   -26.9590     2.1140    65.5040     8.0330     7.7360     7.7170    24.9400 
   66.1250   -27.2230     2.1450    69.2090     7.4080     7.1160     7.7180    24.9930 
   66.2500   -27.4140     2.2120    73.9750     6.9940     6.6250     7.9480    25.1020 
   66.3750   -27.6500     2.2940    77.3900     6.9370     6.4050     8.1430    25.4480 
   66.5000   -28.0150     2.3330    76.1280     7.3060     6.5120     7.7850    26.1300 
   66.6250   -28.5860     2.3080    70.4840     8.1180     6.9530     7.0370    26.9340 
   66.7500   -29.3240     2.2430    65.3930     9.0660     7.5170     7.3580    27.6250 
   66.8750   -30.1960     2.1740    62.6900     9.7680     7.9740    10.9200    28.2240 
   67.0000   -31.1460     2.1300    62.0240     9.9070     8.1290    20.0390    28.7310 
   67.1250   -32.1230     2.1060    62.5860     9.4470     7.9020    19.6660    28.9220 
   67.2500   -33.0320     2.0910    62.4640     8.8320     7.5120    12.9830    28.8440 
   67.3750   -33.8130     2.0750    61.1650     8.3390     7.1380    10.0150    28.7970 
   67.5000   -34.4540     2.0560    59.7960     8.0730     6.8870     9.5250    28.9680 
   67.6250   -34.9550     2.0380    60.8290     8.0000     6.7730     9.3530    29.2760 
   67.7500   -35.3450     2.0290    64.2340     7.9850     6.7150     9.3460    29.5400 
   67.8750   -35.6440     2.0350    66.9360     7.9940     6.6840     9.3530    29.7480 
   68.0000   -35.8890     2.0590    67.3540     7.9980     6.6790     9.3530    29.7870 
   68.1250   -36.1010     2.0910    67.3410     8.0740     6.7040     9.1280    29.9730 
   68.2500   -36.3100     2.1230    65.8180     8.2420     6.8000     8.7710    30.0040 
   68.3750   -36.5280     2.1510    66.0740     8.5180     6.9780     8.7060    29.6080 
   68.5000   -36.7130     2.1670    68.7400     8.8800     7.2190     8.9020    28.6860 
   68.6250   -36.8180     2.1650    70.2450     9.2330     7.4590     9.1310    27.5860 
   68.7500   -36.8680     2.1420    68.7750     9.4560     7.6120     9.7130    26.9930 
   68.8750   -36.8730     2.1080    65.5280     9.4720     7.6240    11.0070    27.1650 
   69.0000   -36.8470     2.0820    63.2560     9.2810     7.4900    13.5380    27.8320 
   69.1250   -36.7770     2.0750    61.4610     8.9630     7.2530    11.9700    28.4840 
   69.2500   -36.6390     2.0810    60.1340     8.6720     7.0170    10.5490    28.8130 
   69.3750   -36.4060     2.0870    60.0180     8.4800     6.8410     9.7870    28.7870 
   69.5000   -36.0840     2.0830    59.9700     8.4060     6.7520     9.6850    28.5370 
   69.6250   -35.6520     2.0710    59.8550     8.4300     6.7530     9.5790    28.3080 
   69.7500   -35.0950     2.0630    59.5380     8.5060     6.8080     9.5130    28.2800 
   69.8750   -34.3920     2.0700    58.6980     8.6380     6.9150     9.5970    28.3880 
   70.0000   -33.5330     2.0970    56.6500     8.8620     7.0900     9.6250    28.5000 
   70.1250   -32.4950     2.1320    56.0360     9.1990     7.3590     9.6140    28.5570 
   70.2500   -31.3260     2.1650    58.1580     9.5320     7.6510     9.6650    28.5410 
   70.3750   -30.0340     2.1900    60.7940     9.6670     7.8420     9.7970    28.3700 
   70.5000   -28.6320     2.2110    63.7920     9.4150     7.7810     9.9900    28.0920 
   70.6250   -27.1610     2.2430    70.2360     8.6990     7.3520     9.6470    28.1120 
   70.7500   -25.7320     2.2970    79.2770     7.8550     6.7360     8.3490    28.5630 
   70.8750   -24.4370     2.3670    87.0890     7.1930     6.1470     6.6500    29.1430 
   71.0000   -23.2850     2.4150    89.9130     6.9070     5.7630     5.8160    29.4770 
   71.1250   -22.3010     2.4110    88.6920     7.0570     5.6920     5.8130    29.5100 
   71.2500   -21.5030     2.3550    87.3950     7.3990     5.8140     6.8960    29.4920 
   71.3750   -20.9110     2.2700    87.4500     7.6520     5.9630     8.7450    29.4970 
   71.5000   -20.5570     2.1930    89.9820     7.5460     5.9460    10.0740    29.5510 
   71.6250   -20.4880     2.1540    91.5550     6.9540     5.6190     7.0840    29.6800 
   71.7500   -20.6360     2.1670    89.8440     6.1970     5.1210     5.3230    29.7930 
   71.8750   -20.9580     2.2260    85.6790     5.5790     4.6330     4.5380    29.8190 
   72.0000   -21.4480     2.2920    84.5510     5.3100     4.3180     4.3840    29.7670 
   72.1250   -22.1690     2.3260    89.5720     5.5300     4.3220     4.5550    29.6710 
   72.2500   -23.0470     2.3190    92.8280     6.1150     4.6050     4.9380    29.5670 
   72.3750   -24.0340     2.2840    89.8190     6.9310     5.1000     5.7230    29.4510 
   72.5000   -25.0430     2.2370    83.1740     7.7730     5.6830     6.8620    29.2210 
   72.6250   -25.9550     2.1940    78.9250     8.3410     6.1620     8.0830    28.6610 
   72.7500   -26.6940     2.1590    78.1770     8.5240     6.4190     7.8550    27.9100 
   72.8750   -27.2120     2.1370    79.1870     8.3910     6.4600     7.4550    27.3380 
   73.0000   -27.5080     2.1320    79.7270     8.1570     6.3970     7.4430    27.2330 
   73.1250   -27.5470     2.1430    78.7070     8.1080     6.3930     7.5670    27.4550 
   73.2500   -27.3500     2.1670    76.7550     8.3380     6.5300     7.8460    27.5130 
   73.3750   -26.9240     2.2010    74.8540     8.7830     6.7860     8.4140    27.3920 
   73.5000   -26.3430     2.2370    73.6580     9.2560     7.0570    10.1100    27.4820 
   73.6250   -25.6990     2.2630    75.7960     9.4610     7.1590    12.3820    28.1170 
   73.7500   -25.0950     2.2720    80.2290     9.2770     7.0130    11.8910    28.8580 
   73.8750   -24.5590     2.2600    85.5620     8.3350     6.3430     7.2200    29.2520 
   74.0000   -24.1090     2.2350    88.7860     7.5850     5.7840     5.9290    29.1940 
   74.1250   -23.7440     2.2130    87.8740     7.1770     5.4400     6.4010    29.1270 
