~V
VERS. 2.00: Ver 2.00
~W
STRT.M 50.0000:
STOP.M 265.0000:
STEP.M 0.1250:
NULL. -999.2500:
UWI. F11185:
~C
DEPT.M :
SP.MV :
GR.API :
RI. :
RML.OHMM :
RXO.OHMM :
DEN.GM/CC :
~A
# ...
   75.7500  -113.7000    60.1050     5.1290     5.6340     5.6220     2.0930 
   75.8750  -114.2850    60.1090     5.1320     5.6370     5.7270     2.0820 
   76.0000  -114.5970    60.5490     5.2780     5.7890     5.8610     2.0770 
   76.1250  -114.6640    60.7490     5.4370     5.9550     5.9420     2.0930 
   76.2500  -114.5450    59.5120     5.7550     6.2860     5.9580     2.1300 
   76.3750  -114.2670    58.7810     6.3490     6.9030     6.4720     2.1850 
   76.5000  -113.8630    58.8640     7.1760     7.7630     7.5910     2.2550 
   76.6250  -113.2520    59.2700     7.9750     8.5940    12.0980     2.3320 
   76.7500  -112.4080    60.2120     8.4240     9.0610    22.4110     2.3810 
   76.8750  -111.4940    63.0100     8.3090     8.9410    26.0730     2.3530 
   77.0000  -110.6130    66.7280     7.6440     8.2490    24.5940     2.2660 
   77.1250  -109.9220    67.8290     6.6990     7.2670    20.8040     2.1860 
   77.2500  -109.5520    66.1830     5.8160     6.3490    12.9270     2.1440 
   77.3750  -109.5420    64.7970     5.2760     5.7870     7.2760     2.1220 
   77.5000  -109.6880    65.2750     5.0760     5.5790     5.8410     2.1090 
   77.6250  -109.7850    67.3500     5.0860     5.5890     5.6200     2.1120 
   77.7500  -109.8460    68.9730     5.1600     5.6670     5.7140     2.1240 
   77.8750  -109.9320    69.3100     5.2730     5.7840     5.8800     2.1360 
   78.0000  -110.0890    70.0100     5.3990     5.9150     6.0070     2.1600 
   78.1250  -110.4170    72.2020     5.5150     6.0350     6.2240     2.1810 
   78.2500  -110.9600    73.3050     5.6140     6.1380     6.3850     2.1620 
   78.3750  -111.6330    70.6520     5.6720     6.1990     6.2860     2.1110 
   78.5000  -112.2820    66.0990     5.7300     6.2590     6.1150     2.0800 
   78.6250  -112.7730    61.9050     5.7830     6.3140     6.1710     2.0880 
   78.7500  -113.0840    59.5680     5.8240     6.3570     6.4150     2.1090 
   78.8750  -113.3080    59.3090     5.8540     6.3880     6.6080     2.1220 
   79.0000  -113.4950    60.1070     5.8520     6.3860     6.6060     2.1260 
   79.1250  -113.6550    61.2340     5.8250     6.3580     6.4630     2.1250 
   79.2500  -113.7400    62.2600     5.8130     6.3450     6.3610     2.1280 
   79.3750  -113.7640    61.7010     5.8390     6.3730     6.3810     2.1350 
   79.5000  -113.8430    59.3630     5.8900     6.4260     6.4310     2.1430 
   79.6250  -114.0550    58.4210     5.9300     6.4670     6.4250     2.1460 
   79.7500  -114.3680    60.2600     5.9370     6.4750     6.4280     2.1430 
   79.8750  -114.6490    60.7840     5.8930     6.4290     6.5390     2.1350 
   80.0000  -114.7830    57.8360     5.8270     6.3600     6.7100     2.1260 
   80.1250  -114.8440    52.4380     5.7880     6.3200     6.7740     2.1200 
   80.2500  -114.8970    48.4660     5.7730     6.3040     6.6830     2.1190 
   80.3750  -114.9150    48.7690     5.7590     6.2900     7.0040     2.1150 
   80.5000  -114.8760    51.1120     5.7390     6.2690     7.4610     2.1060 
   80.6250  -114.7590    51.5030     5.6990     6.2270     7.0940     2.0960 
   80.7500  -114.6070    50.3700     5.6370     6.1620     6.2680     2.0970 
   80.8750  -114.4880    51.8420     5.5530     6.0750     5.8270     2.1090 
   81.0000  -114.4400    53.9050     5.4770     5.9960     5.8050     2.1230 
   81.1250  -114.3650    53.9450     5.4190     5.9360     5.8900     2.1310 
   81.2500  -114.1980    55.4390     5.4150     5.9320     5.9260     2.1360 
   81.3750  -114.0090    60.4020     5.4560     5.9750     5.9850     2.1330 
   81.5000  -113.8970    63.1130     5.5090     6.0300     6.1110     2.1240 
   81.6250  -113.8940    59.1540     5.5530     6.0750     6.2430     2.1150 
   81.7500  -113.9380    52.9090     5.5680     6.0910     6.3320     2.1150 
   81.8750  -114.0010    49.6130     5.5470     6.0690     6.3540     2.1230 
   82.0000  -114.1230    49.1130     5.4990     6.0190     6.2960     2.1250 
   82.1250  -114.3060    49.7560     5.4570     5.9750     6.1520     2.1100 
   82.2500  -114.4940    53.2520     5.4570     5.9760     5.9940     2.0910 
   82.3750  -114.6220    57.5290     5.5050     6.0260     5.9110     2.0880 
   82.5000  -114.7160    58.9240     5.5830     6.1060     5.9810     2.1040 
   82.6250  -114.8300    57.6450     5.6840     6.2110     6.2000     2.1220 
   82.7500  -115.0070    57.3740     5.7710     6.3020     6.3470     2.1270 
   82.8750  -115.1550    59.5530     5.8110     6.3430     6.3160     2.1230 
   83.0000  -115.1600    61.3740     5.7440     6.2740     6.2000     2.1200 
   83.1250  -114.9780    61.1130     5.5810     6.1040     5.9040     2.1200 
   83.2500  -114.6870    59.8340     5.4100     5.9270     5.4070     2.1210 
   83.3750  -114.4030    60.1730     5.2990     5.8110     5.0940     2.1240 
   83.5000  -114.1520    63.0640     5.2870     5.7980     5.2920     2.1260 
   83.6250  -113.9530    64.7690     5.3430     5.8560     5.7670     2.1230 
   83.7500  -113.8870    64.1510     5.4080     5.9240     6.0490     2.1220 
   83.8750  -114.0640    61.9000     5.4590     5.9770     6.0770     2.1220 
   84.0000  -114.3980    59.0230     5.4790     5.9980     6.0480     2.1190 
   84.1250  -114.6920    58.1000     5.5530     6.0750     6.0690     2.1160 
   84.2500  -114.8870    60.7310     5.8820     6.4170     6.2490     2.1230 
   84.3750  -114.9710    65.4640     6.6960     7.2630     7.4890     2.1770 
   84.5000  -115.0080    68.4690     7.6140     8.2190    11.8850     2.3050 
   84.6250  -115.0990    68.4540     8.3030     8.9350    18.5990     2.4440 
   84.7500  -115.2340    67.3330     8.3630     8.9980    20.4560     2.4640 
   84.8750  -115.3340    63.0180     7.7000     8.3080    14.6790     2.3290 
   85.0000  -115.3170    55.5470     6.7370     7.3060     8.5270     2.1760 
   85.1250  -115.2750    48.8820     5.8070     6.3390     6.2480     2.1160 
   85.2500  -115.3420    49.0670     5.2540     5.7640     5.8860     2.1170 
   85.3750  -115.6060    54.9040     5.0650     5.5680     5.9460     2.1200 
   85.5000  -115.9380    57.9270     5.1180     5.6230     6.1180     2.1150 
   85.6250  -116.2890    56.6210     5.2380     5.7480     6.2580     2.1090 
   85.7500  -116.6030    55.2420     5.3410     5.8540     6.2340     2.1050 
   85.8750  -116.7270    53.2480     5.4260     5.9430     6.1010     2.1040 
   86.0000  -116.7850    50.2450     5.5000     6.0200     5.9790     2.1100 
   86.1250  -116.7630    50.6670     5.5570     6.0790     5.9100     2.1210 
   86.2500  -116.5620    56.6350     5.6160     6.1400     5.9460     2.1270 
   86.3750  -116.1410    62.1800     5.6720     6.1990     6.0810     2.1280 
   86.5000  -115.6310    63.1420     5.7180     6.2470     6.1390     2.1230 
   86.6250  -115.1480    61.8130     5.7380     6.2680     6.0650     2.1080 
   86.7500  -114.6670    61.0900     5.7480     6.2780     5.9720     2.0920 
   86.8750  -114.1510    59.3360     5.7590     6.2890     5.7250     2.0860 
   87.0000  -113.6480    56.5310     5.6970     6.2250     5.3030     2.0980 
   87.1250  -113.0800    55.0070     5.4300     5.9470     5.1880     2.1270 
   87.2500  -112.3960    56.2240     5.0800     5.5830     5.3380     2.1680 
   87.3750  -111.5230    60.6270     4.7100     5.1990     5.1040     2.2120 
   87.5000  -110.4290    68.1260     4.4270     4.9040     4.6630     2.2490 
   87.6250  -109.1230    77.4760     4.3520     4.8260     4.7790     2.2670 
   87.7500  -107.8350    84.8850     4.4390     4.9160     5.1990     2.2670 
   87.8750  -106.8210    87.0220     4.7140     5.2030     5.4680     2.2760 
   88.0000  -106.1290    84.4630     4.9920     5.4920     6.1860     2.3190 
   88.1250  -105.6320    81.2220     5.1460     5.6520     7.0950     2.3780 
   88.2500  -105.2030    81.9180     5.0340     5.5360     6.9130     2.4140 
   88.3750  -104.8230    87.3920     4.7290     5.2180     5.9410     2.4040 
   88.5000  -104.4110    94.1310     4.3690     4.8440     5.1830     2.3690 
