~V
VERS. 2.00: Ver 2.00
~W
STRT.M 55.0000:
STOP.M 240.0000:
STEP.M 0.1250:
NULL. -999.2500:
UWI. F11138:
~C
DEPT.M :
SP.MV :
DEN.GM/CC :
GR.API :
RML.OHMM :
RI. :
RXO.OHMM :
CALI.CM :
~A
# ...
   88.7500   -28.7290     2.1350    77.6760     8.3750     6.5880    10.3070    23.1840 
   88.8750   -28.5750     2.1540    78.7690     8.2330     6.4850    10.2470    23.1630 
   89.0000   -28.4790     2.1670    80.1240     8.1320     6.4060    10.0620    23.1600 
   89.1250   -28.5310     2.1610    83.1760     8.1530     6.4050     9.7240    23.1480 
   89.2500   -28.6380     2.1420    85.5040     8.2960     6.4930     9.8230    23.1080 
   89.3750   -28.7080     2.1260    84.6570     8.5230     6.6530    10.7280    23.0950 
   89.5000   -28.6930     2.1230    81.2680     8.7710     6.8460    11.6160    23.1230 
   89.6250   -28.6060     2.1290    79.1870     8.9500     7.0090    11.9620    23.1650 
   89.7500   -28.4550     2.1360    78.1840     9.0280     7.1040    11.9690    23.1960 
   89.8750   -28.2390     2.1410    77.2100     9.0180     7.1270    11.8470    23.2260 
   90.0000   -27.9540     2.1440    77.2010     8.9700     7.1020    11.5870    23.2220 
   90.1250   -27.5510     2.1460    79.1850     8.9510     7.0760    11.2760    23.2110 
   90.2500   -27.0750     2.1450    80.8490     8.9850     7.0810    11.0730    23.1760 
   90.3750   -26.5760     2.1440    80.8500     9.0550     7.1190    11.1700    23.1850 
   90.5000   -26.0920     2.1480    79.9230     9.1230     7.1710    11.4330    23.2290 
   90.6250   -25.6260     2.1540    79.5410     9.1340     7.2000    11.6610    23.2690 
   90.7500   -25.2590     2.1560    79.6540     9.0760     7.1840    11.7010    23.2020 
   90.8750   -25.0210     2.1510    78.9120     8.9600     7.1180    11.3470    23.0790 
   91.0000   -24.8530     2.1430    77.6300     8.8110     7.0190    10.7950    23.0310 
   91.1250   -24.7070     2.1400    78.3320     8.6650     6.9130    10.2130    23.0030 
   91.2500   -24.5600     2.1360    80.7550     8.5480     6.8240    10.0200    22.9140 
   91.3750   -24.4370     2.1280    82.0510     8.4760     6.7620    10.1850    22.8250 
   91.5000   -24.3530     2.1190    80.7680     8.4530     6.7300    10.4520    22.8180 
   91.6250   -24.3300     2.1070    78.8930     8.4840     6.7280    10.5870    22.8560 
   91.7500   -24.2890     2.0910    76.8980     8.5500     6.7460    10.3730    22.8550 
   91.8750   -24.1790     2.0750    73.7460     8.6290     6.7730    10.0750    22.8450 
   92.0000   -24.0110     2.0660    71.8820     8.6970     6.7940     9.8960    22.8500 
   92.1250   -23.8330     2.0750    75.7380     8.7150     6.7840     9.9030    22.9520 
   92.2500   -23.6720     2.0980    80.8370     8.6670     6.7310     9.8800    23.0000 
   92.3750   -23.5120     2.1290    83.3080     8.5420     6.6290     9.6950    22.8690 
   92.5000   -23.3640     2.1640    83.6110     8.3490     6.4910     9.4920    22.5970 
   92.6250   -23.2020     2.1970    84.6730     8.1400     6.3570     9.4260    22.5440 
   92.7500   -23.0290     2.2230    86.6400     8.0390     6.3050     9.5850    22.5480 
   92.8750   -22.8180     2.2420    88.1000     8.2360     6.4490     9.7910    22.5260 
   93.0000   -22.5400     2.2550    87.6430     9.0100     6.9370    10.0670    22.3960 
   93.1250   -22.1340     2.2560    83.7180    10.7000     8.0260    10.6480    22.1360 
   93.2500   -21.6030     2.2350    78.9140    13.2150     9.7080    12.2540    21.8670 
   93.3750   -21.0130     2.1980    76.1700    16.2450    11.8400    15.3780    21.7310 
   93.5000   -20.4160     2.1550    75.1950    18.9110    14.0160    20.4740    21.8670 
   93.6250   -19.9280     2.1070    74.7800    20.1210    15.4150    28.0450    22.3710 
   93.7500   -19.5860     2.0490    75.3610    19.4690    15.5080    28.8090    22.9650 
   93.8750   -19.4320     1.9950    77.1410    17.1740    14.2410    20.6900    23.2870 
   94.0000   -19.4700     1.9720    79.8500    14.1900    12.1970    13.6290    23.2210 
   94.1250   -19.6750     1.9990    81.1770    11.7260    10.2490    11.6420    22.8880 
   94.2500   -19.9980     2.0550    80.6480    10.2010     8.8410    11.1570    22.6470 
   94.3750   -20.4040     2.1090    79.4630     9.5310     8.0110    11.2590    22.5760 
   94.5000   -20.8130     2.1390    80.4640     9.4410     7.6460    11.5510    22.5940 
   94.6250   -21.0750     2.1360    83.4800     9.6170     7.6030    12.1880    22.6310 
   94.7500   -21.1060     2.1200    84.0130     9.7400     7.6450    12.6390    22.7090 
   94.8750   -20.8660     2.1110    81.5370     9.6720     7.6430    11.9880    22.7960 
   95.0000   -20.3920     2.1190    79.6120     9.3850     7.5290    10.6890    22.8600 
   95.1250   -19.7100     2.1410    81.6840     8.9430     7.2940     9.6320    22.8980 
   95.2500   -18.8720     2.1620    85.9400     8.4920     7.0220     9.1900    22.9250 
   95.3750   -17.8830     2.1760    89.8870     8.1180     6.7690     8.8630    22.9810 
   95.5000   -16.7910     2.1860    92.0070     7.8550     6.5730     8.3740    23.1070 
   95.6250   -15.6650     2.1970    92.5060     7.7250     6.4560     7.7990    23.2510 
   95.7500   -14.5780     2.2140    93.4630     7.6840     6.3980     7.4650    23.3640 
   95.8750   -13.5880     2.2310    96.1110     7.7080     6.3850     7.2660    23.3920 
   96.0000   -12.7260     2.2430    99.3530     7.7700     6.4000     6.9880    23.3700 
   96.1250   -12.0570     2.2490    99.1760     7.8450     6.4320     6.8340    23.3540 
   96.2500   -11.6090     2.2520    96.0200     7.9080     6.4690     6.7960    23.3340 
   96.3750   -11.4070     2.2530    92.7900     7.9540     6.5090     6.8170    23.3440 
   96.5000   -11.4070     2.2480    92.6010     7.9960     6.5600     6.8360    23.3380 
   96.6250   -11.6420     2.2380    94.9640     8.0720     6.6420     6.8430    23.2370 
   96.7500   -12.1030     2.2250    96.2650     8.2180     6.7690     6.9120    23.0610 
   96.8750   -12.8110     2.2100    95.2790     8.4630     6.9580     7.1410    22.8610 
   97.0000   -13.7630     2.1900    92.2990     8.8180     7.2180     7.5460    22.6520 
   97.1250   -14.9520     2.1660    89.0480     9.2760     7.5560     7.8710    22.4880 
   97.2500   -16.2810     2.1440    86.2170     9.7710     7.9360     8.3120    22.3850 
   97.3750   -17.6510     2.1270    83.6060    10.2440     8.3200     8.9010    22.3190 
   97.5000   -19.0250     2.1120    80.4650    10.6400     8.6640     9.5950    22.2070 
   97.6250   -20.3340     2.1000    76.7450    10.9010     8.9160    10.3330    22.0010 
   97.7500   -21.5120     2.0950    74.0970    11.0590     9.0810    10.7880    21.8180 
   97.8750   -22.4840     2.1000    74.2800    11.1700     9.1910    10.9100    21.7160 
   98.0000   -23.2060     2.1160    76.8880    11.3070     9.2960    11.1100    21.7260 
   98.1250   -23.6190     2.1470    79.6240    11.5350     9.4490    11.6410    21.8370 
   98.2500   -23.7980     2.1920    80.5760    11.8160     9.6390    12.8270    22.0310 
   98.3750   -23.8340     2.2420    80.1580    12.0560     9.8070    14.7910    22.2030 
   98.5000   -23.7730     2.2690    79.5820    12.1360     9.8770    18.1600    22.3410 
   98.6250   -23.6820     2.2440    79.9010    11.9420     9.7660    22.7530    22.3810 
   98.7500   -23.6480     2.2010    80.3610    11.5720     9.5320    22.4420    22.4200 
   98.8750   -23.6790     2.1710    80.5310    11.2060     9.2900    16.0280    22.3910 
   99.0000   -23.7120     2.1540    80.4650    11.0560     9.1840    12.2150    22.3580 
   99.1250   -23.7440     2.1330    79.1610    11.3270     9.3720    11.3690    22.3950 
   99.2500   -23.7640     2.1020    76.1410    11.9020     9.7990    11.3890    22.4650 
   99.3750   -23.7240     2.0690    72.5460    12.5500    10.3270    11.5740    22.4850 
   99.5000   -23.6270     2.0470    70.4480    12.9650    10.7460    11.7380    22.4000 
   99.6250   -23.4220     2.0440    70.5490    12.8000    10.7750    11.6260    22.3060 
   99.7500   -23.0830     2.0600    72.7730    12.1300    10.4050    11.3850    22.2560 
   99.8750   -22.6300     2.0860    77.3240    11.1970     9.7740    11.0030    22.2320 
