~V
VERS. 2.00: Ver 2.00
~W
STRT.M 50.0000:
STOP.M 265.0000:
STEP.M 0.1250:
NULL. -999.2500:
UWI. F11185:
~C
DEPT.M :
SP.MV :
GR.API :
RI. :
RML.OHMM :
RXO.OHMM :
DEN.GM/CC :
~A
# ...
   88.6250  -103.9260    99.8940     4.0120     4.4720     4.5930     2.3350 
   88.7500  -103.4870   103.2350     3.7690     4.2200     4.1050     2.3120 
   88.8750  -103.2390   103.1000     3.6340     4.0790     3.8130     2.2990 
   89.0000  -103.1100   103.5260     3.6300     4.0760     3.6140     2.2910 
   89.1250  -103.0780   106.9220     3.7050     4.1530     3.5200     2.2950 
   89.2500  -103.0950   107.7090     3.7940     4.2460     3.6090     2.3100 
   89.3750  -103.1370   102.3340     3.8450     4.2990     3.8480     2.3250 
   89.5000  -103.2280    96.6320     3.8270     4.2800     3.9780     2.3260 
   89.6250  -103.3380    97.4780     3.7380     4.1880     3.8920     2.3150 
   89.7500  -103.4620   102.5450     3.5980     4.0420     3.7750     2.3100 
   89.8750  -103.6430   105.4900     3.4580     3.8970     3.7130     2.3150 
   90.0000  -103.8500   103.8080     3.3360     3.7690     3.6430     2.3210 
   90.1250  -104.0320    99.6690     3.2800     3.7110     3.5430     2.3180 
   90.2500  -104.1910    97.3380     3.3040     3.7360     3.4860     2.3090 
   90.3750  -104.3980    98.7240     3.4220     3.8590     3.5810     2.2970 
   90.5000  -104.7570   101.3770     3.6060     4.0500     3.9000     2.2820 
   90.6250  -105.2710   104.1750     3.8630     4.3170     4.4130     2.2660 
   90.7500  -105.9390   103.6700     4.2170     4.6860     4.7930     2.2490 
   90.8750  -106.8040    95.7230     4.5970     5.0810     4.8510     2.2220 
   91.0000  -107.8440    84.3290     4.9800     5.4790     5.0160     2.1890 
   91.1250  -109.0390    78.1600     5.3240     5.8360     5.6370     2.1620 
   91.2500  -110.2230    79.0400     5.5890     6.1120     6.1780     2.1510 
   91.3750  -111.1790    78.8140     5.8000     6.3320     6.0970     2.1440 
   91.5000  -111.9270    75.2260     5.8940     6.4300     5.9700     2.1410 
   91.6250  -112.5300    72.1780     5.8730     6.4080     6.3180     2.1660 
   91.7500  -113.0070    70.4060     5.7660     6.2970     6.5480     2.2060 
   91.8750  -113.3470    68.6000     5.6440     6.1700     6.2630     2.2160 
   92.0000  -113.5960    67.8740     5.5520     6.0740     5.9390     2.1830 
   92.1250  -113.8030    68.0590     5.4620     5.9810     5.8170     2.1440 
   92.2500  -113.9850    66.1580     5.3590     5.8730     5.7970     2.1260 
   92.3750  -114.1230    63.1440     5.1670     5.6740     5.8830     2.1230 
   92.5000  -114.1870    62.9450     4.9290     5.4260     5.9750     2.1290 
   92.6250  -114.0730    63.9280     4.7240     5.2130     5.8740     2.1510 
   92.7500  -113.7880    65.6120     4.6730     5.1600     5.4700     2.1910 
   92.8750  -113.4380    69.1240     4.8020     5.2950     4.9100     2.2540 
   93.0000  -113.1450    70.7950     5.0660     5.5690     4.5020     2.3290 
   93.1250  -113.0160    66.4880     5.3550     5.8690     4.2840     2.3580 
   93.2500  -113.1660    60.2200     5.5780     6.1010     4.3620     2.3040 
   93.3750  -113.6520    58.8070     5.6350     6.1600     4.8420     2.2060 
   93.5000  -114.2470    62.5300     5.5700     6.0930     5.3090     2.1460 
   93.6250  -114.7500    64.8560     5.4540     5.9720     5.5730     2.1410 
   93.7500  -115.0610    62.7930     5.4220     5.9390     5.8650     2.1490 
   93.8750  -115.1310    58.0670     5.4280     5.9450     6.2180     2.1500 
   94.0000  -115.0880    53.9690     5.3650     5.8790     6.4080     2.1480 
   94.1250  -114.9750    51.8180     5.2320     5.7410     6.2890     2.1510 
   94.2500  -114.8000    51.1970     5.0590     5.5620     5.8630     2.1570 
   94.3750  -114.5570    54.9130     4.8630     5.3580     5.3790     2.1520 
   94.5000  -114.2380    60.5220     4.6580     5.1440     5.3100     2.1400 
   94.6250  -113.8910    63.5160     4.4790     4.9580     5.4300     2.1460 
   94.7500  -113.6440    64.2530     4.3710     4.8460     5.0870     2.1760 
   94.8750  -113.5600    66.1850     4.3770     4.8520     4.4850     2.2000 
   95.0000  -113.4860    68.5310     4.4500     4.9280     4.3420     2.1860 
   95.1250  -113.2820    68.6300     4.6010     5.0850     4.8000     2.1430 
   95.2500  -113.1250    66.4020     4.7780     5.2690     5.3300     2.1060 
   95.3750  -113.1730    62.9490     4.8620     5.3570     5.5040     2.1020 
   95.5000  -113.2930    59.0220     4.8230     5.3160     5.3300     2.1270 
   95.6250  -113.2200    57.8010     4.6920     5.1800     4.9440     2.1720 
   95.7500  -112.8390    61.1940     4.5970     5.0810     4.6110     2.2200 
   95.8750  -112.1930    68.4420     4.6250     5.1100     4.7620     2.2530 
   96.0000  -111.4220    74.1500     4.6840     5.1710     5.5950     2.2550 
   96.1250  -110.7160    75.1200     4.6650     5.1510     6.5430     2.2210 
   96.2500  -110.2540    73.8410     4.5040     4.9840     6.4800     2.1890 
   96.3750  -109.9080    76.9610     4.2300     4.6990     5.3200     2.1930 
   96.5000  -109.4310    85.8070     3.8990     4.3550     4.2970     2.2260 
   96.6250  -108.7290    92.4920     3.6300     4.0750     3.9390     2.2520 
   96.7500  -107.8750    91.6960     3.5000     3.9400     3.8560     2.2590 
   96.8750  -107.0950    85.4250     3.4590     3.8970     3.8500     2.2590 
   97.0000  -106.5940    81.5060     3.4860     3.9250     3.8580     2.2600 
   97.1250  -106.4050    82.6130     3.5350     3.9760     3.7950     2.2590 
   97.2500  -106.4090    86.4260     3.5570     3.9990     3.6900     2.2520 
   97.3750  -106.5030    91.2080     3.5240     3.9650     3.7450     2.2440 
   97.5000  -106.6600    94.0190     3.4620     3.9010     3.9900     2.2430 
   97.6250  -106.8840    93.5000     3.4100     3.8460     4.0950     2.2510 
   97.7500  -107.2090    92.1150     3.4510     3.8890     3.9090     2.2610 
   97.8750  -107.6300    91.2130     3.6300     4.0760     3.8090     2.2510 
   98.0000  -108.0860    88.9810     3.9300     4.3870     4.1310     2.2180 
   98.1250  -108.6850    85.3720     4.3190     4.7920     4.6480     2.1700 
   98.2500  -109.5680    81.3240     4.7120     5.2000     4.9440     2.1310 
   98.3750  -110.7010    76.6690     4.9660     5.4640     5.0230     2.1160 
   98.5000  -111.7870    72.3580     5.0730     5.5750     5.0560     2.1180 
   98.6250  -112.5990    69.8610     5.0060     5.5070     5.0550     2.1230 
   98.7500  -113.1800    69.1920     4.8830     5.3780     5.0340     2.1240 
   98.8750  -113.5720    70.1590     4.7750     5.2660     5.0280     2.1220 
   99.0000  -113.8470    72.4230     4.6870     5.1740     5.0700     2.1230 
   99.1250  -114.0420    73.5830     4.6470     5.1330     5.2060     2.1200 
   99.2500  -114.1540    70.6870     4.6390     5.1250     5.3260     2.1100 
   99.3750  -114.1710    66.1900     4.6550     5.1410     5.2700     2.0930 
   99.5000  -114.1620    65.2020     4.6700     5.1570     5.1990     2.0850 
   99.6250  -114.1730    67.0150     4.6780     5.1650     5.3000     2.0860 
   99.7500  -114.1970    67.2910     4.6890     5.1770     5.3680     2.0910 
   99.8750  -114.1740    65.1540     4.7190     5.2070     5.2160     2.0960 
  100.0000  -114.0750    63.5700     4.7950     5.2870     5.0490     2.0970 
  100.1250  -113.8350    64.5980     4.9420     5.4400     5.1190     2.0890 
  100.2500  -113.4910    67.6340     5.1890     5.6960     5.3560     2.1010 
  100.3750  -113.0800    68.7620     5.4260     5.9440     5.5070     2.1860 
  100.5000  -112.6030    65.7590     5.4360     5.9540     5.4580     2.3380 
  100.6250  -111.9500    61.5520     5.1650     5.6720     5.2000     2.4690 
  100.7500  -111.1620    63.4350     4.6880     5.1760     4.6650     2.4960 
  100.8750  -110.2770    73.0940     4.1610     4.6270     3.9890     2.4180 
  101.0000  -109.1690    84.5870     3.7890     4.2410     3.6330     2.3130 
  101.1250  -108.0060    91.5590     3.5900     4.0340     3.7570     2.2430 
  101.2500  -107.2500    92.6300     3.5760     4.0190     4.0220     2.2100 
  101.3750  -106.9920    89.2000     3.6060     4.0500     4.1160     2.1950 
