~V
VERS. 2.00: Ver 2.00
~W
STRT.M 55.0000:
STOP.M 240.0000:
STEP.M 0.1250:
NULL. -999.2500:
UWI. F11138:
~C
DEPT.M :
SP.MV :
DEN.GM/CC :
GR.API :
RML.OHMM :
RI. :
RXO.OHMM :
CALI.CM :
~A
# ...
  156.2500    -9.3260     2.2510    86.0380    12.5430    10.6300     8.7650    23.3680 
  156.3750    -9.3090     2.2440    83.9550    14.3670    12.0580    11.1280    23.5700 
  156.5000    -9.3870     2.2380    81.8890    16.0910    13.5530    14.6250    23.6530 
  156.6250    -9.4700     2.2300    80.2290    17.1850    14.6830    16.6050    23.5980 
  156.7500    -9.5490     2.2240    80.4430    17.5930    15.2880    17.1660    23.5690 
  156.8750    -9.6190     2.2260    82.1610    17.5320    15.4610    16.4530    23.6700 
  157.0000    -9.6440     2.2350    83.0470    17.3630    15.4630    15.1490    23.7940 
  157.1250    -9.6500     2.2450    81.7030    17.3590    15.5270    14.7140    23.8260 
  157.2500    -9.6860     2.2530    79.3930    17.4650    15.6600    15.0050    23.7980 
  157.3750    -9.7000     2.2560    76.5950    17.5110    15.7470    15.5690    23.7680 
  157.5000    -9.6680     2.2540    74.6070    17.3290    15.6550    15.7370    23.7520 
  157.6250    -9.6770     2.2510    75.2210    16.7830    15.2500    15.3600    23.7970 
  157.7500    -9.7200     2.2540    77.5290    15.9450    14.5700    15.0490    23.8170 
  157.8750    -9.7440     2.2640    80.1770    14.8760    13.6590    14.8140    23.7920 
  158.0000    -9.7660     2.2740    82.8200    13.6460    12.5780    14.3550    23.7830 
  158.1250    -9.7750     2.2820    84.4350    12.3420    11.4040    13.3170    23.7830 
  158.2500    -9.7080     2.2870    86.4240    11.0960    10.2600    11.8480    23.7770 
  158.3750    -9.6040     2.2840    90.1970    10.0190     9.2500    10.1950    23.7520 
  158.5000    -9.4850     2.2730    95.5710     9.1970     8.4570     8.6680    23.7330 
  158.6250    -9.3780     2.2600   100.9160     8.7190     7.9690     7.7320    23.7260 
  158.7500    -9.3110     2.2520   105.3240     8.5230     7.7430     7.3770    23.7250 
  158.8750    -9.2350     2.2490   107.8500     8.5980     7.7700     7.2690    23.7170 
  159.0000    -9.1310     2.2450   107.3660     8.9560     8.0540     7.4700    23.6730 
  159.1250    -9.1170     2.2380   103.6060     9.6770     8.6600     7.8110    23.5670 
  159.2500    -9.2380     2.2330    99.0370    10.7020     9.5420     7.8380    23.4410 
  159.3750    -9.4360     2.2350    94.4830    11.9440    10.6400     8.0060    23.3630 
  159.5000    -9.6440     2.2390    90.8470    13.2180    11.8180     8.9200    23.3430 
  159.6250    -9.8190     2.2400    88.7830    14.1820    12.8000    10.2290    23.3040 
  159.7500    -9.9760     2.2370    87.9070    14.6210    13.3600    11.8330    23.2710 
  159.8750   -10.1840     2.2320    87.8170    14.4630    13.3890    13.1560    23.2710 
  160.0000   -10.4130     2.2270    88.1260    13.8270    12.9490    13.7770    23.2940 
  160.1250   -10.5640     2.2250    88.5120    12.9930    12.2590    13.0350    23.2980 
  160.2500   -10.6320     2.2260    87.8100    12.3100    11.6430    11.5650    23.2660 
  160.3750   -10.6920     2.2300    86.9970    11.9250    11.2520    10.5010    23.2170 
  160.5000   -10.8030     2.2350    86.5780    11.8230    11.0970    10.2110    23.1780 
  160.6250   -10.9700     2.2400    86.0100    11.8440    11.0790    10.3430    23.1480 
  160.7500   -11.1390     2.2470    85.1200    11.7500    10.9980    10.6440    23.1070 
  160.8750   -11.2720     2.2520    85.3710    11.3970    10.7220    11.3800    23.0680 
  161.0000   -11.4010     2.2540    88.2710    10.7600    10.2040    11.2930    23.0400 
  161.1250   -11.5070     2.2570    93.1070     9.9420     9.4990    10.0680    23.0000 
  161.2500   -11.5940     2.2630    96.7180     9.1580     8.7840     8.2880    22.9300 
  161.3750   -11.5940     2.2680    96.4510     8.5250     8.1620     7.0140    22.8360 
  161.5000   -11.4930     2.2680    93.6180     8.0890     7.6840     6.4890    22.7220 
  161.6250   -11.3140     2.2620    92.8560     7.8850     7.3960     6.5530    22.5380 
  161.7500   -11.0930     2.2570    94.9900     7.8990     7.2940     6.5240    22.2090 
  161.8750   -10.8670     2.2530    97.3200     8.2060     7.4360     6.3960    21.6890 
  162.0000   -10.6140     2.2510    97.6190     8.9210     7.9060     6.4340    21.0900 
  162.1250   -10.3320     2.2450    95.0800    10.2240     8.8610     7.0380    20.8270 
  162.2500   -10.0490     2.2330    91.5260    11.9960    10.2400     8.3430    20.7710 
  162.3750    -9.8040     2.2200    89.3160    14.0470    11.9350    10.0720    20.8090 
  162.5000    -9.6310     2.2100    89.1090    16.0780    13.7310    11.8550    20.8220 
  162.6250    -9.5180     2.2030    89.2020    17.6880    15.2850    12.7120    20.7230 
  162.7500    -9.4270     2.1990    89.5010    18.7910    16.4220    12.3970    20.4800 
  162.8750    -9.3720     2.1980    91.4840    19.5330    17.1840    11.5320    20.2000 
  163.0000    -9.3690     2.2010    95.0490    20.2670    17.8140    11.2700    20.0740 
  163.1250    -9.4390     2.2060    96.5170    21.4980    18.7130    11.8300    20.1650 
  163.2500    -9.5520     2.2100    94.1150    23.4070    20.1050    12.9320    20.4160 
  163.3750    -9.6830     2.2120    88.2880    25.9460    22.0230    14.6350    20.8160 
  163.5000    -9.8330     2.2110    81.4990    28.8000    24.2880    16.8800    21.3400 
  163.6250   -10.0130     2.2040    78.0010    31.3100    26.4460    19.0030    21.6980 
  163.7500   -10.2510     2.1920    77.9790    32.8860    27.9960    21.2670    21.8690 
  163.8750   -10.4890     2.1790    79.4160    33.2210    28.6310    24.2940    21.9510 
  164.0000   -10.7120     2.1720    79.9710    32.4300    28.3550    26.3630    21.9950 
  164.1250   -10.9130     2.1740    80.7960    31.0200    27.4700    24.9310    22.0080 
  164.2500   -11.1080     2.1810    82.8620    29.7470    26.5710    22.3590    22.0070 
  164.3750   -11.3310     2.1840    84.9190    28.9220    25.9410    20.8590    22.0050 
  164.5000   -11.5420     2.1840    84.3310    28.5340    25.6320    20.7200    22.0040 
  164.6250   -11.6940     2.1850    80.3910    28.3340    25.5030    21.2590    22.0040 
  164.7500   -11.8010     2.1910    77.2950    27.9520    25.2540    21.3840    22.0040 
  164.8750   -11.8990     2.1990    77.9420    27.1530    24.6620    20.8390    22.0040 
  165.0000   -11.9320     2.2070    81.4440    25.8220    23.5870    19.7260    22.0050 
  165.1250   -11.8670     2.2090    85.3100    23.9200    21.9470    18.4450    21.9860 
  165.2500   -11.7490     2.2110    88.1650    21.7170    19.9790    17.2480    21.9840 
  165.3750   -11.5590     2.2140    89.9450    19.4640    17.9180    16.2150    22.1240 
  165.5000   -11.3340     2.2170    90.3800    17.4350    16.0200    14.7010    22.5010 
  165.6250   -11.0960     2.2200    90.3090    16.0080    14.6180    13.0350    22.8700 
  165.7500   -10.8700     2.2210    90.1830    15.3100    13.8200    12.2710    23.0990 
  165.8750   -10.6220     2.2210    89.2250    15.4340    13.7050    12.4240    23.2020 
  166.0000   -10.4610     2.2160    86.3800    16.3990    14.3050    12.9320    23.2430 
  166.1250   -10.3910     2.2050    83.1020    18.2510    15.7170    14.4410    23.2710 
  166.2500   -10.4060     2.1940    81.8910    20.6570    17.7130    16.9470    23.2980 
  166.3750   -10.4580     2.1810    83.0000    23.3150    20.0770    20.1170    23.3090 
  166.5000   -10.5470     2.1660    84.7390    25.8560    22.4950    22.9070    23.3120 
  166.6250   -10.6930     2.1530    85.0150    27.8080    24.5130    24.3050    23.3280 
  166.7500   -10.8460     2.1500    83.8370    29.0320    25.8920    25.4390    23.3850 
  166.8750   -11.0260     2.1530    82.1390    29.5540    26.5720    26.7120    23.4880 
  167.0000   -11.1390     2.1580    81.0890    29.5310    26.6650    29.1740    23.5980 
  167.1250   -11.2780     2.1610    81.3090    29.0450    26.2710    30.8680    23.6370 
  167.2500   -11.3430     2.1630    81.7390    28.3160    25.5440    29.0290    23.6480 
  167.3750   -11.3910     2.1640    82.3590    27.3530    24.5030    26.7340    23.6680 
