~V
VERS. 2.00: Ver 2.00
~W
STRT.M 59.0000:
STOP.M 247.0000:
STEP.M 0.1250:
NULL. -999.2500:
UWI. F11130:
~C
DEPT.M :
DEN.GM/CC :
SP.MV :
GR.API :
RML.OHMM :
RI. :
RXO.OHMM :
CALI.CM :
~A
# ...
   70.2500     2.2310   -20.7640    79.5260     8.7090     6.3820     9.8030    24.5990 
   70.3750     2.2190   -20.5430    81.2050     8.8510     6.4680     9.9320    24.3360 
   70.5000     2.2070   -20.1230    80.4620     9.1360     6.6610    10.5180    24.0540 
   70.6250     2.2190   -19.2900    77.1100     9.5680     7.0020    10.7130    24.0080 
   70.7500     2.2630   -18.1040    73.9850    10.0260     7.4240    10.7490    24.2320 
   70.8750     2.3290   -16.6810    73.4570    10.3480     7.7980    10.5130    24.6430 
   71.0000     2.3910   -15.0450    76.1270    10.3550     7.9500    10.0320    25.0360 
   71.1250     2.4170   -13.1770    80.1400     9.8710     7.6750     8.8740    25.1710 
   71.2500     2.4050   -11.2340    84.9300     9.0500     7.0670     7.5470    25.2070 
   71.3750     2.3730    -9.4320    90.1210     8.1110     6.3130     6.7350    25.1790 
   71.5000     2.3410    -7.9230    95.5920     7.3030     5.6200     6.3270    25.2040 
   71.6250     2.3240    -6.7890   100.5830     6.8630     5.1760     5.7680    25.3820 
   71.7500     2.3180    -6.0640   102.7820     6.7660     4.9960     5.5450    25.5020 
   71.8750     2.3180    -5.6720   101.6670     6.9230     5.0460     5.6020    25.5260 
   72.0000     2.3200    -5.4350    99.6670     7.1920     5.2370     5.8350    25.4600 
   72.1250     2.3200    -5.2720    99.9060     7.4070     5.4410     6.3010    25.3080 
   72.2500     2.3180    -5.2200   101.0030     7.4820     5.5590     6.6360    25.2140 
   72.3750     2.3120    -5.2820   100.6610     7.4110     5.5620     6.3070    25.2290 
   72.5000     2.3020    -5.3600   100.0710     7.2400     5.4700     5.8940    25.3360 
   72.6250     2.2900    -5.4250   101.2450     7.0440     5.3260     5.6650    25.4380 
   72.7500     2.2790    -5.4870   102.3150     6.9000     5.1930     5.6830    25.4740 
   72.8750     2.2690    -5.6150   100.2280     6.8410     5.1120     5.6500    25.4330 
   73.0000     2.2600    -5.9060    94.3410     6.8730     5.1020     5.6550    25.3610 
   73.1250     2.2540    -6.3410    88.4080     6.9780     5.1630     6.0600    25.2910 
   73.2500     2.2540    -6.7880    87.0000     7.1050     5.2510     6.8300    25.2340 
   73.3750     2.2600    -7.2790    89.4490     7.2320     5.3390     7.9560    25.2430 
   73.5000     2.2710    -7.9570    92.1070     7.3680     5.4190     9.5750    25.3530 
   73.6250     2.2780    -8.9500    94.3510     7.5830     5.5210     8.5540    25.5200 
   73.7500     2.2710   -10.0740    93.3930     7.9460     5.7040     7.6550    25.6460 
   73.8750     2.2480   -11.1590    86.1630     8.4930     6.0250     7.3330    25.6890 
   74.0000     2.2130   -12.0390    75.6030     9.1650     6.4950     7.7050    25.5820 
   74.1250     2.1790   -12.6080    71.0640     9.7390     7.0180     8.9350    25.2670 
   74.2500     2.1590   -12.9180    72.7260     9.9640     7.3570    10.8480    25.0590 
   74.3750     2.1620   -12.9890    76.1680     9.7110     7.3220    12.0470    25.0490 
   74.5000     2.1870   -12.8130    79.4190     9.0610     6.8890    11.4340    25.1580 
   74.6250     2.2200   -12.5200    84.0130     8.3020     6.2510     9.5120    25.1980 
   74.7500     2.2430   -12.2330    87.8420     7.7800     5.7150     7.7230    25.1280 
   74.8750     2.2440   -12.0360    88.8540     7.6450     5.4270     7.3350    24.9430 
   75.0000     2.2280   -11.9950    86.0650     7.8760     5.4260     7.7590    24.6170 
   75.1250     2.2060   -12.2040    80.2050     8.3230     5.6830     8.9830    24.4720 
   75.2500     2.1930   -12.5730    76.5230     8.7160     6.0220     9.2750    24.5050 
   75.3750     2.1890   -12.9890    76.4280     8.9000     6.2990     9.1780    24.5430 
   75.5000     2.1880   -13.2710    78.4940     8.8380     6.4080     9.1520    24.5010 
   75.6250     2.1830   -13.1900    79.0640     8.6200     6.3330     9.2610    24.3650 
   75.7500     2.1820   -12.7830    78.7980     8.4460     6.2300     9.3350    24.2100 
   75.8750     2.1990   -12.0750    78.9920     8.4230     6.2160     9.3330    24.0500 
   76.0000     2.2440   -11.1830    79.8510     8.5570     6.3420     9.3700    23.9780 
   76.1250     2.3070   -10.1800    80.3880     8.7670     6.5990     9.7510    24.1320 
   76.2500     2.3580    -9.1300    80.3870     8.9110     6.8750    10.6520    24.4200 
   76.3750     2.3740    -8.0080    80.2230     8.8860     7.0530    11.2020    24.6700 
   76.5000     2.3540    -6.8290    79.8000     8.6410     7.0250     8.6210    24.6920 
   76.6250     2.3160    -5.5660    81.6540     8.1710     6.7230     7.7640    24.5030 
   76.7500     2.2920    -4.2650    88.6590     7.6050     6.2520     7.7760    24.4040 
   76.8750     2.2910    -3.0250    98.8820     7.0440     5.7090     7.8550    24.5130 
   77.0000     2.3090    -1.8850   108.5220     6.5730     5.2000     6.7600    24.8620 
   77.1250     2.3300    -0.8790   116.0140     6.2570     4.8140     5.3210    25.1920 
   77.2500     2.3430     0.0320   121.6590     6.0590     4.5430     4.8210    25.3170 
   77.3750     2.3480     0.8000   122.3940     5.9380     4.3620     4.8910    25.2900 
   77.5000     2.3430     1.3780   117.6830     5.8610     4.2370     4.9820    25.2360 
   77.6250     2.3330     1.6360   111.6370     5.8760     4.1720     5.1470    25.2270 
   77.7500     2.3280     1.5840   108.3050     6.1290     4.2180     5.2500    25.2360 
   77.8750     2.3430     1.3120   107.0700     6.8890     4.5050     5.4400    25.2040 
   78.0000     2.3890     0.9390   104.5580     8.5230     5.2400     6.1460    25.1350 
   78.1250     2.4700     0.4660    95.1170    11.6860     6.9190     9.1260    25.1070 
   78.2500     2.5660    -0.2070    80.7750    16.3740     9.8850    18.3450    25.1000 
   78.3750     2.6540    -1.0750    67.8050    22.1400    14.4120    34.2020    25.0830 
   78.5000     2.7090    -2.1710    61.2050    27.5500    20.0140    51.7180    25.0510 
   78.6250     2.7020    -3.5310    60.2130    29.8210    24.0140    60.0460    25.0460 
   78.7500     2.6370    -5.0440    60.2600    28.1900    23.9560    62.6630    25.0780 
   78.8750     2.5300    -6.6230    58.9380    23.6790    20.4370    55.3550    25.0910 
   79.0000     2.4070    -8.2970    57.7870    18.4300    15.9460    36.0400    24.9710 
   79.1250     2.3060    -9.9980    58.5670    14.4840    12.4370    20.5870    24.6340 
   79.2500     2.2430   -11.5920    60.7930    12.1220    10.1190    13.1670    24.3380 
   79.3750     2.2150   -13.0470    62.0830    11.0240     8.7870    11.1930    24.1990 
   79.5000     2.2080   -14.2960    61.9320    10.7460     8.1900    11.0700    24.1310 
   79.6250     2.2050   -15.1860    62.6490    10.9040     8.1250    11.1720    24.0730 
   79.7500     2.1980   -15.8360    65.4740    11.1000     8.2380    11.1050    24.0860 
   79.8750     2.1880   -16.2610    69.2750    11.1760     8.3300    11.0830    24.1500 
   80.0000     2.1780   -16.5430    72.0580    11.0950     8.3050    10.9230    24.1800 
   80.1250     2.1700   -16.6420    72.6290    10.9080     8.1640    10.6700    24.1390 
   80.2500     2.1630   -16.6770    70.5240    10.7250     7.9970    10.4330    24.0580 
   80.3750     2.1550   -16.6550    66.5720    10.6060     7.8620    10.3470    23.9670 
   80.5000     2.1490   -16.5950    63.4150    10.5730     7.7940    10.5110    23.8950 
   80.6250     2.1460   -16.5310    63.8920    10.6320     7.8190    10.7270    23.9240 
   80.7500     2.1470   -16.4270    65.3480    10.7550     7.9120    10.9520    24.0310 
   80.8750     2.1540   -16.3410    65.2620    10.9350     8.0570    11.1710    24.1050 
   81.0000     2.1700   -16.3220    64.9620    11.1740     8.2420    11.4980    24.1270 
   81.1250     2.2000   -16.4140    65.8930    11.4690     8.4620    11.9390    24.1400 
   81.2500     2.2400   -16.5600    67.3040    11.7690     8.6810    12.3280    24.1840 
   81.3750     2.2790   -16.7400    69.0660    12.0050     8.8540    12.4940    24.2600 
