~V
VERS. 2.00: Ver 2.00
~W
STRT.M 45.0000:
STOP.M 264.0000:
STEP.M 0.1250:
NULL. -999.2500:
UWI. F11189:
~C
DEPT.M :
SP.MV :
GR.API :
RI. :
RML.OHMM :
RXO.OHMM :
DEN.GM/CC :
~A
# ...
  160.8750    -6.9530    74.5670     5.4830     5.6030     6.3120     2.1230 
  161.0000    -6.7680    74.7560     4.7960     4.8720     6.1470     2.1230 
  161.1250    -6.5220    72.4080     4.0580     4.1050     5.6150     2.1510 
  161.2500    -6.2530    73.3750     3.3660     3.4140     4.3720     2.2090 
  161.3750    -5.9970    80.7370     2.8700     2.9400     3.0790     2.2730 
  161.5000    -5.7780    87.6280     2.5430     2.6470     2.6910     2.3120 
  161.6250    -5.6030    89.7110     2.3960     2.5410     2.9230     2.3280 
  161.7500    -5.4540    89.6280     2.4010     2.5750     3.1490     2.3440 
  161.8750    -5.3210    91.3830     2.5270     2.7170     3.1980     2.3610 
  162.0000    -5.2110    91.6590     2.7530     2.9500     3.2720     2.3650 
  162.1250    -5.1560    89.1590     3.1240     3.3320     3.7210     2.3530 
  162.2500    -5.1850    87.1390     3.6900     3.9240     4.2690     2.3380 
  162.3750    -5.3230    88.4290     4.5010     4.7860     5.1600     2.3230 
  162.5000    -5.5510    88.4200     5.5660     5.9220     6.5460     2.3040 
  162.6250    -5.8380    83.7910     6.7820     7.2160     7.9810     2.2730 
  162.7500    -6.1350    77.4190     7.9680     8.4600     9.3900     2.2370 
  162.8750    -6.3950    74.0250     8.7510     9.2460    10.0900     2.2090 
  163.0000    -6.5950    73.5160     8.8520     9.2960     9.9140     2.1940 
  163.1250    -6.7250    72.8420     8.3990     8.7690     9.7250     2.1920 
  163.2500    -6.8100    71.9560     7.6710     7.9850     9.1930     2.2000 
  163.3750    -6.8760    73.9460     7.1260     7.4300     8.2850     2.2270 
  163.5000    -6.9600    77.6420     7.0020     7.3660     7.4830     2.2620 
  163.6250    -7.0850    79.3760     7.4420     7.9750     7.2780     2.2740 
  163.7500    -7.2550    77.1770     8.6060     9.4300     7.7170     2.2480 
  163.8750    -7.4660    73.1320    10.7650    11.9730     8.5940     2.2130 
  164.0000    -7.6990    69.1600    13.3810    14.8700     9.9040     2.1890 
  164.1250    -7.9370    67.6050    15.6870    17.2400    12.1290     2.1730 
  164.2500    -8.1600    67.9420    17.1270    18.5510    15.0420     2.1600 
  164.3750    -8.3520    68.7850    17.7410    18.9370    17.7760     2.1600 
  164.5000    -8.5010    69.1040    18.0430    19.0690    19.4580     2.1690 
  164.6250    -8.5980    69.4780    18.4870    19.4310    20.0230     2.1740 
  164.7500    -8.6510    70.5110    19.1690    20.0950    20.2410     2.1640 
  164.8750    -8.6650    70.0380    19.9690    20.9090    20.8200     2.1520 
  165.0000    -8.6590    67.2420    20.7670    21.6980    21.8750     2.1460 
  165.1250    -8.6520    64.4880    21.2120    22.0460    22.9460     2.1470 
  165.2500    -8.6570    64.3940    21.2410    21.9370    23.5190     2.1420 
  165.3750    -8.6790    66.2410    20.8950    21.4530    23.6840     2.1320 
  165.5000    -8.7100    67.8330    20.4810    20.9380    23.8850     2.1300 
  165.6250    -8.7320    68.0640    20.3500    20.7550    24.4590     2.1410 
  165.7500    -8.7330    67.4750    20.4910    20.8710    25.0140     2.1500 
  165.8750    -8.7070    66.7060    20.8780    21.2410    25.3950     2.1530 
  166.0000    -8.6660    66.5170    21.3900    21.7260    25.9140     2.1550 
  166.1250    -8.6240    66.7750    21.8380    22.1180    26.5610     2.1600 
  166.2500    -8.5900    67.7780    22.0520    22.2270    28.4760     2.1600 
  166.3750    -8.5670    70.0730    22.0030    22.0850    28.0920     2.1500 
  166.5000    -8.5480    72.9400    22.0350    22.0480    27.9680     2.1390 
  166.6250    -8.5230    74.1780    22.3300    22.3280    28.1370     2.1350 
  166.7500    -8.4870    73.8270    23.0790    23.1130    27.4920     2.1430 
  166.8750    -8.4370    73.0600    24.4260    24.5520    28.9250     2.1540 
  167.0000    -8.3760    71.6710    26.2430    26.4890    33.4000     2.1510 
  167.1250    -8.3060    69.3280    28.2600    28.6000    38.7320     2.1270 
  167.2500    -8.2320    66.5600    29.8170    30.1450    40.7520     2.1030 
  167.3750    -8.1530    65.0600    30.3190    30.5040    38.2590     2.0980 
  167.5000    -8.0730    66.3450    29.5390    29.5250    35.8290     2.1120 
  167.6250    -7.9940    68.3010    28.1300    27.9740    35.4360     2.1260 
  167.7500    -7.9200    68.2670    26.8280    26.6200    35.6890     2.1330 
  167.8750    -7.8560    66.0990    26.3520    26.2000    35.0240     2.1340 
  168.0000    -7.8070    63.9840    26.8930    26.8560    33.7370     2.1320 
  168.1250    -7.7710    62.8380    28.2920    28.4090    35.2170     2.1270 
  168.2500    -7.7450    61.8370    30.3580    30.7030    40.3110     2.1210 
  168.3750    -7.7200    60.2300    32.9640    33.6020    43.9970     2.1160 
  168.5000    -7.6850    57.9800    35.3400    36.2490    44.3850     2.1110 
  168.6250    -7.6310    57.0810    37.5740    38.7910    45.1930     2.1060 
  168.7500    -7.5610    57.1540    39.8170    41.4170    46.0400     2.1010 
  168.8750    -7.4870    57.9470    42.4230    44.5390    45.7760     2.0950 
  169.0000    -7.4220    59.2810    45.6220    48.3790    44.7870     2.0890 
  169.1250    -7.3800    60.6460    49.1290    52.5110    43.2630     2.0820 
  169.2500    -7.3580    60.0670    51.5580    55.1620    43.7150     2.0780 
  169.3750    -7.3500    58.2040    51.5930    54.8480    44.4850     2.0800 
  169.5000    -7.3470    58.7590    48.7970    51.1490    43.0880     2.0870 
  169.6250    -7.3390    61.4350    43.9650    45.2930    41.2790     2.0990 
  169.7500    -7.3230    63.7760    38.5590    39.1720    39.2090     2.1150 
  169.8750    -7.3020    65.1640    34.0750    34.3400    36.3960     2.1260 
  170.0000    -7.2790    66.6530    30.7850    31.0050    34.0520     2.1300 
  170.1250    -7.2570    67.6040    28.8810    29.1200    33.7490     2.1260 
  170.2500    -7.2350    66.4350    28.0410    28.2920    35.1550     2.1230 
  170.3750    -7.2160    65.6370    27.9410    28.1990    35.3830     2.1230 
  170.5000    -7.1990    66.8800    28.2890    28.5620    34.4880     2.1260 
  170.6250    -7.1860    68.0630    28.9980    29.3210    35.2380     2.1300 
  170.7500    -7.1770    67.1790    30.0570    30.4990    36.7190     2.1300 
  170.8750    -7.1710    65.0410    31.6060    32.2440    38.2000     2.1280 
  171.0000    -7.1650    63.6230    33.3390    34.2250    40.8060     2.1250 
  171.1250    -7.1610    62.5680    35.1330    36.3070    43.9530     2.1190 
  171.2500    -7.1620    62.4510    36.7920    38.2880    45.8500     2.1040 
  171.3750    -7.1710    62.7470    38.4100    40.2490    45.3850     2.0850 
  171.5000    -7.1900    63.0870    39.9760    42.2090    44.3620     2.0740 
  171.6250    -7.2170    63.7240    41.2640    43.8990    44.6580     2.0720 
  171.7500    -7.2450    63.8420    41.9780    44.9520    45.9480     2.0750 
  171.8750    -7.2670    60.9980    41.9000    45.0670    47.6260     2.0780 
  172.0000    -7.2780    58.0260    40.8640    43.9520    47.5570     2.0830 
  172.1250    -7.2670    57.7840    38.8860    41.7110    44.3720     2.0920 
  172.2500    -7.2320    58.6720    36.7340    39.2440    40.7420     2.1050 
  172.3750    -7.1710    58.7760    34.8680    37.1260    38.8000     2.1150 
  172.5000    -7.0910    60.2880    33.8010    35.9650    39.2230     2.1150 
  172.6250    -6.9980    63.3910    33.7130    35.8920    40.2120     2.1090 
  172.7500    -6.9020    64.2590    34.2520    36.4860    40.6330     2.1050 
  172.8750    -6.8140    62.5710    35.1980    37.4890    42.4670     2.1020 
  173.0000    -6.7400    60.9950    36.3620    38.7180    43.1100     2.0950 
  173.1250    -6.6820    61.8670    37.5500    39.9460    40.8760     2.0880 
  173.2500    -6.6410    62.8610    38.2700    40.5630    38.6910     2.0840 
  173.3750    -6.6150    62.3140    37.7360    39.6860    37.9970     2.0860 
  173.5000    -6.5950    60.8970    35.5600    36.9680    37.8400     2.0820 
  173.6250    -6.5720    60.6150    32.2050    33.0220    36.7370     2.0700 
