~V
VERS. 2.00: Ver 2.00
~W
STRT.M 50.0000:
STOP.M 243.0000:
STEP.M 0.1250:
NULL. -999.2500:
UWI. F11115:
~C
DEPT.M :
DEN.GM/CC :
GR.API :
RML.OHMM :
RI. :
RXO.OHMM :
CALI.CM :
SP.MV :
~A
# ...
   95.0000     2.1760    70.0650     7.8390     5.7160     7.7890    26.6340   -27.3190 
   95.1250     2.1650    67.6750     8.1030     5.8700     8.2360    26.5940   -27.4310 
   95.2500     2.1510    66.0260     8.8240     6.2740     8.8730    26.5300   -27.5560 
   95.3750     2.1510    67.9550    10.0340     6.9470     9.7550    26.4440   -27.6440 
   95.5000     2.1860    71.5920    11.5150     7.7990    12.2200    26.3620   -27.6430 
   95.6250     2.2720    74.0440    12.5510     8.4900    18.4810    26.3110   -27.5230 
   95.7500     2.3690    75.5030    12.4230     8.6070    25.0300    26.2780   -27.3260 
   95.8750     2.4250    77.6170    11.0060     8.0030    23.8350    26.2560   -27.0650 
   96.0000     2.4170    79.6850     8.9700     6.9410    16.6540    26.2460   -26.7440 
   96.1250     2.3660    78.0740     7.3690     5.9440    10.0770    26.2510   -26.4070 
   96.2500     2.3150    74.2130     6.6620     5.3560     8.1490    26.2580   -26.1250 
   96.3750     2.2780    71.4960     6.8910     5.2950    11.3600    26.2620   -25.9300 
   96.5000     2.2510    70.5190     7.8960     5.7520    23.6540    26.2620   -25.8140 
   96.6250     2.2240    69.8740     9.3360     6.6210    35.2010    26.2570   -25.7560 
   96.7500     2.1980    67.6970    10.4950     7.4840    34.5210    26.2520   -25.7140 
   96.8750     2.1770    64.5820    10.7950     7.9360    24.4550    26.2520   -25.6560 
   97.0000     2.1650    62.4170    10.0730     7.7540    14.9050    26.2550   -25.5220 
   97.1250     2.1670    65.0460     8.6690     6.9960    10.0980    26.2590   -25.2280 
   97.2500     2.1780    73.1160     7.2810     6.0670     7.1870    26.2600   -24.8080 
   97.3750     2.1970    82.8580     6.1950     5.1750     5.4090    26.2580   -24.3100 
   97.5000     2.2210    89.3160     5.4440     4.4150     4.6720    26.2560   -23.7780 
   97.6250     2.2480    91.2570     4.9700     3.8540     4.2150    26.2550   -23.2760 
   97.7500     2.2770    91.2620     4.6270     3.4670     3.8270    26.2550   -22.9030 
   97.8750     2.3050    90.9530     4.3850     3.2500     3.6550    26.2600   -22.7210 
   98.0000     2.3250    92.2850     4.3000     3.2060     3.7380    26.2640   -22.7480 
   98.1250     2.3220    94.2740     4.5730     3.4070     4.0670    26.2440   -23.0180 
   98.2500     2.3070    93.6930     5.2870     3.8630     4.7960    26.2020   -23.4800 
   98.3750     2.3000    89.3360     6.4520     4.5910     5.9260    26.1640   -24.1120 
   98.5000     2.3160    82.6370     7.9330     5.5460     7.9050    26.1470   -24.9100 
   98.6250     2.3430    75.3600     9.3370     6.5400    11.3750    26.1230   -25.8540 
   98.7500     2.3470    68.6610    10.1350     7.2490    13.3010    26.0650   -26.8810 
   98.8750     2.3120    65.0670    10.0400     7.4490    11.5470    25.9920   -27.9830 
   99.0000     2.2490    65.6430     9.2170     7.1500     9.4720    25.9420   -29.1340 
   99.1250     2.1900    68.7700     8.1990     6.5860     8.4750    25.9330   -30.2480 
   99.2500     2.1570    69.6750     7.4800     6.0910     8.2560    25.9400   -31.2660 
   99.3750     2.1500    66.3650     7.2210     5.8200     8.2180    25.9450   -32.1760 
   99.5000     2.1530    60.7950     7.4010     5.8180     8.5840    25.9440   -32.9810 
   99.6250     2.1540    58.7990     7.9160     6.0640     9.5480    25.9400   -33.6420 
   99.7500     2.1520    60.1170     8.5030     6.4060    10.0450    25.9480   -34.1820 
   99.8750     2.1520    61.7310     8.9770     6.7200    10.3000    25.9770   -34.5900 
  100.0000     2.1560    62.4360     9.2020     6.8960    10.4780    26.0170   -34.8690 
  100.1250     2.1610    62.5470     9.0820     6.8390    10.8140    26.0510   -35.0070 
  100.2500     2.1620    62.8920     8.7220     6.6040    10.9340    26.0800   -35.0210 
  100.3750     2.1590    63.6740     8.2390     6.2720    10.4160    26.1080   -34.9170 
  100.5000     2.1560    65.7360     7.7660     5.9420     9.5410    26.1310   -34.7350 
  100.6250     2.1550    68.8690     7.4640     5.7190     8.7610    26.1430   -34.5220 
  100.7500     2.1520    70.2080     7.3900     5.6370     8.1470    26.1480   -34.3230 
  100.8750     2.1430    68.4570     7.5470     5.7000     8.2530    26.1510   -34.1730 
  101.0000     2.1300    64.9720     7.8660     5.8780     9.0960    26.1550   -34.1320 
  101.1250     2.1200    63.3440     8.2180     6.1160     9.8330    26.1630   -34.2360 
  101.2500     2.1180    62.3820     8.4790     6.3300    10.5580    26.1900   -34.4240 
  101.3750     2.1220    62.0790     8.6150     6.4800    10.8250    26.2360   -34.6570 
  101.5000     2.1240    63.3770     8.6480     6.5510    10.7610    26.2810   -34.9230 
  101.6250     2.1220    65.0160     8.6130     6.5470    10.6320    26.3240   -35.1930 
  101.7500     2.1200    65.8040     8.5600     6.5070    10.7220    26.3870   -35.4130 
  101.8750     2.1210    66.3090     8.5040     6.4510    11.2250    26.4800   -35.5350 
  102.0000     2.1220    66.9810     8.4490     6.3920    11.4620    26.5960   -35.5490 
  102.1250     2.1250    66.2430     8.4010     6.3450    11.0310    26.7130   -35.4600 
  102.2500     2.1280    65.0420     8.3730     6.3220    10.1970    26.7990   -35.3290 
  102.3750     2.1330    65.1980     8.3790     6.3300    10.0350    26.8370   -35.1800 
  102.5000     2.1420    65.3850     8.4320     6.3720    10.2340    26.8400   -35.0060 
  102.6250     2.1570    64.0260     8.5380     6.4470    10.2620    26.8370   -34.8250 
  102.7500     2.1700    63.0900     8.6550     6.5220     9.9940    26.8310   -34.6760 
  102.8750     2.1760    64.0330     8.7260     6.5680     9.9370    26.8240   -34.5460 
  103.0000     2.1730    66.2920     8.6900     6.5610    10.0210    26.8230   -34.3830 
  103.1250     2.1660    68.6940     8.4950     6.4890     9.9600    26.8300   -34.1760 
  103.2500     2.1670    70.8340     8.2310     6.3900     9.6560    26.8360   -33.9590 
  103.3750     2.1820    72.1170     8.0130     6.3070     9.3150    26.8360   -33.7520 
  103.5000     2.2090    71.0130     7.9310     6.2770     9.2940    26.8430   -33.5830 
  103.6250     2.2260    67.5080     8.0160     6.3160    10.4440    26.8960   -33.5090 
  103.7500     2.2140    63.7370     8.1630     6.3880    13.6510    26.9930   -33.5310 
  103.8750     2.1730    62.4400     8.2700     6.4490    18.2230    27.0860   -33.6500 
  104.0000     2.1180    64.4030     8.2700     6.4570    15.3150    27.0820   -33.8390 
  104.1250     2.0750    66.3940     8.1620     6.3970    11.3870    26.8850   -34.0310 
  104.2500     2.0640    66.0200     8.0400     6.3270     9.6760    26.5900   -34.2060 
  104.3750     2.0860    64.3060     7.9810     6.3120     9.8680    26.3060   -34.3940 
  104.5000     2.1280    64.0510     8.0310     6.3920    10.1950    26.0880   -34.6230 
  104.6250     2.1650    65.2690     8.2210     6.5730    10.5730    25.9430   -34.8960 
  104.7500     2.1810    65.3040     8.4800     6.7800    11.0710    25.8610   -35.2080 
  104.8750     2.1780    64.5500     8.7220     6.9480    11.4070    25.8350   -35.5800 
  105.0000     2.1610    64.2450     8.8730     7.0410    11.5380    25.8350   -36.0070 
  105.1250     2.1430    65.9110     8.9040     7.0570    11.7050    25.8360   -36.4270 
  105.2500     2.1300    67.1400     8.8770     7.0390    11.7400    25.8360   -36.7740 
  105.3750     2.1260    67.3850     8.8360     7.0050    11.7390    25.8360   -37.0400 
  105.5000     2.1260    67.4560     8.8050     6.9660    11.6930    25.8650   -37.2350 
  105.6250     2.1290    68.5410     8.7770     6.9320    11.6610    25.9320   -37.3580 
  105.7500     2.1370    68.2720     8.7400     6.9120    11.5510    25.9810   -37.4280 
  105.8750     2.1530    66.1210     8.6900     6.9060    11.3730    25.9830   -37.4560 
  106.0000     2.1740    63.5060     8.6300     6.9050    11.1340    25.9640   -37.4650 
  106.1250     2.1930    62.7380     8.5530     6.8910    11.0900    25.9630   -37.4700 
