~V
VERS. 2.00: Ver 2.00
~W
STRT.M 50.0000:
STOP.M 242.0000:
STEP.M 0.1250:
NULL. -999.2500:
UWI. F11136:
~C
DEPT.M :
GR.API :
RML.OHMM :
RI. :
RXO.OHMM :
CALI.CM :
SP.MV :
DEN.GM/CC :
~A
# ...
  218.7500    49.7900     9.9780     8.6390    11.1980    23.5140   -26.0340     2.3710 
  218.8750    50.4210    10.4800     9.0740    11.8820    23.5730   -25.9720     2.3790 
  219.0000    54.9260    10.9710     9.4980    12.3690    23.4870   -25.8330     2.3910 
  219.1250    69.3610    11.2020     9.6980    12.7770    23.4640   -25.6380     2.4070 
  219.2500    88.5900    11.0410     9.5590    12.5230    23.4980   -25.4060     2.4180 
  219.3750   100.3650    10.4720     9.0660    10.9780    23.6180   -25.1250     2.4150 
  219.5000    97.2360     9.6380     8.3450     8.6230    23.8170   -24.7910     2.3890 
  219.6250    82.4600     8.8260     7.6410     7.1700    24.2460   -24.4140     2.3410 
  219.7500    69.0010     8.2360     7.1310     6.3810    24.9350   -24.0160     2.2880 
  219.8750    61.3670     7.9070     6.8460     6.0230    25.9620   -23.6360     2.2420 
  220.0000    57.7670     7.7940     6.7480     5.9050    26.6600   -23.3150     2.2120 
  220.1250    54.6100     7.8030     6.7560     5.8330    27.7750   -23.0080     2.2020 
  220.2500    51.7210     7.8370     6.7850     5.8440    28.6040   -22.7480     2.2060 
  220.3750    51.0280     7.9070     6.8460     6.0420    28.5470   -22.5830     2.2160 
  220.5000    51.9770     8.0510     6.9710     6.5330    27.1820   -22.5040     2.2240 
  220.6250    52.0030     8.2300     7.1260     6.8180    26.8040   -22.4760     2.2230 
  220.7500    51.4240     8.3480     7.2280     6.6600    26.8270   -22.4870     2.2160 
  220.8750    51.0750     8.3880     7.2620     6.5270    26.0130   -22.5160     2.2090 
  221.0000    52.4030     8.3810     7.2560     6.5670    25.0240   -22.5480     2.2120 
  221.1250    60.2490     8.3460     7.2260     7.0780    24.7100   -22.5820     2.2340 
  221.2500    69.9860     8.3080     7.1930     8.1530    24.6120   -22.5670     2.2720 
  221.3750    75.4700     8.2880     7.1760     9.0540    24.3680   -22.4700     2.3140 
  221.5000    76.4230     8.2880     7.1760     9.1750    24.2430   -22.2990     2.3520 
  221.6250    77.3500     8.2970     7.1830     8.9930    24.2270   -22.1350     2.3730 
  221.7500    80.7860     8.2790     7.1680     8.8890    24.2760   -21.9610     2.3820 
  221.8750    84.1360     8.1920     7.0930     8.8590    24.3380   -21.7330     2.3830 
  222.0000    86.7220     8.0500     6.9690     8.8510    24.3930   -21.4700     2.3830 
  222.1250    88.5400     7.9510     6.8840     8.7910    24.4250   -21.2400     2.3830 
  222.2500    89.7530     7.9430     6.8770     8.7410    24.5040   -21.0190     2.3810 
  222.3750    88.7160     7.9860     6.9140     8.6860    24.6970   -20.8030     2.3790 
  222.5000    84.1640     8.0000     6.9270     8.5810    24.8090   -20.6540     2.3780 
  222.6250    81.3540     7.9190     6.8560     8.4780    24.5970   -20.4850     2.3820 
  222.7500    84.7400     7.7860     6.7410     8.4380    24.5210   -20.2760     2.3880 
  222.8750    90.5550     7.6760     6.6460     8.3610    24.8750   -20.0900     2.3950 
  223.0000    92.6830     7.6540     6.6260     8.4080    25.1890   -19.9040     2.4000 
  223.1250    90.5330     7.7140     6.6790     8.6500    24.4730   -19.6300     2.3970 
  223.2500    87.6630     7.7630     6.7210     8.5260    23.7460   -19.3340     2.3860 
  223.3750    84.5120     7.6990     6.6650     7.9220    23.6700   -19.0570     2.3710 
  223.5000    81.6180     7.4440     6.4450     7.1450    23.7860   -18.7150     2.3570 
  223.6250    80.9400     6.9700     6.0340     6.9430    24.1730   -18.3480     2.3450 
  223.7500    81.2200     6.4210     5.5590     6.5040    25.0480   -18.0020     2.3310 
  223.8750    80.5640     5.9600     5.1610     5.8670    25.7310   -17.6880     2.3110 
  224.0000    78.5810     5.7300     4.9610     5.2840    25.9560   -17.4170     2.2880 
  224.1250    77.2140     5.8580     5.0720     5.1990    26.6040   -17.2250     2.2730 
  224.2500    75.7520     6.2390     5.4020     5.3830    25.5150   -17.0880     2.2720 
  224.3750    72.8570     6.7250     5.8220     5.5850    24.5800   -16.9730     2.2840 
  224.5000    69.3050     7.1790     6.2160     5.6820    24.2720   -16.8990     2.3060 
  224.6250    67.1590     7.5470     6.5340     5.9440    24.1410   -16.8800     2.3370 
  224.7500    66.3510     7.9050     6.8440     6.6790    24.0300   -16.8660     2.3800 
  224.8750    65.5280     8.2470     7.1410     7.9680    23.9250   -16.8390     2.4370 
  225.0000    62.5500     8.4740     7.3370     9.6000    23.8870   -16.7840     2.5010 
  225.1250    57.5900     8.4330     7.3020     9.9880    23.7750   -16.7020     2.5480 
  225.2500    55.2070     8.1680     7.0720     9.6700    23.6830   -16.6230     2.5620 
  225.3750    58.0700     7.8590     6.8040     8.0370    23.6560   -16.5490     2.5410 
  225.5000    64.6190     7.7220     6.6860     6.6620    23.7440   -16.4740     2.5010 
  225.6250    71.2330     7.9030     6.8420     6.5400    23.7670   -16.3650     2.4650 
  225.7500    77.1300     8.2370     7.1310     7.5310    23.8280   -16.2830     2.4400 
  225.8750    81.9790     8.5010     7.3600     8.7640    23.8590   -16.2330     2.4220 
  226.0000    82.8060     8.4900     7.3510     8.3820    23.9880   -16.1890     2.4020 
  226.1250    79.6900     8.0430     6.9630     7.1130    24.6300   -16.1460     2.3760 
  226.2500    76.5460     7.3040     6.3230     6.0800    25.5050   -16.1070     2.3470 
  226.3750    75.2440     6.4030     5.5430     5.7230    26.5430   -16.0680     2.3230 
  226.5000    75.9310     5.5050     4.7660     5.6000    26.9110   -16.0430     2.3080 
  226.6250    79.7380     4.8710     4.2170     5.5480    25.9480   -16.0510     2.3050 
  226.7500    83.0790     4.5820     3.9670     5.6460    24.8390   -16.0440     2.3090 
  226.8750    81.1550     4.6490     4.0250     5.7250    24.7150   -16.0050     2.3160 
  227.0000    74.3350     4.9940     4.3240     5.6350    25.3050   -15.9710     2.3230 
  227.1250    68.1520     5.5390     4.7960     5.6100    25.5090   -15.9670     2.3280 
  227.2500    67.4870     6.1620     5.3350     5.5930    25.4650   -15.9350     2.3320 
  227.3750    72.9880     6.8310     5.9150     5.9100    25.5040   -15.8950     2.3380 
  227.5000    79.4380     7.5540     6.5410     6.8110    25.6330   -15.8570     2.3500 
  227.6250    79.7560     8.2530     7.1460     9.0980    25.1170   -15.7870     2.3680 
  227.7500    74.3820     8.8300     7.6450    11.4170    24.3320   -15.7050     2.3850 
  227.8750    67.1140     9.1980     7.9640    12.1810    24.1550   -15.6320     2.3940 
  228.0000    60.4160     9.2490     8.0070    10.5740    24.2870   -15.5710     2.3890 
  228.1250    56.6630     8.9640     7.7610     9.3720    24.9500   -15.5160     2.3720 
  228.2500    56.8120     8.5880     7.4360     9.2350    24.6520   -15.4890     2.3490 
  228.3750    57.8910     8.3090     7.1940     8.5190    24.2670   -15.4800     2.3240 
  228.5000    58.9020     8.2100     7.1080     7.2930    24.5710   -15.4690     2.3010 
  228.6250    62.5380     8.2650     7.1560     6.6670    24.4610   -15.5100     2.2850 
  228.7500    66.6130     8.3630     7.2400     6.5610    24.2420   -15.5490     2.2810 
  228.8750    67.0120     8.4300     7.2990     6.8240    24.1960   -15.5780     2.2910 
  229.0000    63.4780     8.4740     7.3370     7.1370    24.2890   -15.6220     2.3100 
  229.1250    60.3120     8.5610     7.4120     7.2540    24.4590   -15.6260     2.3300 
  229.2500    59.8030     8.6930     7.5260     7.1150    24.7520   -15.6080     2.3420 
  229.3750    60.8400     8.8640     7.6750     6.8510    24.5320   -15.5990     2.3410 
  229.5000    61.8940     9.0280     7.8160     6.5890    23.9860   -15.5930     2.3280 
  229.6250    62.4880     9.0640     7.8480     6.3880    24.0000   -15.5580     2.3040 
  229.7500    62.2970     8.9540     7.7520     6.1550    24.2290   -15.5300     2.2780 
  229.8750    61.4760     8.7020     7.5340     6.2530    24.3910   -15.4780     2.2590 
