~V
VERS. 2.00: Ver 2.00
~W
STRT.M 45.0000:
STOP.M 264.0000:
STEP.M 0.1250:
NULL. -999.2500:
UWI. F11189:
~C
DEPT.M :
SP.MV :
GR.API :
RI. :
RML.OHMM :
RXO.OHMM :
DEN.GM/CC :
~A
# ...
  186.6250    -0.3880    66.4780    12.1830    10.6040    27.2520     2.2040 
  186.7500    -0.1750    72.7640     9.2950     8.1380    17.9180     2.2470 
  186.8750    -0.0500    80.3590     8.4240     7.5220    14.1830     2.2950 
  187.0000    -0.0250    86.2310     9.1840     8.3990    18.7040     2.3060 
  187.1250    -0.1140    88.2800    12.9840    12.0970    32.2400     2.2710 
  187.2500    -0.2980    82.6400    22.1300    21.5780    53.6500     2.2220 
  187.3750    -0.5530    72.5950    35.6950    35.2210    59.3170     2.1820 
  187.5000    -0.8400    67.4890    49.2370    48.7570    56.1220     2.1600 
  187.6250    -1.1270    68.4080    58.9040    58.2700    53.6230     2.1550 
  187.7500    -1.3930    70.1750    63.0880    62.0490    51.7040     2.1580 
  187.8750    -1.6160    70.2650    63.4260    62.4740    51.1330     2.1570 
  188.0000    -1.7900    70.1120    63.5060    62.8560    51.1820     2.1530 
  188.1250    -1.9080    69.1260    63.5370    63.3730    51.2060     2.1490 
  188.2500    -1.9790    66.9790    63.2620    63.7460    51.0300     2.1520 
  188.3750    -2.0100    65.5960    62.3010    63.4730    51.3050     2.1610 
  188.5000    -2.0160    65.3650    59.8700    61.5920    52.0990     2.1670 
  188.6250    -2.0010    65.4640    55.4200    57.3880    52.9400     2.1600 
  188.7500    -1.9650    64.7420    50.2170    52.2070    53.4820     2.1530 
  188.8750    -1.8980    65.3310    45.3580    47.2520    51.4480     2.1570 
  189.0000    -1.7980    69.2600    42.1120    43.8980    46.1520     2.1710 
  189.1250    -1.6620    73.8010    40.9230    42.6550    43.5680     2.1800 
  189.2500    -1.4980    74.5640    42.0140    43.7830    46.6840     2.1770 
  189.3750    -1.3220    70.9130    46.5390    48.3390    50.1220     2.1640 
  189.5000    -1.1500    66.9810    54.0040    55.5320    51.9320     2.1530 
  189.6250    -0.9930    64.0710    62.2900    63.0600    54.1790     2.1420 
  189.7500    -0.8570    61.8860    69.2020    68.6520    55.5880     2.1330 
  189.8750    -0.7440    61.3750    71.7100    69.5190    55.5450     2.1350 
  190.0000    -0.6460    61.9370    69.3470    65.6630    55.3840     2.1510 
  190.1250    -0.5580    62.6470    63.0120    58.5100    54.2760     2.1630 
  190.2500    -0.4710    61.8330    55.4530    50.4240    53.8060     2.1580 
  190.3750    -0.3850    60.1300    45.9920    41.0060    53.7180     2.1480 
  190.5000    -0.3010    59.0990    36.0670    31.7190    52.6690     2.1480 
  190.6250    -0.2290    59.9310    27.1220    23.5520    50.4610     2.1660 
  190.7500    -0.1810    63.8240    19.8820    17.3800    39.2470     2.2070 
  190.8750    -0.1770    70.4820    17.8840    15.8380    22.8670     2.2530 
  191.0000    -0.2320    77.5150    19.6980    17.7180    20.2220     2.2660 
  191.1250    -0.3570    79.0080    26.2310    24.1810    37.7350     2.2250 
  191.2500    -0.5400    73.5720    40.0330    37.8970    58.1480     2.1660 
  191.3750    -0.7610    67.0960    60.1690    57.7240    65.8180     2.1350 
  191.5000    -0.9860    64.6890    79.3520    76.2900    66.0580     2.1300 
  191.6250    -1.1850    64.3680    92.3180    88.9340    65.4350     2.1330 
  191.7500    -1.3440    62.6110    96.4490    93.0340    65.2680     2.1310 
  191.8750    -1.4550    60.7440    95.6620    93.0550    66.3930     2.1260 
  192.0000    -1.5250    59.7960    93.9980    92.5020    67.7990     2.1210 
  192.1250    -1.5570    58.6220    91.9920    91.5320    69.6140     2.1170 
  192.2500    -1.5650    58.5030    89.6550    89.9650    71.9720     2.1160 
  192.3750    -1.5560    59.4490    87.3790    88.2480    72.1110     2.1240 
  192.5000    -1.5420    58.8280    85.6700    86.9840    68.8440     2.1340 
  192.6250    -1.5260    58.0930    85.0390    86.5580    66.5620     2.1310 
  192.7500    -1.5110    60.6070    85.0270    86.3520    68.0770     2.1190 
  192.8750    -1.4930    63.2770    83.7710    84.2740    70.7170     2.1190 
  193.0000    -1.4680    61.5700    79.6730    78.9950    72.8520     2.1310 
  193.1250    -1.4310    58.4220    72.5880    70.8000    72.2370     2.1380 
  193.2500    -1.3800    57.8420    63.6530    61.0750    65.6770     2.1340 
  193.3750    -1.3180    59.8810    54.9800    52.1140    56.8900     2.1310 
  193.5000    -1.2520    62.2640    47.7820    44.9190    52.1500     2.1390 
  193.6250    -1.1890    64.7080    42.9590    40.2570    51.1610     2.1520 
  193.7500    -1.1340    65.9680    41.1220    38.6270    50.9320     2.1620 
  193.8750    -1.0870    66.9970    42.1090    39.7530    48.7420     2.1660 
  194.0000    -1.0400    68.0680    45.2990    43.0050    50.2350     2.1630 
  194.1250    -0.9890    67.6980    50.4310    48.0780    59.1140     2.1570 
  194.2500    -0.9320    66.2260    56.4570    53.8270    65.0190     2.1490 
  194.3750    -0.8750    65.8240    61.4820    58.4440    66.7800     2.1440 
  194.5000    -0.8270    65.7820    64.2550    60.7760    68.2210     2.1420 
  194.6250    -0.7970    65.6020    63.9960    60.2380    67.4370     2.1370 
  194.7500    -0.7860    65.1490    61.9850    58.2360    65.7610     2.1330 
  194.8750    -0.7910    64.0230    60.0350    56.4160    63.2900     2.1310 
  195.0000    -0.8020    62.3410    58.5100    55.0610    59.8510     2.1350 
  195.1250    -0.8140    62.5110    57.8730    54.5860    61.3740     2.1420 
  195.2500    -0.8250    65.3000    58.1520    54.9700    66.6080     2.1410 
  195.3750    -0.8350    67.8070    59.1640    56.0190    67.7630     2.1340 
  195.5000    -0.8450    68.1390    60.5250    57.3560    66.5740     2.1280 
  195.6250    -0.8540    67.7070    61.7910    58.5880    67.0660     2.1310 
  195.7500    -0.8610    67.2350    62.5970    59.3930    68.6760     2.1360 
  195.8750    -0.8650    66.3870    62.8470    59.7020    69.3840     2.1340 
  196.0000    -0.8610    65.3160    62.6660    59.6430    67.8370     2.1290 
  196.1250    -0.8420    64.7020    62.0420    59.2440    65.0310     2.1300 
  196.2500    -0.8060    66.7820    61.6260    59.2000    62.4750     2.1350 
  196.3750    -0.7550    68.5760    62.7940    60.9710    61.9210     2.1370 
  196.5000    -0.7010    67.2740    66.1390    65.0070    63.7350     2.1360 
  196.6250    -0.6570    63.3300    73.1950    72.8970    66.4210     2.1310 
  196.7500    -0.6290    60.1610    84.0730    85.0150    68.8260     2.1160 
  196.8750    -0.6180    59.2420    99.9650   102.8550    69.7420     2.0920 
  197.0000    -0.6130    59.1750   118.6320   123.8900    71.0820     2.0720 
  197.1250    -0.6050    58.8780   138.7820   146.4600    74.4090     2.0680 
  197.2500    -0.5850    57.7020   157.5410   166.7290    77.3310     2.0720 
  197.3750    -0.5500    57.1240   171.2290   180.5980    78.8560     2.0750 
  197.5000    -0.4970    59.0900   179.2670   187.6240    78.7530     2.0760 
  197.6250    -0.4260    61.3560   176.5350   182.2720    77.8660     2.0740 
  197.7500    -0.3390    60.2570   162.7670   164.8880    77.7940     2.0710 
  197.8750    -0.2340    57.3870   142.2770   141.5720    77.0940     2.0750 
  198.0000    -0.1110    56.9100   117.7350   115.0070    74.4770     2.0830 
  198.1250     0.0380    60.5040    96.9820    93.9230    69.3050     2.0900 
  198.2500     0.2130    65.0940    82.1560    79.2780    61.9130     2.0980 
  198.3750     0.4130    66.2950    73.0840    70.1340    56.6690     2.1170 
  198.5000     0.6280    63.2820    69.6160    66.5250    59.9950     2.1320 
  198.6250     0.8560    59.3150    69.6090    66.3000    69.7070     2.1230 
  198.7500     1.0970    57.3010    70.3750    66.6380    73.2610     2.1080 
  198.8750     1.3590    56.9170    68.7290    64.4140    67.3000     2.1140 
  199.0000     1.6430    58.5900    64.2150    59.4470    60.2610     2.1380 
  199.1250     1.9460    62.8020    56.5500    51.4210    55.8630     2.1660 
  199.2500     2.2560    67.7910    48.9210    43.7080    53.3980     2.1920 
  199.3750     2.5570    70.1460    41.7130    36.7940    49.2090     2.2100 
