~V
VERS. 2.00: Ver 2.00
~W
STRT.M 50.0000:
STOP.M 206.0000:
STEP.M 0.1250:
NULL. -999.2500:
UWI. F11107:
~C
DEPT.M :
DEN.GM/CC :
GR.API :
RML.OHMM :
RI. :
RXO.OHMM :
CALI.CM :
SP.MV :
~A
# ...
   83.7500     2.2830   106.0970     5.6000     4.7200     5.4800    25.8580    -9.2700 
   83.8750     2.2660   106.8930     5.8140     5.0120     5.5410    25.8580    -9.5740 
   84.0000     2.2490   107.0960     6.0210     5.2860     5.6590    25.8520    -9.8590 
   84.1250     2.2350   106.4950     6.1680     5.4690     6.0980    25.8360   -10.0320 
   84.2500     2.2250   106.2440     6.2340     5.5540     6.4450    25.8200   -10.1650 
   84.3750     2.2180   106.1410     6.2340     5.5710     6.2530    25.8230   -10.3200 
   84.5000     2.2130   103.9660     6.2090     5.5640     6.0330    25.8570   -10.4880 
   84.6250     2.2100   101.6660     6.2130     5.5720     6.1390    25.9080   -10.6330 
   84.7500     2.2100   101.4520     6.2590     5.6050     6.6580    25.9530   -10.7290 
   84.8750     2.2110   102.8030     6.3330     5.6520     7.2710    25.9530   -10.7890 
   85.0000     2.2110   104.0520     6.4070     5.6990     7.4830    25.9730   -10.8480 
   85.1250     2.2060   102.5080     6.4530     5.7290     7.3830    25.9870   -10.8910 
   85.2500     2.1980    98.7040     6.4660     5.7400     7.3180    25.9920   -10.9120 
   85.3750     2.1910    95.4030     6.4430     5.7270     7.3600    25.9640   -10.8920 
   85.5000     2.1910    97.1850     6.3850     5.6880     7.3580    25.8900   -10.8050 
   85.6250     2.2000   102.3680     6.2880     5.6200     7.0890    25.8000   -10.6240 
   85.7500     2.2160   105.3750     6.1780     5.5380     6.6850    25.7870   -10.3720 
   85.8750     2.2350   107.9160     6.0830     5.4580     6.3650    25.8640   -10.1070 
   86.0000     2.2540   110.8100     6.0330     5.3980     6.1960    25.9530    -9.8720 
   86.1250     2.2660   109.4040     6.0590     5.3800     6.1750    25.9840    -9.7100 
   86.2500     2.2690   104.8500     6.1400     5.4000     6.3540    25.9750    -9.6300 
   86.3750     2.2610   103.1750     6.2510     5.4460     6.5240    25.9480    -9.6610 
   86.5000     2.2410   105.5930     6.3590     5.4980     6.5310    25.9390    -9.8530 
   86.6250     2.2110   107.3840     6.4290     5.5270     6.5610    25.8590   -10.2090 
   86.7500     2.1810   105.0320     6.4520     5.5210     6.5520    25.6130   -10.6860 
   86.8750     2.1530    98.9400     6.4330     5.4750     6.5620    25.2320   -11.2780 
   87.0000     2.1270    93.8660     6.3970     5.4060     6.4990    24.8350   -11.9650 
   87.1250     2.1000    92.7370     6.4440     5.3730     6.4150    24.5000   -12.7310 
   87.2500     2.0780    92.7940     6.7190     5.4700     6.2660    24.1090   -13.4240 
   87.3750     2.0770    92.7230     7.4160     5.8220     6.2250    23.7800   -13.9290 
   87.5000     2.1160    94.1770     8.7410     6.5880     6.8340    23.6350   -14.2600 
   87.6250     2.2130    95.6070    10.9920     8.0620    10.2350    23.7920   -14.4460 
   87.7500     2.3420    91.1850    13.9890    10.2810    18.2750    24.2000   -14.5040 
   87.8750     2.4750    82.2410    17.3920    13.1670    28.8780    24.6490   -14.4110 
   88.0000     2.5840    74.4060    20.5660    16.3260    39.3270    24.9060   -14.2230 
   88.1250     2.6490    73.3820    22.4900    18.8580    41.3410    24.9620   -14.0400 
   88.2500     2.6750    76.4120    22.8280    20.0940    39.8410    25.0090   -13.9270 
   88.3750     2.6660    79.2390    21.6720    19.8310    36.3460    25.0570   -13.9790 
   88.5000     2.6280    77.9780    19.5030    18.3420    31.6080    25.0620   -14.2540 
   88.6250     2.5660    75.0110    16.9020    16.1150    28.6930    25.0140   -14.7940 
   88.7500     2.4950    74.3920    14.4000    13.7820    25.7230    24.7510   -15.5360 
   88.8750     2.4220    76.3240    12.2160    11.6420    21.5460    24.1650   -16.4280 
   89.0000     2.3510    77.2490    10.4720     9.8620    15.5770    23.3480   -17.4400 
   89.1250     2.2840    74.8580     9.3440     8.5780    10.6710    22.7800   -18.5080 
   89.2500     2.2260    73.3350     8.7090     7.6910     8.1630    22.4470   -19.5670 
   89.3750     2.1840    75.8600     8.4100     7.1300     7.2500    22.2880   -20.5660 
   89.5000     2.1580    81.1960     8.2680     6.8110     6.9900    22.1580   -21.4620 
   89.6250     2.1450    85.8520     8.1880     6.6740     6.8840    21.9600   -22.2250 
   89.7500     2.1340    86.4120     8.1410     6.6310     6.7200    21.7340   -22.8540 
   89.8750     2.1250    82.3620     8.1200     6.6470     6.5400    21.6730   -23.3450 
   90.0000     2.1230    77.2560     8.1260     6.6980     6.6070    21.7910   -23.6530 
   90.1250     2.1340    76.0640     8.1600     6.7650     7.2550    21.8940   -23.8270 
   90.2500     2.1530    79.1690     8.1940     6.8270     8.5140    21.9310   -23.9830 
   90.3750     2.1740    83.3720     8.2020     6.8680     9.4400    21.9290   -24.0740 
   90.5000     2.1880    85.0080     8.1700     6.8790     8.8190    21.9280   -24.0680 
   90.6250     2.1910    82.4740     8.1000     6.8520     8.3320    21.9340   -23.9950 
   90.7500     2.1880    78.5560     8.0240     6.8050     7.9940    21.9280   -23.9490 
   90.8750     2.1810    76.2950     7.9640     6.7540     7.7730    21.9190   -23.9260 
   91.0000     2.1720    76.0420     7.9330     6.7130     7.4750    21.9240   -23.9040 
   91.1250     2.1640    76.6790     7.9320     6.6910     7.1260    22.0110   -23.8960 
   91.2500     2.1600    77.2250     7.9430     6.6840     7.0280    22.0390   -23.8910 
   91.3750     2.1610    76.6780     7.9550     6.6900     7.1580    22.0570   -23.9000 
   91.5000     2.1660    75.4400     7.9600     6.7040     7.3500    22.0960   -23.8850 
   91.6250     2.1740    74.0800     7.9410     6.7130     7.5220    22.1820   -23.8040 
   91.7500     2.1830    73.4450     7.8840     6.6960     7.3930    22.2560   -23.6960 
   91.8750     2.1880    75.2570     7.7720     6.6310     7.1820    22.3320   -23.5420 
   92.0000     2.1890    80.4590     7.6010     6.5050     6.9770    22.4390   -23.3110 
   92.1250     2.1810    86.2860     7.3830     6.3160     6.6840    22.6060   -23.0290 
   92.2500     2.1680    89.7660     7.1600     6.1010     6.2220    22.8400   -22.7470 
   92.3750     2.1540    89.9920     6.9600     5.8950     5.8190    23.0180   -22.4510 
   92.5000     2.1440    86.9060     6.7990     5.7230     5.6870    23.1160   -22.1580 
   92.6250     2.1420    83.3070     6.6810     5.6070     5.7350    23.1660   -21.9320 
   92.7500     2.1430    83.8910     6.5970     5.5330     5.8230    23.1800   -21.7280 
   92.8750     2.1430    89.6610     6.5530     5.4980     5.9380    23.1650   -21.6060 
   93.0000     2.1390    96.3730     6.5700     5.5060     5.9820    23.0860   -21.6090 
   93.1250     2.1370    96.4490     6.6990     5.5920     5.8380    23.0040   -21.6650 
   93.2500     2.1480    91.1640     6.9390     5.7680     5.8110    23.1010   -21.7430 
   93.3750     2.1730    84.8850     7.2700     6.0300     6.4670    23.2230   -21.8480 
   93.5000     2.2040    80.4490     7.6240     6.3410     8.1920    23.0280   -21.9560 
   93.6250     2.2260    77.8780     7.8510     6.5900    10.2340    22.6660   -21.9580 
   93.7500     2.2290    79.1830     7.8330     6.6630     9.3350    22.4960   -21.8410 
   93.8750     2.2210    86.3520     7.5150     6.4890     7.9560    22.4770   -21.5990 
   94.0000     2.2170    95.0420     6.9510     6.0810     6.9530    22.5360   -21.2000 
   94.1250     2.2320   100.0620     6.3050     5.5460     6.3010    22.6960   -20.6440 
   94.2500     2.2570   100.9040     5.7910     5.0640     5.5050    23.0170   -20.0490 
   94.3750     2.2760    98.9470     5.5390     4.7530     4.6680    23.4700   -19.5500 
   94.5000     2.2760    96.8560     5.6080     4.6800     4.5430    23.6850   -19.2160 
   94.6250     2.2570    95.8180     6.0360     4.9060     5.3340    23.3590   -19.1350 
   94.7500     2.2410    93.6460     6.6890     5.3580     6.3430    22.7760   -19.2890 
   94.8750     2.2460    89.4100     7.4500     5.9650     7.0690    22.4130   -19.6360 
