~V
VERS. 2.00: Ver 2.00
~W
STRT.M 40.0000:
STOP.M 206.0000:
STEP.M 0.1250:
NULL. -999.2500:
UWI. F11104:
~C
DEPT.M :
GR.API :
RML.OHMM :
RI. :
RXO.OHMM :
CALI.CM :
SP.MV :
DEN.GM/CC :
~A
# ...
  130.0000    48.4620    24.0430    20.9370    24.8580    27.9770   -10.6150     2.5470 
  130.1250    47.2030    23.7020    20.6990    25.8050    27.9740   -10.7470     2.5380 
  130.2500    47.6370    23.1250    20.2910    24.6450    27.9740   -10.8530     2.5300 
  130.3750    50.3510    22.2270    19.6640    22.3680    27.9770   -10.9220     2.5230 
  130.5000    52.3040    20.9760    18.7920    20.2190    27.9780   -10.9650     2.5130 
  130.6250    52.9700    19.4550    17.7120    20.0130    27.9730   -10.9990     2.4980 
  130.7500    54.7610    17.9840    16.6320    19.6340    27.9770   -11.0480     2.4840 
  130.8750    56.9450    16.8800    15.7630    17.8800    28.0170   -11.1340     2.4850 
  131.0000    59.2730    16.4120    15.2940    14.8260    28.1070   -11.2650     2.5040 
  131.1250    61.1610    16.8110    15.4030    14.4430    28.2210   -11.4430     2.5230 
  131.2500    61.5490    17.8050    15.9410    15.9550    28.3010   -11.6120     2.5220 
  131.3750    59.7920    19.0450    16.7050    19.2300    28.3640   -11.7260     2.5010 
  131.5000    56.2500    20.0540    17.3910    23.6520    28.5210   -11.7630     2.4790 
  131.6250    52.2610    20.2830    17.6100    24.1560    28.7960   -11.7150     2.4790 
  131.7500    49.7920    19.8020    17.3440    21.0970    28.9710   -11.6150     2.4960 
  131.8750    49.6850    18.9450    16.7730    17.6150    28.9310   -11.4860     2.5050 
  132.0000    51.2160    18.1350    16.1700    16.3180    28.7710   -11.3520     2.4890 
  132.1250    52.2360    17.7290    15.7930    17.3170    28.7380   -11.2400     2.4530 
  132.2500    51.0250    17.7290    15.6890    17.3640    28.8990   -11.1570     2.4260 
  132.3750    48.2890    18.0450    15.8250    17.0640    29.0350   -11.0950     2.4240 
  132.5000    46.9370    18.5610    16.1290    17.8670    28.8840   -11.0220     2.4410 
  132.6250    50.0620    19.1780    16.5390    19.0190    28.4540   -10.9120     2.4580 
  132.7500    53.4290    19.8030    16.9840    19.8760    28.1260   -10.7810     2.4640 
  132.8750    53.9010    20.3690    17.4190    20.4060    28.0020   -10.6440     2.4640 
  133.0000    53.4880    20.8140    17.7930    21.3510    27.9350   -10.5200     2.4670 
  133.1250    55.3160    21.0620    18.0390    22.4480    27.8610   -10.4420     2.4770 
  133.2500    57.1780    21.0840    18.1230    23.3110    27.8260   -10.4390     2.4900 
  133.3750    56.8920    20.7820    17.9690    22.9930    27.8250   -10.5050     2.5030 
  133.5000    56.2770    20.0460    17.4960    21.2070    27.8310   -10.6130     2.5140 
  133.6250    56.1690    18.8070    16.6410    20.6140    27.8340   -10.7150     2.5180 
  133.7500    55.6510    17.3330    15.5850    20.0570    27.8350   -10.7750     2.5150 
  133.8750    54.0120    15.8940    14.5150    17.6250    27.8310   -10.7830     2.5100 
  134.0000    51.3730    14.7380    13.6090    14.2990    27.8240   -10.7510     2.5090 
  134.1250    47.8400    14.0960    13.0390    12.8870    27.8160   -10.6920     2.5190 
  134.2500    45.4310    13.8880    12.7770    13.5110    27.8290   -10.6480     2.5320 
  134.3750    46.3280    13.9930    12.7590    14.8590    27.8930   -10.6440     2.5450 
  134.5000    49.4080    14.2470    12.8840    14.8240    27.9990   -10.7030     2.5530 
  134.6250    50.1730    14.4790    13.0400    14.6210    28.0980   -10.8220     2.5540 
  134.7500    49.1560    14.6030    13.1470    15.1390    28.1670   -10.9510     2.5480 
  134.8750    49.3830    14.6570    13.2110    14.9140    28.2200   -11.0550     2.5400 
  135.0000    50.6400    14.7660    13.3000    14.2040    28.2910   -11.1150     2.5350 
  135.1250    51.8050    15.1020    13.5250    14.8320    28.3940   -11.1310     2.5300 
  135.2500    53.2970    15.6750    13.9020    16.0600    28.5160   -11.1370     2.5160 
  135.3750    55.5160    16.4510    14.4150    16.9000    28.6480   -11.1610     2.4900 
  135.5000    58.3080    17.3570    15.0250    17.7040    28.7820   -11.2160     2.4570 
  135.6250    61.3310    18.2710    15.6680    20.2060    28.9120   -11.3240     2.4360 
  135.7500    64.2640    19.0910    16.2710    20.7250    29.0070   -11.4790     2.4410 
  135.8750    64.9320    19.8050    16.8120    20.2540    29.0400   -11.6570     2.4740 
  136.0000    63.5580    20.4170    17.2830    19.8250    29.0150   -11.8250     2.5110 
  136.1250    64.4430    20.8470    17.6180    21.4190    28.9710   -11.9630     2.5050 
  136.2500    66.1420    21.0190    17.7670    22.7630    28.9840   -12.0650     2.4490 
  136.3750    65.3690    20.8580    17.6870    23.6890    29.1640   -12.1410     2.3640 
  136.5000    61.5430    20.3420    17.3700    23.8150    29.6660   -12.2090     2.2850 
  136.6250    58.6690    19.5430    16.8550    20.6720    30.4920   -12.3010     2.2490 
  136.7500    57.8230    18.7280    16.3100    18.0300    31.2040   -12.4350     2.2560 
  136.8750    55.9200    18.0960    15.8660    16.5720    31.3440   -12.6280     2.2900 
  137.0000    54.2380    17.7740    15.6100    15.7000    30.8380   -12.8690     2.3260 
  137.1250    56.6820    17.8750    15.6340    15.8570    30.1610   -13.1310     2.3520 
  137.2500    59.5820    18.3320    15.9060    16.7250    29.8070   -13.3760     2.3830 
  137.3750    59.4470    19.0610    16.3830    18.5780    29.7570   -13.5980     2.4330 
  137.5000    57.2980    19.8780    16.9530    19.9080    29.7720   -13.7970     2.4870 
  137.6250    56.7200    20.4220    17.3830    20.2550    29.7500   -13.9850     2.5060 
  137.7500    56.9020    20.4500    17.4880    20.5570    29.7450   -14.1950     2.4780 
  137.8750    57.3090    19.9180    17.2090    21.0130    29.7720   -14.4500     2.4210 
  138.0000    60.4290    19.0130    16.6480    19.9560    29.8270   -14.7650     2.3600 
  138.1250    66.1410    18.1380    16.0440    16.8410    29.8790   -15.1330     2.3140 
  138.2500    70.0310    17.6640    15.6550    15.2580    29.8930   -15.4980     2.2860 
  138.3750    68.8160    17.7920    15.6320    16.3970    29.8940   -15.8210     2.2670 
  138.5000    65.1740    18.6190    16.0600    17.8730    30.0040   -16.0640     2.2490 
  138.6250    64.7420    20.2380    17.0320    19.1400    30.3940   -16.2080     2.2260 
  138.7500    65.9020    22.3080    18.3580    20.2700    30.9340   -16.2830     2.1990 
  138.8750    64.3560    24.4070    19.7960    22.5320    31.4080   -16.3070     2.1730 
  139.0000    60.6280    26.0020    21.0070    28.9090    31.6900   -16.3150     2.1510 
  139.1250    59.0960    26.4550    21.5510    37.1650    31.7950   -16.3430     2.1430 
  139.2500    60.8720    25.8580    21.4080    36.9160    31.8050   -16.4160     2.1490 
  139.3750    63.8840    24.5680    20.7410    28.9610    31.7530   -16.5370     2.1670 
  139.5000    65.9710    23.1080    19.8560    23.1310    31.6980   -16.6960     2.1910 
  139.6250    65.4420    21.9530    19.0650    21.5070    31.6800   -16.8830     2.2140 
  139.7500    63.6020    21.1650    18.4750    21.3620    31.6830   -17.0790     2.2300 
  139.8750    62.2620    20.6540    18.0640    22.0290    31.7070   -17.2830     2.2380 
  140.0000    62.8210    20.3390    17.7980    22.3400    31.7560   -17.5030     2.2340 
  140.1250    64.8820    20.3250    17.7360    23.1790    31.8200   -17.7410     2.2180 
  140.2500    65.7750    20.7690    17.9600    23.2530    31.8850   -17.9990     2.1930 
  140.3750    65.0350    21.8210    18.5650    22.2300    31.9440   -18.2710     2.1650 
  140.5000    63.5770    23.4160    19.5350    22.8660    31.9850   -18.5380     2.1440 
  140.6250    61.9500    25.0900    20.6290    27.3600    31.9820   -18.7670     2.1410 
  140.7500    61.6690    26.1280    21.4020    30.8970    31.9370   -18.9340     2.1530 
  140.8750    63.1640    26.1200    21.5660    30.2560    31.8770   -19.0130     2.1700 
  141.0000    65.7210    25.1700    21.1310    29.0560    31.8340   -18.9840     2.1800 
  141.1250    66.6770    23.8800    20.4030    26.8300    31.8280   -18.8440     2.1760 
