~V
VERS. 2.00: Ver 2.00
~W
STRT.M 51.0000:
STOP.M 249.0000:
STEP.M 0.1250:
NULL. -999.2500:
UWI. F11143:
~C
DEPT.M :
GR.API :
RML.OHMM :
RI. :
RXO.OHMM :
CALI.CM :
SP.MV :
DEN.GM/CC :
~A
   51.0000  -999.2500  -999.2500  -999.2500  -999.2500  -999.2500     0.0000  -999.2500 
   51.1250  -999.2500  -999.2500  -999.2500  -999.2500  -999.2500     7.5760  -999.2500 
   51.2500  -999.2500  -999.2500  -999.2500  -999.2500  -999.2500    29.3240  -999.2500 
   51.3750  -999.2500  -999.2500  -999.2500  -999.2500  -999.2500    26.8850  -999.2500 
   51.5000  -999.2500  -999.2500  -999.2500  -999.2500  -999.2500    24.4600  -999.2500 
   51.6250  -999.2500  -999.2500  -999.2500  -999.2500  -999.2500    22.2020  -999.2500 
   51.7500  -999.2500  -999.2500  -999.2500  -999.2500  -999.2500    20.3530  -999.2500 
   51.8750  -999.2500  -999.2500  -999.2500  -999.2500  -999.2500    18.9020  -999.2500 
   52.0000  -999.2500  -999.2500  -999.2500  -999.2500  -999.2500    17.7290  -999.2500 
   52.1250  -999.2500  -999.2500  -999.2500  -999.2500  -999.2500    16.7730  -999.2500 
   52.2500  -999.2500  -999.2500  -999.2500  -999.2500  -999.2500    16.0750  -999.2500 
   52.3750  -999.2500  -999.2500  -999.2500  -999.2500  -999.2500    15.6280  -999.2500 
   52.5000  -999.2500  -999.2500  -999.2500  -999.2500  -999.2500    15.4220  -999.2500 
   52.6250  -999.2500  -999.2500  -999.2500  -999.2500  -999.2500    15.4970  -999.2500 
   52.7500  -999.2500  -999.2500  -999.2500  -999.2500  -999.2500    15.7490  -999.2500 
   52.8750  -999.2500  -999.2500  -999.2500  -999.2500  -999.2500    16.0880  -999.2500 
   53.0000  -999.2500  -999.2500  -999.2500  -999.2500  -999.2500    16.4360  -999.2500 
   53.1250  -999.2500  -999.2500  -999.2500  -999.2500  -999.2500    16.7810  -999.2500 
   53.2500  -999.2500  -999.2500  -999.2500  -999.2500  -999.2500    17.1290  -999.2500 
   53.3750  -999.2500  -999.2500  -999.2500  -999.2500  -999.2500    17.5370  -999.2500 
   53.5000    38.5490     1.5520     0.5900    21.7540    25.2600    18.0660  -999.2500 
   53.6250    38.5490     1.5520     0.5900    21.7540    25.2600    18.6550  -999.2500 
   53.7500    41.0890     1.5020     0.6000    21.6440    25.2550    19.1830  -999.2500 
   53.8750    41.8280     1.5430     0.6190    22.9250    25.2610    19.6250  -999.2500 
   54.0000    39.6550     1.6160     0.6430    19.9480    25.2770    20.0260  -999.2500 
   54.1250    36.8410     1.6450     0.6650    11.2490    25.2850    20.4060  -999.2500 
   54.2500    35.7380     1.6290     0.6770     4.6270    25.2890    20.6240     0.0000 
   54.3750    37.5260     1.6010     0.6790     1.3670    25.2920    20.5590     0.0000 
   54.5000    40.6700     1.5820     0.6760     0.4070    25.2940    20.2340     0.0000 
   54.6250    41.3200     1.5650     0.6760     0.3010    25.2930    19.8160     0.0000 
   54.7500    39.8000     1.5500     0.6770     0.3740    25.2940    19.3980     0.0000 
   54.8750    40.2400     1.5950     0.6770     0.4600    25.2930    19.0350     1.5100 
   55.0000    43.5560     1.7970     0.6770     0.4760    25.2990    18.7520     1.9780 
   55.1250    46.2770     2.3600     0.6760     0.2570    25.3120    18.5310     1.9500 
   55.2500    48.3970     3.5250     0.6730    -0.0470    25.3260    18.2820     1.9450 
   55.3750    51.4790     5.8520     0.6680    -0.1950    25.3210    17.8460     1.9560 
   55.5000    53.8160    10.1120     0.6640    -0.2230    25.3060    17.1350     1.9750 
   55.6250    54.0360    15.0300     0.6620    -0.0100    25.2990    16.0530     1.9990 
   55.7500    52.7990    16.8670     0.6610     0.2350    25.2990    14.7670     2.0210 
   55.8750    49.4120    17.0240     0.6590     0.3410    25.3040    13.3570     2.0400 
   56.0000    44.4070    17.8540     0.6540     0.3380    25.3070    11.8070     2.0510 
   56.1250    41.6970    19.1690     0.6470     0.4090    25.3010    10.1060     2.0500 
   56.2500    41.3770    19.4330     0.6420     0.6640    25.2980     8.5210     2.0420 
   56.3750    41.7130    18.3700     0.6460     0.8220    25.2980     7.2510     2.0340 
   56.5000    42.6520    17.3520     0.6550     0.4130    25.2990     6.2170     2.0270 
   56.6250    44.0280    18.3640     0.6670    -0.1800    25.3040     5.2270     2.0210 
   56.7500    43.9060    22.0940     0.6800    -0.3390    25.3090     4.0810     2.0190 
   56.8750    43.3500    26.9760     0.6900    -0.3860    25.3080     2.6330     2.0220 
   57.0000    43.9550    25.3610     0.6980    -0.4030    25.3020     0.9690     2.0260 
   57.1250    43.9240    16.0740     0.7060    -0.4130    25.2980    -0.7650     2.0160 
   57.2500    42.1920     9.6670     0.7110    -0.4090    25.2970    -2.6320     1.9980 
   57.3750    40.8480     6.6800     0.7100    -0.3990    25.2970    -4.5820     1.9810 
   57.5000    41.9960     5.5200     0.7050    -0.3910    25.2980    -6.4040     1.9670 
   57.6250    43.2980     5.4770     0.7020    -0.3840    25.3120    -7.8470     1.9440 
   57.7500    43.0620     6.2080     0.7060    -0.3650    25.3190    -8.8940     1.9140 
   57.8750    42.2750     8.0500     0.7140    -0.3140    25.3110    -9.4500     1.8890 
   58.0000    41.8730    12.1730     0.7220    -0.2120    25.2960    -9.4980     1.8790 
   58.1250    41.9920    24.7750     0.7220     0.0080    25.2850    -9.1950     1.8780 
   58.2500    43.6440    46.8190     0.7140     0.2690    25.2720    -8.8110     1.8760 
   58.3750    47.3560    35.8410     0.6940     0.1140    25.2550    -8.3390     1.8690 
   58.5000    48.8390    12.6070     0.6590    -0.0530    25.2450    -7.7330     1.8610 
   58.6250    45.4960     5.8970     0.6040    -0.0530    25.2450    -6.9410     1.8560 
   58.7500    43.0700     3.5110     0.5450     0.0690    25.2440    -5.8680     1.8540 
   58.8750    46.3260     2.6080     0.4940     0.2940    25.2400    -4.4560     1.8510 
   59.0000    53.5050     2.3270     0.4620     0.4420    25.2360    -2.6790     1.8480 
   59.1250    56.6640     2.3650     0.4500     0.6720    25.2250    -0.3190     1.8470 
   59.2500    55.0400     2.4870     0.4450     1.1320    25.1900     2.7170     1.8490 
   59.3750    52.2640     2.5810     0.4420     1.6280    25.1170     6.4910     1.8550 
   59.5000    52.0110     2.6010     0.4380     1.8050    25.0480    10.9330     1.8630 
   59.6250    54.6150     2.5250     0.4350     2.1280    25.0180    16.0770     1.8730 
   59.7500    56.5560     2.3590     0.4320     2.8090    25.0060    21.5780     1.8870 
   59.8750    58.0130     2.1240     0.4300     2.9140    25.0000    27.1340     1.9120 
   60.0000    58.0910     1.8800     0.4260     2.3200    24.9740    32.4420     1.9490 
   60.1250    55.1780     1.7030     0.4140     1.8730    24.9030    37.0460     2.0010 
   60.2500    52.5100     1.5640     0.3900     1.6930    24.8210    40.8750     2.0680 
   60.3750    52.4230     1.3550     0.3490     1.4980    24.7700    43.7920     2.1510 
   60.5000    54.5590     0.9950     0.2860     1.1060    24.7320    45.6750     2.2490 
   60.6250    55.2520     0.6060     0.2120     0.7150    24.6440    46.0220     2.3380 
   60.7500    54.7210     0.3460     0.1490     0.6510    24.4250    44.8390     2.3960 
   60.8750    54.7060     0.2210     0.1070     0.8390    24.0550    42.0500     2.4220 
   61.0000    55.3010     0.1990     0.0930     1.1380    23.6900    37.7230     2.4100 
   61.1250    56.1400     0.2870     0.1280     1.5890    23.8990    32.2030     2.2810 
   61.2500    57.0820     0.5170     0.2530     2.2960    25.2550    26.1110     2.0750 
   61.3750    58.2020     0.9830     0.5490     3.7790    27.0710    19.6590     1.9280 
   61.5000    61.2210     1.7940     1.1120     5.3640    26.9580    13.0350     1.8970 
   61.6250    68.0990     3.0210     2.0730     6.9900    25.0590     6.5930     1.9840 
   61.7500    74.0930     4.3160     3.2940     8.0550    23.3990     0.6360     2.1040 
   61.8750    74.5990     5.2780     4.5660     8.5890    22.7410    -4.4460     2.1800 
   62.0000    69.0160     5.8430     5.7140     8.6000    22.5760    -8.4850     2.1900 
   62.1250    63.3030     6.2930     6.6830     9.5370    22.5880   -11.5110     2.1700 
