~V
VERS. 2.00: Ver 2.00
~W
STRT.M 40.0000:
STOP.M 206.0000:
STEP.M 0.1250:
NULL. -999.2500:
UWI. F11104:
~C
DEPT.M :
GR.API :
RML.OHMM :
RI. :
RXO.OHMM :
CALI.CM :
SP.MV :
DEN.GM/CC :
~A
# ...
  163.7500    62.3810    52.6770    53.4080    65.1180    25.1390   -15.3620     2.2760 
  163.8750    62.1300    46.7240    49.2550    56.9900    25.1320   -15.3600     2.2690 
  164.0000    64.8190    41.4710    45.0950    48.2720    25.1350   -15.3850     2.2410 
  164.1250    68.1660    38.3150    42.1610    42.3380    25.1360   -15.4590     2.2040 
  164.2500    67.2520    37.4550    40.8870    42.1540    25.1460   -15.5330     2.1810 
  164.3750    63.8450    39.1620    41.5500    41.6950    25.1610   -15.5730     2.1830 
  164.5000    61.5130    43.6420    44.2650    40.4900    25.0500   -15.5780     2.2040 
  164.6250    62.6550    51.2740    49.1470    42.7550    24.5520   -15.5840     2.2220 
  164.7500    64.7160    61.5290    55.1430    44.7700    23.8600   -15.5830     2.2200 
  164.8750    64.2740    70.3090    61.1380    44.1660    23.3360   -15.5580     2.2040 
  165.0000    62.1140    75.8420    65.9500    41.9450    23.1620   -15.5230     2.1880 
  165.1250    62.6520    78.7580    68.4850    37.4540    23.2420   -15.5060     2.1910 
  165.2500    64.9710    79.5430    69.1680    33.6810    23.3230   -15.5050     2.2100 
  165.3750    65.3820    78.8680    68.5810    32.7740    23.2910   -15.5070     2.2320 
  165.5000    61.7660    77.3580    67.2680    33.6680    23.1230   -15.4940     2.2440 
  165.6250    58.5490    75.3340    65.5070    33.0310    22.9410   -15.4820     2.2330 
  165.7500    58.4970    73.1590    63.6170    29.7650    22.8440   -15.4760     2.2100 
  165.8750    59.5490    71.1640    61.8820    25.4740    22.7950   -15.4590     2.1860 
  166.0000    60.1380    69.7140    60.6210    21.1930    22.7580   -15.4050     2.1730 
  166.1250    61.4410    69.2420    60.2100    18.8980    22.7510   -15.3300     2.1760 
  166.2500    62.4370    69.6230    60.5420    18.2870    22.7520   -15.2870     2.1890 
  166.3750    60.0970    70.5990    61.3910    19.4820    22.7560   -15.2800     2.2040 
  166.5000    55.8130    71.6720    62.3240    21.8830    22.7880   -15.2980     2.2200 
  166.6250    57.0590    71.7250    62.3700    26.6180    22.8650   -15.3290     2.2420 
  166.7500    63.2310    69.7580    60.6590    30.9470    22.9690   -15.3920     2.2730 
  166.8750    67.5780    65.2510    56.7400    36.7250    23.0750   -15.5020     2.3050 
  167.0000    68.0080    58.6830    51.0290    45.8650    23.1570   -15.6330     2.3220 
  167.1250    68.2690    51.5990    44.8690    51.9390    23.1900   -15.7340     2.3100 
  167.2500    70.8030    45.8170    39.8410    45.4630    23.2060   -15.8080     2.2760 
  167.3750    74.1910    42.3020    36.7840    31.8890    23.1700   -15.8930     2.2350 
  167.5000    75.2780    41.3770    35.9800    22.5640    22.9940   -16.0230     2.2010 
  167.6250    73.3350    43.1390    37.5120    19.9660    22.6470   -16.1880     2.1850 
  167.7500    71.3200    46.3590    40.3120    19.2760    22.3110   -16.3560     2.1860 
  167.8750    70.5080    49.8070    43.3110    20.4320    22.1600   -16.5290     2.2050 
  168.0000    70.8250    52.1850    45.3790    23.1600    22.2690   -16.7320     2.2370 
  168.1250    69.9370    52.6580    45.7900    26.4920    22.5520   -16.9610     2.2570 
  168.2500    69.7020    52.3140    45.4910    29.4220    22.7830   -17.1470     2.2420 
  168.3750    70.6350    52.4320    45.5930    34.3310    22.9830   -17.2680     2.1890 
  168.5000    71.1320    53.9930    46.9510    46.7250    23.3920   -17.3350     2.1190 
  168.6250    68.1820    57.5970    50.0840    77.5400    24.1100   -17.3970     2.0680 
  168.7500    63.2310    62.3930    54.2550   112.7250    24.7690   -17.4490     2.0600 
  168.8750    60.5810    67.2920    58.5150   125.4890    25.0470   -17.4610     2.0990 
  169.0000    61.5680    71.0860    61.8140   133.1640    24.8220   -17.4230     2.1630 
  169.1250    65.5250    72.7540    63.2640   137.4610    24.2270   -17.3690     2.2150 
  169.2500    70.7840    72.9000    63.3910   140.2190    23.6560   -17.3360     2.2440 
  169.3750    73.6590    72.3150    62.8820   139.4850    23.3060   -17.3030     2.2570 
  169.5000    70.4520    71.7180    62.3630   134.1340    23.1350   -17.2400     2.2670 
  169.6250    63.9250    71.5220    62.1930   122.3720    23.0110   -17.1660     2.2830 
  169.7500    62.8270    71.5490    62.2170   115.8010    22.8880   -17.1340     2.3060 
  169.8750    66.9080    71.4180    62.1020   112.2810    22.7050   -17.1690     2.3220 
  170.0000    70.4630    70.7780    61.5460   110.0900    22.4270   -17.2490     2.3140 
  170.1250    70.9600    69.5170    60.4500    86.6690    22.1560   -17.3340     2.2710 
  170.2500    69.5730    68.0270    59.1540    40.7720    22.0130   -17.4220     2.2140 
  170.3750    67.6380    66.5340    57.8560    39.8640    22.0000   -17.5400     2.1640 
  170.5000    66.6270    65.0030    56.5250    36.2580    22.0520   -17.6790     2.1380 
  170.6250    65.6400    63.1280    54.8940    34.3990    22.1110   -17.7800     2.1430 
  170.7500    63.4520    60.8220    52.8890    34.0340    22.1330   -17.8310     2.1650 
  170.8750    62.7620    58.2980    50.6940    30.9450    22.1130   -17.8690     2.1970 
  171.0000    64.9530    56.0530    48.7420    26.7040    22.0830   -17.9290     2.2380 
  171.1250    66.6420    54.9840    47.8120    24.5660    22.0730   -17.9930     2.2750 
  171.2500    65.8820    55.5430    48.2990    25.4370    22.0740   -18.0350     2.2720 
  171.3750    64.8740    58.0350    50.4650    27.6590    22.0780   -18.0650     2.2160 
  171.5000    63.8580    62.4980    54.3460    27.2600    22.0670   -18.1080     2.1230 
  171.6250    61.8350    68.8180    59.8420    24.7440    22.0580   -18.1620     2.0300 
  171.7500    59.8890    75.8800    65.9820    23.7860    22.3170   -18.1880     1.9740 
  171.8750    58.2320    82.6660    71.8840    24.7240    23.0520   -18.1780     1.9790 
  172.0000    56.3630    88.1540    76.6560    25.7310    23.9110   -18.1550     2.0470 
  172.1250    56.5690    91.0240    79.1520    26.3800    24.0340   -18.1500     2.1330 
  172.2500    57.3920    91.1620    79.2720    28.3200    23.4470   -18.1390     2.1770 
  172.3750    57.3900    88.8430    77.2540    31.5370    22.7780   -18.0880     2.1660 
  172.5000    56.6060    84.8190    73.7560    35.5240    22.4560   -18.0020     2.1160 
  172.6250    56.4450    79.7600    69.3570    37.0120    22.4090   -17.9270     2.0510 
  172.7500    57.3080    74.2580    64.5730    40.7330    22.6800   -17.8810     2.0020 
  172.8750    58.1390    68.5440    59.6040    49.5590    23.6560   -17.8300     1.9850 
  173.0000    58.1490    62.9180    54.7110    41.7180    25.2570   -17.7510     2.0020 
  173.1250    59.3140    57.9930    50.4290    38.1480    26.3410   -17.6760     2.0500 
  173.2500    62.4950    54.2400    47.1650    35.6980    25.9750   -17.6270     2.1070 
  173.3750    65.9340    51.9950    45.2130    34.5180    24.4660   -17.5740     2.1550 
  173.5000    66.0650    51.3180    44.6250    33.5940    22.9500   -17.4900     2.1840 
  173.6250    63.4020    52.1280    45.3280    32.4500    22.3690   -17.3830     2.2040 
  173.7500    63.7330    53.6440    46.6470    30.7200    22.3630   -17.2870     2.2250 
  173.8750    67.8530    55.3010    48.0880    30.5920    22.4490   -17.2200     2.2460 
  174.0000    71.7110    56.7130    49.3160    30.6210    22.4510   -17.1800     2.2580 
  174.1250    70.7460    57.8330    50.2900    30.9920    22.3810   -17.1380     2.2510 
  174.2500    67.8230    58.9930    51.2980    32.1350    22.2020   -17.1010     2.2330 
  174.3750    66.3380    60.3970    52.5190    34.1020    21.9470   -17.0860     2.2200 
  174.5000    65.9310    62.0540    53.9600    35.6330    21.7170   -17.0870     2.2210 
  174.6250    66.6210    63.8610    55.5310    35.8530    21.5960   -17.0530     2.2370 
  174.7500    67.8810    65.7280    57.1550    34.7380    21.5400   -16.9930     2.2540 
  174.8750    67.5210    67.7060    58.8750    33.2430    21.5050   -16.9400     2.2570 
