~V
VERS. 2.00: Ver 2.00
~W
STRT.M 45.0000:
STOP.M 270.0000:
STEP.M 0.1250:
NULL. -999.2500:
UWI. F11186:
~C
DEPT.M :
SP.MV :
GR.API :
RI. :
RML.OHMM :
RXO.OHMM :
DEN.GM/CC :
~A
# ...
  225.2500   -25.3230    62.3290    17.8500    18.1460    19.8730     2.1250 
  225.3750   -25.1920    61.8270    18.8730    19.1390    16.9990     2.1530 
  225.5000   -25.0170    63.3650    19.4390    19.6180    16.9900     2.1640 
  225.6250   -24.8090    65.0130    19.1660    19.2610    17.0320     2.1510 
  225.7500   -24.5910    65.8210    18.4390    18.4770    17.5910     2.1260 
  225.8750   -24.3820    65.8650    17.4460    17.4710    17.2440     2.1140 
  226.0000   -24.2030    65.4490    16.4050    16.4250    16.2400     2.1160 
  226.1250   -24.0750    64.0880    15.5260    15.5870    16.8890     2.1200 
  226.2500   -24.0070    62.3820    14.9330    15.0340    16.9650     2.1190 
  226.3750   -24.0130    62.9650    14.6140    14.7470    14.9370     2.1200 
  226.5000   -24.0830    65.4010    14.5420    14.7340    13.8670     2.1250 
  226.6250   -24.2090    66.7260    14.6960    14.9520    15.0900     2.1240 
  226.7500   -24.3610    64.6660    15.0360    15.3990    16.1230     2.1180 
  226.8750   -24.5110    62.0230    15.5450    16.0010    15.0580     2.1110 
  227.0000   -24.6360    61.1260    15.9180    16.4510    13.7810     2.1070 
  227.1250   -24.7240    61.3000    15.9180    16.4780    14.0120     2.1040 
  227.2500   -24.7800    61.8620    15.4830    16.0010    14.7770     2.0990 
  227.3750   -24.8140    62.2050    14.6480    15.0960    14.6650     2.0970 
  227.5000   -24.8380    62.0950    13.7930    14.1490    14.1450     2.1030 
  227.6250   -24.8500    60.9830    13.0950    13.3970    14.3770     2.1130 
  227.7500   -24.8430    59.1710    12.7270    13.0510    14.7230     2.1140 
  227.8750   -24.8080    57.2500    12.7690    13.1880    14.9860     2.1040 
  228.0000   -24.7500    57.2910    13.1480    13.6710    15.7500     2.0940 
  228.1250   -24.6860    60.3400    13.5560    14.1730    16.2120     2.0990 
  228.2500   -24.6410    63.5990    13.7470    14.4280    15.9350     2.1070 
  228.3750   -24.6490    64.1570    13.6120    14.3250    16.0540     2.1130 
  228.5000   -24.7250    62.5710    13.0720    13.7710    16.4710     2.1310 
  228.6250   -24.8710    60.9400    12.2630    12.9320    15.6870     2.1790 
  228.7500   -25.0510    59.5510    11.2150    11.8040    13.8650     2.2190 
  228.8750   -25.2170    58.2970    10.1790    10.6950    12.3990     2.2040 
  229.0000   -25.3290    58.3610     9.2410     9.7000    11.9070     2.1540 
  229.1250   -25.3650    60.9320     8.5600     8.9780    11.5460     2.1180 
  229.2500   -25.3470    63.7610     8.1480     8.5710    10.9910     2.1120 
  229.3750   -25.3050    64.5430     7.9520     8.3810    10.8990     2.1170 
  229.5000   -25.2790    63.9460     7.9210     8.3660    10.9750     2.1200 
  229.6250   -25.3000    63.5390     7.9360     8.3790    10.8300     2.1190 
  229.7500   -25.3790    64.4110     7.9820     8.4270    10.5930     2.1130 
  229.8750   -25.5180    65.7160     8.0710     8.5240    10.3920     2.1080 
  230.0000   -25.6900    64.6210     8.2210     8.6940    10.5560     2.1090 
  230.1250   -25.8710    63.0550     8.4010     8.8930    11.2670     2.1140 
  230.2500   -26.0400    63.9800     8.5480     9.0560    11.7740     2.1160 
  230.3750   -26.1980    67.4880     8.5720     9.0540    11.5250     2.1200 
  230.5000   -26.3580    69.4320     8.4900     8.9260    10.8530     2.1240 
  230.6250   -26.5380    67.7240     8.3280     8.7470    10.3850     2.1250 
  230.7500   -26.7450    65.7220     8.1580     8.5720    10.4900     2.1230 
  230.8750   -26.9740    65.9880     8.0300     8.4770    10.7460     2.1260 
  231.0000   -27.2080    67.5910     7.9770     8.4910    10.2930     2.1280 
  231.1250   -27.4210    66.8460     7.9940     8.5460     8.5190     2.1200 
  231.2500   -27.5900    63.1130     8.0610     8.6650     6.5720     2.1050 
  231.3750   -27.6890    60.4720     8.1910     8.8300     6.8650     2.0950 
  231.5000   -27.7190    61.4960     8.3840     9.0240     9.5340     2.0920 
  231.6250   -27.6810    62.9590     8.6850     9.3290    12.0550     2.0900 
  231.7500   -27.6000    62.7180     9.0400     9.6930    12.8560     2.0900 
  231.8750   -27.4930    62.1170     9.4040    10.0610    12.9270     2.0990 
  232.0000   -27.3760    62.9050     9.6910    10.3730    13.4520     2.1070 
  232.1250   -27.2540    64.1370     9.9360    10.6480    13.8840     2.1060 
  232.2500   -27.1240    66.7870    10.1220    10.8430    13.7180     2.1000 
  232.3750   -26.9780    71.3230    10.2180    10.9630    13.6490     2.1000 
  232.5000   -26.8140    74.4050    10.2170    10.9910    13.9800     2.1030 
  232.6250   -26.6290    73.1640    10.1270    10.9370    14.2180     2.0980 
  232.7500   -26.4230    70.6180     9.9800    10.7900    14.1130     2.0920 
  232.8750   -26.2010    68.9340     9.7330    10.5080    13.9000     2.0930 
  233.0000   -25.9710    66.8350     9.4380    10.1530    13.7890     2.1070 
  233.1250   -25.7430    64.4840     9.1450     9.8080    13.3970     2.1260 
  233.2500   -25.5200    62.8270     9.0270     9.7320    12.7780     2.1450 
  233.3750   -25.2930    63.2140     9.0960     9.8770    12.8590     2.1770 
  233.5000   -25.0420    65.8430     9.1510    10.0060    19.3200     2.2230 
  233.6250   -24.7310    67.5290     9.3040    10.2290    41.9670     2.2580 
  233.7500   -24.3300    65.0240     9.5810    10.5770    54.8610     2.2810 
  233.8750   -23.8020    60.2050    10.0650    11.0530    37.6470     2.3100 
  234.0000   -23.1470    57.6960    10.6190    11.6230    30.0750     2.3310 
  234.1250   -22.3670    58.6820    11.3640    12.3560    33.7340     2.3190 
  234.2500   -21.4880    59.4610    12.2940    13.1530    23.3240     2.3070 
  234.3750   -20.5030    59.9750    13.3780    14.0650    23.6280     2.3710 
  234.5000   -19.4040    59.7650    14.9110    15.6100    32.8680     2.4950 
  234.6250   -18.1610    59.2730    17.4170    18.6250    27.3680     2.6100 
  234.7500   -16.7830    58.2590    20.8030    22.8830    34.6470     2.6860 
  234.8750   -15.2900    56.3380    22.8080    25.6670    78.0920     2.7110 
  235.0000   -13.7480    54.7090    21.6400    24.6320   115.0510     2.6990 
  235.1250   -12.2310    54.1610    16.6440    18.7700    91.8540     2.6760 
  235.2500   -10.8200    55.2140    10.3490    11.5290    40.6370     2.6390 
  235.3750    -9.5990    57.7270     5.2840     5.6870    16.1930     2.5330 
  235.5000    -8.6030    60.0600     2.6830     2.8000     8.5940     2.3710 
  235.6250    -7.8730    60.5190     1.5270     1.6160     3.2970     2.2530 
  235.7500    -7.3740    59.3990     1.0620     1.1800     1.9480     2.2130 
  235.8750    -7.0920    58.9580     0.8440     0.9810     1.7820     2.2070 
  236.0000    -6.9710    60.0520     0.7580     0.9160     1.6440     2.2010 
  236.1250    -6.9840    64.1170     0.7850     0.9800     1.6940     2.1960 
  236.2500    -7.0830    71.7350     0.8960     1.1270     1.9860     2.1960 
  236.3750    -7.2300    81.3660     1.0840     1.3890     2.8730     2.2070 
  236.5000    -7.3760    88.9380     1.3170     1.7040     3.9140     2.2300 
  236.6250    -7.4790    93.8060     1.5350     1.9740     3.9930     2.2530 
  236.7500    -7.5250    97.4380     1.6490     2.0970     3.4640     2.2650 
  236.8750    -7.5130   100.3400     1.6390     2.0430     3.1590     2.2650 
  237.0000    -7.4670   102.8000     1.5460     1.8930     2.9980     2.2460 
  237.1250    -7.4080   104.0400     1.4350     1.7360     2.7470     2.2230 
  237.2500    -7.3540   103.9750     1.3600     1.6540     2.7340     2.2170 
  237.3750    -7.3220   104.7850     1.3210     1.6310     3.1090     2.2420 
  237.5000    -7.3150   106.5690     1.3040     1.6300     3.1380     2.2780 
  237.6250    -7.3340   106.6520     1.2910     1.6490     2.9130     2.2980 
  237.7500    -7.3620   104.3570     1.2910     1.6860     3.0070     2.2950 
  237.8750    -7.3790   102.4660     1.3010     1.7310     3.1900     2.2730 
  238.0000    -7.3720   104.1800     1.3200     1.7770     3.2660     2.2520 
