~V
VERS. 2.00: Ver 2.00
~W
STRT.M 58.0000:
STOP.M 206.0000:
STEP.M 0.1250:
NULL. -999.2500:
UWI. F11128:
~C
DEPT.M :
GR.API :
RML.OHMM :
RI. :
RXO.OHMM :
CALI.CM :
SP.MV :
DEN.GM/CC :
~A
# ...
  148.0000    72.4930    11.8470    10.3040    12.0870    24.0970    -4.4130     2.3030 
  148.1250    74.2810    13.2160    11.6210    13.6280    24.0930    -4.6970     2.3000 
  148.2500    76.4540    14.5710    13.0020    15.0730    24.0790    -5.0040     2.2950 
  148.3750    74.8740    15.8010    14.3310    16.6840    24.0900    -5.3040     2.2870 
  148.5000    70.9150    16.7540    15.4450    18.3500    24.1750    -5.6020     2.2720 
  148.6250    69.3740    17.4030    16.2680    19.0750    24.2790    -5.8810     2.2540 
  148.7500    68.7890    17.7370    16.7620    19.0230    24.3280    -6.1050     2.2460 
  148.8750    66.3830    17.7830    16.9300    18.8200    24.2060    -6.2620     2.2510 
  149.0000    64.1620    17.5570    16.7760    18.8840    23.9190    -6.3250     2.2670 
  149.1250    65.2790    17.1470    16.4110    18.6150    23.6280    -6.3110     2.2820 
  149.2500    67.6170    16.5720    15.8750    18.0010    23.4030    -6.2380     2.2880 
  149.3750    69.1160    15.8350    15.1840    17.0810    23.2600    -6.1160     2.2850 
  149.5000    70.6460    14.9430    14.3380    16.0910    23.2230    -5.9340     2.2780 
  149.6250    72.3380    14.0190    13.4350    15.2530    23.2420    -5.7310     2.2700 
  149.7500    72.4170    13.2160    12.5960    14.6300    23.2800    -5.5380     2.2640 
  149.8750    70.4560    12.7220    11.9790    13.8460    23.3390    -5.3710     2.2640 
  150.0000    69.5650    12.8020    11.8250    13.3830    23.4280    -5.2460     2.2730 
  150.1250    71.7580    13.4330    12.1720    13.8160    23.5380    -5.1490     2.2830 
  150.2500    73.9060    14.4970    12.9850    15.2730    23.6560    -5.0880     2.2910 
  150.3750    73.2470    15.7300    14.1010    17.3650    23.7760    -5.0780     2.3030 
  150.5000    70.7230    16.6940    15.1920    19.3730    23.8950    -5.1100     2.3240 
  150.6250    70.3370    17.0930    15.9050    20.5210    24.0200    -5.1460     2.3450 
  150.7500    72.9020    16.8460    16.0490    19.8240    24.1250    -5.1710     2.3530 
  150.8750    75.3330    16.1050    15.6510    17.6250    24.2080    -5.1940     2.3390 
  151.0000    76.3070    15.1910    14.9250    15.8480    24.2630    -5.2340     2.3080 
  151.1250    77.4830    14.4110    14.2050    15.2990    24.3100    -5.2740     2.2780 
  151.2500    79.1140    13.8540    13.6280    15.1950    24.3450    -5.2810     2.2570 
  151.3750    79.5510    13.4930    13.2180    14.9550    24.3860    -5.2490     2.2460 
  151.5000    78.4220    13.2580    12.9450    14.2390    24.4270    -5.1850     2.2410 
  151.6250    78.0120    13.0620    12.7320    13.8060    24.4800    -5.1090     2.2320 
  151.7500    78.8150    12.8860    12.5510    13.5350    24.5420    -5.0370     2.2190 
  151.8750    80.0750    12.7330    12.3980    13.3800    24.5920    -4.9620     2.2070 
  152.0000    81.4070    12.6180    12.2810    13.2440    24.6450    -4.8400     2.2020 
  152.1250    81.3980    12.5290    12.1900    13.1110    24.7150    -4.6760     2.2000 
  152.2500    79.4480    12.4550    12.1140    12.9850    24.7550    -4.4830     2.1980 
  152.3750    77.8610    12.3820    12.0390    13.0220    24.7340    -4.2910     2.1990 
  152.5000    79.1220    12.2990    11.9510    13.0170    24.6470    -4.1170     2.2060 
  152.6250    80.8530    12.2150    11.8530    12.8720    24.6100    -3.9520     2.2140 
  152.7500    80.7360    12.1530    11.7600    12.7240    24.6030    -3.7920     2.2210 
  152.8750    78.4950    12.1410    11.6950    12.5810    24.5460    -3.6380     2.2240 
  153.0000    75.4810    12.2170    11.6980    12.4270    24.4550    -3.4960     2.2250 
  153.1250    72.1380    12.3790    11.7810    12.3020    24.3860    -3.3270     2.2260 
  153.2500    69.8650    12.6140    11.9440    12.2690    24.3310    -3.1620     2.2270 
  153.3750    69.9770    12.8860    12.1640    12.2340    24.1670    -3.0520     2.2230 
  153.5000    73.2230    13.1370    12.3970    12.3820    23.9460    -3.0110     2.2140 
  153.6250    75.2490    13.3180    12.5850    12.7970    23.7290    -3.0340     2.2130 
  153.7500    73.6380    13.3990    12.6910    13.2880    23.6070    -3.0980     2.2230 
  153.8750    69.9790    13.3830    12.7010    13.4270    23.5440    -3.1920     2.2390 
  154.0000    68.0050    13.2950    12.6260    13.1250    23.5220    -3.3220     2.2440 
  154.1250    67.9590    13.1960    12.5210    12.7540    23.5060    -3.5490     2.2370 
  154.2500    68.3710    13.1190    12.4230    12.5000    23.5100    -3.8410     2.2220 
  154.3750    69.4770    13.0720    12.3510    12.4050    23.5230    -4.1080     2.2090 
  154.5000    71.6630    13.0290    12.2960    12.4430    23.5470    -4.3380     2.2000 
  154.6250    73.6210    12.9430    12.2170    12.4800    23.5790    -4.5380     2.1990 
  154.7500    75.4840    12.7810    12.0800    12.4490    23.5970    -4.7150     2.2050 
  154.8750    77.2870    12.5370    11.8700    12.3570    23.5940    -4.8590     2.2160 
  155.0000    78.8130    12.2370    11.5970    12.0840    23.6030    -4.9640     2.2270 
  155.1250    79.4300    11.9530    11.3220    11.7410    23.6420    -5.0140     2.2370 
  155.2500    78.8240    11.7330    11.0940    11.4360    23.7080    -5.0230     2.2450 
  155.3750    77.7440    11.5980    10.9410    11.3670    23.8120    -5.0170     2.2520 
  155.5000    77.6270    11.5480    10.8770    11.5010    23.8820    -4.9810     2.2560 
  155.6250    78.5910    11.5340    10.8650    11.6930    23.9160    -4.9170     2.2590 
  155.7500    79.4350    11.5230    10.8720    11.8450    23.9440    -4.8710     2.2630 
  155.8750    79.1140    11.4940    10.8710    11.8340    23.9780    -4.8650     2.2650 
  156.0000    76.5160    11.4480    10.8490    11.6170    24.0090    -4.9140     2.2650 
  156.1250    72.6040    11.4150    10.8280    11.4970    24.0410    -5.0140     2.2640 
  156.2500    69.8090    11.4220    10.8350    11.3330    24.0700    -5.1150     2.2630 
  156.3750    70.1340    11.4830    10.8920    11.1620    24.0740    -5.1390     2.2620 
  156.5000    72.6540    11.5990    11.0070    11.1080    24.0360    -5.1120     2.2630 
  156.6250    74.5730    11.7300    11.1500    11.3240    23.9680    -5.1490     2.2630 
  156.7500    75.8430    11.8450    11.2900    11.6480    23.8730    -5.1990     2.2630 
  156.8750    76.9910    11.9180    11.4000    12.0180    23.7640    -5.1880     2.2610 
  157.0000    76.6270    11.9310    11.4550    11.9620    23.6620    -5.1230     2.2590 
  157.1250    73.9290    11.8890    11.4580    11.7360    23.5020    -5.0420     2.2600 
  157.2500    71.6360    11.8410    11.4100    11.6520    23.3480    -4.9930     2.2640 
  157.3750    72.0330    11.7720    11.3170    11.6590    23.2390    -5.0360     2.2680 
  157.5000    74.6100    11.7270    11.1810    11.7460    23.1460    -5.1330     2.2720 
  157.6250    76.4900    11.7160    11.0220    11.7970    23.1850    -5.1760     2.2760 
  157.7500    78.1930    11.6020    10.8590    11.6740    23.3440    -5.1910     2.2800 
  157.8750    79.8230    11.3860    10.7150    11.4410    23.3970    -5.2310     2.2790 
  158.0000    78.5320    11.2360    10.6140    11.3920    23.3430    -5.2720     2.2720 
  158.1250    76.8490    11.1620    10.5680    11.4280    23.2870    -5.2770     2.2670 
  158.2500    78.2750    11.1780    10.5900    11.4710    23.2810    -5.2360     2.2660 
  158.3750    82.3810    11.2920    10.6980    11.3730    23.3360    -5.1760     2.2690 
  158.5000    83.9310    11.4850    10.8990    11.1920    23.4390    -5.1150     2.2770 
  158.6250    82.1580    11.6420    11.1080    11.3490    23.5500    -5.0420     2.2890 
  158.7500    80.1370    11.6230    11.1990    12.0890    23.6420    -4.9320     2.3000 
  158.8750    79.0470    11.3130    11.0410    13.0490    23.7160    -4.7980     2.3070 
  159.0000    78.5230    10.6730    10.5380    13.5780    23.7760    -4.6740     2.3100 
  159.1250    79.4190     9.9510     9.8770    12.9390    23.8020    -4.5990     2.3140 
