~V
VERS. 2.00: Ver 2.00
~W
STRT.M 50.0000:
STOP.M 240.0000:
STEP.M 0.1250:
NULL. -999.2500:
UWI. F11117:
~C
DEPT.M :
DEN.GM/CC :
GR.API :
RML.OHMM :
RI. :
RXO.OHMM :
CALI.CM :
SP.MV :
~A
# ...
  196.2500     2.3140    88.6680     5.7150     5.2280     5.3270    23.4090    -8.2930 
  196.3750     2.3070    90.0010     6.0200     5.4230     5.3880    23.3950    -8.0300 
  196.5000     2.3000    88.2150     6.4020     5.6770     5.6930    23.3730    -7.5380 
  196.6250     2.2950    84.9900     6.8510     5.9960     6.3650    23.2960    -6.9410 
  196.7500     2.2920    82.8260     7.3100     6.3380     7.0430    23.3440    -6.3010 
  196.8750     2.2930    82.1110     7.7540     6.6840     7.4420    23.1900    -5.6610 
  197.0000     2.2970    80.9790     8.1910     7.0350     8.1610    22.8310    -5.1240 
  197.1250     2.2950    78.9990     8.6630     7.4170     8.4210    22.4060    -4.7070 
  197.2500     2.2800    79.0680     9.2140     7.8550     8.1790    22.5650    -4.3960 
  197.3750     2.2510    81.7120     9.8600     8.3670     8.8610    23.2310    -4.2780 
  197.5000     2.2180    83.8480    10.5680     8.9430    11.1650    24.2750    -4.3340 
  197.6250     2.1990    81.8410    11.2520     9.5360    11.9490    24.6600    -4.4870 
  197.7500     2.2010    78.1310    11.8150    10.0780    12.1440    24.7330    -4.7540 
  197.8750     2.2220    75.2990    12.1700    10.4970    11.5350    24.8800    -5.0700 
  198.0000     2.2500    74.9310    12.2450    10.7130    11.7150    25.0910    -5.3930 
  198.1250     2.2670    74.7890    11.9820    10.6480    11.5990    25.1040    -5.7640 
  198.2500     2.2680    73.5840    11.5210    10.3900    11.0560    25.2070    -6.1270 
  198.3750     2.2580    72.6320    10.9980    10.0380     9.9920    25.4810    -6.4620 
  198.5000     2.2470    74.8120    10.5750     9.7190     9.3250    26.1710    -6.8430 
  198.6250     2.2430    80.6870    10.4690     9.6060     9.3720    26.1650    -7.2480 
  198.7500     2.2470    85.0670    10.7450     9.7840    10.5530    26.1170    -7.6070 
  198.8750     2.2540    83.6930    11.4210    10.2970    11.9050    26.2360    -7.9800 
  199.0000     2.2590    78.0120    12.4290    11.1300    12.1090    25.9380    -8.3650 
  199.1250     2.2550    74.0010    13.5890    12.1970    12.3240    26.2320    -8.7630 
  199.2500     2.2440    72.8100    14.5360    13.2080    13.1210    26.3110    -9.1570 
  199.3750     2.2300    72.7300    14.9070    13.8260    14.3180    26.1880    -9.4600 
  199.5000     2.2180    72.6650    14.4520    13.7490    15.0190    26.0690    -9.7050 
  199.6250     2.2180    72.0050    13.1470    12.8310    13.4600    26.3230    -9.9520 
  199.7500     2.2260    71.6540    11.5670    11.5310    11.0870    26.1690   -10.1010 
  199.8750     2.2400    73.1440    10.1570    10.2480     8.8570    25.9820   -10.0300 
  200.0000     2.2560    78.7220     9.2120     9.2740     7.4580    25.7880    -9.6840 
  200.1250     2.2690    86.5990     8.9170     8.8270     7.7200    25.5200    -9.0410 
  200.2500     2.2810    90.4190     9.0920     8.8200     8.7250    25.4960    -8.3790 
  200.3750     2.2890    87.4440     9.5750     9.1530     9.4930    25.6250    -7.8000 
  200.5000     2.2940    79.7700    10.2020     9.6950     9.9090    25.4560    -7.2150 
  200.6250     2.2920    76.8470    10.9020    10.3520    10.4490    25.3300    -6.6130 
  200.7500     2.2850    79.8940    11.7270    11.1000    10.8190    25.1710    -6.0600 
  200.8750     2.2710    83.3100    12.7760    12.0150    10.8610    24.8300    -5.6400 
  201.0000     2.2530    82.1520    14.0280    13.1350    11.5380    24.4190    -5.4120 
  201.1250     2.2360    77.5090    15.1530    14.2680    14.7490    23.8210    -5.3210 
  201.2500     2.2280    74.4750    15.6720    14.9710    19.3490    23.4880    -5.2030 
  201.3750     2.2320    72.7780    15.3470    14.9260    20.1900    23.1870    -5.0710 
  201.5000     2.2440    71.9770    14.4310    14.2210    16.2630    22.7890    -4.9140 
  201.6250     2.2510    72.3820    13.6690    13.4010    12.4240    22.8290    -4.6980 
  201.7500     2.2410    73.0960    13.7210    13.0930    11.4780    22.7180    -4.5440 
  201.8750     2.2150    74.4350    14.9050    13.6590    13.2200    22.3350    -4.4160 
  202.0000     2.1830    75.9480    17.2680    15.2820    18.6050    22.3290    -4.2770 
  202.1250     2.1610    74.2810    20.6440    18.0750    24.0210    23.7240    -4.2410 
  202.2500     2.1520    67.5400    24.1870    21.4080    28.0180    24.7580    -4.2540 
  202.3750     2.1530    60.7270    27.0930    24.5090    28.3820    24.8810    -4.2670 
  202.5000     2.1580    59.5360    28.8340    26.6720    27.5950    25.0380    -4.3470 
  202.6250     2.1630    61.8090    29.3990    27.6250    27.8390    25.0230    -4.4790 
  202.7500     2.1680    62.1220    29.5650    28.0280    28.1700    24.8660    -4.5680 
  202.8750     2.1730    61.3830    29.7190    28.2940    28.8010    24.7930    -4.6800 
  203.0000     2.1770    61.4300    29.9280    28.5650    29.9810    24.7960    -4.8200 
  203.1250     2.1780    63.8410    30.0430    28.7680    31.3710    24.7900    -4.8970 
  203.2500     2.1770    67.0040    29.9610    28.8040    31.3170    24.7880    -4.9740 
  203.3750     2.1770    68.6690    29.7110    28.6510    30.3170    24.7410    -5.0600 
  203.5000     2.1800    67.7320    29.4180    28.3850    28.3010    24.7490    -5.1280 
  203.6250     2.1830    66.1490    29.1640    28.1060    25.9820    24.6770    -5.2190 
  203.7500     2.1840    65.8200    28.7220    27.7040    25.9100    24.5610    -5.3070 
  203.8750     2.1820    65.9670    27.6590    26.8280    27.6740    24.5300    -5.3530 
  204.0000     2.1770    66.2720    25.6660    25.1560    29.7790    24.5170    -5.4180 
  204.1250     2.1770    66.8130    22.8800    22.6950    27.9950    24.5920    -5.4910 
  204.2500     2.1860    67.5410    20.2070    20.1940    22.8630    24.5650    -5.5270 
  204.3750     2.2010    69.6290    18.3680    18.2900    16.9110    24.4190    -5.5400 
  204.5000     2.2160    73.0310    17.7820    17.4010    14.2420    24.3210    -5.4950 
  204.6250     2.2200    73.9190    18.7100    17.8760    17.2370    24.2680    -5.4300 
  204.7500     2.2080    71.9560    20.6250    19.3980    21.4630    24.3650    -5.4050 
  204.8750     2.1770    69.7490    22.9880    21.6120    26.2500    24.6460    -5.4070 
  205.0000     2.1370    68.0690    25.0790    23.9000    28.8580    24.9550    -5.4430 
  205.1250     2.1020    67.1360    25.9800    25.2810    26.9270    24.8920    -5.5180 
  205.2500     2.0860    66.1210    25.6980    25.4590    23.0990    24.4970    -5.6210 
  205.3750     2.0980    65.3630    24.6960    24.7180    20.0340    23.8750    -5.8020 
  205.5000     2.1360    66.8150    23.5710    23.6130    19.5790    23.3160    -6.0620 
  205.6250     2.1870    70.7360    22.7470    22.6080    20.5780    22.8800    -6.3410 
  205.7500     2.2260    73.1610    22.2590    21.8700    19.2010    22.8390    -6.6740 
  205.8750     2.2390    71.8340    22.0700    21.4420    17.3730    22.8630    -7.0580 
  206.0000     2.2260    68.2300    22.1380    21.3270    17.7190    22.8930    -7.4450 
  206.1250     2.2010    64.4780    22.4730    21.5460    18.3920    23.4430    -7.8930 
  206.2500     2.1840    63.1010    23.0100    22.0080    19.3600    24.2980    -8.3650 
  206.3750     2.1830    65.3430    23.6810    22.6280    20.6950    24.6560    -8.8100 
  206.5000     2.1970    68.0920    24.4260    23.3170    21.1990    24.6370    -9.2300 
  206.6250     2.2160    66.5020    25.3170    24.1080    21.4090    24.5940    -9.5300 
  206.7500     2.2360    61.0860    26.4280    25.0860    21.7400    24.7180    -9.7020 
  206.8750     2.2610    55.7460    27.7180    26.2520    21.9530    24.7410    -9.7680 
  207.0000     2.2980    54.0670    28.9550    27.4400    22.3800    24.6330    -9.6850 
  207.1250     2.3390    57.7240    29.6050    28.2070    26.7900    23.9470    -9.4430 
  207.2500     2.3610    63.0280    29.3840    28.2180    33.5720    23.1340    -9.1590 
  207.3750     2.3450    66.4540    28.3950    27.4300    33.5180    22.8800    -8.8100 
