~V
VERS. 2.00: Ver 2.00
~W
STRT.M 52.0000:
STOP.M 240.0000:
STEP.M 0.1250:
NULL. -999.2500:
UWI. F11139:
~C
DEPT.M :
GR.API :
RML.OHMM :
RI. :
RXO.OHMM :
CALI.CM :
SP.MV :
DEN.GM/CC :
~A
# ...
  153.2500    80.6420    11.9510    11.8530    15.2100    24.8720    -2.4810     2.2750 
  153.3750    85.2350    11.3000    11.0880    11.9250    24.8240    -2.5470     2.2670 
  153.5000    87.4030    11.1800    10.7320    10.4430    24.7320    -2.6180     2.2670 
  153.6250    84.8250    11.6980    10.9760    11.3010    24.5900    -2.6780     2.2690 
  153.7500    81.8030    12.5520    11.6150    12.8180    24.4750    -2.7680     2.2660 
  153.8750    79.6130    13.4720    12.4280    14.0210    24.4320    -2.8760     2.2580 
  154.0000    77.2350    14.2030    13.1660    14.3520    24.4350    -3.0270     2.2500 
  154.1250    75.4680    14.5240    13.5630    14.3180    24.4490    -3.1940     2.2480 
  154.2500    75.8820    14.5100    13.6120    14.4930    24.4450    -3.3660     2.2500 
  154.3750    77.2890    14.2980    13.4030    14.7030    24.4190    -3.4650     2.2540 
  154.5000    77.6040    14.0550    13.0790    15.0770    24.3590    -3.5640     2.2620 
  154.6250    77.7900    13.9750    12.8110    14.5960    24.2470    -3.6530     2.2770 
  154.7500    78.1450    14.1520    12.7240    14.2020    24.1200    -3.7200     2.2940 
  154.8750    76.7960    14.6260    12.8870    14.4980    24.0800    -3.7460     2.3010 
  155.0000    75.6690    15.3550    13.2980    15.4700    24.1380    -3.7170     2.2870 
  155.1250    76.0570    16.2080    13.8930    17.1420    24.1900    -3.6150     2.2580 
  155.2500    75.4800    16.9770    14.5010    18.4920    24.1740    -3.4150     2.2340 
  155.3750    73.6670    17.5520    15.0150    18.5160    24.2490    -3.1690     2.2250 
  155.5000    72.9380    17.9520    15.4170    17.6990    24.4450    -2.8630     2.2260 
  155.6250    74.1040    18.3790    15.8380    17.2600    24.5940    -2.5330     2.2290 
  155.7500    73.0870    19.0740    16.4800    17.7710    24.6480    -2.2030     2.2280 
  155.8750    69.5750    20.1100    17.4490    19.0240    24.6620    -1.9240     2.2200 
  156.0000    66.1540    21.3390    18.6780    21.1900    24.6720    -1.7090     2.2080 
  156.1250    64.7010    22.2950    19.8340    23.6080    24.6570    -1.5370     2.1970 
  156.2500    64.4770    22.5180    20.4660    25.5530    24.6220    -1.4010     2.1890 
  156.3750    64.7320    21.7070    20.2250    26.2960    24.5240    -1.3340     2.1840 
  156.5000    65.9570    19.8310    18.9630    24.1820    24.3240    -1.3180     2.1950 
  156.6250    69.0300    17.0810    16.7060    19.6410    23.9800    -1.3370     2.2360 
  156.7500    72.6720    14.0630    13.9910    15.9600    23.6100    -1.3060     2.2850 
  156.8750    75.9490    11.1620    11.2020    13.5290    23.4600    -1.1700     2.3120 
  157.0000    79.2900     8.6560     8.6600    10.9250    23.6000    -0.9400     2.2990 
  157.1250    83.3550     6.7960     6.6580     7.9950    23.8370    -0.6850     2.2620 
  157.2500    88.9150     5.5040     5.1850     5.4280    23.9500    -0.4760     2.2350 
  157.3750    94.5730     4.7130     4.2030     3.8600    23.9640    -0.2350     2.2320 
  157.5000    98.1570     4.3220     3.6370     3.2310    23.9500     0.0180     2.2540 
  157.6250    98.2820     4.2610     3.4440     3.2370    23.9880     0.2620     2.2830 
  157.7500    97.7090     4.3730     3.4760     3.4370    24.0970     0.3940     2.2990 
  157.8750    99.0500     4.5790     3.6560     3.7400    24.2480     0.3740     2.2990 
  158.0000   100.8920     4.8160     3.9140     4.0810    24.3450     0.2200     2.2920 
  158.1250   100.4490     5.0320     4.1850     4.4520    24.3760     0.0000     2.2890 
  158.2500    97.8030     5.2110     4.4290     4.7580    24.3990    -0.2260     2.2870 
  158.3750    94.6590     5.3610     4.6360     4.9530    24.4140    -0.4880     2.2870 
  158.5000    92.6320     5.5000     4.8170     5.1250    24.4190    -0.7510     2.2860 
  158.6250    91.5370     5.6460     4.9860     5.2900    24.4270    -1.0060     2.2870 
  158.7500    90.8070     5.7900     5.1410     5.5120    24.4390    -1.1810     2.2860 
  158.8750    88.8680     5.8930     5.2520     5.7760    24.4500    -1.2650     2.2860 
  159.0000    84.8640     5.9050     5.2710     6.0280    24.4530    -1.2570     2.2880 
  159.1250    81.8690     5.6960     5.1320     6.0920    24.4490    -1.1990     2.2940 
  159.2500    82.3230     5.3450     4.8640     5.8560    24.4390    -1.0620     2.3010 
  159.3750    85.2820     4.8990     4.5230     5.2990    24.4110    -0.8420     2.3080 
  159.5000    88.0170     4.3760     4.1870     4.5610    24.3520    -0.5980     2.3170 
  159.6250    90.1390     4.2100     3.9430     4.0450    24.2440    -0.4140     2.3300 
  159.7500    91.9040     4.1660     3.8140     4.1200    24.1170    -0.2960     2.3410 
  159.8750    92.3740     4.2380     3.8010     4.5000    23.9250    -0.3390     2.3420 
  160.0000    92.3230     4.4160     3.8960     4.9290    23.6370    -0.5310     2.3290 
  160.1250    92.8590     4.7110     4.1100     5.3140    23.3350    -0.8380     2.3090 
  160.2500    93.5420     5.0970     4.4160     5.5740    23.1770    -1.2600     2.2960 
  160.3750    93.6130     5.5500     4.7960     5.8380    23.1640    -1.8250     2.2910 
  160.5000    92.9970     6.0190     5.2140     6.4180    23.2430    -2.4470     2.2900 
  160.6250    91.9070     6.4250     5.6080     7.2800    23.3940    -3.0030     2.2880 
  160.7500    89.7190     6.7430     5.9340     8.0170    23.6050    -3.5100     2.2860 
  160.8750    87.9790     7.0110     6.1980     8.1350    23.8360    -3.8470     2.2880 
  161.0000    87.8230     7.3370     6.4700     7.9870    24.0500    -4.0410     2.2910 
  161.1250    88.5660     8.0570     6.9120     8.7030    24.2350    -4.1230     2.2880 
  161.2500    89.3180     9.1980     7.6420    10.2580    24.3670    -4.1350     2.2780 
  161.3750    89.9280    10.8260     8.7390    12.4800    24.4370    -4.0510     2.2680 
  161.5000    89.2660    13.0110    10.2040    15.2780    24.5220    -3.9180     2.2610 
  161.6250    86.1610    14.8720    11.9480    17.2150    24.6320    -3.7540     2.2570 
  161.7500    82.3780    16.5290    13.6870    18.5800    24.7540    -3.5430     2.2510 
  161.8750    80.1850    17.7150    15.1500    19.8620    24.8450    -3.3600     2.2410 
  162.0000    79.7870    18.2400    16.0890    20.3390    24.8800    -3.1560     2.2320 
  162.1250    80.5710    17.9290    16.2320    19.8160    24.8680    -2.9020     2.2270 
  162.2500    82.0040    17.0060    15.7020    18.7190    24.8400    -2.6150     2.2280 
  162.3750    83.1970    15.6670    14.6440    17.4370    24.7990    -2.3420     2.2330 
  162.5000    84.1080    14.1630    13.2860    15.9940    24.7650    -2.0690     2.2390 
  162.6250    85.5360    12.8140    11.9270    13.9460    24.7470    -1.8450     2.2470 
  162.7500    87.4220    11.8450    10.8260    11.8130    24.7280    -1.6940     2.2550 
  162.8750    88.1930    11.4260    10.1500    10.3660    24.7070    -1.6110     2.2610 
  163.0000    87.5160    11.6950    10.0330     9.9090    24.6550    -1.6170     2.2650 
  163.1250    86.9040    12.9410    10.7390    10.6480    24.5570    -1.7240     2.2660 
  163.2500    87.0060    15.1710    12.3180    12.2620    24.4190    -1.9350     2.2670 
  163.3750    86.0950    18.5020    14.9360    15.4060    24.2860    -2.2460     2.2670 
  163.5000    83.4560    22.9820    18.7280    20.5400    24.2220    -2.6060     2.2610 
  163.6250    81.1850    28.6470    23.8720    28.2680    24.2330    -2.9880     2.2480 
  163.7500    78.6360    34.8650    29.8370    37.0860    24.2940    -3.3630     2.2340 
  163.8750    74.3820    40.8580    35.9360    45.9350    24.3910    -3.7110     2.2220 
  164.0000    69.4990    45.5540    41.1670    54.4690    24.5150    -3.9980     2.2120 
  164.1250    67.0930    47.4580    43.9410    59.1210    24.5570    -4.2470     2.2040 
  164.2500    66.9610    46.7800    43.8270    59.3000    24.5620    -4.4280     2.2010 
  164.3750    67.4270    43.6850    40.9610    57.0050    24.5700    -4.4490     2.2010 
