~V
VERS. 2.00: Ver 2.00
~W
STRT.M 52.0000:
STOP.M 240.0000:
STEP.M 0.1250:
NULL. -999.2500:
UWI. F11139:
~C
DEPT.M :
GR.API :
RML.OHMM :
RI. :
RXO.OHMM :
CALI.CM :
SP.MV :
DEN.GM/CC :
~A
# ...
  220.7500    89.1150     4.8710     4.4150     4.9850    24.5050    -6.5920     2.3930 
  220.8750    93.1950     4.8790     4.4310     5.0380    24.5190    -6.4830     2.3980 
  221.0000    96.9290     4.9270     4.4700     5.1330    24.5180    -6.2990     2.3970 
  221.1250    97.2110     5.0280     4.5470     5.2610    24.4840    -6.1130     2.3950 
  221.2500    95.9870     5.1640     4.6600     5.4150    24.4110    -5.9600     2.3930 
  221.3750    96.0050     5.3160     4.8000     5.6610    24.3240    -5.8170     2.3880 
  221.5000    96.1220     5.4650     4.9510     5.9590    24.2540    -5.7310     2.3780 
  221.6250    95.0560     5.5920     5.0880     6.2630    24.1910    -5.7020     2.3640 
  221.7500    93.6790     5.6940     5.1930     6.3650    24.1670    -5.7160     2.3520 
  221.8750    92.2400     5.7690     5.2600     6.1230    24.1410    -5.7660     2.3470 
  222.0000    89.8190     5.8210     5.2940     5.8790    24.0800    -5.8960     2.3510 
  222.1250    87.3460     5.8650     5.3200     5.8150    24.0340    -6.0360     2.3710 
  222.2500    86.4890     5.9290     5.3710     5.9580    24.0570    -6.1100     2.3980 
  222.3750    86.4150     6.0330     5.4660     6.0630    24.1220    -6.1830     2.4190 
  222.5000    85.5420     6.2080     5.6090     5.9970    24.1640    -6.1950     2.4260 
  222.6250    82.8350     6.4220     5.7870     6.0080    24.1610    -6.1310     2.4180 
  222.7500    79.1930     6.6310     5.9570     5.9530    24.1380    -6.0580     2.4000 
  222.8750    75.6220     6.8010     6.0860     5.7470    24.1290    -6.0260     2.3680 
  223.0000    72.4720     6.8090     6.1540     5.5600    24.1130    -5.9810     2.3230 
  223.1250    70.4120     6.7140     6.1510     5.5690    24.0590    -5.9620     2.2810 
  223.2500    69.7230     6.6130     6.1190     5.7090    23.9800    -5.9940     2.2650 
  223.3750    69.8830     6.5680     6.1020     5.8760    23.8710    -6.0440     2.2850 
  223.5000    69.1480     6.6200     6.1400     6.0750    23.8480    -6.1520     2.3300 
  223.6250    67.6740     6.7890     6.2650     6.4230    23.9170    -6.3670     2.3710 
  223.7500    67.8700     7.0220     6.4530     6.9430    24.0450    -6.6310     2.3920 
  223.8750    70.8990     7.2640     6.6680     7.6510    24.0790    -6.8630     2.3960 
  224.0000    74.3870     7.4610     6.8600     8.3700    24.0610    -7.0500     2.3920 
  224.1250    75.5720     7.5560     6.9730     8.8510    24.0690    -7.2050     2.3830 
  224.2500    75.4260     7.5610     7.0010     8.6840    24.1180    -7.3670     2.3730 
  224.3750    74.9640     7.5090     6.9630     7.8470    24.1320    -7.4920     2.3710 
  224.5000    73.4170     7.4460     6.8970     7.2440    24.1280    -7.5740     2.3800 
  224.6250    70.6640     7.4220     6.8510     7.2580    24.1680    -7.6100     2.4030 
  224.7500    69.1320     7.4470     6.8460     7.5390    24.1620    -7.6230     2.4290 
  224.8750    69.2660     7.5120     6.8810     7.9250    24.1170    -7.6690     2.4470 
  225.0000    69.5740     7.5910     6.9440     8.2300    24.0700    -7.7270     2.4440 
  225.1250    69.7580     7.6730     7.0160     8.4330    23.9320    -7.7610     2.4190 
  225.2500    69.4500     7.7560     7.0850     8.4760    23.6220    -7.8160     2.3870 
  225.3750    68.9430     7.8420     7.1510     8.4000    23.2290    -7.8570     2.3530 
  225.5000    68.2530     7.9350     7.2200     8.0400    22.9970    -7.8550     2.3230 
  225.6250    67.7810     8.0140     7.2880     7.5680    22.9440    -7.7880     2.3080 
  225.7500    68.4070     8.0600     7.3370     7.2510    22.9500    -7.6970     2.3130 
  225.8750    70.1430     8.0680     7.3480     7.1720    23.1230    -7.6000     2.3270 
  226.0000    72.1260     8.0190     7.2990     7.0600    23.4220    -7.5380     2.3310 
  226.1250    73.2780     7.9050     7.1690     6.8940    23.6230    -7.5030     2.3210 
  226.2500    73.5390     7.7180     6.9790     6.7410    23.7080    -7.4460     2.3240 
  226.3750    73.9620     7.5350     6.7530     6.4870    23.7490    -7.4220     2.3500 
  226.5000    74.3520     7.3680     6.5250     6.1530    23.8680    -7.4460     2.3870 
  226.6250    73.8160     7.2340     6.3290     5.8400    24.0570    -7.5300     2.4120 
  226.7500    71.1060     7.1380     6.1810     5.6990    24.1760    -7.5990     2.4180 
  226.8750    67.9510     7.0810     6.0810     5.6240    24.1180    -7.6310     2.4090 
  227.0000    67.5180     7.0590     6.0270     5.4610    23.9750    -7.6660     2.3810 
  227.1250    68.8050     7.0620     6.0190     5.1860    23.8290    -7.7330     2.3420 
  227.2500    68.2890     7.0850     6.0530     4.9190    23.7040    -7.7820     2.3160 
  227.3750    66.4410     7.1470     6.1390     4.9510    23.6670    -7.8030     2.3180 
  227.5000    65.5640     7.2830     6.2980     5.4750    23.7390    -7.8120     2.3430 
  227.6250    66.3370     7.5560     6.5730     6.5790    23.9290    -7.8310     2.3660 
  227.7500    66.7150     7.9590     6.9610     8.0460    24.0030    -7.8370     2.3800 
  227.8750    66.6870     8.4540     7.4400     9.6290    23.9370    -7.8340     2.3930 
  228.0000    67.2210     8.9630     7.9510    10.9180    23.7830    -7.7940     2.4200 
  228.1250    68.5240     9.3630     8.3940    11.7290    23.6690    -7.7030     2.4620 
  228.2500    69.5230     9.5920     8.6980    11.2490    23.5940    -7.6020     2.4960 
  228.3750    69.0560     9.6380     8.8350    10.5060    23.7300    -7.5520     2.5020 
  228.5000    68.4210     9.5470     8.8300     9.5110    23.9630    -7.5500     2.4750 
  228.6250    68.8680     9.4080     8.7400     9.6080    24.1080    -7.5300     2.4340 
  228.7500    69.3070     9.3060     8.6490    10.5290    24.1570    -7.4620     2.3990 
  228.8750    69.7710     9.2680     8.5910    11.6540    24.1840    -7.3200     2.3790 
  229.0000    70.0120     9.2800     8.5700    12.4850    24.2270    -7.1780     2.3800 
  229.1250    69.5240     9.3080     8.5800    11.9640    24.3420    -7.0280     2.3960 
  229.2500    68.2170     9.3210     8.6020    11.0820    24.5210    -6.8850     2.4060 
  229.3750    67.5900     9.3170     8.6280    10.6530    24.7200    -6.7000     2.3970 
  229.5000    67.5900     9.3030     8.6580    10.3540    24.8660    -6.4580     2.3760 
  229.6250    67.5900     9.2900     8.6920    10.3510    24.9200    -6.1970     2.3650 
  229.7500    67.5900     9.2770     8.7210    10.5720    24.9290    -6.0520     2.3710 
  229.8750    67.5900     9.2610     8.7410    10.9120    24.9410    -6.0210     2.3890 
  230.0000    67.5900     9.2420     8.7520    11.0160    24.9590    -5.9750     2.4100 
  230.1250    67.5900     9.2180     8.7550    10.7200    24.9910    -6.0200     2.4200 
  230.2500    67.5900     9.1830     8.7490    10.3360    25.0330    -6.1160     2.4170 
  230.3750    67.5900     9.1280     8.7310     9.9860    25.0300    -6.2210     2.4100 
  230.5000    67.5900     9.0520     8.6990     9.7330    24.9310    -6.3480     2.4110 
  230.6250    67.5900     8.9690     8.6560     9.3700    24.7180    -6.5480     2.4200 
  230.7500    67.5900     8.9030     8.6170     8.9180    24.5310    -6.7660     2.4180 
  230.8750    67.5900     8.8650     8.5960     8.5730    24.3940    -6.9610     2.4060 
  231.0000    67.5900     8.8470     8.5970     8.6050    24.2610    -7.1590     2.4000 
  231.1250    67.5900     8.8340     8.6170     9.0100    24.1440    -7.2360     2.4100 
  231.2500    67.5900     8.8090     8.6390     9.4080    24.1460    -7.1990     2.4270 
  231.3750    67.5900     8.7730     8.6510     9.2900    24.2360    -7.1170     2.4440 
  231.5000    67.5900     8.7330     8.6460     8.6070    24.2900    -7.0010     2.4550 
  231.6250    67.5900     8.6990     8.6260     8.3430    24.3330    -6.7890     2.4570 
  231.7500    67.5900     8.6710     8.6000     8.5000    24.3420    -6.4730     2.4540 
  231.8750    67.5900     8.6400     8.5680     8.8450    24.3450    -6.1110     2.4510 
