~V
VERS. 2.00: Ver 2.00
~W
STRT.M 53.0000:
STOP.M 252.0000:
STEP.M 0.1250:
NULL. -999.2500:
UWI. F11141:
~C
DEPT.M :
SP.MV :
DEN.GM/CC :
GR.API :
RML.OHMM :
RI. :
RXO.OHMM :
CALI.CM :
~A
# ...
  143.0000   -10.7730     2.2610    90.8100     5.2750     5.2150     5.3790    24.2530 
  143.1250   -10.8320     2.2580    97.1230     5.4080     5.2030     5.3760    24.2430 
  143.2500   -10.8250     2.2610   102.4010     5.6040     5.3190     5.4640    24.2740 
  143.3750   -10.7710     2.2710   101.6950     5.7330     5.4410     5.5990    24.2910 
  143.5000   -10.7600     2.2870    97.8040     5.7430     5.4990     5.5950    24.2650 
  143.6250   -10.7650     2.3040    96.4320     5.6480     5.4730     5.5230    24.2040 
  143.7500   -10.7540     2.3210    97.5520     5.5190     5.4040     5.4050    24.2030 
  143.8750   -10.7440     2.3330    98.3540     5.4090     5.3260     5.3360    24.2330 
  144.0000   -10.7540     2.3390    97.8040     5.3580     5.2680     5.3680    24.2310 
  144.1250   -10.7620     2.3380    96.3810     5.4030     5.2570     5.5660    24.2340 
  144.2500   -10.7300     2.3340    94.7490     5.5240     5.2880     5.6790    24.2250 
  144.3750   -10.6890     2.3310    93.6220     5.6980     5.3510     5.7490    24.2200 
  144.5000   -10.6630     2.3280    91.4340     5.8930     5.4370     5.8680    24.2070 
  144.6250   -10.6840     2.3270    88.7830     6.0720     5.5280     6.0800    24.2220 
  144.7500   -10.6600     2.3250    89.3030     6.2070     5.5980     6.2040    24.2140 
  144.8750   -10.5210     2.3220    94.0060     6.2810     5.6280     6.2510    24.2070 
  145.0000   -10.3150     2.3160    97.7810     6.2910     5.6100     6.1980    24.2190 
  145.1250   -10.1910     2.3080    99.6050     6.2500     5.5440     6.0950    24.2120 
  145.2500   -10.1650     2.3010   102.0670     6.1930     5.4620     5.9510    24.1960 
  145.3750   -10.1170     2.2930   103.5940     6.1420     5.3850     5.8790    24.1780 
  145.5000    -9.9910     2.2850   102.2170     6.1150     5.3230     5.8640    24.1660 
  145.6250    -9.9030     2.2770   101.5050     6.1220     5.2850     5.9210    24.1650 
  145.7500    -9.9300     2.2710   103.8390     6.1490     5.2640     5.9580    24.1790 
  145.8750   -10.0540     2.2690   106.0670     6.1770     5.2520     5.8980    24.1830 
  146.0000   -10.1810     2.2710   103.7630     6.1870     5.2380     5.8350    24.2020 
  146.1250   -10.2400     2.2790    98.7240     6.1720     5.2110     5.7840    24.2350 
  146.2500   -10.3180     2.2910    98.3130     6.1510     5.1780     5.7950    24.2550 
  146.3750   -10.4640     2.3050   101.5600     6.1500     5.1480     5.8130    24.2470 
  146.5000   -10.6200     2.3180   102.3130     6.1830     5.1320     5.8050    24.2180 
  146.6250   -10.6490     2.3230    99.0250     6.2560     5.1400     5.8390    24.1910 
  146.7500   -10.6140     2.3210    98.2280     6.3480     5.1660     5.9310    24.1840 
  146.8750   -10.5790     2.3140    99.6590     6.4450     5.2090     6.0410    24.1760 
  147.0000   -10.5100     2.3070    99.5740     6.5340     5.2620     6.0950    24.1500 
  147.1250   -10.3680     2.3030    96.6690     6.6060     5.3160     6.0800    24.1210 
  147.2500   -10.1650     2.3010    92.2520     6.6600     5.3590     6.1370    24.0850 
  147.3750    -9.9350     2.3010    88.5960     6.6970     5.3820     6.2090    24.0860 
  147.5000    -9.6800     2.3020    88.6460     6.7150     5.3860     6.2460    24.0680 
  147.6250    -9.4010     2.3090    89.8140     6.7120     5.3710     6.1800    24.0440 
  147.7500    -9.0910     2.3230    88.5170     6.6980     5.3470     6.0820    24.0460 
  147.8750    -8.7910     2.3420    88.0490     6.6780     5.3200     6.0190    24.0800 
  148.0000    -8.6000     2.3580    91.0910     6.6640     5.2950     5.9710    24.0840 
  148.1250    -8.5070     2.3630    93.9380     6.6660     5.2780     5.9550    24.0990 
  148.2500    -8.3890     2.3580    95.4030     6.6790     5.2650     5.9790    24.1120 
  148.3750    -8.2440     2.3450    99.6250     6.6870     5.2470     5.9870    24.1220 
  148.5000    -8.1600     2.3300   107.8800     6.6700     5.2140     5.9300    24.1100 
  148.6250    -8.1850     2.3170   115.7020     6.6100     5.1570     5.7910    24.1160 
  148.7500    -8.1970     2.3090   117.0720     6.5270     5.0880     5.6560    24.1380 
  148.8750    -8.1630     2.3060   111.0490     6.4480     5.0220     5.5930    24.1480 
  149.0000    -8.1050     2.3090   101.3190     6.3950     4.9750     5.5280    24.1270 
  149.1250    -8.1050     2.3170    92.8390     6.3850     4.9640     5.4430    24.0840 
  149.2500    -8.1760     2.3250    87.9760     6.3990     4.9780     5.3910    24.0640 
  149.3750    -8.2410     2.3320    86.3980     6.4150     5.0030     5.3900    24.0730 
  149.5000    -8.2700     2.3360    90.1490     6.4200     5.0240     5.4050    24.0830 
  149.6250    -8.3220     2.3390    95.1950     6.4080     5.0300     5.4440    24.1040 
  149.7500    -8.4440     2.3410    95.3020     6.3820     5.0260     5.4250    24.1310 
  149.8750    -8.5570     2.3430    92.2700     6.3450     5.0160     5.3550    24.1570 
  150.0000    -8.5940     2.3440    92.2250     6.2990     5.0020     5.2740    24.1660 
  150.1250    -8.6010     2.3430    97.2150     6.2480     4.9790     5.2480    24.1630 
  150.2500    -8.6520     2.3410   101.9140     6.1940     4.9460     5.2300    24.1540 
  150.3750    -8.7020     2.3380   104.5470     6.1360     4.9050     5.1990    24.1250 
  150.5000    -8.7280     2.3350   106.5210     6.0780     4.8590     5.1660    24.0950 
  150.6250    -8.7370     2.3330   110.2290     6.0160     4.8040     5.1050    24.0560 
  150.7500    -8.7130     2.3320   113.8730     5.9430     4.7390     5.0360    24.0220 
  150.8750    -8.6650     2.3340   114.2970     5.8550     4.6650     4.9620    24.0130 
  151.0000    -8.6000     2.3370   109.4810     5.7530     4.5890     4.9000    24.0110 
  151.1250    -8.4980     2.3400   103.8400     5.6530     4.5280     4.8510    24.0160 
  151.2500    -8.3950     2.3380   102.4110     5.5800     4.4920     4.8150    24.0210 
  151.3750    -8.3430     2.3320   103.0960     5.5500     4.4900     4.8170    24.0380 
  151.5000    -8.3190     2.3210   103.5150     5.5640     4.5200     4.8600    24.0620 
  151.6250    -8.2720     2.3130   104.8290     5.6170     4.5820     4.9330    24.0770 
  151.7500    -8.2790     2.3100   106.1290     5.6940     4.6680     5.0300    24.0510 
  151.8750    -8.3740     2.3110   104.6580     5.7910     4.7740     5.1230    24.0000 
  152.0000    -8.5140     2.3150   101.2330     5.8950     4.8920     5.1750    23.9790 
  152.1250    -8.6380     2.3190   100.1190     5.9790     5.0010     5.1710    23.9680 
  152.2500    -8.7460     2.3250   102.1170     6.0160     5.0800     5.1940    23.9120 
  152.3750    -8.9280     2.3320   104.3750     5.9930     5.1150     5.2920    23.7650 
  152.5000    -9.2160     2.3390   105.0040     5.9150     5.1050     5.3530    23.6220 
  152.6250    -9.5320     2.3460   102.3690     5.8040     5.0610     5.3940    23.5630 
  152.7500    -9.7590     2.3530    99.0710     5.6990     5.0140     5.3550    23.6430 
  152.8750    -9.9040     2.3620    96.6190     5.6190     4.9770     5.2400    23.8010 
  153.0000   -10.0590     2.3710    93.9210     5.5730     4.9580     5.1420    23.9520 
  153.1250   -10.1640     2.3790    92.1410     5.5680     4.9560     5.1020    24.0380 
  153.2500   -10.1230     2.3840    94.9380     5.6000     4.9660     5.0830    24.0440 
  153.3750    -9.9670     2.3850   102.7470     5.6750     4.9890     5.0690    23.9790 
  153.5000    -9.7530     2.3830   110.7930     5.8030     5.0300     5.1400    23.8870 
  153.6250    -9.5050     2.3770   109.8930     5.9920     5.1000     5.3490    23.8370 
  153.7500    -9.2380     2.3660   102.2620     6.1860     5.1780     5.5490    23.8260 
  153.8750    -8.9980     2.3530    95.1600     6.2890     5.2150     5.6280    23.7970 
  154.0000    -8.7830     2.3390    94.5260     6.1990     5.1500     5.7370    23.7340 
  154.1250    -8.6030     2.3260    99.0710     5.9180     4.9730     5.9150    23.7010 
