~V
VERS. 2.00: Ver 2.00
~W
STRT.M 56.0000:
STOP.M 252.0000:
STEP.M 0.1250:
NULL. -999.2500:
UWI. F11142:
~C
DEPT.M :
SP.MV :
DEN.GM/CC :
GR.API :
RML.OHMM :
RI. :
RXO.OHMM :
CALI.CM :
~A
# ...
   67.2500   -16.6350     2.1790    95.6580     7.8100     5.9950     7.5000    23.2730 
   67.3750   -17.7790     2.1420    85.3430     8.1160     6.4370     8.7280    23.0800 
   67.5000   -19.2290     2.1200    78.2510     8.2510     6.7760     9.4200    23.0210 
   67.6250   -20.7490     2.1110    75.8550     8.2100     6.9400     9.6260    23.0750 
   67.7500   -22.0860     2.1160    75.1380     8.0180     6.9100     9.4710    23.1980 
   67.8750   -22.9800     2.1340    75.0720     7.7290     6.7170     9.0260    23.4130 
   68.0000   -23.2390     2.1620    78.1990     7.4260     6.4370     8.3310    23.6190 
   68.1250   -23.0930     2.1940    84.1290     7.2060     6.1840     7.5350    23.7690 
   68.2500   -22.7540     2.2210    89.8110     7.1350     6.0360     6.9450    23.7650 
   68.3750   -22.5400     2.2380    92.3500     7.2420     6.0340     6.8090    23.7380 
   68.5000   -22.7920     2.2260    91.0990     7.5260     6.1930     7.0740    23.8640 
   68.6250   -23.4340     2.1870    86.3860     7.8770     6.4370     7.9070    24.1540 
   68.7500   -24.4380     2.1380    80.8760     8.1950     6.6930     9.1620    24.5350 
   68.8750   -25.8480     2.1030    78.6470     8.3930     6.8930    10.1350    24.8090 
   69.0000   -27.6520     2.0950    79.8280     8.4040     6.9820    10.3780    24.7650 
   69.1250   -29.5470     2.0990    79.2640     8.2880     6.9930    10.5070    24.6370 
   69.2500   -31.3190     2.1070    75.6100     8.1180     6.9700    10.8050    24.5210 
   69.3750   -32.7210     2.1090    71.8760     7.9730     6.9600    11.1120    24.3690 
   69.5000   -33.4200     2.1030    70.6030     7.9330     7.0060    11.2890    24.2970 
   69.6250   -33.6030     2.0930    70.4740     7.9980     7.0960    11.4050    24.3150 
   69.7500   -33.3970     2.0910    70.8760     8.1270     7.2020    11.4390    24.3220 
   69.8750   -32.8000     2.1060    72.1320     8.2470     7.2760    11.4190    24.2440 
   70.0000   -31.6890     2.1310    73.8710     8.2360     7.2320    11.3530    24.1060 
   70.1250   -30.1330     2.1520    75.1790     8.0330     7.0260    10.8960    24.0620 
   70.2500   -28.1230     2.1710    77.6710     7.6300     6.6460     9.8390    24.1070 
   70.3750   -25.7450     2.2010    83.4460     7.0790     6.1320     8.1480    24.2010 
   70.5000   -23.1950     2.2500    90.9340     6.4810     5.5720     6.2280    24.3610 
   70.6250   -20.7180     2.2990    97.0860     5.9540     5.0700     4.8530    24.4310 
   70.7500   -18.4070     2.3320   102.1590     5.5650     4.6810     4.4270    24.4200 
   70.8750   -16.3390     2.3460   106.9040     5.3630     4.4340     4.5510    24.4230 
   71.0000   -14.7370     2.3540   109.5900     5.4360     4.3850     4.7620    24.4790 
   71.1250   -13.6810     2.3610   109.6100     5.7850     4.5340     4.9160    24.5610 
   71.2500   -13.3250     2.3610   106.1710     6.4030     4.8970     5.5070    24.6360 
   71.3750   -13.7510     2.3520    99.5750     7.2130     5.4470     7.5370    24.6480 
   71.5000   -14.9320     2.3470    92.6110     8.0380     6.0990    11.0610    24.5240 
   71.6250   -16.5100     2.3410    86.4860     8.6600     6.6820    15.0180    24.3340 
   71.7500   -18.3350     2.3080    80.6850     8.9430     7.0560    18.2460    24.1740 
   71.8750   -20.2880     2.2300    75.0620     8.8790     7.1600    17.1100    24.1130 
   72.0000   -22.2440     2.1410    72.9070     8.6300     7.0470    12.1780    24.2310 
   72.1250   -24.1030     2.0840    72.8670     8.4980     6.9490    10.4210    24.4330 
   72.2500   -25.7640     2.0600    71.9010     8.6460     7.0160    10.2940    24.6520 
   72.3750   -27.1120     2.0560    69.3300     9.0810     7.2960    10.9930    24.8570 
   72.5000   -28.0330     2.0660    67.4090     9.6480     7.7130    12.6920    24.9020 
   72.6250   -28.5980     2.1060    67.6710    10.0710     8.0590    14.8090    24.8730 
   72.7500   -28.9060     2.1790    70.0610    10.1770     8.1740    16.9300    24.6550 
   72.8750   -29.0890     2.2480    72.9100     9.9290     7.9830    18.1710    24.1720 
   73.0000   -29.2540     2.2540    75.2180     9.4410     7.5260    15.4640    23.5260 
   73.1250   -29.4520     2.2210    77.5420     8.9800     7.0240    12.0210    23.0780 
   73.2500   -29.6970     2.1950    80.9030     8.6860     6.6230    10.7300    22.7890 
   73.3750   -30.0050     2.1840    85.2090     8.5940     6.3890    10.5100    22.5230 
   73.5000   -30.4720     2.1690    85.9500     8.6600     6.3400    10.5740    22.4200 
   73.6250   -31.1190     2.1400    81.5220     8.7660     6.3910    10.8060    22.7710 
   73.7500   -31.8760     2.1030    75.2870     8.8520     6.4800    11.2090    23.5890 
   73.8750   -32.6600     2.0720    71.1740     8.9010     6.5630    11.6630    24.5240 
   74.0000   -33.3830     2.0620    69.6760     8.9200     6.6190    11.9660    24.9930 
   74.1250   -34.0090     2.0730    68.5870     8.9230     6.6500    12.0740    25.0200 
   74.2500   -34.5610     2.1020    68.6190     8.9100     6.6610    12.0830    24.9270 
   74.3750   -35.0460     2.1410    69.5900     8.8790     6.6500    12.1040    24.9170 
   74.5000   -35.3590     2.1690    68.7740     8.8410     6.6180    12.0900    24.9540 
   74.6250   -35.5100     2.1680    67.3330     8.8220     6.5730    12.0480    24.8680 
   74.7500   -35.5830     2.1500    67.5700     8.8320     6.5280    12.0430    24.6500 
   74.8750   -35.6630     2.1360    70.0040     8.8670     6.4970    12.0820    24.4100 
   75.0000   -35.7820     2.1390    72.4180     8.9060     6.4990    12.2050    24.3060 
   75.1250   -35.9100     2.1440    72.6140     8.9230     6.5210    12.5030    24.3090 
   75.2500   -35.9740     2.1470    71.2890     8.9080     6.5460    12.7610    24.3950 
   75.3750   -35.9310     2.1450    69.9970     8.8510     6.5480    12.8880    24.5360 
   75.5000   -35.7990     2.1370    68.8450     8.7340     6.5000    12.7520    24.7290 
   75.6250   -35.5930     2.1240    66.4610     8.5690     6.4100    12.4240    24.9670 
   75.7500   -35.2950     2.1130    64.4040     8.3790     6.2950    12.0560    25.1310 
   75.8750   -34.8820     2.1070    65.1050     8.1970     6.1780    11.7710    25.1070 
   76.0000   -34.3380     2.1060    68.3620     8.0630     6.0840    11.5260    24.9330 
   76.1250   -33.7680     2.1060    71.5280     7.9740     6.0210    11.4210    24.7680 
   76.2500   -33.2560     2.1020    74.0700     7.9250     5.9880    11.5450    24.6530 
   76.3750   -32.8490     2.0890    75.4230     7.9070     5.9820    11.7280    24.5410 
   76.5000   -32.5560     2.0720    74.5550     7.9170     5.9930    11.8480    24.3800 
   76.6250   -32.3420     2.0630    73.2570     7.9340     6.0040    11.9290    24.2390 
   76.7500   -32.2110     2.0650    72.7340     7.9280     6.0020    12.0910    24.1000 
   76.8750   -32.1110     2.0750    73.7580     7.8700     5.9820    12.2210    23.9370 
   77.0000   -31.9520     2.0860    76.7920     7.7420     5.9450    12.0570    23.8400 
   77.1250   -31.6590     2.0940    79.0590     7.5760     5.9020    11.5830    23.8980 
   77.2500   -31.2190     2.0960    78.0240     7.4030     5.8560    10.8740    24.1680 
   77.3750   -30.5850     2.0910    75.0290     7.2500     5.8120    10.1480    24.5370 
   77.5000   -29.6800     2.0860    75.0970     7.1320     5.7680     9.8830    24.6760 
   77.6250   -28.5520     2.0910    78.6490     7.0400     5.7230     9.7420    24.5370 
   77.7500   -27.1540     2.1100    83.1060     6.9720     5.6730     9.2940    24.2740 
   77.8750   -25.4520     2.1390    86.7710     6.9220     5.6200     8.5820    24.1630 
   78.0000   -23.4830     2.1760    89.6330     6.8720     5.5590     7.7770    24.2620 
   78.1250   -21.5090     2.2060    93.2800     6.7830     5.4770     7.1730    24.4220 
   78.2500   -19.5980     2.2190    97.4270     6.6150     5.3540     6.6850    24.5070 
   78.3750   -17.7000     2.2170   100.6470     6.3450     5.1710     6.5080    24.5070 
