~V
VERS. 2.00: Ver 2.00
~W
STRT.M 50.0000:
STOP.M 221.0000:
STEP.M 0.1250:
NULL. -999.2500:
UWI. F11120:
~C
DEPT.M :
DEN.GM/CC :
GR.API :
RML.OHMM :
RI. :
RXO.OHMM :
CALI.CM :
SP.MV :
~A
# ...
   61.2500     2.3030    83.3600    11.4930     6.6810     8.2640    26.8260   -10.5250 
   61.3750     2.2940    86.9330    11.5750     6.5640     8.1710    26.8400   -11.0430 
   61.5000     2.2950    88.3060    11.3560     6.3810     8.1330    26.9000   -11.6320 
   61.6250     2.2830    86.2830    11.0750     6.2100     7.7580    26.9640   -12.3730 
   61.7500     2.2530    84.4250    10.9340     6.1150     6.2510    27.0010   -13.2110 
   61.8750     2.2180    85.0430    11.0240     6.1400     5.7710    27.0080   -14.1090 
   62.0000     2.2010    88.4590    11.3820     6.3070     6.4470    26.9790   -15.0500 
   62.1250     2.2060    90.5940    11.9780     6.6130     7.6000    26.9140   -16.0310 
   62.2500     2.2110    87.4640    12.5860     6.9670     8.1190    26.8110   -17.0400 
   62.3750     2.2010    79.4590    13.0010     7.2850     8.4550    26.6880   -18.0690 
   62.5000     2.1790    71.6110    13.1290     7.5140     8.4070    26.6740   -19.1020 
   62.6250     2.1610    71.4460    13.0920     7.6500     8.4580    26.6740   -20.1090 
   62.7500     2.1490    74.4900    13.1470     7.7640     8.7050    26.6310   -21.0740 
   62.8750     2.1420    74.4690    13.3210     7.8720     8.7170    26.5820   -21.9830 
   63.0000     2.1390    70.8140    13.3690     7.9130     8.9910    26.5020   -22.8140 
   63.1250     2.1450    68.1640    12.8180     7.7420     9.8860    26.4590   -23.5300 
   63.2500     2.1590    70.3940    11.8340     7.3940    10.1620    26.5460   -24.1230 
   63.3750     2.1810    75.0910    10.9460     7.0350     9.6190    26.7240   -24.5880 
   63.5000     2.2120    79.1080    10.6560     6.8880     8.4720    26.8920   -24.9430 
   63.6250     2.2550    80.4680    11.3990     7.2140     8.8000    26.9690   -25.2350 
   63.7500     2.3070    77.9660    13.1130     8.0270    13.4180    26.9860   -25.5460 
   63.8750     2.3560    72.3230    15.5930     9.2470    22.5870    26.9710   -25.9350 
   64.0000     2.3710    65.9050    18.0730    10.5740    21.6070    26.9310   -26.4410 
   64.1250     2.3150    62.0840    18.9850    11.3750    14.5950    26.8900   -27.0920 
   64.2500     2.2350    61.2240    18.0920    11.3380    11.1980    26.8620   -27.8600 
   64.3750     2.1730    60.6990    16.2020    10.6000    10.3460    26.8690   -28.7390 
   64.5000     2.1400    60.3450    14.3360     9.6090    10.4070    26.9020   -29.7160 
   64.6250     2.1320    60.8990    13.2040     8.8390    10.5810    26.9430   -30.7590 
   64.7500     2.1380    62.4080    12.7710     8.4200    10.7190    26.9550   -31.7850 
   64.8750     2.1550    63.7410    12.8730     8.3120    11.3960    27.0650   -32.7210 
   65.0000     2.1750    62.9670    13.2680     8.4130    13.8530    27.2520   -33.5140 
   65.1250     2.1910    60.1100    13.5750     8.5810    18.2530    27.3240   -34.1350 
   65.2500     2.1910    58.2410    13.4700     8.6580    18.2750    27.2310   -34.6280 
   65.3750     2.1720    57.7660    12.9180     8.5830    13.6390    27.1290   -35.0090 
   65.5000     2.1440    58.0880    12.1480     8.3840    11.0580    27.0480   -35.2860 
   65.6250     2.1350    58.6050    11.5200     8.1540    10.7190    27.0090   -35.4400 
   65.7500     2.1500    58.4910    11.2120     7.9980    10.8770    26.9920   -35.5000 
   65.8750     2.1820    58.1820    11.2280     7.9680    11.4980    26.9900   -35.4820 
   66.0000     2.2210    60.0000    11.4470     8.0610    13.0570    26.9770   -35.4130 
   66.1250     2.2440    64.6650    11.6440     8.2190    13.1980    26.9590   -35.3050 
   66.2500     2.2360    66.6730    11.6070     8.3320    12.3730    26.9740   -35.1720 
   66.3750     2.2160    63.7500    11.2310     8.3180    12.0320    27.0620   -35.0110 
   66.5000     2.2080    60.8860    10.5650     8.1390    11.9820    27.1950   -34.8080 
   66.6250     2.2150    63.0670     9.8250     7.8300    12.0170    27.3480   -34.5630 
   66.7500     2.2130    66.0560     9.2820     7.5340    10.9540    27.5430   -34.2910 
   66.8750     2.1910    66.4860     9.0700     7.3530     9.7230    27.7860   -34.0070 
   67.0000     2.1510    65.5770     9.2000     7.3390     8.7750    28.0250   -33.7100 
   67.1250     2.1070    66.7430     9.5780     7.4880     8.8770    28.0540   -33.3760 
   67.2500     2.0800    68.2940     9.9580     7.6820     9.6580    27.9690   -33.0050 
   67.3750     2.0740    66.2760    10.1790     7.8230    10.2430    27.9400   -32.6020 
   67.5000     2.0780    60.8980    10.1790     7.8540    10.1220    28.0230   -32.1860 
   67.6250     2.0730    57.7820    10.0130     7.7730     9.8360    28.0990   -31.7690 
   67.7500     2.0610    58.5140     9.8250     7.6480     9.7070    28.0140   -31.3470 
   67.8750     2.0580    62.0220     9.6570     7.5090    10.0670    27.7120   -30.8950 
   68.0000     2.0770    66.7770     9.4810     7.3610    10.6600    27.3110   -30.3820 
   68.1250     2.1190    71.4900     9.2710     7.1970    10.3820    27.1470   -29.7790 
   68.2500     2.1660    73.6530     9.1100     7.0600     9.4650    27.1330   -29.0890 
   68.3750     2.2040    73.9660     9.1270     7.0100     8.4210    27.1340   -28.3210 
   68.5000     2.2300    75.1670     9.3880     7.0840     8.0510    27.0770   -27.4920 
   68.6250     2.2480    75.8790     9.8080     7.2420     8.8970    26.9670   -26.6100 
   68.7500     2.2610    75.9550    10.0550     7.3180    10.6950    26.9150   -25.6980 
   68.8750     2.2740    78.6770     9.8260     7.1570    11.5510    26.9650   -24.7750 
   69.0000     2.2820    84.4320     9.0310     6.7070     9.2810    27.0450   -23.8680 
   69.1250     2.2780    88.5160     7.9920     6.1070     6.9920    27.1050   -23.0110 
   69.2500     2.2690    88.3750     7.2800     5.6370     5.6140    27.1520   -22.2390 
   69.3750     2.2690    86.7530     7.1920     5.4580     5.2220    27.1480   -21.5840 
   69.5000     2.2890    85.1540     7.7890     5.6300     6.0290    27.1040   -21.0740 
   69.6250     2.3280    82.1190     8.9580     6.1610     8.6560    27.0380   -20.7570 
   69.7500     2.3590    77.3630    10.1790     6.8210    11.3080    27.0050   -20.6100 
   69.8750     2.3510    72.2920    10.9840     7.3770    11.4110    26.9970   -20.6250 
   70.0000     2.2940    69.3580    11.1160     7.6520     9.7750    27.0070   -20.7790 
   70.1250     2.2190    69.3150    10.6690     7.6080     8.9740    27.0370   -21.0490 
   70.2500     2.1690    69.4970    10.1480     7.4490     9.1750    27.0640   -21.3740 
   70.3750     2.1480    69.5260     9.8340     7.3200     9.8880    27.0730   -21.7180 
   70.5000     2.1470    70.2870     9.8210     7.3020    10.3530    27.0540   -22.0410 
   70.6250     2.1590    72.0170    10.0560     7.3980    10.4560    27.0430   -22.2750 
   70.7500     2.1810    73.0340    10.3170     7.5090    10.3000    27.0720   -22.3830 
   70.8750     2.2130    73.4220    10.4600     7.5590    10.4620    27.1000   -22.3480 
   71.0000     2.2590    73.3800    10.3840     7.4940    10.4600    27.0960   -22.1790 
   71.1250     2.3110    75.2820    10.0100     7.2680     9.3940    27.1100   -21.9130 
   71.2500     2.3370    79.7710     9.4530     6.9340     6.9610    27.1650   -21.6220 
   71.3750     2.3250    85.3500     8.8440     6.5570     5.7320    27.2310   -21.3430 
   71.5000     2.2960    88.8990     8.2990     6.2010     5.3910    27.3000   -21.0960 
   71.6250     2.2780    89.2260     7.9070     5.9250     5.3900    27.3470   -20.9060 
   71.7500     2.2610    88.4250     7.6660     5.7380     5.3350    27.4060   -20.7830 
   71.8750     2.2360    87.1510     7.5590     5.6350     5.3640    27.4320   -20.7420 
   72.0000     2.2080    84.8120     7.5500     5.5960     5.4440    27.4310   -20.7730 
   72.1250     2.1950    80.6780     7.6150     5.6080     5.5190    27.4190   -20.8490 
   72.2500     2.1980    78.4480     7.7140     5.6490     5.6390    27.3990   -20.9120 
   72.3750     2.2120    81.6630     7.8160     5.7080     5.7470    27.3470   -20.9350 
