~V
VERS. 2.00: Ver 2.00
~W
STRT.M 45.0000:
STOP.M 264.0000:
STEP.M 0.1250:
NULL. -999.2500:
UWI. F11189:
~C
DEPT.M :
SP.MV :
GR.API :
RI. :
RML.OHMM :
RXO.OHMM :
DEN.GM/CC :
~A
# ...
  109.3750    -9.7160    64.1830     7.3160     8.1150    24.0750     2.3540 
  109.5000    -9.6390    60.8610     7.0920     7.7250    16.7560     2.3070 
  109.6250    -9.5970    60.0720     6.4010     6.8370     7.5540     2.1780 
  109.7500    -9.5990    60.9680     5.5720     5.8540     5.9260     2.0900 
  109.8750    -9.6560    62.3300     4.9090     5.1680     5.7220     2.0940 
  110.0000    -9.7680    66.1180     4.6380     4.9500     5.5000     2.1330 
  110.1250    -9.9440    72.3130     4.5630     4.9270     5.6610     2.1620 
  110.2500   -10.1800    78.6270     4.5740     4.9750     5.8800     2.1760 
  110.3750   -10.4740    81.0620     4.5980     5.0230     5.9890     2.1760 
  110.5000   -10.8130    79.3350     4.6260     5.0730     6.2460     2.1740 
  110.6250   -11.1800    78.5450     4.6390     5.0950     6.3140     2.1770 
  110.7500   -11.5440    81.1200     4.6330     5.0830     6.1330     2.1770 
  110.8750   -11.8670    82.7390     4.6390     5.0700     6.0830     2.1600 
  111.0000   -12.1120    79.1950     4.6700     5.0740     6.0870     2.1390 
  111.1250   -12.2440    74.0640     4.7270     5.1170     6.0510     2.1370 
  111.2500   -12.2640    72.3700     4.8130     5.1990     6.0430     2.1440 
  111.3750   -12.1800    72.9480     4.9200     5.3190     6.0080     2.1400 
  111.5000   -12.0320    73.2030     5.0180     5.4340     6.0900     2.1250 
  111.6250   -11.8450    72.4570     5.1210     5.5600     6.3330     2.1100 
  111.7500   -11.6350    71.4040     5.2130     5.6720     6.3990     2.1020 
  111.8750   -11.3990    70.2670     5.2880     5.7610     6.2950     2.0950 
  112.0000   -11.1360    69.4810     5.3360     5.8200     6.2420     2.0910 
  112.1250   -10.8460    69.1210     5.3310     5.8140     6.2210     2.0980 
  112.2500   -10.5450    69.1150     5.2690     5.7460     6.1950     2.1070 
  112.3750   -10.2550    68.2640     5.1490     5.5980     6.1240     2.1070 
  112.5000    -9.9890    67.7160     5.0260     5.4570     6.0790     2.1040 
  112.6250    -9.7540    67.8550     5.0170     5.4630     6.0380     2.1130 
  112.7500    -9.5320    68.8830     5.1970     5.7200     5.8340     2.1330 
  112.8750    -9.3000    69.4850     5.6150     6.2810     5.7450     2.1440 
  113.0000    -9.0330    69.6280     6.1680     7.0030     6.0100     2.1370 
  113.1250    -8.7160    67.1500     6.6970     7.6500     6.3280     2.1220 
  113.2500    -8.3650    62.1310     6.9730     7.9200     6.4820     2.1060 
  113.3750    -8.0090    57.4120     6.9070     7.7410     6.4240     2.0930 
  113.5000    -7.6860    57.3960     6.5840     7.2680     6.3100     2.0820 
  113.6250    -7.4380    59.8190     6.1820     6.7560     6.3330     2.0780 
  113.7500    -7.2760    60.3820     5.9130     6.4580     6.3500     2.0780 
  113.8750    -7.2070    58.6110     5.8040     6.3590     6.2780     2.0800 
  114.0000    -7.2070    57.6970     5.7340     6.3000     6.2240     2.0830 
  114.1250    -7.2580    59.4580     5.6450     6.2070     6.2360     2.0830 
  114.2500    -7.3450    62.8880     5.5260     6.0670     6.1900     2.0810 
  114.3750    -7.4720    65.3920     5.3920     5.9080     6.1360     2.0750 
  114.5000    -7.6450    65.7880     5.2960     5.7940     6.1410     2.0750 
  114.6250    -7.8720    65.5610     5.2460     5.7460     6.2040     2.0910 
  114.7500    -8.1380    64.8810     5.2560     5.7680     6.3240     2.1110 
  114.8750    -8.4230    63.1950     5.2950     5.8290     6.2540     2.1170 
  115.0000    -8.7070    61.6680     5.2920     5.8350     6.0670     2.1060 
  115.1250    -8.9850    63.8670     5.2120     5.7290     6.0040     2.0920 
  115.2500    -9.2680    68.6320     5.0300     5.5100     5.9800     2.0880 
  115.3750    -9.5720    72.4050     4.8260     5.2720     5.8690     2.1040 
  115.5000    -9.9020    74.2230     4.6620     5.1050     5.8490     2.1300 
  115.6250   -10.2480    76.4740     4.5970     5.0640     5.9080     2.1490 
  115.7500   -10.5860    79.2470     4.6240     5.1340     5.8370     2.1450 
  115.8750   -10.8840    78.9840     4.6930     5.2560     5.7610     2.1250 
  116.0000   -11.1150    75.0370     4.7760     5.3830     5.7670     2.1040 
  116.1250   -11.2490    72.3010     4.8350     5.4680     5.8050     2.0940 
  116.2500   -11.2820    72.9080     4.8710     5.5130     5.8080     2.0920 
  116.3750   -11.2050    74.7760     4.8900     5.5250     5.8890     2.0940 
  116.5000   -11.0370    74.1230     4.9130     5.5390     6.0900     2.0950 
  116.6250   -10.7860    71.5180     4.9530     5.5720     6.1810     2.0940 
  116.7500   -10.4750    69.0830     5.0210     5.6330     6.1730     2.0960 
  116.8750   -10.1190    68.1700     5.1320     5.7570     6.1830     2.0980 
  117.0000    -9.7380    67.7320     5.2750     5.9220     6.1850     2.0970 
  117.1250    -9.3430    68.0450     5.3930     6.0500     6.1630     2.0930 
  117.2500    -8.9390    69.1590     5.4290     6.0870     5.9450     2.0890 
  117.3750    -8.5290    70.0180     5.3130     5.9390     5.7050     2.0890 
  117.5000    -8.1310    70.0830     5.0480     5.6170     5.7550     2.0930 
  117.6250    -7.7780    71.3960     4.6970     5.1970     5.8190     2.0990 
  117.7500    -7.5090    74.1020     4.2900     4.7230     5.8750     2.1080 
  117.8750    -7.3690    77.1170     3.9170     4.2910     5.7700     2.1250 
  118.0000    -7.3600    82.5980     3.6070     3.9410     5.2440     2.1550 
  118.1250    -7.4690    91.7020     3.4320     3.7580     4.9710     2.1910 
  118.2500    -7.6350    98.7440     3.4300     3.7740     5.1000     2.2100 
  118.3750    -7.7970   100.4120     3.5700     3.9560     5.1300     2.2060 
  118.5000    -7.9080    98.9990     3.7750     4.2030     5.3190     2.1930 
  118.6250    -7.9350    97.0630     3.9350     4.3810     5.7280     2.1840 
  118.7500    -7.8760    95.0560     3.9560     4.3700     5.7770     2.1810 
  118.8750    -7.7240    93.6390     3.7890     4.1350     5.3840     2.1870 
  119.0000    -7.4930    94.2740     3.5640     3.8490     4.9210     2.2040 
  119.1250    -7.1930    96.4790     3.3570     3.6060     4.6620     2.2180 
  119.2500    -6.8620    97.7190     3.2610     3.5260     4.7240     2.2180 
  119.3750    -6.5480    97.2600     3.2580     3.5610     5.1270     2.2170 
  119.5000    -6.2940    96.4570     3.2950     3.6320     5.5420     2.2180 
  119.6250    -6.1440    99.0010     3.3120     3.6640     5.5020     2.2100 
  119.7500    -6.1030   103.1340     3.2990     3.6460     5.2580     2.2010 
  119.8750    -6.1730   103.7140     3.2850     3.6210     5.1510     2.2010 
  120.0000    -6.3190   100.7560     3.3360     3.6730     5.0230     2.2080 
  120.1250    -6.5130    97.0790     3.5110     3.8850     4.9900     2.2230 
  120.2500    -6.7140    94.6570     3.8870     4.3440     5.5550     2.2630 
  120.3750    -6.8930    91.9620     4.3390     4.8730     6.5510     2.3290 
  120.5000    -7.0380    89.4610     4.6640     5.2180     7.5780     2.3910 
  120.6250    -7.1490    87.8220     4.7500     5.2600     8.5460     2.4070 
  120.7500    -7.2400    87.4070     4.5650     4.9730     8.1490     2.3580 
  120.8750    -7.3210    89.7980     4.2620     4.5840     6.5280     2.2670 
  121.0000    -7.4040    93.5390     3.9930     4.2820     5.7970     2.1880 
  121.1250    -7.4980    94.0630     3.8530     4.1600     5.9250     2.1550 
  121.2500    -7.6100    91.4910     3.8180     4.1720     6.0530     2.1500 
  121.3750    -7.7440    88.1150     3.8510     4.2440     5.9230     2.1480 
  121.5000    -7.8940    86.7950     3.8520     4.2510     5.6430     2.1500 
  121.6250    -8.0410    87.4150     3.7950     4.1830     5.4340     2.1590 
  121.7500    -8.1680    89.5910     3.7000     4.0620     5.2670     2.1690 
  121.8750    -8.2650    91.1310     3.5840     3.9200     5.3110     2.1680 
  122.0000    -8.3450    89.4810     3.5100     3.8260     5.4510     2.1610 
  122.1250    -8.4330    87.8410     3.5330     3.8530     5.3420     2.1560 
