~V
VERS. 2.00: Ver 2.00
~W
STRT.M 63.0000:
STOP.M 246.0000:
STEP.M 0.1250:
NULL. -999.2500:
UWI. F11137:
~C
DEPT.M :
DEN.GM/CC :
GR.API :
RML.OHMM :
RI. :
RXO.OHMM :
CALI.CM :
SP.MV :
~A
# ...
  175.5000     2.3090    81.7780    30.3640    33.1010    22.2760    24.1900    -9.7900 
  175.6250     2.3380    81.8310    25.0940    27.2050    17.4490    23.7150    -9.5320 
  175.7500     2.3630    81.4180    21.6150    23.1770    17.2880    23.5820    -9.3360 
  175.8750     2.3820    82.7470    19.2040    20.2300    18.5170    23.8160    -9.1800 
  176.0000     2.3950    86.6120    17.5150    18.0050    17.4520    24.3820    -9.0520 
  176.1250     2.4090    89.2220    16.6820    16.5770    14.2210    25.0000    -8.9800 
  176.2500     2.4230    86.8220    16.8550    16.0110    13.3970    25.4380    -8.9210 
  176.3750     2.4310    81.4130    18.3630    16.5650    14.4930    25.6510    -8.8750 
  176.5000     2.4230    77.2930    21.4790    18.5650    18.1260    25.7510    -8.9110 
  176.6250     2.3950    78.3960    26.4780    22.6770    24.1970    25.8140    -8.9480 
  176.7500     2.3560    78.9940    32.5740    28.5860    31.8440    25.8450    -8.9750 
  176.8750     2.3180    75.6220    38.8270    35.4840    44.6110    25.8550    -9.0260 
  177.0000     2.2910    71.9590    44.1840    41.8200    59.5240    25.8480    -9.1430 
  177.1250     2.2830    71.4690    47.7510    45.7600    61.8330    25.8490    -9.2590 
  177.2500     2.2890    73.7900    50.1650    47.7040    55.3750    25.8490    -9.3690 
  177.3750     2.3020    76.4160    52.4000    48.9070    48.1560    25.8640    -9.4650 
  177.5000     2.3110    77.4330    55.3380    50.6990    51.6010    25.8620    -9.5160 
  177.6250     2.3110    74.9790    59.2250    53.8520    68.2020    25.8240    -9.5160 
  177.7500     2.3030    70.6830    62.9920    57.4560    83.0090    25.7790    -9.5430 
  177.8750     2.2920    69.8090    65.4250    60.1060    88.0720    25.7610    -9.5840 
  178.0000     2.2840    73.1250    65.7580    60.6150    85.5940    25.7590    -9.6250 
  178.1250     2.2850    75.0720    64.0710    58.7430    76.4350    25.7570    -9.6990 
  178.2500     2.2920    73.7530    61.9940    56.2780    68.3930    25.7510    -9.8820 
  178.3750     2.3040    71.5330    60.7410    54.6100    62.4270    25.7490   -10.1430 
  178.5000     2.3140    70.8200    60.9710    54.4920    58.4760    25.7780   -10.4560 
  178.6250     2.3190    70.2670    62.8600    56.2090    68.3270    25.7620   -10.7710 
  178.7500     2.3160    69.2070    65.5770    59.0250    75.2440    25.7000   -11.1090 
  178.8750     2.3100    68.3750    68.3630    62.2840    75.7450    25.5950   -11.4500 
  179.0000     2.3030    67.3300    70.3820    65.1530    72.6790    25.4340   -11.7860 
  179.1250     2.3000    66.1710    70.5350    66.3800    73.4720    25.2420   -12.0610 
  179.2500     2.3000    66.4940    68.6630    65.5190    79.3460    25.1260   -12.1950 
  179.3750     2.3030    68.4740    64.9100    62.5580    81.1510    25.0830   -12.2190 
  179.5000     2.3090    70.8160    59.8460    57.9680    64.0680    25.0280   -12.1770 
  179.6250     2.3170    72.4770    54.3300    52.5350    41.3870    24.9430   -12.1370 
  179.7500     2.3270    73.2000    49.3050    47.3310    30.8030    24.7990   -12.0760 
  179.8750     2.3370    73.4990    45.3210    42.9590    33.9920    24.8130   -11.9830 
  180.0000     2.3420    74.6600    42.7300    39.7730    35.3470    25.0670   -11.8170 
  180.1250     2.3410    75.1360    42.0530    38.2660    34.4920    25.4710   -11.6350 
  180.2500     2.3350    75.2390    43.1900    38.3860    30.5960    25.9150   -11.4750 
  180.3750     2.3290    77.0690    46.2280    40.2440    29.1510    26.1510   -11.3650 
  180.5000     2.3230    78.9830    51.1470    43.9120    32.4210    26.1800   -11.2730 
  180.6250     2.3180    74.8460    57.9680    49.6140    43.0520    26.0870   -11.1640 
  180.7500     2.3130    68.0920    65.8940    56.6610    59.6460    25.9690   -10.9740 
  180.8750     2.3060    64.9360    74.2890    64.3690    73.0620    25.8920   -10.7900 
  181.0000     2.2980    66.6130    82.5430    71.9700    78.6650    25.8410   -10.7000 
  181.1250     2.2890    68.5520    90.1600    78.7760    78.2230    25.7450   -10.7440 
  181.2500     2.2820    68.5530    97.2180    84.8380    78.6430    25.6460   -10.8340 
  181.3750     2.2790    68.9760   103.8800    90.4180    83.8750    25.6660   -10.9190 
  181.5000     2.2780    69.1090   110.1880    95.7020    94.2080    25.7830   -10.9930 
  181.6250     2.2780    67.3030   115.7480   100.3640   103.5830    25.8710   -11.0950 
  181.7500     2.2770    65.7000   120.2290   104.0150   108.1120    25.9420   -11.2490 
  181.8750     2.2760    65.8040   123.4380   106.4680   110.4790    26.0440   -11.4630 
  182.0000     2.2780    67.4640   125.5060   107.9400   113.5000    26.1170   -11.6150 
  182.1250     2.2830    67.7390   126.6020   108.8810   116.3600    26.1430   -11.6720 
  182.2500     2.2900    67.2880   126.8670   109.6230   116.9300    26.1530   -11.6700 
  182.3750     2.2960    67.1450   125.8770   109.6980   118.5900    26.1720   -11.6730 
  182.5000     2.2970    66.9950   123.1820   108.2550   121.7310    26.2090   -11.6820 
  182.6250     2.2940    68.5750   118.7670   104.6900   123.8870    26.2600   -11.7010 
  182.7500     2.2890    68.5540   114.1520   100.3180   124.2680    26.3000   -11.7680 
  182.8750     2.2820    66.9440   110.9680    96.7440   123.4730    26.3070   -11.8350 
  183.0000     2.2730    66.6370   110.6500    95.5610   123.2870    26.2420   -11.9330 
  183.1250     2.2610    68.7600   114.4890    98.4880   125.3550    26.1770   -12.0500 
  183.2500     2.2500    70.3070   121.2240   104.7860   138.5430    26.1480   -12.2130 
  183.3750     2.2430    70.0280   129.0040   112.9510   145.6930    26.1540   -12.3580 
  183.5000     2.2420    70.1850   135.2390   120.4720   144.3750    26.1750   -12.5120 
  183.6250     2.2440    70.4760   136.6740   123.6910   138.8010    26.1910   -12.6410 
  183.7500     2.2450    68.2770   133.2940   121.8030   131.2420    26.1790   -12.7080 
  183.8750     2.2440    66.0150   126.5310   115.9460   127.1880    26.1160   -12.6420 
  184.0000     2.2440    66.3080   118.8060   108.6270   119.1610    25.9990   -12.4940 
  184.1250     2.2490    68.8640   112.7780   102.6010   106.7100    25.8580   -12.1860 
  184.2500     2.2580    69.2230   109.4340    98.9620    96.4840    25.7500   -11.7770 
  184.3750     2.2680    68.5850   108.9220    97.9500    90.5310    25.6740   -11.3410 
  184.5000     2.2770    69.4090   110.9220    99.3840    92.5940    25.6240   -10.8520 
  184.6250     2.2820    70.9840   115.0960   103.0270   105.1340    25.7030   -10.3620 
  184.7500     2.2840    71.1600   120.4740   107.8150   118.7010    25.9180   -10.0280 
  184.8750     2.2840    70.1230   126.6910   113.2620   120.5130    26.1140    -9.9730 
  185.0000     2.2810    69.9170   133.5960   119.3110   120.6870    26.2100   -10.2110 
  185.1250     2.2740    70.8810   140.9980   126.1330   140.8600    26.2440   -10.7520 
  185.2500     2.2660    70.2890   147.9700   133.0480   143.9540    26.2430   -11.4260 
  185.3750     2.2570    68.1640   153.1590   138.7410   142.0620    26.2160   -12.1650 
  185.5000     2.2510    66.0170   155.2140   141.5340   150.2670    26.1820   -12.9090 
  185.6250     2.2520    64.7850   153.1750   139.8060   160.5050    26.1480   -13.5710 
  185.7500     2.2580    62.9530   149.0160   135.3520   149.9790    26.1400   -14.0260 
  185.8750     2.2660    62.4340   144.9500   130.5990   124.0950    26.1340   -14.1650 
  186.0000     2.2720    64.3320   143.0100   127.8600   102.0710    26.1220   -14.1180 
  186.1250     2.2730    67.3830   144.8800   129.0610   104.8160    26.1140   -14.0990 
  186.2500     2.2690    69.0510   149.7790   133.6600   115.8930    26.1230   -14.1510 
  186.3750     2.2640    69.3440   156.4830   140.6500   131.4620    26.1310   -14.2310 
  186.5000     2.2580    69.2220   163.1720   148.2410   141.2930    26.1380   -14.3190 
  186.6250     2.2530    69.4110   167.2840   153.7240   140.8330    26.2130   -14.4560 
