~V
VERS. 2.00: Ver 2.00
~W
STRT.M 59.0000:
STOP.M 221.0000:
STEP.M 0.1250:
NULL. -999.2500:
UWI. F11122:
~C
DEPT.M :
GR.API :
RML.OHMM :
RI. :
RXO.OHMM :
CALI.CM :
SP.MV :
DEN.GM/CC :
~A
# ...
  171.5000    73.0230   135.2680   113.1910   170.2690    25.8840   -14.1910     2.2680 
  171.6250    75.6880   133.7600   112.7260   119.6310    25.8540   -14.2010     2.2640 
  171.7500    77.4490   129.5130   110.3750   112.0680    25.8870   -14.1880     2.2520 
  171.8750    78.3710   120.6460   104.3660   157.3750    26.0210   -14.1170     2.2360 
  172.0000    79.9310   106.2200    93.4900   180.1350    26.1220   -14.0940     2.2270 
  172.1250    80.1470    87.0830    77.8820   122.0090    26.0300   -14.1970     2.2400 
  172.2500    79.3740    67.5000    61.1570    72.3240    25.7740   -14.3650     2.2760 
  172.3750    82.0310    50.5910    46.2500    45.0240    25.4660   -14.5100     2.3240 
  172.5000    88.8810    38.0420    34.9690    27.9340    25.2230   -14.5450     2.3680 
  172.6250    94.8340    30.5180    28.1440    19.6400    25.0990   -14.5210     2.3870 
  172.7500    96.0290    26.1570    24.2000    17.0940    25.0290   -14.5000     2.3810 
  172.8750    96.6190    23.7990    22.1170    17.3090    24.9890   -14.5060     2.3560 
  173.0000   100.3090    22.5000    21.0670    18.6070    24.8530   -14.5030     2.3280 
  173.1250   103.9060    21.6030    20.4750    20.2530    24.7540   -14.4690     2.3140 
  173.2500   102.7610    20.6640    19.8890    19.9320    24.7660   -14.4170     2.3200 
  173.3750    99.5890    19.5780    19.1580    17.6590    24.6410   -14.4250     2.3430 
  173.5000    98.7650    18.3890    18.2710    15.9170    24.2200   -14.5820     2.3740 
  173.6250   101.1600    17.2360    17.3100    15.4930    23.8610   -14.8050     2.4070 
  173.7500   103.7150    16.2450    16.4130    14.4950    23.7440   -15.0370     2.4380 
  173.8750   107.7040    15.4990    15.6810    13.5250    23.7620   -15.2920     2.4680 
  174.0000   113.2810    15.0440    15.1810    12.5060    23.7850   -15.5830     2.4930 
  174.1250   117.8330    14.9470    14.9980    12.0430    23.7690   -15.8560     2.4950 
  174.2500   116.9350    15.1260    15.0710    11.7580    23.7640   -16.0650     2.4690 
  174.3750   111.7940    15.5030    15.3360    11.8710    23.7810   -16.1640     2.4150 
  174.5000   107.4900    15.9670    15.6880    13.1460    23.7600   -16.1570     2.3540 
  174.6250   107.2880    16.3990    15.9910    15.5260    23.6610   -16.1350     2.3150 
  174.7500   107.9170    16.7840    16.1980    16.7030    23.5900   -16.1200     2.3100 
  174.8750   107.5190    17.2170    16.3670    16.2780    23.5650   -16.0770     2.3310 
  175.0000   104.9010    17.8630    16.6370    16.0750    23.5650   -15.9550     2.3580 
  175.1250   100.8420    18.9750    17.2430    17.4870    23.5660   -15.8030     2.3700 
  175.2500    98.6170    20.5820    18.2550    20.5830    23.5630   -15.7140     2.3670 
  175.3750    97.7120    22.6810    19.6910    24.2680    23.5520   -15.7220     2.3560 
  175.5000    93.8960    25.2530    21.5190    27.0720    23.5620   -15.7660     2.3470 
  175.6250    89.4030    28.5040    23.8140    29.3000    23.5550   -15.8040     2.3450 
  175.7500    91.4840    32.7090    26.7140    28.5920    23.5240   -15.8450     2.3440 
  175.8750    98.1040    38.4480    30.6710    27.0190    23.6090   -15.9190     2.3420 
  176.0000   100.4610    46.3850    36.3640    27.3680    24.1280   -16.0590     2.3350 
  176.1250    94.6400    57.3940    44.9210    45.3990    24.8480   -16.2540     2.3220 
  176.2500    85.9230    70.5290    55.9310    84.3390    25.2500   -16.4530     2.3080 
  176.3750    79.1210    84.0420    68.1310   102.2550    25.2520   -16.5690     2.2950 
  176.5000    77.5330    95.0780    79.0150   106.0890    25.0820   -16.6140     2.2840 
  176.6250    81.1400    99.5120    84.6290   109.3510    24.7220   -16.6790     2.2760 
  176.7500    84.6960    97.3900    84.2800   113.8280    24.1960   -16.8010     2.2710 
  176.8750    84.1900    90.7980    79.2720   117.2250    23.6460   -16.9320     2.2710 
  177.0000    81.5290    83.3970    72.5390    94.3230    23.3990   -17.0360     2.2750 
  177.1250    81.4250    79.8170    68.0620    44.2610    23.6560   -17.1320     2.2790 
  177.2500    82.6930    82.4750    68.5970    44.2740    24.1250   -17.2740     2.2780 
  177.3750    82.5880    93.1240    76.3680    64.1620    24.5550   -17.5250     2.2700 
  177.5000    79.3250   112.9250    93.0620   127.6060    25.0770   -17.8780     2.2560 
  177.6250    74.2390   142.9830   120.1590   243.3850    25.5600   -18.1720     2.2400 
  177.7500    70.0270   177.7620   152.4450   327.9380    25.8330   -18.3660     2.2260 
  177.8750    67.8810   209.8610   183.1840   347.6340    25.9790   -18.4960     2.2180 
  178.0000    68.1530   231.4540   205.2190   342.2710    26.0270   -18.6220     2.2160 
  178.1250    69.6150   237.0600   213.0120   290.9310    25.9880   -18.7930     2.2160 
  178.2500    73.9010   232.9970   211.2810   237.8590    25.9460   -18.9280     2.2160 
  178.3750    79.7280   225.0760   204.8340   231.4680    25.8710   -18.9980     2.2150 
  178.5000    84.5820   217.2180   197.4480   231.9920    25.5560   -18.9640     2.2140 
  178.6250    84.6230   211.2090   191.3060   212.9290    24.7510   -18.8500     2.2160 
  178.7500    79.6870   206.9360   186.8140   164.9350    23.9580   -18.7020     2.2230 
  178.8750    73.8610   204.3480   184.0190   121.3680    23.5910   -18.5580     2.2330 
  179.0000    71.5690   203.6440   183.0280   153.1170    23.4700   -18.4090     2.2430 
  179.1250    74.8460   205.9580   184.7560   205.5740    23.2980   -18.1710     2.2480 
  179.2500    77.7780   211.7740   189.6410   238.5090    23.1700   -17.8260     2.2470 
  179.3750    78.2140   221.6450   198.2750   222.5980    23.1130   -17.4080     2.2430 
  179.5000    76.5300   235.5220   210.7050   198.5510    23.0860   -17.0600     2.2360 
  179.6250    72.7360   252.6710   226.3180   269.1940    23.1250   -16.8100     2.2220 
  179.7500    68.5530   270.2310   242.4030   476.4850    23.1970   -16.5960     2.2020 
  179.8750    66.3480   285.4600   256.3810   542.7290    23.3330   -16.3550     2.1820 
  180.0000    67.1440   295.8450   265.9260   396.1110    23.5360   -16.0770     2.1740 
  180.1250    69.5000   298.9960   268.8590   251.6160    23.7480   -15.8620     2.1880 
  180.2500    70.5730   296.7140   266.8210   142.4350    24.0140   -15.7750     2.2140 
  180.3750    69.2570   291.2560   261.8690    85.9750    24.4130   -15.7750     2.2310 
  180.5000    65.5440   285.6370   256.8270    80.5390    24.8960   -15.7360     2.2220 
  180.6250    62.4020   284.1160   255.8920   105.7130    25.6130   -15.6320     2.1790 
  180.7500    61.9420   289.2730   261.8440   176.1010    26.2070   -15.4520     2.1250 
  180.8750    62.9810   301.9350   276.0480   318.0670    26.7320   -15.2490     2.0800 
  181.0000    63.0060   318.1220   295.8210   510.5830    26.9930   -15.1010     2.0610 
  181.1250    62.1440   322.8100   309.0820   667.9920    26.7950   -14.9540     2.0810 
  181.2500    61.8230   302.5240   301.6840   760.0360    26.4810   -14.7590     2.1290 
  181.3750    62.6190   255.3500   267.4750   708.1980    26.2710   -14.5450     2.1920 
  181.5000    63.4350   193.8260   213.2800   477.5740    26.1460   -14.3380     2.2510 
  181.6250    66.4180   138.5310   156.4670   112.8370    26.1440   -14.1300     2.2850 
  181.7500    72.8550    98.7490   111.3430    59.3330    26.2490   -14.0300     2.2910 
  181.8750    78.7960    73.4660    80.8900    54.8620    26.4220   -14.0340     2.2790 
  182.0000    81.8260    58.5580    62.5810    57.2940    26.2510   -14.0200     2.2630 
  182.1250    83.5180    51.3430    53.5810    51.6670    25.2760   -13.8650     2.2550 
  182.2500    85.3620    48.6890    49.7770    44.6530    24.2130   -13.5600     2.2590 
  182.3750    84.2920    49.8280    50.0920    41.4060    23.7410   -13.1490     2.2750 
  182.5000    81.3840    54.4080    54.1560    36.7270    23.7760   -12.7450     2.2990 
  182.6250    80.8950    62.5430    62.2910    30.0900    24.0640   -12.3690     2.3240 
