~V
VERS. 2.00: Ver 2.00
~W
STRT.M 55.0000:
STOP.M 240.0000:
STEP.M 0.1250:
NULL. -999.2500:
UWI. F11138:
~C
DEPT.M :
SP.MV :
DEN.GM/CC :
GR.API :
RML.OHMM :
RI. :
RXO.OHMM :
CALI.CM :
~A
# ...
  223.7500    -6.5250     2.2480   105.4020     6.8050     5.6540     5.9540    23.7740 
  223.8750    -6.5630     2.2540   105.9360     6.9070     5.7150     6.0620    23.8100 
  224.0000    -6.5490     2.2700   105.9200     7.0280     5.8060     6.1940    23.8520 
  224.1250    -6.5200     2.2910   107.1140     7.1610     5.9290     6.3460    23.8850 
  224.2500    -6.5190     2.3100   109.2690     7.2800     6.0600     6.5790    23.9150 
  224.3750    -6.4990     2.3270   110.5670     7.3540     6.1750     6.8960    23.9380 
  224.5000    -6.4510     2.3400   111.2680     7.3580     6.2490     7.2890    23.9660 
  224.6250    -6.3130     2.3450   110.0170     7.2780     6.2490     7.3040    23.9850 
  224.7500    -6.1740     2.3420   107.0510     7.1460     6.1820     7.1490    24.0040 
  224.8750    -6.0030     2.3340   103.1300     6.9840     6.0590     6.8650    24.0260 
  225.0000    -5.8040     2.3250   100.8850     6.8070     5.9000     6.6060    24.0250 
  225.1250    -5.6440     2.3220   104.0340     6.6310     5.7300     6.3970    23.9890 
  225.2500    -5.5150     2.3250   108.8210     6.4750     5.5730     6.1360    23.9610 
  225.3750    -5.4720     2.3280   111.5830     6.3530     5.4390     5.9120    23.9530 
  225.5000    -5.5420     2.3260   110.2400     6.2730     5.3350     5.8120    23.9480 
  225.6250    -5.8240     2.3230   107.8100     6.2440     5.2770     5.8990    23.9680 
  225.7500    -6.1800     2.3270   107.1500     6.2630     5.2720     6.0260    23.9770 
  225.8750    -6.5990     2.3410   106.9720     6.3460     5.3390     6.0450    23.9820 
  226.0000    -7.0370     2.3590   106.5270     6.5140     5.4960     5.9920    23.9810 
  226.1250    -7.3990     2.3690   106.3670     6.8020     5.7680     6.2110    23.9810 
  226.2500    -7.7360     2.3690   104.6570     7.1860     6.1280     6.6370    23.9790 
  226.3750    -8.0320     2.3580    99.3350     7.6340     6.5440     7.1150    23.9660 
  226.5000    -8.2150     2.3370    92.4470     8.0920     6.9640     7.5480    23.9370 
  226.6250    -8.2280     2.3120    87.2240     8.4650     7.3100     7.7850    23.9200 
  226.7500    -8.1420     2.2920    83.4440     8.6940     7.5390     7.5000    23.8700 
  226.8750    -7.9970     2.2820    81.0810     8.7610     7.6340     7.4000    23.7850 
  227.0000    -7.8430     2.2880    80.3130     8.6960     7.6110     7.6110    23.7980 
  227.1250    -7.6970     2.3100    79.8430     8.5660     7.5010     7.9190    23.8840 
  227.2500    -7.4770     2.3380    78.0870     8.4530     7.3700     7.9620    23.9210 
  227.3750    -7.1660     2.3600    75.8040     8.3920     7.2550     7.7520    23.9120 
  227.5000    -6.8240     2.3710    74.5190     8.3860     7.1780     7.4590    23.8960 
  227.6250    -6.5000     2.3690    74.2220     8.4180     7.1560     7.3640    23.8520 
  227.7500    -6.2160     2.3580    74.0580     8.4570     7.1710     7.4460    23.8280 
  227.8750    -5.9920     2.3400    73.9030     8.4850     7.2010     7.5000    23.8370 
  228.0000    -5.8230     2.3150    73.5700     8.4920     7.2240     7.5940    23.8590 
  228.1250    -5.7170     2.2960    72.7830     8.4740     7.2170     7.8210    23.8070 
  228.2500    -5.6550     2.2940    71.8980     8.4430     7.1780     8.1470    23.7490 
  228.3750    -5.5970     2.3080    71.5880     8.4010     7.1120     8.4610    23.7540 
  228.5000    -5.6090     2.3280    71.4430     8.3460     7.0280     8.3890    23.8690 
  228.6250    -5.6780     2.3380    71.0720     8.2790     6.9390     8.0430    23.9710 
  228.7500    -5.7340     2.3430    71.8500     8.2040     6.8590     7.6890    24.0170 
  228.8750    -5.7220     2.3480    74.0040     8.1230     6.7960     7.6510    24.0310 
  229.0000    -5.6400     2.3510    76.6780     8.0360     6.7560     7.4830    24.0340 
  229.1250    -5.4810     2.3480    78.2630     7.9520     6.7410     7.2720    24.0360 
  229.2500    -5.3620     2.3440    77.9490     7.8830     6.7480     6.9070    24.0310 
  229.3750    -5.3340     2.3400    76.0080     7.8380     6.7730     6.7450    24.0810 
  229.5000    -5.3220     2.3340    73.3180     7.8200     6.8110     6.6880    24.1980 
  229.6250    -5.2890     2.3240    73.3180     7.8240     6.8540     6.8470    24.2150 
  229.7500    -5.2800     2.3140    73.3180     7.8290     6.8890     7.1430    24.1110 
  229.8750    -5.3020     2.3100    73.3180     7.8290     6.9120     7.3990    24.0310 
  230.0000    -5.3890     2.3140    73.3180     7.8270     6.9300     7.1490    24.0790 
  230.1250    -5.5450     2.3190    73.3180     7.8440     6.9610     6.8640    24.1860 
  230.2500    -5.6300     2.3190    73.3180     7.9010     7.0210     6.7480    24.2270 
  230.3750    -5.6610     2.3180    73.3180     8.0060     7.1160     6.8550    24.1840 
  230.5000    -5.6400     2.3230    73.3180     8.1530     7.2420     7.0570    24.1880 
  230.6250    -5.6930     2.3330    73.3180     8.3160     7.3820     7.0090    24.2190 
  230.7500    -5.7590     2.3410    73.3180     8.4580     7.5080     7.0710    24.2360 
  230.8750    -5.8700     2.3420    73.3180     8.5540     7.5990     7.2200    24.1800 
  231.0000    -5.9690     2.3370    73.3180     8.5990     7.6460     7.2570    24.1230 
  231.1250    -6.1170     2.3320    73.3180     8.6010     7.6550     7.0650    24.0680 
  231.2500    -6.3510     2.3320    73.3180     8.5940     7.6580     6.8100    24.0170 
  231.3750    -6.6620     2.3370    73.3180     8.6050     7.6770     6.6170    24.0430 
  231.5000    -7.0800     2.3440    73.3180     8.6470     7.7260     6.4510    24.0790 
  231.6250    -7.4980     2.3500    73.3180     8.7190     7.8050     6.5560    24.0370 
  231.7500    -7.8220     2.3550    73.3180     8.7960     7.8930     6.9710    24.0270 
  231.8750    -7.8930     2.3580    73.3180     8.8570     7.9770     7.3750    24.0080 
  232.0000    -7.8190     2.3600    73.3180     8.8920     8.0480     7.6970    23.9510 
  232.1250    -7.6890     2.3610    73.3180     8.9020     8.1000     8.2200    23.9260 
  232.2500    -7.6020     2.3580    73.3180     8.9020     8.1450     8.6600    23.9530 
  232.3750    -7.5150     2.3510    73.3180     8.9120     8.1910     8.9280    23.9850 
  232.5000    -7.3550     2.3470    73.3180     8.9510     8.2460     8.5970    23.9250 
  232.6250    -7.0860     2.3550    73.3180     9.0380     8.3180     7.8320    23.8320 
  232.7500    -6.8910     2.3690    73.3180     9.1640     8.4010     7.5940    23.8460 
  232.8750    -6.9430     2.3800    73.3180     9.3110     8.4930     7.9150    23.9100 
  233.0000    -7.1900     2.3830    73.3180     9.4570     8.5890     8.4020    23.8910 
  233.1250    -7.4260     2.3790    73.3180     9.5730     8.6850     8.5450    23.8530 
  233.2500    -7.5930     2.3740    73.3180     9.6490     8.7730     8.2870    23.8520 
  233.3750    -7.6950     2.3640    73.3180     9.6850     8.8430     8.2090    23.8800 
  233.5000    -7.7030     2.3500    73.3180     9.6900     8.8900     8.4260    23.8590 
  233.6250    -7.6970     2.3400    73.3180     9.6910     8.9100     8.7480    23.7760 
  233.7500    -7.6750     2.3420    73.3180     9.7090     8.9140     9.1860    23.7490 
  233.8750    -7.5710     2.3560    73.3180     9.7430     8.9100     9.3290    23.7520 
  234.0000    -7.3790     2.3810    73.3180     9.7750     8.9030     8.9780    23.8120 
  234.1250    -7.1690     2.4080    73.3180     9.7850     8.8930     8.3380    23.9410 
  234.2500    -6.9730     2.4280    73.3180     9.7760     8.8850     7.9860    23.9900 
  234.3750    -6.7730     2.4350    73.3180     9.7610     8.8820     7.9740    23.9480 
  234.5000    -6.6100     2.4340    73.3180     9.7510     8.8860     8.3550    23.8920 
  234.6250    -6.5540     2.4270    73.3180     9.7480     8.8960     9.0480    23.8750 
  234.7500    -6.5640     2.4130    73.3180     9.7500     8.9080     9.7980    23.8510 
  234.8750    -6.5020     2.3920    73.3180     9.7560     8.9180    10.1780    23.8220 
