~V
VERS. 2.00: Ver 2.00
~W
STRT.M 52.0000:
STOP.M 239.0000:
STEP.M 0.1250:
NULL. -999.2500:
UWI. F11118:
~C
DEPT.M :
DEN.GM/CC :
GR.API :
RML.OHMM :
RI. :
RXO.OHMM :
CALI.CM :
SP.MV :
~A
# ...
  108.2500     2.2180    66.7950     9.2670     7.5240    10.8480    23.7770   -28.6690 
  108.3750     2.2110    64.8900     9.5040     7.7320    10.9830    23.7990   -28.2120 
  108.5000     2.1910    64.7250     9.6000     7.8830    10.9710    23.7950   -27.7800 
  108.6250     2.1610    65.9730     9.5620     7.9830    10.9470    23.8140   -27.3250 
  108.7500     2.1320    65.6160     9.4760     8.0500    10.7710    23.7280   -26.7940 
  108.8750     2.1130    62.8340     9.3560     8.0630    10.5200    23.6460   -26.1480 
  109.0000     2.1090    61.7360     9.1430     7.9690    10.4810    23.6530   -25.3500 
  109.1250     2.1280    65.9710     8.7080     7.6710    10.5040    23.9250   -24.3300 
  109.2500     2.1610    72.6200     8.0720     7.1890    10.3600    24.5630   -23.1150 
  109.3750     2.2030    79.1840     7.3370     6.5900     9.4200    25.4340   -21.7400 
  109.5000     2.2410    86.3340     6.6410     5.9740     7.6930    26.0170   -20.2760 
  109.6250     2.2630    93.4400     6.1170     5.4630     6.1990    26.1620   -18.8690 
  109.7500     2.2680    96.5660     5.8040     5.1130     5.8330    26.1720   -17.6060 
  109.8750     2.2570    94.2400     5.7320     4.9620     5.9120    26.0530   -16.5520 
  110.0000     2.2390    88.6510     5.9260     5.0440     6.2140    25.7070   -15.7770 
  110.1250     2.2200    84.5960     6.4350     5.4340     6.8050    25.0200   -15.3390 
  110.2500     2.2050    83.7260     7.1960     6.0760     8.0480    24.1490   -15.1960 
  110.3750     2.1950    85.0420     8.1340     6.8890    10.3740    23.9110   -15.2780 
  110.5000     2.1870    86.5000     9.0620     7.6920    14.7540    24.2930   -15.5190 
  110.6250     2.1790    85.7830     9.5620     8.1310    17.8340    24.6620   -15.7980 
  110.7500     2.1740    83.6320     9.4180     8.0530    15.7270    24.7500   -16.0470 
  110.8750     2.1770    82.4790     8.7030     7.5280    11.3000    24.7380   -16.1850 
  111.0000     2.1910    84.1900     7.7510     6.7970     8.4220    24.6860   -16.1950 
  111.1250     2.2110    88.4530     6.9890     6.1330     7.0060    25.0690   -16.0520 
  111.2500     2.2300    90.6860     6.5540     5.6480     6.3940    25.4730   -15.8100 
  111.3750     2.2410    88.1350     6.3800     5.3390     6.5010    25.3510   -15.5230 
  111.5000     2.2450    82.2920     6.3180     5.1530     6.5540    25.0360   -15.2120 
  111.6250     2.2430    81.5200     6.2200     5.0240     6.2270    25.1620   -14.9090 
  111.7500     2.2420    88.9980     6.0430     4.8940     5.8360    25.4650   -14.6430 
  111.8750     2.2440    98.0590     5.8590     4.7770     5.5650    25.6410   -14.4510 
  112.0000     2.2520   104.4120     5.8280     4.7420     5.3690    25.6000   -14.3560 
  112.1250     2.2730   106.3840     6.1630     4.9260     5.3740    25.5050   -14.3940 
  112.2500     2.3070   105.5660     6.8430     5.3590     5.7320    25.3880   -14.5660 
  112.3750     2.3430   101.6230     7.7530     6.0230     6.6710    25.2310   -14.8750 
  112.5000     2.3640    94.8970     8.6440     6.7870     8.6360    24.9930   -15.3310 
  112.6250     2.3470    87.9950     9.1110     7.3420    10.8000    24.6780   -15.9500 
  112.7500     2.2980    81.6970     9.0290     7.4880    10.1000    24.2420   -16.6940 
  112.8750     2.2360    77.2540     8.5070     7.2470     8.6020    23.9600   -17.5070 
  113.0000     2.1790    75.0320     7.7890     6.8130     7.9590    23.8940   -18.3450 
  113.1250     2.1450    74.4280     7.1370     6.4290     7.9330    23.8650   -19.1460 
  113.2500     2.1280    76.4060     6.6800     6.2010     7.8840    23.8600   -19.8520 
  113.3750     2.1230    80.1850     6.4410     6.1190     7.7600    23.8330   -20.4300 
  113.5000     2.1220    82.3080     6.4000     6.1200     7.6090    23.9430   -20.8400 
  113.6250     2.1240    79.9610     6.5370     6.1390     7.5650    24.2670   -21.0460 
  113.7500     2.1270    77.1930     6.7570     6.1480     7.5760    24.4540   -21.0410 
  113.8750     2.1300    76.4960     6.9830     6.1440     7.5370    24.7630   -20.8660 
  114.0000     2.1350    78.0220     7.1550     6.1240     7.4670    24.8550   -20.5580 
  114.1250     2.1420    81.5170     7.2190     6.0820     7.4820    24.7640   -20.1620 
  114.2500     2.1510    85.1000     7.1680     6.0100     7.4410    24.8140   -19.7000 
  114.3750     2.1600    85.9750     7.0070     5.9050     7.2860    24.8390   -19.1960 
  114.5000     2.1700    84.0870     6.7680     5.7810     7.1640    24.9450   -18.6890 
  114.6250     2.1750    83.0000     6.4900     5.6670     7.2120    25.1710   -18.2420 
  114.7500     2.1760    83.7300     6.2440     5.5970     7.3980    25.3610   -17.8830 
  114.8750     2.1720    83.6410     6.1190     5.5980     7.5990    25.4860   -17.6290 
  115.0000     2.1650    82.9410     6.2130     5.6930     7.7150    25.4890   -17.4550 
  115.1250     2.1620    82.7420     6.5960     5.9050     7.7660    25.4570   -17.3770 
  115.2500     2.1670    82.1130     7.1230     6.1910     7.7390    25.4210   -17.3900 
  115.3750     2.1810    80.8780     7.6420     6.4910     7.8480    25.2380   -17.4950 
  115.5000     2.2020    79.4310     8.0350     6.7410     8.2850    25.1240   -17.6730 
  115.6250     2.2220    76.5900     8.2470     6.8940     8.9650    24.9950   -17.9020 
  115.7500     2.2340    73.9270     8.3930     6.9950     9.1360    24.7990   -18.1910 
  115.8750     2.2370    72.5870     8.6130     7.1170     8.4060    24.5570   -18.5500 
  116.0000     2.2320    72.2790     9.0250     7.3350     7.7850    24.1650   -18.9900 
  116.1250     2.2240    71.0620     9.7110     7.7220     8.2120    23.5650   -19.4900 
  116.2500     2.2170    69.5160    10.5630     8.2520     9.0440    22.9630   -20.0240 
  116.3750     2.2120    68.1430    11.4350     8.8770     9.6950    22.7910   -20.5440 
  116.5000     2.2080    66.4720    12.1640     9.5310     9.9200    22.8000   -21.0340 
  116.6250     2.2040    66.1850    12.6240    10.1300     9.9000    22.9450   -21.4500 
  116.7500     2.1960    66.2290    12.9210    10.6450    10.1800    23.2680   -21.8020 
  116.8750     2.1850    64.6480    13.1250    11.0770    11.0850    23.6420   -22.0490 
  117.0000     2.1740    62.4450    13.1990    11.3990    12.4180    23.8940   -22.1980 
  117.1250     2.1660    61.9400    12.9910    11.5280    12.5850    23.7500   -22.2280 
  117.2500     2.1600    62.1270    12.5690    11.4750    11.3960    23.4370   -22.1880 
  117.3750     2.1550    62.6050    12.1240    11.2880    10.5940    23.3280   -22.1070 
  117.5000     2.1500    65.9780    11.8490    11.0700    10.3660    23.4560   -22.0020 
  117.6250     2.1460    69.3920    11.8350    10.9390    10.3950    23.8610   -21.8810 
  117.7500     2.1450    70.7160    11.9380    10.9230    10.4770    24.2060   -21.7320 
  117.8750     2.1480    70.7590    12.0210    10.9830    10.6450    24.4740   -21.5700 
  118.0000     2.1520    70.6340    11.9970    11.0250    10.8790    24.5510   -21.3840 
  118.1250     2.1550    69.1920    11.8360    10.9330    11.0080    24.5950   -21.1850 
  118.2500     2.1550    66.5350    11.5780    10.7060    10.9250    24.7220   -20.9800 
  118.3750     2.1510    65.4570    11.2270    10.3850    10.4750    24.9910   -20.7620 
  118.5000     2.1420    66.0950    10.8170    10.0390     9.7240    25.4380   -20.5340 
  118.6250     2.1260    66.3680    10.4720     9.7550     9.2240    25.7950   -20.3380 
  118.7500     2.1110    67.0280    10.3440     9.5990     9.1480    25.4400   -20.1700 
  118.8750     2.1020    68.2400    10.5480     9.6370     9.3540    24.5550   -20.0520 
  119.0000     2.1080    68.6910    11.1510     9.9250     9.5500    24.2720   -19.9710 
  119.1250     2.1400    69.1350    12.2380    10.5950     9.9530    24.3250   -19.9310 
  119.2500     2.1940    68.3300    13.7260    11.6710    11.4950    24.4100   -19.9000 
  119.3750     2.2630    64.5610    15.5410    13.1520    14.7700    24.6130   -19.8970 
