~V
VERS. 2.00: Ver 2.00
~W
STRT.M 62.0000:
STOP.M 277.0000:
STEP.M 0.1250:
NULL. -999.2500:
UWI. F11155:
~C
DEPT.M :
SP.MV :
DEN.GM/CC :
GR.API :
RML.OHMM :
RI. :
RXO.OHMM :
CALI.CM :
~A
# ...
  174.5000   -15.2370     2.2450    75.7030    19.2340    19.2680    17.9110    24.7660 
  174.6250   -15.4660     2.2440    78.2090    19.4780    19.3020    17.5220    24.7680 
  174.7500   -15.7120     2.2450    75.5650    20.3830    20.0220    17.8570    24.7460 
  174.8750   -15.9730     2.2480    70.1820    21.5740    21.1390    19.2530    24.7350 
  175.0000   -16.2520     2.2490    67.4280    22.7270    22.3740    22.3000    24.7300 
  175.1250   -16.5220     2.2470    71.3710    23.5340    23.4070    25.9470    24.7280 
  175.2500   -16.7880     2.2450    79.0430    23.7150    23.8840    26.0450    24.7180 
  175.3750   -17.0440     2.2470    82.3590    23.4460    23.8440    22.9010    24.7070 
  175.5000   -17.3000     2.2500    81.0410    23.0170    23.4890    21.8000    24.7150 
  175.6250   -17.5540     2.2500    78.1450    22.7990    23.1610    23.0240    24.7540 
  175.7500   -17.8250     2.2500    77.7010    23.3110    23.3460    23.4040    24.7570 
  175.8750   -18.1210     2.2520    77.7690    24.8210    24.3510    21.5730    24.7490 
  176.0000   -18.4590     2.2530    74.5390    27.6460    26.5060    21.9420    24.7450 
  176.1250   -18.8780     2.2470    68.1500    32.0530    30.1420    27.3020    24.7750 
  176.2500   -19.3690     2.2320    62.8640    45.3300    35.8230    38.7050    24.8620 
  176.3750   -19.8790     2.2170    61.1710    54.4490    43.1480    49.5060    24.9710 
  176.5000   -20.3980     2.2050    61.5660    64.2850    51.4560    54.5070    25.0190 
  176.6250   -20.9170     2.1970    61.2600    73.6000    59.6670    59.9820    25.0250 
  176.7500   -21.4220     2.1930    60.1680    80.8980    66.4350    73.6340    25.0260 
  176.8750   -21.8900     2.1940    58.9150    85.9190    71.4040    87.9870    25.0300 
  177.0000   -22.3080     2.1960    59.2480    88.6730    74.4870    94.4090    25.0380 
  177.1250   -22.6500     2.1980    62.9410    89.3850    75.7700    92.4680    25.0220 
  177.2500   -22.9260     2.2020    66.1590    88.3640    75.3930    90.1050    24.9650 
  177.3750   -23.1600     2.2080    66.1410    86.5840    74.2120    87.6730    24.8740 
  177.5000   -23.3470     2.2190    65.0200    84.5660    72.7600    82.3300    24.8030 
  177.6250   -23.4980     2.2300    64.1840    82.5810    71.3440    73.6170    24.7480 
  177.7500   -23.6080     2.2370    63.9380    80.7010    70.0660    65.0850    24.7260 
  177.8750   -23.6910     2.2410    63.5620    78.9120    68.9090    59.2690    24.7510 
  178.0000   -23.7500     2.2430    63.3340    77.1920    67.8660    55.9380    24.7700 
  178.1250   -23.7910     2.2450    63.6520    75.4110    66.8360    55.9560    24.7400 
  178.2500   -23.7880     2.2440    65.1540    73.3050    65.5750    58.6040    24.7280 
  178.3750   -23.7760     2.2410    67.1980    70.7290    63.9210    60.2230    24.7720 
  178.5000   -23.7690     2.2370    68.2080    67.5620    61.7430    61.4140    24.8170 
  178.6250   -23.7610     2.2360    67.8420    63.8040    58.9710    59.3100    24.8070 
  178.7500   -23.7350     2.2410    67.2760    59.6880    55.6810    53.5410    24.6880 
  178.8750   -23.6910     2.2450    67.3270    55.8290    52.3760    48.3420    24.4940 
  179.0000   -23.6280     2.2500    68.2990    52.7330    49.5210    45.6740    24.2710 
  179.1250   -23.5410     2.2540    68.9760    50.7430    47.5000    42.2930    24.0110 
  179.2500   -23.4500     2.2580    67.7550    50.1560    46.6960    37.3910    23.9010 
  179.3750   -23.3550     2.2600    67.2070    50.5410    46.8570    36.9680    23.9650 
  179.5000   -23.2560     2.2610    69.9830    51.5230    47.6930    40.6240    24.1210 
  179.6250   -23.1570     2.2600    74.8420    52.7060    48.8360    42.6360    24.2490 
  179.7500   -23.0960     2.2560    76.3820    53.7570    49.9300    41.7020    24.2800 
  179.8750   -23.0770     2.2490    74.9260    54.6430    50.8390    42.2300    24.3120 
  180.0000   -23.0960     2.2410    74.0770    55.5110    51.6480    44.4830    24.3520 
  180.1250   -23.1510     2.2350    75.1850    56.5680    52.5480    46.1340    24.3680 
  180.2500   -23.2270     2.2320    75.1280    57.9750    53.7130    47.2750    24.2980 
  180.3750   -23.3090     2.2320    73.5030    59.6010    55.0590    48.4190    24.1730 
  180.5000   -23.4100     2.2360    73.2980    61.3220    56.4510    50.1480    24.1540 
  180.6250   -23.5170     2.2420    73.8260    63.0290    57.7830    52.3790    24.3520 
  180.7500   -23.6130     2.2470    71.1950    64.6840    59.0280    53.4420    24.4630 
  180.8750   -23.6910     2.2510    66.9310    66.3740    60.3060    53.3000    24.4980 
  181.0000   -23.7500     2.2530    64.5790    68.2410    61.7880    53.1580    24.4750 
  181.1250   -23.7980     2.2530    65.4400    70.4340    63.6500    52.8480    24.3920 
  181.2500   -23.8430     2.2480    68.5540    73.0360    66.0280    56.2300    24.2020 
  181.3750   -23.8890     2.2420    73.0880    75.8360    68.7260    61.9690    23.9990 
  181.5000   -23.9350     2.2330    75.7070    78.6600    71.5510    67.3250    23.9160 
  181.6250   -23.9810     2.2190    73.9890    81.4460    74.3910    70.5270    24.0010 
  181.7500   -24.0020     2.2020    70.5200    84.3780    77.3740    71.3370    24.0240 
  181.8750   -24.0140     2.1930    71.0690    87.5050    80.6510    71.7080    23.9230 
  182.0000   -24.0130     2.1920    74.7810    90.2650    83.9500    72.5020    23.8720 
  182.1250   -24.0050     2.1960    78.0640    91.1220    86.0790    74.6120    24.0320 
  182.2500   -24.0020     2.1990    79.0710    87.0240    84.1500    77.2520    24.2990 
  182.3750   -24.0200     2.2040    78.3260    77.9760    77.3450    77.5550    24.4340 
  182.5000   -24.0480     2.2140    76.2560    66.2420    67.0560    68.5600    24.4190 
  182.6250   -24.1090     2.2310    73.1730    55.4780    56.5580    49.1640    24.2950 
  182.7500   -24.2190     2.2510    69.8750    49.2840    49.5430    31.3350    24.0520 
  182.8750   -24.3500     2.2690    69.8570    47.7140    46.7240    23.5930    23.7920 
  183.0000   -24.5040     2.2750    72.7450    49.9900    47.7780    26.7340    23.6900 
  183.1250   -24.6640     2.2690    74.0360    54.5450    51.5620    45.8660    23.7440 
  183.2500   -24.8290     2.2610    72.0380    58.8070    55.9200    62.5060    23.8240 
  183.3750   -24.9720     2.2600    71.5270    60.4520    58.2230    50.5830    23.8480 
  183.5000   -25.0880     2.2660    75.7470    59.1200    57.5520    27.8880    23.8370 
  183.6250   -25.1650     2.2750    82.2490    56.6080    55.1240    15.8520    23.7760 
  183.7500   -25.2110     2.2730    85.0200    56.1460    53.7970    15.3860    23.6880 
  183.8750   -25.2560     2.2570    82.6470    59.3020    55.5290    20.5920    23.6330 
  184.0000   -25.3110     2.2330    77.1480    66.3860    61.0410    28.2270    23.5300 
  184.1250   -25.3840     2.2150    72.1940    76.6990    70.0040    40.1090    23.4070 
  184.2500   -25.4520     2.2150    70.7900    88.4370    80.9060    50.6750    23.3270 
  184.3750   -25.5160     2.2220    70.7300    98.5940    90.6710    57.7730    23.2650 
  184.5000   -25.5840     2.2280    70.5070   105.2280    97.2130    61.1530    23.2250 
  184.6250   -25.6650     2.2280    69.0790   108.0790   100.0110    60.8650    23.2350 
  184.7500   -25.7710     2.2240    66.7500   108.2600    99.8830    57.1370    23.2650 
  184.8750   -25.8670     2.2190    64.3360   107.6910    98.7730    54.3290    23.2810 
  185.0000   -25.9540     2.2140    63.2860   106.8460    97.3040    55.3090    23.3220 
  185.1250   -26.0250     2.2130    65.4920   105.5770    95.5140    60.8600    23.4080 
  185.2500   -26.0960     2.2170    68.0920   103.5080    93.1730    67.3150    23.5390 
  185.3750   -26.1690     2.2250    68.5110   100.8820    90.4220    69.8270    23.7090 
  185.5000   -26.2370     2.2350    68.8920    98.2840    87.6570    68.0530    23.8460 
  185.6250   -26.2940     2.2470    69.5250    96.5570    85.5130    67.0050    23.9190 
