~V
VERS. 2.00: Ver 2.00
~W
STRT.M 55.0000:
STOP.M 201.0000:
STEP.M 0.1250:
NULL. -999.2500:
UWI. F11111:
~C
DEPT.M :
GR.API :
RML.OHMM :
RI. :
RXO.OHMM :
CALI.CM :
SP.MV :
DEN.GM/CC :
~A
# ...
  167.5000    72.0130    47.5940    43.3270    36.5220    23.0800   -27.4010     2.2160 
  167.6250    70.5360    48.4780    43.6510    40.5920    23.0090   -27.4480     2.2190 
  167.7500    71.4890    50.7780    45.0420    40.3840    22.9090   -27.4770     2.2260 
  167.8750    73.3860    55.4530    48.1260    37.1430    22.6210   -27.4870     2.2270 
  168.0000    73.6420    63.9920    54.1230    37.0790    22.3480   -27.4910     2.2160 
  168.1250    72.4110    79.1940    65.7060    47.4570    22.5540   -27.4940     2.1950 
  168.2500    69.3330   101.2500    83.6070    70.2110    23.1450   -27.4850     2.1740 
  168.3750    64.3720   129.2280   107.4740   103.3560    23.4720   -27.4570     2.1580 
  168.5000    60.1870   158.4330   133.5810   123.7520    23.6710   -27.4110     2.1510 
  168.6250    61.3170   177.1680   152.2630   119.9750    23.5880   -27.3730     2.1540 
  168.7500    65.5290   180.1360   157.9910   117.7440    23.3670   -27.3490     2.1640 
  168.8750    68.6360   171.2850   152.6470   114.2470    22.9380   -27.3350     2.1790 
  169.0000    68.8220   159.0480   142.7000    98.9320    22.8890   -27.3250     2.1930 
  169.1250    66.7530   150.4350   134.5610    83.1290    23.0700   -27.3150     2.2030 
  169.2500    64.9340   147.2190   130.8770    82.5030    23.1950   -27.3150     2.2070 
  169.3750    63.7270   149.1800   132.0550    94.8720    23.2330   -27.3190     2.2070 
  169.5000    63.1150   154.6280   137.0170   106.4800    23.2460   -27.3300     2.2040 
  169.6250    64.0980   159.8890   142.9620   114.6530    23.3020   -27.3400     2.2020 
  169.7500    66.0080   160.7100   145.7930   130.1120    23.5040   -27.3500     2.2000 
  169.8750    66.7500   155.4120   143.2350   132.2890    23.4480   -27.3790     2.2010 
  170.0000    64.0830   146.0080   136.0850   110.8670    23.1280   -27.4200     2.2030 
  170.1250    60.1960   137.4380   128.1760    90.1230    23.0580   -27.4700     2.2050 
  170.2500    58.0680   133.3470   123.5310    80.7700    22.7970   -27.5170     2.2070 
  170.3750    57.4430   134.9230   123.9150    85.7700    22.4420   -27.5460     2.2080 
  170.5000    57.7750   141.6350   129.4100   108.4690    22.3620   -27.5600     2.2090 
  170.6250    58.6630   151.0650   138.4100   118.3100    22.3620   -27.6040     2.2100 
  170.7500    59.8050   158.0730   146.2990   115.6250    22.3790   -27.6380     2.2110 
  170.8750    59.5920   158.9140   149.3980   113.3570    22.2480   -27.6320     2.2130 
  171.0000    57.2270   153.4080   146.6300   109.6850    22.1190   -27.5890     2.2150 
  171.1250    56.5280   145.9640   140.8900    97.9630    21.9990   -27.4850     2.2180 
  171.2500    60.6240   141.6270   137.2840    87.2510    21.9220   -27.3320     2.2220 
  171.3750    66.0630   140.7820   137.2270    83.7520    22.1990   -27.1610     2.2240 
  171.5000    65.8110   139.6220   137.9750    96.6260    22.2910   -26.9840     2.2250 
  171.6250    59.1400   130.3560   132.1370   136.1590    22.1470   -26.7610     2.2260 
  171.7500    55.4140   112.2780   117.1430   167.0470    22.2490   -26.5100     2.2300 
  171.8750    57.1190    90.9790    96.7460   121.9250    22.6150   -26.2550     2.2380 
  172.0000    62.7770    73.5270    77.8310    61.6680    23.1590   -25.9940     2.2480 
  172.1250    71.2190    65.1890    66.7810    38.8450    23.7650   -25.7450     2.2520 
  172.2500    77.4030    65.2370    64.1730    37.2530    23.7480   -25.5330     2.2470 
  172.3750    76.2160    73.4110    70.2400    48.2520    23.4880   -25.3570     2.2330 
  172.5000    68.8960    89.6350    85.0900    72.6170    23.2450   -25.2120     2.2130 
  172.6250    62.1540   114.5750   109.3780    97.8520    23.2260   -25.0890     2.1960 
  172.7500    60.3700   143.5800   137.9620   120.9540    23.2450   -24.9820     2.1850 
  172.8750    61.7570   169.8330   163.9250   136.4040    23.2760   -24.8800     2.1810 
  173.0000    63.5830   186.6910   180.7100   127.6930    23.3990   -24.7830     2.1820 
  173.1250    62.8480   193.1900   186.4330   116.7360    23.7640   -24.7020     2.1850 
  173.2500    61.0950   197.8370   188.6310   114.6360    23.8120   -24.6060     2.1860 
  173.3750    60.6180   206.2850   192.8050   123.9490    23.7850   -24.4780     2.1830 
  173.5000    61.1240   221.9090   202.4620   137.4000    23.8120   -24.3190     2.1780 
  173.6250    60.8840   248.5090   221.0060   159.8950    23.8910   -24.1570     2.1740 
  173.7500    57.9880   285.7610   248.0000   200.1030    23.7620   -24.0070     2.1780 
  173.8750    53.3100   334.0400   283.4550   261.3150    23.4540   -23.8620     2.2020 
  174.0000    50.2470   393.3220   327.2280   364.9890    22.9000   -23.7070     2.2570 
  174.1250    51.8590   464.6800   380.4770   366.0430    22.5160   -23.5530     2.3510 
  174.2500    54.7030   541.4950   439.2990   341.9760    22.2170   -23.4140     2.4640 
  174.3750    54.3750   607.3840   493.7530   365.8160    22.2460   -23.3020     2.5730 
  174.5000    51.7530   630.0780   522.5910   490.4860    22.8420   -23.2120     2.6530 
  174.6250    49.4590   572.0210   493.6530   656.8650    23.0460   -23.1140     2.6880 
  174.7500    48.7970   469.3470   420.9500   633.0360    23.0910   -23.0010     2.6970 
  174.8750    49.2990   364.1000   333.9030   415.1450    23.0940   -22.8830     2.6970 
  175.0000    50.1630   277.6620   256.3250   226.2800    23.0940   -22.7650     2.6990 
  175.1250    50.6860   212.9870   197.6820   157.8810    23.0940   -22.6550     2.7040 
  175.2500    51.2910   159.4610   150.1740   143.3020    23.0940   -22.5420     2.7050 
  175.3750    52.7620   113.3030   108.7960   140.9750    23.0940   -22.4240     2.6930 
  175.5000    53.5890    75.1580    73.1660   113.2560    23.0940   -22.3000     2.6610 
  175.6250    53.0690    48.4170    47.2370    67.3500    23.0940   -22.1690     2.6070 
  175.7500    53.8200    29.6510    30.0440    37.7120    23.0950   -22.0470     2.5410 
  175.8750    56.4230    18.3150    19.6510    20.8260    23.1230   -21.9470     2.4680 
  176.0000    58.0510    12.8650    13.7330    12.7200    23.2300   -21.8840     2.3930 
  176.1250    55.8360    10.2570    10.7480    10.5020    23.3260   -21.8290     2.3250 
  176.2500    53.5920     8.9570     9.1150     9.8330    23.4910   -21.7860     2.2740 
  176.3750    55.2490     8.4380     8.3260     9.1970    23.5460   -21.7710     2.2500 
  176.5000    58.7210     8.4070     8.1110     8.6490    23.6070   -21.7980     2.2570 
  176.6250    58.8290     8.6820     8.3140     8.5000    23.6410   -21.8590     2.2900 
  176.7500    55.9010     9.0410     8.6880     8.6170    23.5470   -21.9320     2.3280 
  176.8750    52.2840     9.3600     9.0880     9.1720    23.4970   -22.0000     2.3520 
  177.0000    48.8150     9.5640     9.3980    10.1540    23.4750   -22.0590     2.3550 
  177.1250    46.5100     9.6370     9.5490    10.6530    23.4500   -22.0900     2.3440 
  177.2500    45.8210     9.6850     9.6100     9.8170    23.4100   -22.0990     2.3360 
  177.3750    46.2540     9.7970     9.6600     9.0450    23.4620   -22.0980     2.3400 
  177.5000    47.6570    10.0110     9.7480    10.1570    23.4790   -22.0890     2.3540 
  177.6250    48.2710    10.2890     9.8560    13.1470    23.4520   -22.0870     2.3650 
  177.7500    48.1010    10.5220     9.9140    14.8150    23.3790   -22.0940     2.3660 
  177.8750    48.4310    10.6390     9.8710    12.6060    23.2100   -22.1160     2.3610 
  178.0000    50.5210    10.6190     9.7210     9.6110    23.0450   -22.1490     2.3560 
  178.1250    53.6820    10.4830     9.4900     8.3850    23.0400   -22.2190     2.3570 
  178.2500    55.9900    10.2840     9.2220     8.4620    23.1100   -22.2980     2.3590 
  178.3750    55.3130    10.0150     8.9150     9.1640    22.7910   -22.3310     2.3530 
  178.5000    50.1280     9.6500     8.5510     9.2420    22.3310   -22.3070     2.3390 
  178.6250    44.6180     9.1980     8.1250     8.2590    22.4410   -22.2590     2.3240 
