~V
VERS. 2.00: Ver 2.00
~W
STRT.M 45.0000:
STOP.M 270.0000:
STEP.M 0.1250:
NULL. -999.2500:
UWI. F11186:
~C
DEPT.M :
SP.MV :
GR.API :
RI. :
RML.OHMM :
RXO.OHMM :
DEN.GM/CC :
~A
# ...
  109.3750   -35.6780    70.0880     5.6080     6.4210     9.1110     2.1030 
  109.5000   -35.1050    72.9540     5.9650     6.9180     9.1230     2.1170 
  109.6250   -34.4420    72.3100     6.3540     7.4550    10.5690     2.1150 
  109.7500   -33.7020    69.2520     6.6100     7.8000    13.1910     2.0990 
  109.8750   -32.8740    67.0810     6.4960     7.6340    13.5810     2.0920 
  110.0000   -31.9740    67.1660     6.0450     7.0210    10.8780     2.1120 
  110.1250   -31.0430    68.9710     5.3480     6.1060     7.7740     2.1570 
  110.2500   -30.1730    71.8240     4.6020     5.1360     5.9170     2.2030 
  110.3750   -29.5020    76.9580     4.0460     4.4730     5.3940     2.2290 
  110.5000   -29.1300    81.2820     3.7340     4.1250     5.1290     2.2300 
  110.6250   -29.1490    80.4500     3.6720     4.0800     4.7590     2.1980 
  110.7500   -29.5060    75.8890     3.8040     4.2490     5.0200     2.1580 
  110.8750   -30.1030    73.9650     4.1120     4.5890     5.8070     2.1370 
  111.0000   -30.7500    74.6420     4.4860     5.0010     6.5610     2.1330 
  111.1250   -31.2550    74.1360     4.8890     5.4460     7.2190     2.1290 
  111.2500   -31.4840    71.2600     5.1760     5.7460     7.7290     2.1150 
  111.3750   -31.3250    70.3050     5.0980     5.6570     7.8470     2.1090 
  111.5000   -30.7960    71.8600     4.6900     5.2120     7.4970     2.1270 
  111.6250   -29.9320    74.1910     4.0910     4.5190     6.4010     2.1720 
  111.7500   -28.8880    76.6590     3.4570     3.7920     4.8000     2.2190 
  111.8750   -27.8430    81.6540     2.9900     3.2650     3.8810     2.2460 
  112.0000   -26.9830    89.5250     2.7170     2.9620     3.7980     2.2520 
  112.1250   -26.4670    97.0210     2.6630     2.9780     3.8470     2.2400 
  112.2500   -26.3150    99.5230     2.8240     3.2350     4.1410     2.2100 
  112.3750   -26.5090    96.5560     3.1520     3.6740     4.6780     2.1750 
  112.5000   -26.9200    93.0480     3.5600     4.1780     5.1440     2.1540 
  112.6250   -27.4320    92.1050     3.9320     4.5930     5.4940     2.1440 
  112.7500   -27.9230    90.8860     4.2070     4.8540     5.5970     2.1330 
  112.8750   -28.2950    87.6520     4.2790     4.8840     5.7600     2.1300 
  113.0000   -28.4960    84.1370     4.2210     4.7590     5.9880     2.1340 
  113.1250   -28.4910    83.1940     4.0860     4.5660     5.7660     2.1430 
  113.2500   -28.3170    82.8540     3.9770     4.4080     5.6200     2.1510 
  113.3750   -28.0180    80.2200     3.9210     4.3490     5.8240     2.1620 
  113.5000   -27.6760    77.6100     3.9000     4.3370     5.8680     2.1700 
  113.6250   -27.3590    77.7590     3.9260     4.4000     5.8800     2.1710 
  113.7500   -27.1140    79.7890     3.9560     4.4580     5.8930     2.1630 
  113.8750   -26.9720    82.9250     3.9400     4.4620     5.6420     2.1520 
  114.0000   -26.9280    85.2640     3.8900     4.4220     5.4710     2.1480 
  114.1250   -26.9920    85.8190     3.8100     4.3460     5.6470     2.1530 
  114.2500   -27.1790    85.9480     3.7360     4.2740     5.7370     2.1570 
  114.3750   -27.5450    86.6850     3.6830     4.2220     5.5070     2.1550 
  114.5000   -28.1230    87.1640     3.6880     4.2660     5.0300     2.1520 
  114.6250   -28.9500    85.7270     3.7930     4.4140     4.4980     2.1430 
  114.7500   -29.9770    83.7780     3.9360     4.5890     4.8600     2.1200 
  114.8750   -31.1240    80.1890     4.0760     4.7300     6.3820     2.0900 
  115.0000   -32.2630    73.8890     4.2490     4.8870     7.5210     2.1030 
  115.1250   -33.2820    68.3010     4.4250     5.0430     7.0570     2.1850 
  115.2500   -34.1450    67.4260     4.6430     5.2600     7.7370     2.2570 
  115.3750   -34.8640    68.7420     4.8410     5.4890     9.9090     2.2290 
  115.5000   -35.4980    68.0160     5.0670     5.7770    16.2500     2.1360 
  115.6250   -36.0620    65.6950     5.2310     6.0030    25.0220     2.0750 
  115.7500   -36.5350    65.0660     5.3240     6.1300    21.6260     2.0710 
  115.8750   -36.8590    65.5640     5.3100     6.1010    11.6210     2.0820 
  116.0000   -37.0160    64.2110     5.1340     5.8950     8.0790     2.0790 
  116.1250   -37.0010    61.8300     5.0020     5.7690     7.8170     2.0730 
  116.2500   -36.8570    60.3450     4.8960     5.6830     7.6640     2.0740 
  116.3750   -36.6110    60.9400     4.8430     5.6480     7.5980     2.0850 
  116.5000   -36.2980    63.5010     4.7980     5.5930     7.5210     2.0890 
  116.6250   -35.9450    66.9050     4.7500     5.5180     7.1590     2.0830 
  116.7500   -35.4510    69.8240     4.6860     5.3980     6.8150     2.0800 
  116.8750   -35.1340    70.5600     4.6930     5.4060     6.8120     2.0870 
  117.0000   -34.8490    72.0380     4.7480     5.4720     6.8660     2.0900 
  117.1250   -34.5610    73.0020     4.8390     5.6020     6.6810     2.0810 
  117.2500   -34.2100    71.1630     4.9500     5.7730     6.3190     2.0700 
  117.3750   -33.7200    68.4810     5.0340     5.9330     6.6250     2.0650 
  117.5000   -33.0490    67.6830     5.0000     5.9330     7.3170     2.0680 
  117.6250   -32.1510    68.7240     4.7850     5.6940     7.2480     2.0820 
  117.7500   -31.0610    70.3070     4.3810     5.1880     6.9630     2.1190 
  117.8750   -29.8470    73.9430     3.8590     4.5170     6.5570     2.1800 
  118.0000   -28.6530    81.1110     3.3740     3.9120     5.2770     2.2370 
  118.1250   -27.6580    89.2890     3.0830     3.5610     4.4110     2.2580 
  118.2500   -26.9700    94.9680     3.0360     3.5410     4.6930     2.2320 
  118.3750   -26.6300    96.3570     3.2190     3.8040     5.5410     2.1750 
  118.5000   -26.5020    93.0680     3.5850     4.2670     6.6320     2.1340 
  118.6250   -26.4030    85.9380     3.9160     4.6330     7.2410     2.1580 
  118.7500   -26.1700    79.6440     4.0660     4.7460     8.4300     2.2210 
  118.8750   -25.7390    79.6490     3.9700     4.5620     9.0210     2.2540 
  119.0000   -25.1980    86.5100     3.7170     4.2010     6.7950     2.2380 
  119.1250   -24.6860    94.1900     3.4190     3.8380     5.0520     2.2080 
  119.2500   -24.3190    98.5240     3.2820     3.7020     4.9760     2.1910 
  119.3750   -24.1580    99.6330     3.3210     3.7830     4.7580     2.1820 
  119.5000   -24.1590   100.2340     3.4800     4.0190     4.7240     2.1730 
  119.6250   -24.2560   100.6110     3.7190     4.3270     5.6560     2.1660 
  119.7500   -24.3500    98.7150     3.8850     4.5260     6.3610     2.1610 
  119.8750   -24.3630    95.2880     3.8680     4.4810     5.9730     2.1630 
  120.0000   -24.2570    92.3890     3.6760     4.2130     5.3640     2.1750 
  120.1250   -24.0280    92.4810     3.3620     3.8030     4.4900     2.1880 
  120.2500   -23.7310    96.6490     3.0610     3.4310     3.6360     2.1970 
  120.3750   -23.4390   102.8280     2.9520     3.3220     3.3190     2.2150 
  120.5000   -23.2160   105.2580     2.9960     3.4140     3.4200     2.2550 
  120.6250   -23.1060   101.1040     3.1450     3.6450     4.5930     2.3050 
  120.7500   -23.0990    95.8720     3.2830     3.8310     5.8080     2.3240 
  120.8750   -23.1710    95.2920     3.3160     3.8580     5.3560     2.2920 
  121.0000   -23.2770    97.4790     3.2610     3.7420     4.5800     2.2470 
  121.1250   -23.3910   100.3890     3.1630     3.5880     4.3620     2.2360 
  121.2500   -23.5030   101.7900     3.1250     3.5420     4.6920     2.2410 
  121.3750   -23.6200   100.4400     3.1690     3.6180     5.3290     2.2260 
  121.5000   -23.7470    97.1790     3.3030     3.7860     5.3890     2.1910 
  121.6250   -23.8750    95.1870     3.4350     3.9230     4.9760     2.1720 
  121.7500   -23.9830    94.6350     3.4980     3.9710     4.5500     2.1700 
  121.8750   -24.0490    93.7400     3.5000     3.9650     4.5670     2.1760 
  122.0000   -24.0770    91.5660     3.4320     3.8770     4.6870     2.1840 
  122.1250   -24.0840    90.2300     3.3560     3.7930     4.4210     2.1920 
