~V
VERS. 2.00: Ver 2.00
~W
STRT.M 52.0000:
STOP.M 216.0000:
STEP.M 0.1250:
NULL. -999.2500:
UWI. F11106:
~C
DEPT.M :
DEN.GM/CC :
GR.API :
RML.OHMM :
RI. :
RXO.OHMM :
CALI.CM :
SP.MV :
~A
# ...
  198.2500     2.2440    44.6430     6.7120     6.1020     5.8140    24.9900    -6.7960 
  198.3750     2.2580    43.5700     6.5590     5.9630     5.5480    25.0400    -6.7730 
  198.5000     2.2720    46.0910     6.5140     5.9210     5.2790    24.8880    -6.7650 
  198.6250     2.2840    49.7590     6.5860     5.9880     5.0970    24.8050    -6.7130 
  198.7500     2.2980    51.3950     6.7080     6.0990     5.0970    24.8790    -6.6700 
  198.8750     2.3100    51.1780     6.8170     6.1980     5.3520    25.1230    -6.6400 
  199.0000     2.3200    51.1510     6.8710     6.2470     5.9980    25.4010    -6.5500 
  199.1250     2.3230    52.9050     6.8870     6.2120     6.5890    25.6670    -6.5110 
  199.2500     2.3190    54.2740     6.8600     6.0990     6.3460    26.0620    -6.5070 
  199.3750     2.3100    52.6550     6.6870     5.9250     6.0770    26.8800    -6.4700 
  199.5000     2.3010    50.5440     6.4620     5.7410     5.9280    27.5360    -6.4450 
  199.6250     2.2990    51.0210     6.3020     5.6410     5.8260    27.3400    -6.4720 
  199.7500     2.3030    51.9850     6.2710     5.6520     5.7320    26.8000    -6.5050 
  199.8750     2.3100    50.8290     6.3970     5.7670     5.5050    26.4020    -6.5660 
  200.0000     2.3140    48.7670     6.6520     5.9530     5.3140    26.3100    -6.6510 
  200.1250     2.3120    48.8540     6.9590     6.1760     5.2880    26.4330    -6.7230 
  200.2500     2.3060    49.3540     7.2000     6.4050     5.5960    26.8240    -6.8000 
  200.3750     2.3020    49.1560     7.3040     6.6180     6.0720    27.1410    -6.8920 
  200.5000     2.3010    49.1940     7.2410     6.7590     6.3330    26.5850    -6.9550 
  200.6250     2.3040    51.7080     7.0450     6.7310     6.6020    26.4640    -7.0500 
  200.7500     2.3090    55.2200     6.8170     6.5570     6.2570    26.6600    -7.1140 
  200.8750     2.3110    54.9640     6.6130     6.3050     5.7720    26.7360    -7.1590 
  201.0000     2.3100    50.6530     6.4800     6.0690     5.6600    26.9220    -7.2350 
  201.1250     2.3090    49.5380     6.4770     5.9500     6.1950    26.8210    -7.2760 
  201.2500     2.3110    53.2000     6.5960     5.9440     6.1220    26.2380    -7.3230 
  201.3750     2.3150    56.6990     6.8190     6.0180     5.8620    25.7720    -7.3970 
  201.5000     2.3200    57.2500     7.1100     6.1420     5.6640    25.9920    -7.4600 
  201.6250     2.3200    56.2490     7.4140     6.3130     5.4320    26.6070    -7.4760 
  201.7500     2.3140    55.5140     7.6810     6.5110     5.6140    27.3280    -7.4870 
  201.8750     2.3050    55.5660     7.8860     6.7180     6.1730    27.4020    -7.5020 
  202.0000     2.2960    56.9420     8.0360     6.9320     6.9740    27.1270    -7.5070 
  202.1250     2.2930    57.0200     8.1830     7.1470     7.9140    26.7230    -7.5240 
  202.2500     2.2990    55.8070     8.4030     7.3730     7.9850    26.4670    -7.5100 
  202.3750     2.3120    55.8940     8.7290     7.6320     7.3860    26.3370    -7.4680 
  202.5000     2.3300    58.1190     9.1560     7.9360     7.0360    26.5650    -7.4390 
  202.6250     2.3510    58.9310     9.6240     8.2850     7.7160    27.2360    -7.4420 
  202.7500     2.3690    58.0630    10.0280     8.6520     9.0960    27.5660    -7.4660 
  202.8750     2.3840    58.4360    10.3030     9.0090    10.3330    27.4900    -7.4860 
  203.0000     2.3940    60.0960    10.4470     9.3070    10.6770    26.8440    -7.5290 
  203.1250     2.3990    61.4050    10.4930     9.4970     9.7090    26.6590    -7.5630 
  203.2500     2.3970    61.7760    10.5150     9.5970     8.9670    26.8750    -7.6050 
  203.3750     2.3850    61.5070    10.5500     9.6420     8.6550    27.0690    -7.6610 
  203.5000     2.3670    61.5370    10.6130     9.6770     8.4130    27.0460    -7.6930 
  203.6250     2.3500    61.2440    10.6890     9.7220     8.8800    27.2910    -7.7100 
  203.7500     2.3440    61.7350    10.7210     9.7380     8.9520    27.1020    -7.7230 
  203.8750     2.3520    62.3570    10.6320     9.6530     9.1620    26.4830    -7.7410 
  204.0000     2.3740    62.5860    10.3590     9.4240    10.0270    25.9070    -7.7040 
  204.1250     2.4010    63.4160     9.8770     9.0490    10.1270    25.4120    -7.7080 
  204.2500     2.4200    62.5480     9.3240     8.6210     8.9160    25.4540    -7.7160 
  204.3750     2.4220    59.6880     8.8450     8.2320     6.8440    25.8300    -7.6730 
  204.5000     2.4040    56.4060     8.5580     7.9700     4.9410    26.3670    -7.6540 
  204.6250     2.3760    56.3680     8.5600     7.9320     4.5200    26.7300    -7.5970 
  204.7500     2.3510    59.9440     8.7870     8.0940     5.2650    27.1340    -7.5410 
  204.8750     2.3380    62.8360     9.1610     8.4010     6.7130    27.3100    -7.4660 
  205.0000     2.3400    62.8740     9.5840     8.7570     8.0950    27.1470    -7.3850 
  205.1250     2.3580    61.0930     9.9750     9.0640     8.8340    26.4800    -7.2680 
  205.2500     2.3800    60.6850    10.3330     9.3240     9.0750    25.9950    -7.1830 
  205.3750     2.3990    61.3010    10.6760     9.5770     9.2030    26.0310    -7.1470 
  205.5000     2.4090    61.4370    11.0160     9.8450    10.1560    26.2140    -7.1330 
  205.6250     2.4070    61.4370    11.3400    10.1160    12.3940    26.1530    -7.1770 
  205.7500     2.4000    61.4370    11.6170    10.3840    16.4090    26.1870    -7.2270 
  205.8750     2.3940    61.4370    11.8140    10.6410    20.6310    26.3840    -7.2820 
  206.0000     2.3920    61.4370    11.9070    10.8630    20.1090    26.3760    -7.3400 
  206.1250     2.3980    61.4370    11.8390    10.9740    14.5760    25.8290    -7.4410 
  206.2500     2.4080    61.4370    11.6010    10.9260    11.8500    25.2950    -7.5190 
  206.3750     2.4230    61.4370    11.2050    10.7080    10.2310    25.2050    -7.5740 
  206.5000     2.4370    61.4370    10.7050    10.3690     8.9570    25.1430    -7.6190 
  206.6250     2.4400    61.4370    10.1680     9.9810     8.9830    25.3140    -7.5970 
  206.7500     2.4260    61.4370     9.6230     9.5700     9.6320    25.5070    -7.5760 
  206.8750     2.3930    61.4370     9.0700     9.1080     8.8680    26.0690    -7.5680 
  207.0000     2.3470    61.4370     8.5100     8.5870     6.8010    26.8760    -7.5630 
  207.1250     2.2960    61.4370     7.9820     8.0540     5.7240    27.3760    -7.5520 
  207.2500     2.2430    61.4370     7.5540     7.5920     6.1900    27.2440    -7.5110 
  207.3750     2.1930    61.4370     7.2820     7.2620     7.2360    26.8140    -7.4740 
  207.5000     2.1530    61.4370     7.1780     7.0930     8.0210    26.5890    -7.4340 
  207.6250     2.1410    61.4370     7.2630     7.1470     8.4290    26.4420    -7.4260 
  207.7500     2.1600    61.4370     7.5250     7.4200     9.0390    25.8710    -7.4150 
  207.8750     2.2070    61.4370     7.9690     7.9120     9.7540    25.7860    -7.3810 
  208.0000     2.2680    61.4370     8.5440     8.5470    10.0670    25.7240    -7.3590 
  208.1250     2.3210    61.4370     9.0870     9.1070     9.7040    25.9400    -7.3210 
  208.2500     2.3490    61.4370     9.4010     9.3710     8.9940    26.2660    -7.3040 
  208.3750     2.3500    61.4370     9.3590     9.2470     8.3660    27.0090    -7.2820 
  208.5000     2.3330    61.4370     8.9570     8.7910     7.8630    27.8810    -7.2610 
  208.6250     2.3090    61.4370     8.3160     8.1610     6.9610    28.3510    -7.2250 
  208.7500     2.2910    61.4370     7.6950     7.5760     6.5740    27.9570    -7.1590 
  208.8750     2.2860    61.4370     7.2790     7.1620     6.9880    28.2370    -7.1390 
  209.0000     2.2960    61.4370     7.1800     6.9940     8.1930    28.9020    -7.1250 
  209.1250     2.3170    61.4370     7.4280     7.0940     8.5470    29.3220    -7.0920 
  209.2500     2.3380    61.4370     7.8220     7.3280     8.3380    29.6350    -7.0650 
  209.3750     2.3500    61.4370     8.1840     7.5920     8.3470    29.8160    -7.0190 
