~V
VERS. 2.00: Ver 2.00
~W
STRT.M 52.0000:
STOP.M 240.0000:
STEP.M 0.1250:
NULL. -999.2500:
UWI. F11139:
~C
DEPT.M :
GR.API :
RML.OHMM :
RI. :
RXO.OHMM :
CALI.CM :
SP.MV :
DEN.GM/CC :
~A
# ...
  187.0000    65.3090   108.0060   101.4880    81.4710    24.5660   -26.1410     2.1850 
  187.1250    67.0380   103.9700    98.1130    76.7640    24.4340   -26.4020     2.1940 
  187.2500    68.6460    99.7290    94.1880    77.3330    24.2770   -26.6050     2.2010 
  187.3750    68.7140    96.1650    90.5580    75.0070    24.1030   -26.7440     2.2120 
  187.5000    68.2860    94.2580    88.2060    71.0170    23.9730   -26.8490     2.2260 
  187.6250    68.9880    95.6620    88.7690    72.7580    23.9080   -26.9520     2.2310 
  187.7500    69.6590   101.3980    93.0410    77.2700    23.8600   -27.0660     2.2250 
  187.8750    69.2860   112.4880   101.8950    78.6270    23.8330   -27.1760     2.2160 
  188.0000    68.1000   129.4470   115.7320    77.2570    23.8830   -27.2830     2.2100 
  188.1250    67.5080   152.0210   134.5410    84.5330    23.6500   -27.3180     2.2080 
  188.2500    67.2610   176.4390   155.2620   104.1600    23.6270   -27.3100     2.2070 
  188.3750    65.8370   196.8180   174.5090   132.1510    23.8370   -27.2020     2.2070 
  188.5000    63.4850   210.9680   188.5220   160.5930    24.2120   -27.0200     2.2110 
  188.6250    62.9650   214.5110   193.0610   177.2920    24.5450   -26.7100     2.2160 
  188.7500    63.7270   209.8260   189.7250   176.5520    24.7170   -26.3490     2.2180 
  188.8750    64.2380   200.8470   181.6230   162.9020    24.7030   -25.8590     2.2160 
  189.0000    64.8760   192.3210   172.9990   144.2020    24.5990   -25.2750     2.2080 
  189.1250    66.9720   188.8980   168.4530   132.4000    24.4870   -24.6410     2.2010 
  189.2500    68.2990   191.6150   169.5890   130.6020    24.3860   -24.0080     2.2000 
  189.3750    66.9370   200.5280   176.8240   140.1900    24.3430   -23.3930     2.2010 
  189.5000    63.8160   214.6670   189.5080   162.0980    24.4120   -22.7540     2.1980 
  189.6250    60.2030   232.1900   206.2630   190.7810    24.6100   -22.0440     2.1870 
  189.7500    56.7520   249.3800   223.5870   214.0470    24.7510   -21.3680     2.1840 
  189.8750    54.8300   263.2900   238.6630   227.1460    24.8430   -20.7150     2.1930 
  190.0000    55.1940   271.7960   249.2590   228.0040    24.8850   -20.1290     2.2040 
  190.1250    56.3800   273.4150   253.5270   228.9900    24.9030   -19.6000     2.2070 
  190.2500    58.2670   270.3730   253.0570   230.4300    24.9150   -19.1340     2.2050 
  190.3750    60.1530   264.3320   249.1790   229.7650    24.9430   -18.6690     2.2030 
  190.5000    60.6190   256.6290   243.0830   228.3840    24.9940   -18.2680     2.2000 
  190.6250    59.3530   248.2500   235.6040   223.2470    25.0520   -18.0100     2.1920 
  190.7500    58.3310   240.5950   228.2270   218.9770    25.0920   -17.8160     2.1810 
  190.8750    57.9270   235.3380   222.7030   217.1150    25.0920   -17.7000     2.1690 
  191.0000    57.9660   234.4770   221.2580   218.1410    24.9920   -17.6150     2.1730 
  191.1250    58.8300   240.5670   227.0150   219.8110    24.6920   -17.4870     2.2200 
  191.2500    60.1820   251.1640   238.4680   220.8630    24.3100   -17.2670     2.3120 
  191.3750    62.1850   260.8260   251.0660   219.5700    23.9780   -17.0520     2.4360 
  191.5000    64.5720   261.4150   256.7650   230.2780    23.7300   -16.8520     2.5660 
  191.6250    64.1110   241.0730   242.9500   260.6170    23.6230   -16.6400     2.6660 
  191.7500    60.6090   201.5510   208.8870   292.2550    23.5810   -16.4120     2.7220 
  191.8750    57.6850   153.0530   161.9760   304.0950    23.5610   -16.0800     2.7420 
  192.0000    57.3550   108.3300   114.9010   274.7140    23.5660   -15.6430     2.7330 
  192.1250    57.7360    75.0470    78.4650   193.9230    23.6260   -15.1520     2.6910 
  192.2500    56.4130    50.9720    52.4770   133.9100    23.7260   -14.6300     2.6220 
  192.3750    54.0710    34.1720    34.7760    89.3160    23.8730   -14.0760     2.5430 
  192.5000    51.3540    22.9060    23.0210    45.1460    24.0740   -13.4890     2.4720 
  192.6250    50.1820    16.2100    15.9780    19.9780    24.1370   -12.8650     2.4220 
  192.7500    51.2500    12.1230    11.6310    10.0710    24.0910   -12.1520     2.3910 
  192.8750    52.9200     9.7740     9.0750     7.0330    24.0220   -11.4900     2.3740 
  193.0000    53.6190     8.5330     7.6550     6.2800    24.0540   -10.9560     2.3580 
  193.1250    54.3690     8.0270     7.0190     6.2310    24.1490   -10.6220     2.3400 
  193.2500    55.9800     7.8340     6.7610     6.2570    24.1550   -10.4830     2.3280 
  193.3750    57.8460     7.7720     6.6940     6.3370    24.0870   -10.4810     2.3340 
  193.5000    59.9650     7.7060     6.6860     6.3890    23.9530   -10.5590     2.3530 
  193.6250    63.4940     7.5870     6.6510     6.1950    23.8200   -10.7070     2.3720 
  193.7500    67.1140     7.4010     6.5740     5.9100    23.7300   -10.9220     2.3810 
  193.8750    68.1590     7.1540     6.4650     5.8050    23.7580   -11.1560     2.3870 
  194.0000    66.8480     6.9590     6.3480     5.8950    23.8340   -11.3340     2.3980 
  194.1250    65.3320     6.8220     6.2450     6.0750    23.9520   -11.4530     2.4070 
  194.2500    65.4500     6.7590     6.1720     6.2220    24.0860   -11.5170     2.4110 
  194.3750    67.6270     6.7560     6.1460     6.3170    24.1990   -11.5810     2.4170 
  194.5000    70.4510     6.8990     6.1830     6.4020    24.2500   -11.6940     2.4290 
  194.6250    74.2380     7.1630     6.3110     6.5710    24.2940   -11.9610     2.4410 
  194.7500    78.7730     7.4540     6.5070     6.8940    24.3430   -12.3110     2.4470 
  194.8750    82.9220     7.6970     6.7350     7.3410    24.3860   -12.7560     2.4480 
  195.0000    86.1180     7.8120     6.9350     7.7810    24.4220   -13.2750     2.4450 
  195.1250    89.3650     7.6720     7.0180     8.1450    24.4330   -13.8380     2.4390 
  195.2500    94.7780     7.4640     6.9610     8.3600    24.4330   -14.3920     2.4280 
  195.3750   101.9050     7.2370     6.7840     8.4050    24.4270   -14.9280     2.4180 
  195.5000   106.5140     7.0550     6.5490     8.0770    24.4390   -15.4110     2.4110 
  195.6250   104.6840     6.9610     6.3570     7.5100    24.4530   -15.8230     2.4050 
  195.7500   101.0600     6.9230     6.2790     7.2210    24.4770   -16.1770     2.3980 
  195.8750    99.8270     7.0820     6.3470     7.3720    24.5150   -16.5270     2.3950 
  196.0000   100.5120     7.4410     6.5600     8.0050    24.5480   -16.9010     2.3960 
  196.1250   100.0610     7.8890     6.8970     8.8240    24.5320   -17.3740     2.3940 
  196.2500   100.3200     8.3360     7.2740     9.7220    24.4670   -17.9140     2.3870 
  196.3750   103.0080     8.7230     7.6300    10.4920    24.3620   -18.5410     2.3760 
  196.5000   105.4360     9.0190     7.9150    11.1570    24.2150   -19.2380     2.3650 
  196.6250   103.8500     9.2130     8.0920    11.8070    24.0050   -20.0120     2.3590 
  196.7500   101.3290     9.3560     8.1910    12.4300    23.7890   -20.8070     2.3590 
  196.8750   100.7950     9.4860     8.2460    12.9190    23.6170   -21.6160     2.3630 
  197.0000   101.4160     9.6450     8.3010    13.4300    23.5270   -22.3690     2.3690 
  197.1250   100.0560     9.8770     8.4050    14.1640    23.5280   -23.0210     2.3710 
  197.2500    97.8230    10.1990     8.5890    15.1970    23.4940   -23.5930     2.3740 
  197.3750    96.4220    10.6350     8.8820    16.2490    23.3020   -24.0650     2.3820 
  197.5000    95.7710    11.2250     9.3210    17.1640    23.1090   -24.4380     2.3990 
  197.6250    95.4430    12.0660     9.9910    17.8500    23.0110   -24.6660     2.4250 
  197.7500    93.2400    13.1760    10.9080    18.5510    23.0000   -24.7920     2.4550 
  197.8750    88.0920    14.5350    12.0730    19.8580    23.0530   -24.7680     2.4780 
  198.0000    82.2500    15.9920    13.3880    21.8470    23.2070   -24.5730     2.4850 
  198.1250    80.4340    17.1210    14.5470    24.0710    23.3900   -24.0940     2.4730 
