~V
VERS. 2.00: Ver 2.00
~W
STRT.M 62.0000:
STOP.M 219.0000:
STEP.M 0.1250:
NULL. -999.2500:
UWI. F11127:
~C
DEPT.M :
SP.MV :
DEN.GM/CC :
GR.API :
RML.OHMM :
RI. :
RXO.OHMM :
CALI.CM :
~A
   62.0000    81.6430     2.0620    41.1750 14730.5050     0.1970 13462.9290    25.2880 
   62.1250    77.7010     2.1000    42.2310    47.7950     0.1630 12329.9620    25.2750 
   62.2500    72.9020     2.1440    42.7870     8.5790     0.1320 10431.2130    25.2460 
   62.3750    66.9130     2.2110    42.4510     2.1130     0.1080  7259.1830    25.2220 
   62.5000    59.3660     2.3140    42.0580     0.5590     0.0960  2227.7260    25.1990 
   62.6250    50.8150     2.4450    43.6500     0.1150     0.1030   269.5720    25.1770 
   62.7500    41.7650     2.5590    50.9200     0.0480     0.1520     0.7920    25.1400 
   62.8750    32.6170     2.5900    62.6770     0.1820     0.2730     1.6500    25.0330 
   63.0000    23.7550     2.5300    75.2310     0.5650     0.5120     2.9910    24.7950 
   63.1250    15.5240     2.4250    86.1290     1.2430     0.9140     5.1860    24.4640 
   63.2500     8.2960     2.3410    94.6900     2.1900     1.5130     5.8400    24.1730 
   63.3750     2.4170     2.3000   100.5050     3.1570     2.2170     6.0730    23.8570 
   63.5000    -1.7110     2.2950   103.7670     3.8450     2.9160     5.9910    23.5190 
   63.6250    -4.6540     2.3060   106.4910     4.0610     3.5040     5.7420    23.2340 
   63.7500    -6.9110     2.3160   108.6560     4.0180     3.9570     5.6680    23.1100 
   63.8750    -8.8680     2.3230   107.1890     4.1300     4.3950     6.0240    23.0380 
   64.0000   -10.7790     2.3240   101.9020     4.5130     4.8950     7.1000    23.0010 
   64.1250   -12.7500     2.3200    96.7670     5.1330     5.4620     8.5620    22.9970 
   64.2500   -14.7260     2.3150    93.2320     5.8790     6.0300    10.3310    23.0240 
   64.3750   -16.6200     2.3050    88.9690     6.5520     6.5010    11.4230    23.0620 
   64.5000   -18.4300     2.2720    84.3630     7.0100     6.8150    10.8020    23.1450 
   64.6250   -20.1350     2.2140    81.1190     7.2170     6.9760     9.5860    23.4240 
   64.7500   -21.6770     2.1640    79.0490     7.2520     7.0550     8.8840    23.9490 
   64.8750   -23.0290     2.1310    76.4510     7.2660     7.1530     8.9640    24.6080 
   65.0000   -24.0460     2.1020    73.8350     7.3050     7.2970     9.5090    25.2630 
   65.1250   -24.7440     2.0720    72.2660     7.3590     7.4500    10.2860    25.7300 
   65.2500   -25.2440     2.0560    72.5590     7.3670     7.5270    10.7470    25.6350 
   65.3750   -25.6710     2.0590    73.6590     7.3000     7.4840    10.6110    25.0490 
   65.5000   -25.9930     2.0700    72.8740     7.1720     7.3340    10.0060    24.4290 
   65.6250   -26.2660     2.0800    69.8310     7.0320     7.1320     9.4690    24.1180 
   65.7500   -26.5530     2.0870    67.4450     6.9560     6.9500     9.4690    24.0460 
   65.8750   -26.8250     2.0990    67.4460     6.9720     6.8230     9.8220    23.9040 
   66.0000   -27.1130     2.1130    68.3300     7.0670     6.7480    10.0990    23.6380 
   66.1250   -27.4290     2.1260    68.3700     7.1890     6.7020    10.0580    23.4150 
   66.2500   -27.7270     2.1290    68.9140     7.2510     6.6580     9.7610    23.3730 
   66.3750   -27.9600     2.1170    71.5550     7.2230     6.5990     9.4220    23.6250 
   66.5000   -28.1480     2.0870    74.9590     7.1290     6.5280     9.0860    24.2040 
   66.6250   -28.2500     2.0470    76.9830     7.0240     6.4520     8.8140    25.0180 
   66.7500   -28.2420     2.0180    77.9780     6.9750     6.3850     8.7670    25.4390 
   66.8750   -28.1550     2.0150    79.8370     6.9880     6.3300     8.7310    25.2340 
   67.0000   -27.9770     2.0370    82.0960     7.0400     6.2850     8.6940    24.7580 
   67.1250   -27.7470     2.0720    83.4120     7.0980     6.2450     8.7000    24.3870 
   67.2500   -27.5300     2.1020    84.0490     7.1400     6.2080     8.7240    24.2290 
   67.3750   -27.3930     2.1150    85.9120     7.1720     6.1730     8.6750    24.1390 
   67.5000   -27.3390     2.1170    87.0150     7.1950     6.1470     8.5920    24.1140 
   67.6250   -27.3890     2.1130    85.0560     7.2040     6.1320     8.5330    24.1280 
   67.7500   -27.5450     2.1080    79.7370     7.1890     6.1290     8.5680    24.1710 
   67.8750   -27.7400     2.1070    74.8430     7.1570     6.1320     8.6130    24.1970 
   68.0000   -27.9510     2.1100    72.9200     7.1210     6.1380     8.6290    24.1820 
   68.1250   -28.1860     2.1160    73.5930     7.0960     6.1480     8.6310    24.1370 
   68.2500   -28.4260     2.1220    73.7310     7.1030     6.1660     8.5440    24.0870 
   68.3750   -28.6440     2.1280    71.4920     7.1450     6.1980     8.4980    24.0170 
   68.5000   -28.8380     2.1330    68.7160     7.2250     6.2460     8.5280    23.9410 
   68.6250   -28.9860     2.1340    67.5660     7.3420     6.3020     8.5780    23.8190 
   68.7500   -29.0790     2.1280    68.5270     7.4860     6.3520     8.6540    23.6750 
   68.8750   -29.1930     2.1200    71.4700     7.6170     6.3770     8.6820    23.5680 
   69.0000   -29.2980     2.1170    76.7650     7.6980     6.3600     8.6780    23.5940 
   69.1250   -29.3460     2.1220    81.6320     7.7020     6.2950     8.6360    23.7640 
   69.2500   -29.3560     2.1370    81.0060     7.6250     6.1860     8.6010    23.9600 
   69.3750   -29.4010     2.1570    75.7930     7.5290     6.0700     8.5740    24.0240 
   69.5000   -29.5030     2.1750    71.2440     7.4690     5.9830     8.4800    23.9620 
   69.6250   -29.6020     2.1830    72.3560     7.4770     5.9550     8.2680    23.7980 
   69.7500   -29.6050     2.1750    77.5150     7.5660     6.0090     8.1950    23.5860 
   69.8750   -29.4250     2.1510    79.6140     7.6920     6.1180     8.5170    23.4510 
   70.0000   -29.1060     2.1200    77.5390     7.8060     6.2480     9.1140    23.3260 
   70.1250   -28.7570     2.0970    74.9320     7.8630     6.3580     9.5710    23.1500 
   70.2500   -28.3710     2.0910    73.7780     7.8220     6.4050     9.7410    23.1280 
   70.3750   -27.9050     2.0950    73.3020     7.7030     6.3870     9.7710    23.2660 
   70.5000   -27.3510     2.1010    72.5730     7.5460     6.3180     9.6790    23.4180 
   70.6250   -26.8040     2.1070    72.1390     7.4080     6.2240     9.5010    23.4980 
   70.7500   -26.3560     2.1130    73.4240     7.3480     6.1340     9.2920    23.5840 
   70.8750   -26.0560     2.1210    75.7400     7.3630     6.0630     9.2000    23.7390 
   71.0000   -25.9280     2.1310    77.0650     7.4270     6.0130     9.1960    23.9270 
   71.1250   -25.8790     2.1430    76.5060     7.5040     5.9810     9.2120    24.0660 
   71.2500   -25.8570     2.1520    75.8880     7.5510     5.9580     9.2130    24.1100 
   71.3750   -25.8540     2.1550    74.1030     7.5560     5.9360     9.2420    24.1270 
   71.5000   -25.8610     2.1500    69.6050     7.5220     5.9140     9.2610    24.1610 
   71.6250   -25.8480     2.1370    65.6680     7.4650     5.8930     9.2800    24.2370 
   71.7500   -25.8130     2.1220    66.0060     7.4080     5.8800     9.2830    24.2970 
   71.8750   -25.7750     2.1100    68.5200     7.3670     5.8760     9.3500    24.2740 
   72.0000   -25.7350     2.1030    70.5250     7.3500     5.8840     9.4670    24.2730 
   72.1250   -25.6900     2.0990    70.1440     7.3590     5.9040     9.5000    24.3530 
   72.2500   -25.6350     2.0960    67.5550     7.4000     5.9440     9.5170    24.4720 
   72.3750   -25.5310     2.0930    64.9100     7.4700     6.0060     9.5770    24.5300 
   72.5000   -25.3100     2.0950    64.4070     7.5590     6.0860     9.7720    24.5180 
   72.6250   -24.9570     2.1030    65.7320     7.6450     6.1680    10.0420    24.4470 
   72.7500   -24.4950     2.1140    65.9030     7.6710     6.2160    10.3290    24.4130 
   72.8750   -23.9260     2.1240    66.6650     7.5990     6.1970    10.2890    24.4520 
   73.0000   -23.1750     2.1330    70.3630     7.4150     6.0890     9.7840    24.5210 
   73.1250   -22.2780     2.1450    76.5990     7.1380     5.8960     8.9200    24.5430 
