~V
VERS. 2.00: Ver 2.00
~W
STRT.M 50.0000:
STOP.M 253.0000:
STEP.M 0.1250:
NULL. -999.2500:
UWI. F11132:
~C
DEPT.M :
DEN.GM/CC :
GR.API :
RML.OHMM :
RI. :
RXO.OHMM :
CALI.CM :
SP.MV :
~A
# ...
  106.2500     2.1890    54.1140    10.3580     8.6140    12.3870    24.5040   -22.3810 
  106.3750     2.1910    53.8050    10.1690     8.5040    11.4170    24.5080   -21.8620 
  106.5000     2.1910    54.3740     9.9050     8.3310    10.1450    24.5150   -21.3530 
  106.6250     2.1900    54.7670     9.7190     8.1940     9.2650    24.5010   -20.8250 
  106.7500     2.1960    53.7040     9.6990     8.1600     9.2040    24.4170   -20.3430 
  106.8750     2.2150    52.5570     9.8460     8.2400    10.0310    24.3000   -19.9430 
  107.0000     2.2250    51.9800    10.0850     8.3910    10.6210    24.2530   -19.6140 
  107.1250     2.2050    51.2500    10.2930     8.5360    10.3130    24.2990   -19.3470 
  107.2500     2.1580    50.6720    10.3980     8.6210     9.8660    24.3750   -19.1050 
  107.3750     2.1140    50.6380    10.3990     8.6400     9.7850    24.4540   -18.8810 
  107.5000     2.0870    51.4020    10.3510     8.6210     9.8850    24.5180   -18.7180 
  107.6250     2.0750    52.8770    10.3460     8.6210     9.9790    24.5750   -18.6690 
  107.7500     2.0710    54.2740    10.4220     8.6700    10.0190    24.6160   -18.6480 
  107.8750     2.0800    55.1360    10.5670     8.7650    10.0750    24.6140   -18.5720 
  108.0000     2.1010    55.5130    10.7430     8.8860    10.1920    24.5870   -18.4500 
  108.1250     2.1260    55.1410    10.8820     8.9940    10.3890    24.5730   -18.2670 
  108.2500     2.1440    53.0040    10.9140     9.0350    10.3880    24.5660   -18.0260 
  108.3750     2.1520    49.7800    10.7880     8.9610    10.1250    24.5500   -17.7120 
  108.5000     2.1620    47.9570    10.5000     8.7580     9.7570    24.5180   -17.3090 
  108.6250     2.1830    49.9750    10.1130     8.4590     9.4520    24.5150   -16.7850 
  108.7500     2.2100    53.8570     9.7510     8.1610     9.0390    24.5390   -16.1870 
  108.8750     2.2320    57.2810     9.4530     7.9000     8.4800    24.5590   -15.5660 
  109.0000     2.2530    57.6990     9.1690     7.6500     7.8550    24.5460   -14.9540 
  109.1250     2.2760    53.6830     8.7930     7.3360     8.1070    24.4990   -14.4220 
  109.2500     2.2940    49.7840     8.3170     6.9520     8.5780    24.4720   -13.9870 
  109.3750     2.2940    51.0660     7.8310     6.5600     8.2920    24.4900   -13.6670 
  109.5000     2.2800    57.0120     7.4920     6.2650     7.1330    24.5140   -13.4840 
  109.6250     2.2600    61.9270     7.5120     6.2220     6.6640    24.4730   -13.4940 
  109.7500     2.2350    63.1140     7.8870     6.4540     7.7000    24.4170   -13.6220 
  109.8750     2.2100    62.7370     8.5430     6.9360     9.2520    24.3950   -13.8240 
  110.0000     2.1940    61.3730     9.3290     7.5840    10.2300    24.4420   -14.0710 
  110.1250     2.1930    57.1800    10.0230     8.2510    10.4560    24.5580   -14.2690 
  110.2500     2.2050    52.4820    10.4730     8.7740    10.4710    24.6690   -14.3580 
  110.3750     2.2210    49.5660    10.6560     9.0830    10.9840    24.7670   -14.3190 
  110.5000     2.2400    48.8000    10.6550     9.1970    12.4850    24.8090   -14.1450 
  110.6250     2.2700    49.8800    10.5650     9.1640    14.0360    24.7320   -13.7760 
  110.7500     2.3050    53.2540    10.4680     9.0700    12.2350    24.6080   -13.2510 
  110.8750     2.3120    58.4250    10.3930     8.9540    10.0510    24.6080   -12.5800 
  111.0000     2.2830    62.7450    10.3110     8.8150     9.0680    24.7390   -11.7530 
  111.1250     2.2470    64.5280    10.0970     8.5760     8.8400    24.8570   -10.8330 
  111.2500     2.2350    66.5600     9.6630     8.1790     8.7310    24.9690    -9.9380 
  111.3750     2.2570    68.3540     8.9970     7.6150     8.5630    25.1310    -9.0970 
  111.5000     2.2850    69.2550     8.1990     6.9550     7.9950    25.3390    -8.3240 
  111.6250     2.3010    70.0280     7.4850     6.3520     5.8160    25.4390    -7.7000 
  111.7500     2.3030    71.1980     7.0050     5.9210     4.9350    25.3520    -7.2680 
  111.8750     2.3070    72.0110     6.8090     5.7160     4.7900    25.1110    -7.0570 
  112.0000     2.3130    71.3850     6.8740     5.7440     5.0380    24.7750    -7.0740 
  112.1250     2.3000    70.2350     7.1730     6.0150     5.3970    24.5910    -7.3290 
  112.2500     2.2530    70.1460     7.6000     6.4460     5.5170    24.6470    -7.7700 
  112.3750     2.1870    69.9590     8.0970     6.9820     5.6080    24.7500    -8.3390 
  112.5000     2.1310    67.6750     8.6120     7.5650     5.9590    24.7930    -8.9240 
  112.6250     2.1050    63.0960     9.0860     8.1140     6.8780    24.7990    -9.4120 
  112.7500     2.1140    60.2070     9.4480     8.5470     7.4540    24.8230    -9.7510 
  112.8750     2.1540    61.7520     9.6060     8.7720     7.2630    24.8750    -9.9440 
  113.0000     2.2040    66.6160     9.4740     8.7060     6.6330    24.9330   -10.0050 
  113.1250     2.2470    71.8500     8.9790     8.2670     6.3230    24.9030    -9.9200 
  113.2500     2.2610    74.2380     8.2510     7.5770     6.6020    24.7630    -9.6880 
  113.3750     2.2290    73.8210     7.4060     6.7540     6.2700    24.6940    -9.3920 
  113.5000     2.1820    73.2880     6.5830     5.9400     5.0900    24.9560    -9.1630 
  113.6250     2.1560    72.1350     5.9810     5.3260     4.3470    25.5580    -9.1150 
  113.7500     2.1700    69.8120     5.7440     5.0250     4.1740    26.0590    -9.2680 
  113.8750     2.2200    68.3130     6.0390     5.1510     4.3000    26.2990    -9.6220 
  114.0000     2.2880    68.0730     7.0650     5.8460     4.9260    26.2420   -10.1900 
  114.1250     2.3620    66.2830     9.1770     7.4270     7.1760    25.8770   -11.0550 
  114.2500     2.4410    62.2410    12.2160     9.9000    13.6400    25.4690   -12.2010 
  114.3750     2.5150    58.4670    15.7180    13.0650    22.3670    25.2230   -13.5940 
  114.5000     2.5680    57.1690    18.6110    16.0780    29.6980    25.1170   -15.1650 
  114.6250     2.5800    56.9400    19.1490    17.1700    32.6810    25.0970   -16.8740 
  114.7500     2.5440    56.0470    17.4930    16.1380    29.4620    25.1130   -18.6590 
  114.8750     2.4620    54.7150    14.8250    13.9660    22.1930    25.1320   -20.4820 
  115.0000     2.3550    54.2860    12.3860    11.7710    15.8060    25.1040   -22.2520 
  115.1250     2.2450    56.2360    10.9270    10.2270    12.4560    25.0220   -23.8800 
  115.2500     2.1610    56.9660    10.2970     9.3170    11.4260    24.9850   -25.3040 
  115.3750     2.1280    56.0390    10.2660     8.9340    12.0090    25.0400   -26.4490 
  115.5000     2.1240    54.3120    10.5410     8.9100    12.7120    25.1240   -27.3060 
  115.6250     2.1320    53.2370    10.8040     9.0370    12.6470    25.1940   -27.8510 
  115.7500     2.1440    52.7080    10.8590     9.1010    12.4160    25.2870   -28.1430 
  115.8750     2.1620    51.6940    10.6890     9.0340    12.1810    25.3550   -28.2380 
  116.0000     2.1820    51.2390    10.3880     8.8600    11.8670    25.3360   -28.2100 
  116.1250     2.2000    54.8900    10.0950     8.6570    11.5800    25.2990   -28.0580 
  116.2500     2.2080    60.8690     9.8950     8.4980    11.4800    25.2490   -27.8290 
  116.3750     2.2000    63.4560     9.8100     8.4110    11.6870    25.1460   -27.5960 
  116.5000     2.1800    59.6350     9.8360     8.4050    12.1120    25.0560   -27.3930 
  116.6250     2.1530    53.9860     9.9700     8.4840    12.3510    25.0280   -27.2150 
  116.7500     2.1240    52.7910    10.1670     8.6140    12.5780    25.0230   -27.0400 
  116.8750     2.0980    55.8420    10.3910     8.7720    13.0440    25.0230   -26.8230 
  117.0000     2.0860    59.6310    10.6050     8.9360    13.3170    25.0230   -26.5640 
  117.1250     2.0920    60.4610    10.7650     9.0830    13.1240    25.0310   -26.2990 
  117.2500     2.1170    58.6890    10.8570     9.1960    12.9860    25.0490   -26.0090 
  117.3750     2.1630    57.7830    10.8830     9.2620    12.9960    25.0680   -25.6320 
