~V
VERS. 2.00: Ver 2.00
~W
STRT.M 50.0000:
STOP.M 221.0000:
STEP.M 0.1250:
NULL. -999.2500:
UWI. F11120:
~C
DEPT.M :
DEN.GM/CC :
GR.API :
RML.OHMM :
RI. :
RXO.OHMM :
CALI.CM :
SP.MV :
~A
# ...
   72.5000     2.2290    86.3400     7.8980     5.7710     5.6690    27.2690   -20.9150 
   72.6250     2.2380    86.4930     7.9580     5.8330     5.5120    27.1990   -20.8630 
   72.7500     2.2380    87.6840     8.0090     5.8920     5.6100    27.1670   -20.7930 
   72.8750     2.2350    92.9370     8.0540     5.9420     5.9220    27.1710   -20.7020 
   73.0000     2.2350    97.7610     8.0860     5.9720     6.1730    27.2000   -20.5880 
   73.1250     2.2360    97.4370     8.0970     5.9720     6.2400    27.2660   -20.4640 
   73.2500     2.2310    95.5860     8.0980     5.9510     6.1650    27.3770   -20.3630 
   73.3750     2.2230    95.3390     8.1070     5.9290     6.0490    27.4560   -20.2990 
   73.5000     2.2180    94.1950     8.1460     5.9220     5.9800    27.4730   -20.2630 
   73.6250     2.2160    90.0150     8.2290     5.9410     5.9880    27.4430   -20.2360 
   73.7500     2.2110    85.9730     8.3290     5.9690     5.9730    27.4280   -20.1940 
   73.8750     2.2000    84.4160     8.3980     5.9830     5.9390    27.4200   -20.1250 
   74.0000     2.1840    85.0510     8.3740     5.9540     5.8960    27.4060   -20.0250 
   74.1250     2.1730    87.1170     8.1690     5.8470     5.7800    27.3660   -19.8940 
   74.2500     2.1720    91.5060     7.7970     5.6660     5.6170    27.3220   -19.7430 
   74.3750     2.1900    97.6060     7.3250     5.4350     5.4850    27.2890   -19.5640 
   74.5000     2.2280   101.8810     6.9060     5.2170     5.3320    27.2540   -19.3620 
   74.6250     2.2750   104.4060     6.8090     5.1380     5.2510    27.1740   -19.1520 
   74.7500     2.3080   104.3960     7.1420     5.2700     5.5900    27.0650   -18.9590 
   74.8750     2.3210    98.7670     7.9020     5.6340     6.8350    26.9330   -18.8110 
   75.0000     2.3270    88.0960     8.9290     6.1680     9.9000    26.7770   -18.7310 
   75.1250     2.3500    78.7230     9.8140     6.6840    14.8980    26.5840   -18.7210 
   75.2500     2.3730    76.8560    10.1200     6.9340    15.9540    26.4870   -18.7530 
   75.3750     2.3640    81.8920     9.6830     6.7940    11.9300    26.5720   -18.8130 
   75.5000     2.3200    89.6630     8.7160     6.3250     7.9330    26.8360   -18.8860 
   75.6250     2.2820    95.8410     7.6500     5.7200     5.7450    27.0550   -18.9640 
   75.7500     2.2670    99.4860     6.8030     5.1770     4.9690    27.1780   -19.0520 
   75.8750     2.2680   100.9360     6.2670     4.7850     4.8870    27.2310   -19.1570 
   76.0000     2.2730    99.8250     6.0730     4.5920     4.9750    27.2930   -19.3000 
   76.1250     2.2780    96.7610     6.3400     4.6800     5.3520    27.3190   -19.5280 
   76.2500     2.2810    91.9860     7.1010     5.0620     6.1440    27.2840   -19.8680 
   76.3750     2.2870    85.2250     8.4200     5.7740     7.7650    27.2340   -20.3420 
   76.5000     2.3030    75.6630    10.2120     6.8000    10.6240    27.1640   -20.9500 
   76.6250     2.3180    66.8450    12.0560     7.9640    13.4880    27.1650   -21.6810 
   76.7500     2.3230    61.9160    13.2440     8.8570    12.7520    27.3750   -22.4820 
   76.8750     2.3200    59.6310    13.3100     9.1560    10.1070    27.7880   -23.3270 
   77.0000     2.3050    57.6720    12.3240     8.8080     8.2130    28.1860   -24.1920 
   77.1250     2.2550    56.6780    10.8740     8.0610     7.5950    28.3760   -25.0330 
   77.2500     2.1770    58.4880     9.6560     7.3330     7.3180    28.4030   -25.8110 
   77.3750     2.1100    61.5290     8.8760     6.7830     7.2500    28.3380   -26.4920 
   77.5000     2.0770    62.6670     8.5130     6.4480     7.3730    28.2400   -27.0710 
   77.6250     2.0770    60.8160     8.5910     6.3710     7.7300    28.1170   -27.5470 
   77.7500     2.0880    58.0020     9.0630     6.5410     8.0970    27.9570   -27.9550 
   77.8750     2.1000    55.9590     9.9310     6.9710     8.3380    27.8270   -28.3020 
   78.0000     2.1030    55.4910    11.1110     7.6250     9.1320    27.7030   -28.5950 
   78.1250     2.0990    56.1480    12.3420     8.3760    13.2960    27.4270   -28.8430 
   78.2500     2.1110    57.4550    13.1790     8.9610    21.2770    26.9930   -29.0680 
   78.3750     2.1460    58.7110    13.2790     9.1590    22.0700    26.5240   -29.2810 
   78.5000     2.1790    58.9150    12.6110     8.9050    14.3340    26.1240   -29.4890 
   78.6250     2.1750    58.6890    11.5200     8.3270    10.8320    25.9500   -29.6920 
   78.7500     2.1520    58.9910    10.5640     7.7340    10.2410    25.8810   -29.8870 
   78.8750     2.1310    58.8110     9.9950     7.2900    10.5530    25.8060   -30.0730 
   79.0000     2.1190    56.8940     9.8540     7.0660    10.9710    25.6780   -30.2570 
   79.1250     2.1090    54.8880    10.0480     7.0650    11.2230    25.5530   -30.4480 
   79.2500     2.1020    53.1680    10.3370     7.1740    11.3300    25.4850   -30.6400 
   79.3750     2.1000    52.1320    10.6140     7.3270    11.5210    25.4700   -30.8250 
   79.5000     2.1110    54.0520    10.8450     7.4860    11.6940    25.4940   -30.9890 
   79.6250     2.1310    58.3460    11.0150     7.6290    11.8320    25.5630   -31.1180 
   79.7500     2.1450    59.5810    11.1190     7.7360    11.9260    25.6460   -31.2140 
   79.8750     2.1440    56.3410    11.1200     7.7850    11.9090    25.7140   -31.2860 
   80.0000     2.1380    53.4850    10.9810     7.7510    11.3060    25.7700   -31.3330 
   80.1250     2.1350    54.7640    10.6770     7.6090    10.6070    25.8760   -31.3300 
   80.2500     2.1360    57.1220    10.2960     7.3990    10.0460    26.0670   -31.2660 
   80.3750     2.1370    57.8470     9.9340     7.1680     9.6800    26.2860   -31.1310 
   80.5000     2.1360    56.6450     9.6800     6.9700     9.4660    26.4630   -30.9390 
   80.6250     2.1320    56.0050     9.6180     6.8620     9.5710    26.5330   -30.7190 
   80.7500     2.1280    56.5440     9.7060     6.8460     9.8470    26.5370   -30.5060 
   80.8750     2.1240    57.0360     9.8830     6.9040    10.2060    26.5070   -30.2970 
   81.0000     2.1180    56.7430    10.0690     7.0020    10.3390    26.4760   -30.0820 
   81.1250     2.1130    54.8370    10.1810     7.0920    10.0130    26.4370   -29.8440 
   81.2500     2.1150    54.7660    10.1930     7.1420     9.8080    26.4180   -29.5790 
   81.3750     2.1230    59.3200    10.1310     7.1480     9.6890    26.4720   -29.2840 
   81.5000     2.1360    67.1060    10.0900     7.1470    10.0800    26.5860   -28.9570 
   81.6250     2.1440    70.4870    10.2750     7.2400    10.5060    26.6430   -28.5750 
   81.7500     2.1490    68.0100    10.7790     7.4910    10.9210    26.6590   -28.1490 
   81.8750     2.1530    65.6920    11.5780     7.9090    12.0150    26.6950   -27.7040 
   82.0000     2.1560    67.0260    12.4960     8.4220    15.6560    26.7480   -27.2720 
   82.1250     2.1480    68.1140    13.1260     8.8310    24.5780    26.7530   -26.8970 
   82.2500     2.1320    63.6030    13.1660     8.9550    30.8450    26.6700   -26.6010 
   82.3750     2.1170    56.8200    12.5740     8.7410    23.1250    26.4770   -26.4020 
   82.5000     2.1100    55.5540    11.6190     8.2940    13.6800    26.2780   -26.3140 
   82.6250     2.1110    59.1360    10.7460     7.8160    10.8750    26.1660   -26.3670 
   82.7500     2.1150    60.6950    10.2240     7.4710    10.8110    26.0680   -26.5340 
   82.8750     2.1190    59.3440    10.0920     7.3170    11.4120    25.9740   -26.7750 
   83.0000     2.1240    57.6430    10.2570     7.3510    11.8430    25.9180   -27.0380 
   83.1250     2.1270    56.8190    10.5790     7.5350    11.9100    25.9090   -27.2620 
   83.2500     2.1290    56.4080    10.9340     7.7870    11.9170    25.9180   -27.4190 
   83.3750     2.1330    57.9430    11.3240     8.0810    12.1530    25.9460   -27.4980 
   83.5000     2.1400    60.3130    11.7600     8.3980    12.5400    25.9660   -27.4830 
   83.6250     2.1470    62.1640    12.1250     8.6570    12.8090    25.9870   -27.3220 
