~V
VERS. 2.00: Ver 2.00
~W
STRT.M 45.0000:
STOP.M 250.0000:
STEP.M 0.1250:
NULL. -999.2500:
UWI. F11133:
~C
DEPT.M :
SP.MV :
DEN.GM/CC :
GR.API :
RML.OHMM :
RI. :
RXO.OHMM :
CALI.CM :
~A
   45.0000  -999.2500  -999.2500    45.4780    14.3230     1.5870    -1.6280    25.7840 
   45.1250  -999.2500  -999.2500    44.8020    12.8950     1.5630    -1.6740    25.8080 
   45.2500  -999.2500  -999.2500    46.1010    11.5560     1.5390    -1.7250    25.8440 
   45.3750  -999.2500  -999.2500    48.4900    10.5850     1.5220    -1.7540    25.8900 
   45.5000  -999.2500  -999.2500    50.1170     9.9910     1.5160    -1.7730    25.9400 
   45.6250  -999.2500  -999.2500    51.2920     9.7400     1.5150    -1.8220    25.9870 
   45.7500  -999.2500  -999.2500    52.9970     9.8220     1.5150    -1.9050    26.0270 
   45.8750  -999.2500  -999.2500    54.0520    10.2350     1.5130    -1.9910    26.0600 
   46.0000  -999.2500  -999.2500    53.3130    10.9460     1.5100    -2.0580    26.0910 
   46.1250  -999.2500  -999.2500    51.7940    11.8830     1.5070    -2.1040    26.1160 
   46.2500  -999.2500  -999.2500    49.9440    12.8330     1.5050    -2.1410    26.1290 
   46.3750  -999.2500  -999.2500    47.0520    13.5130     1.5010    -2.1840    26.1330 
   46.5000  -999.2500  -999.2500    43.8950    13.7580     1.4940    -2.2750    26.1330 
   46.6250  -999.2500  -999.2500    42.5930    13.5660     1.4820    -2.4310    26.1330 
   46.7500  -999.2500  -999.2500    43.0770    13.0690     1.4680    -2.5670    26.1330 
   46.8750  -999.2500  -999.2500    43.5220    12.4700     1.4550    -2.6010    26.1330 
   47.0000  -999.2500  -999.2500    43.9970    11.9070     1.4440    -2.5700    26.1330 
   47.1250  -999.2500  -999.2500    45.8650    11.3830     1.4330    -2.5260    26.1330 
   47.2500  -999.2500  -999.2500    47.9880    10.8600     1.4210    -2.4850    26.1330 
   47.3750  -999.2500  -999.2500    47.9530    10.3520     1.4080    -2.4340    26.1320 
   47.5000  -999.2500  -999.2500    46.8950     9.9460     1.3990    -2.3740    26.1250 
   47.6250  -999.2500  -999.2500    46.5170     9.7410     1.4000    -2.3240    26.1100 
   47.7500  -999.2500  -999.2500    45.5470     9.7980     1.4150    -2.2940    26.0930 
   47.8750  -999.2500  -999.2500    43.2370    10.0570     1.4420    -2.2700    26.0770 
   48.0000  -999.2500  -999.2500    42.2680    10.3230     1.4680    -2.2170    26.0600 
   48.1250  -999.2500  -999.2500    44.0090    10.4050     1.4820    -2.0950    26.0430 
   48.2500  -999.2500  -999.2500    45.7650    10.2020     1.4750    -1.9310    26.0270 
   48.3750  -999.2500  -999.2500    46.0970     9.7880     1.4470    -1.8830    26.0110 
   48.5000  -999.2500  -999.2500    46.8970     9.3280     1.4060    -1.9980    26.0020 
   48.6250  -999.2500  -999.2500    47.2520     8.9190     1.3660    -2.0950    26.0000 
   48.7500  -999.2500  -999.2500    45.9070     8.6290     1.3360    -2.0950    26.0000 
   48.8750  -999.2500  -999.2500    45.2410     8.4860     1.3200    -2.0160    26.0000 
   49.0000  -999.2500  -999.2500    47.1820     8.4610     1.3140    -1.9020    26.0000 
   49.1250  -999.2500  -999.2500    49.7520     8.4830     1.3100    -1.8000    26.0000 
   49.2500  -999.2500  -999.2500    51.2380     8.4060     1.3030    -1.7580    26.0000 
   49.3750  -999.2500  -999.2500    52.6990     8.0850     1.2940    -1.7830    26.0000 
   49.5000  -999.2500  -999.2500    53.8030     7.5230     1.2830    -1.8110    26.0000 
   49.6250  -999.2500  -999.2500    51.9480     6.8330     1.2730    -1.7890    25.9970 
   49.7500  -999.2500  -999.2500    47.5630     6.1620     1.2650    -1.7180    25.9870 
   49.8750  -999.2500  -999.2500    44.4640     5.6070     1.2610    -1.6300    25.9700 
   50.0000  -999.2500  -999.2500    44.5310     5.1940     1.2650    -1.5830    25.9530 
   50.1250  -999.2500  -999.2500    46.2250     4.9200     1.2790    -1.6010    25.9370 
   50.2500  -999.2500  -999.2500    46.6330     4.7790     1.3020    -1.6380    25.9200 
   50.3750  -999.2500  -999.2500    45.1370     4.7630     1.3280    -1.6780    25.9030 
   50.5000  -999.2500  -999.2500    43.3300     4.8440     1.3510    -1.7500    25.8870 
   50.6250  -999.2500  -999.2500    42.4090     5.0080     1.3660    -1.8870    25.8700 
   50.7500  -999.2500  -999.2500    43.0560     5.2450     1.3720    -1.9820    25.8530 
   50.8750  -999.2500  -999.2500    44.3560     5.5320     1.3730    -1.8110    25.8370 
   51.0000  -999.2500  -999.2500    44.4920     5.8340     1.3710    -1.3910    25.8200 
   51.1250  -999.2500  -999.2500    42.8450     6.1290     1.3680    -1.0010    25.8030 
   51.2500  -999.2500  -999.2500    40.6450     6.3980     1.3660    -0.7760    25.7870 
   51.3750    69.2870  -999.2500    40.1830     6.6200     1.3650    -0.6640    25.7700 
   51.5000    69.2870  -999.2500    42.0070     6.7650     1.3670    -0.6020    25.7530 
   51.6250    69.2010  -999.2500    44.6480     6.8010     1.3680    -0.5640    25.7390 
   51.7500    68.9190  -999.2500    46.1000     6.7380     1.3670    -0.5210    25.7330 
   51.8750    68.4960  -999.2500    45.8950     6.6450     1.3620    -0.4650    25.7330 
   52.0000    67.9690  -999.2500    45.1430     6.5760     1.3550    -0.4410    25.7330 
   52.1250    67.3350  -999.2500    44.2260     6.5100     1.3480    -0.4980    25.7330 
   52.2500    66.6390  -999.2500    43.9680     6.3970     1.3420    -0.6330    25.7330 
   52.3750    65.9330  -999.2500    45.3440     6.2300     1.3350    -0.7490    25.7330 
   52.5000    65.2440  -999.2500    47.3600     6.0720     1.3280    -0.8010    25.7330 
   52.6250    64.5910  -999.2500    47.9440     5.9920     1.3220    -0.8410    25.7330 
   52.7500    64.0260  -999.2500    46.7710     6.0160     1.3180    -0.8480    25.7330 
   52.8750    63.5770  -999.2500    44.6680     6.0800     1.3160    -0.7840    25.7330 
   53.0000    63.2320  -999.2500    42.0010     6.0850     1.3150    -0.7120    25.7330 
   53.1250    62.9930  -999.2500    39.7130     6.0170     1.3130    -0.6770    25.7330 
   53.2500    62.8430  -999.2500    39.7130     5.9470     1.3110    -0.6760    25.7330 
   53.3750    62.7720  -999.2500    41.7400     5.9570     1.3120    -0.6840    25.7330 
   53.5000    62.7730  -999.2500    42.7400     6.0510     1.3190    -0.6980    25.7330 
   53.6250    62.8280  -999.2500    41.7970     6.1600     1.3290    -0.7170    25.7330 
   53.7500    62.8930  -999.2500    40.6490     6.2080     1.3390    -0.7050    25.7330 
   53.8750    62.9170     2.3080    40.9830     6.1930     1.3440    -0.6570    25.7330 
   54.0000    62.8660     2.3080    42.0320     6.1830     1.3440    -0.6530    25.7330 
   54.1250    62.7560     2.3160    41.9860     6.2220     1.3400    -0.7890    25.7330 
   54.2500    62.6370     2.3330    40.2540     6.2850     1.3380    -1.0860    25.7330 
   54.3750    62.5160     2.3410    38.3330     6.2970     1.3380    -1.4530    25.7330 
   54.5000    62.3880     2.3420    38.1680     6.1940     1.3410    -1.8050    25.7330 
   54.6250    62.2870     2.3420    39.5540     5.9600     1.3440    -2.0850    25.7330 
   54.7500    62.2660     2.3400    40.6660     5.6370     1.3470    -2.2160    25.7330 
   54.8750    62.3350     2.3350    40.9770     5.2990     1.3490    -2.2230    25.7330 
   55.0000    62.4920     2.3250    40.9480     5.0130     1.3490    -2.2230    25.7330 
   55.1250    62.7220     2.3070    40.3620     4.8050     1.3490    -2.2510    25.7330 
   55.2500    62.9800     2.2790    40.2840     4.6680     1.3500    -2.2880    25.7330 
   55.3750    63.2520     2.2550    42.1690     4.5600     1.3520    -2.3250    25.7330 
   55.5000    63.5350     2.2420    44.1380     4.4300     1.3560    -2.3490    25.7330 
   55.6250    63.8260     2.2350    43.5330     4.2460     1.3600    -2.3430    25.7330 
   55.7500    64.0950     2.2270    42.2160     4.0060     1.3630    -2.2960    25.6770 
   55.8750    64.2950     2.2160    43.3260     3.7290     1.3630    -2.1920    25.4720 
   56.0000    64.3950     2.2100    45.0100     3.4360     1.3580    -1.9860    25.2490 
   56.1250    64.3680     2.2140    44.2600     3.1520     1.3470    -1.5750    25.1350 
