~V
VERS. 2.00: Ver 2.00
~W
STRT.M 52.0000:
STOP.M 239.0000:
STEP.M 0.1250:
NULL. -999.2500:
UWI. F11118:
~C
DEPT.M :
DEN.GM/CC :
GR.API :
RML.OHMM :
RI. :
RXO.OHMM :
CALI.CM :
SP.MV :
~A
# ...
   85.7500     2.1210    62.3660     9.9980     8.3370     9.6860    25.6390   -35.8830 
   85.8750     2.2040    61.1480    10.2510     8.5030     9.4160    25.7230   -35.9120 
   86.0000     2.2870    61.2040    10.5580     8.6400     9.1400    26.2450   -35.8210 
   86.1250     2.3240    62.4420    10.6430     8.6140     8.8840    26.5470   -35.6590 
   86.2500     2.3090    62.2380    10.4220     8.4120     8.7650    26.1280   -35.4390 
   86.3750     2.2590    61.5550     9.9890     8.0960     8.8510    25.8150   -35.1510 
   86.5000     2.2030    62.0920     9.5240     7.7630     8.9960    25.9490   -34.7890 
   86.6250     2.1610    63.0150     9.1860     7.5000     9.1020    26.5610   -34.3340 
   86.7500     2.1330    64.0660     8.9440     7.3120     9.2220    26.8880   -33.8050 
   86.8750     2.1180    65.4350     8.6880     7.1630     9.3880    27.1950   -33.2080 
   87.0000     2.1110    65.8200     8.3210     7.0040     9.2860    27.9640   -32.5660 
   87.1250     2.1140    63.6030     7.9030     6.8070     8.8970    28.5600   -31.8740 
   87.2500     2.1210    62.6280     7.5990     6.6030     8.6080    28.8270   -31.1760 
   87.3750     2.1290    64.9000     7.4950     6.4290     8.4110    29.0000   -30.5060 
   87.5000     2.1340    67.7970     7.5940     6.3170     8.2010    29.0360   -29.9090 
   87.6250     2.1320    69.1790     7.8440     6.2950     7.9590    29.0030   -29.4310 
   87.7500     2.1250    69.9030     8.1270     6.3450     7.7440    29.0040   -29.0880 
   87.8750     2.1150    70.5100     8.3960     6.4540     7.4960    28.7850   -28.8950 
   88.0000     2.1070    71.0920     8.6330     6.5960     7.2230    28.3350   -28.8340 
   88.1250     2.1050    70.1870     8.8210     6.7560     7.1440    27.0820   -28.9140 
   88.2500     2.1080    67.2450     8.9340     6.9130     7.2980    26.2000   -29.0650 
   88.3750     2.1150    63.9170     8.9390     7.0390     7.5140    25.7790   -29.2620 
   88.5000     2.1240    63.4450     8.8230     7.0980     7.6310    25.6940   -29.4550 
   88.6250     2.1300    65.1150     8.6070     7.0500     7.7360    25.6970   -29.6030 
   88.7500     2.1340    66.7080     8.3930     6.9230     7.9020    25.7640   -29.6650 
   88.8750     2.1350    68.5860     8.2270     6.7650     7.9040    26.0280   -29.6170 
   89.0000     2.1320    71.5230     8.1340     6.6310     7.5510    26.4320   -29.4720 
   89.1250     2.1250    74.1400     8.1360     6.5860     7.1430    26.1540   -29.2610 
   89.2500     2.1180    74.4540     8.2160     6.6500     7.1270    25.2460   -29.0200 
   89.3750     2.1140    72.1130     8.3800     6.8140     7.2940    24.8110   -28.7280 
   89.5000     2.1160    69.9300     8.6340     7.0310     7.4380    24.7320   -28.4030 
   89.6250     2.1250    71.8140     8.9160     7.1870     7.5250    24.7350   -27.9920 
   89.7500     2.1390    75.1120     9.0590     7.1870     7.6920    24.7580   -27.5260 
   89.8750     2.1550    77.1270     8.9330     7.0070     7.9490    24.8310   -27.0280 
   90.0000     2.1710    78.4070     8.5500     6.7080     8.1370    24.9930   -26.4790 
   90.1250     2.1830    81.1270     8.0790     6.3970     7.9920    25.8270   -25.8440 
   90.2500     2.1920    82.9930     7.7260     6.1570     7.6210    26.5930   -25.1900 
   90.3750     2.1980    84.5300     7.5310     6.0020     7.6600    26.5710   -24.5870 
   90.5000     2.2020    87.4830     7.3940     5.9220     8.4300    25.9930   -24.0610 
   90.6250     2.2080    88.5840     7.1750     5.9260     9.2030    25.7230   -23.6710 
   90.7500     2.2170    88.1070     6.9070     6.0130     8.9470    25.6050   -23.3700 
   90.8750     2.2230    88.3260     6.7680     6.1870     7.9790    25.5300   -23.1610 
   91.0000     2.2210    87.2720     6.9110     6.4420     7.0150    25.5100   -23.0890 
   91.1250     2.2030    80.3140     7.3880     6.7580     6.8240    25.1440   -23.1660 
   91.2500     2.1780    74.7630     7.9730     7.0670     6.9620    24.8930   -23.3410 
   91.3750     2.1550    75.9680     8.4460     7.2840     6.9660    24.7430   -23.5300 
   91.5000     2.1410    78.5420     8.6210     7.3230     6.9290    24.5930   -23.6610 
   91.6250     2.1420    76.0420     8.3900     7.1320     7.2000    24.5760   -23.7100 
   91.7500     2.1500    73.4650     7.9600     6.8140     7.4800    24.6490   -23.7060 
   91.8750     2.1600    72.6050     7.5550     6.4700     7.5800    24.8340   -23.6480 
   92.0000     2.1680    71.3510     7.3150     6.1820     7.5420    24.9070   -23.5070 
   92.1250     2.1730    71.7620     7.2440     5.9920     7.5950    24.9180   -23.2780 
   92.2500     2.1740    75.0790     7.2030     5.8710     7.8310    24.9190   -22.9700 
   92.3750     2.1720    78.8800     7.1110     5.8020     8.1020    24.9240   -22.6340 
   92.5000     2.1700    79.2000     6.9630     5.7740     8.2180    24.9530   -22.3220 
   92.6250     2.1680    77.4990     6.8300     5.7730     8.0200    24.9840   -22.0910 
   92.7500     2.1680    76.5140     6.7810     5.7770     7.8710    24.9600   -21.9460 
   92.8750     2.1660    76.0690     6.8050     5.7720     7.8970    24.7740   -21.9060 
   93.0000     2.1590    76.4930     6.8690     5.7540     8.1090    24.5610   -21.9970 
   93.1250     2.1420    77.8520     7.0080     5.7430     8.1820    24.3110   -22.2200 
   93.2500     2.1270    78.9540     7.2840     5.7890     7.9920    23.9660   -22.5520 
   93.3750     2.1250    78.9930     7.7310     5.9470     7.7200    23.8010   -22.9710 
   93.5000     2.1510    78.1500     8.3290     6.2480     7.7590    23.7110   -23.4670 
   93.6250     2.2080    77.6820     8.9600     6.6740     8.0800    23.6990   -24.0110 
   93.7500     2.2680    77.7120     9.4400     7.0960     8.3870    23.7030   -24.5950 
   93.8750     2.3050    76.7240     9.6250     7.3780     8.5770    23.7430   -25.2120 
   94.0000     2.3020    73.0700     9.4750     7.4340     8.7780    23.7770   -25.8220 
   94.1250     2.2630    69.0990     9.0430     7.2680     9.0990    23.7830   -26.4060 
   94.2500     2.2200    69.3300     8.5370     7.0380     9.3940    23.7840   -26.9350 
   94.3750     2.1900    72.2820     8.1120     6.8550     9.5560    23.7840   -27.4270 
   94.5000     2.1770    72.6610     7.8830     6.7800     9.5220    23.7840   -27.8770 
   94.6250     2.1750    68.1190     7.9160     6.8180     9.3830    23.7800   -28.2740 
   94.7500     2.1750    64.5920     8.0710     6.8920     9.3620    23.7610   -28.6210 
   94.8750     2.1740    64.9180     8.2280     6.9410     9.4590    23.6850   -28.9050 
   95.0000     2.1690    68.8370     8.3330     6.9450     9.5110    23.7570   -29.1090 
   95.1250     2.1610    71.8360     8.4420     6.9400     9.5250    23.8410   -29.2370 
   95.2500     2.1490    71.9960     8.6540     6.9750     9.5840    24.2760   -29.3100 
   95.3750     2.1340    69.1080     8.9780     7.0740    10.2980    24.8830   -29.3280 
   95.5000     2.1200    66.6110     9.3070     7.2220    13.1410    25.5410   -29.3270 
   95.6250     2.1120    67.7510     9.4390     7.3730    18.7900    25.9100   -29.2990 
   95.7500     2.1100    68.5630     9.3210     7.4680    20.1560    25.9910   -29.2590 
   95.8750     2.1150    66.1500     9.0360     7.4820    14.9920    25.8870   -29.2100 
   96.0000     2.1230    63.6160     8.7170     7.4290    11.6620    25.6540   -29.1610 
   96.1250     2.1340    66.2440     8.4530     7.3510    11.0230    25.5300   -29.1030 
   96.2500     2.1430    70.4580     8.2400     7.2800    11.0520    25.4310   -29.0290 
   96.3750     2.1460    71.3690     8.0500     7.2140    11.1840    25.2950   -28.9330 
   96.5000     2.1420    69.9320     7.8710     7.1270    11.3790    25.1910   -28.8000 
   96.6250     2.1290    69.1280     7.7600     6.9900    11.4590    25.1780   -28.6210 
   96.7500     2.1170    69.1160     7.8080     6.8600    11.3080    25.1870   -28.3720 
   96.8750     2.1190    69.3750     8.1160     6.8470    11.0410    25.2320   -28.0080 
