~V
VERS. 2.00: Ver 2.00
~W
STRT.M 50.0000:
STOP.M 209.0000:
STEP.M 0.1250:
NULL. -999.2500:
UWI. F11109:
~C
DEPT.M :
GR.API :
RML.OHMM :
RI. :
RXO.OHMM :
CALI.CM :
SP.MV :
DEN.GM/CC :
~A
# ...
   95.0000    61.3060     8.8330     6.5810     7.8600    24.0520   -27.0640     2.1130 
   95.1250    59.5210     8.8930     6.6260     7.9600    24.1800   -27.0560     2.1170 
   95.2500    61.6430     8.9810     6.6910     8.1080    24.2480   -27.1380     2.1170 
   95.3750    65.1170     9.0830     6.7600     8.2070    24.2380   -27.2780     2.1120 
   95.5000    66.3100     9.1690     6.8120     8.3810    24.2080   -27.4650     2.1040 
   95.6250    63.6130     9.1930     6.8270     8.4460    24.2390   -27.6890     2.0940 
   95.7500    59.5820     9.1560     6.8100     8.1320    24.3020   -27.9300     2.0880 
   95.8750    57.5550     9.0920     6.7740     7.7110    24.2950   -28.1630     2.0860 
   96.0000    60.0310     9.0450     6.7410     7.4880    24.1560   -28.3650     2.0890 
   96.1250    65.7690     9.0470     6.7450     7.4180    23.9150   -28.4680     2.0940 
   96.2500    68.4530     9.1000     6.8020     7.3720    23.7840   -28.4550     2.0980 
   96.3750    66.7980     9.2030     6.9190     7.3680    23.8290   -28.2920     2.0990 
   96.5000    63.6280     9.3390     7.0790     7.4330    23.9530   -27.9460     2.0960 
   96.6250    62.7560     9.4580     7.2270     7.6190    24.0380   -27.3860     2.0960 
   96.7500    64.1530     9.4790     7.2920     7.5780    24.0230   -26.6300     2.1030 
   96.8750    65.5490     9.3140     7.2140     7.4600    23.9100   -25.6820     2.1240 
   97.0000    68.0590     8.9090     6.9610     7.0900    23.8070   -24.5550     2.1590 
   97.1250    72.8090     8.2680     6.5300     6.6640    23.8830   -23.2680     2.1930 
   97.2500    78.6660     7.5430     6.0150     6.4830    24.0820   -21.9090     2.2040 
   97.3750    84.9240     6.8520     5.4940     6.1600    24.3700   -20.5410     2.1900 
   97.5000    90.7730     6.2960     5.0360     5.0690    24.7160   -19.2410     2.1620 
   97.6250    93.4360     5.9760     4.7140     4.4380    25.0280   -18.1160     2.1450 
   97.7500    91.6400     5.8560     4.5260     4.2180    25.2280   -17.2310     2.1520 
   97.8750    89.1410     5.8880     4.4530     4.1880    25.2940   -16.6200     2.1850 
   98.0000    89.0550     5.9840     4.4580     4.1910    25.2960   -16.3000     2.2330 
   98.1250    90.7900     6.0360     4.4940     4.2440    25.2890   -16.3240     2.2790 
   98.2500    93.6940     6.0250     4.5330     4.4420    25.2790   -16.5810     2.3100 
   98.3750    97.0770     6.0250     4.5950     4.5650    25.2760   -17.0210     2.3190 
   98.5000    98.2420     6.1620     4.7310     4.5680    25.2720   -17.6170     2.3060 
   98.6250    96.4930     6.6160     5.0320     4.5290    25.1870   -18.3740     2.2770 
   98.7500    93.7980     7.3860     5.5130     5.0710    24.9410   -19.2370     2.2490 
   98.8750    89.0840     8.3720     6.1480     6.2760    24.4850   -20.1820     2.2270 
   99.0000    80.4250     9.3480     6.8270     7.6240    23.9360   -21.1580     2.2120 
   99.1250    72.8680     9.9230     7.3160     8.2930    23.6160   -22.0680     2.2000 
   99.2500    71.5350     9.9610     7.4750     8.4430    23.5730   -22.8710     2.1860 
   99.3750    72.9460     9.5730     7.3220     8.0950    23.6720   -23.5140     2.1670 
   99.5000    74.0860     9.0950     7.0410     7.5730    23.8420   -23.9700     2.1450 
   99.6250    76.3380     9.0640     6.9580     7.4110    24.0070   -24.2420     2.1360 
   99.7500    78.7150     9.8400     7.3220     8.2130    23.9900   -24.4170     2.1610 
   99.8750    76.9950    11.6960     8.3390    10.5390    23.9290   -24.5330     2.2440 
  100.0000    71.6740    14.7030    10.1420    16.3570    24.0670   -24.6340     2.3910 
  100.1250    69.5220    18.4800    12.6960    32.7000    24.4520   -24.7720     2.5460 
  100.2500    69.8020    21.6040    15.1580    49.5710    24.8090   -24.9730     2.6160 
  100.3750    68.4220    22.6600    16.4580    52.2140    25.0030   -25.2440     2.5800 
  100.5000    64.2070    21.1480    15.9770    39.5720    25.0780   -25.5700     2.4870 
  100.6250    60.6830    18.0010    14.0980    24.3980    24.3530   -25.9220     2.3930 
  100.7500    58.6520    15.0450    12.0910    14.7980    23.7380   -26.2890     2.3260 
  100.8750    59.1840    12.9810    10.5070    10.8320    23.3880   -26.6780     2.2900 
  101.0000    62.5310    11.8820     9.4990     9.5310    23.2500   -27.0810     2.2740 
  101.1250    65.4810    11.6070     9.0790     9.2060    23.2240   -27.4770     2.2680 
  101.2500    66.2210    11.7130     9.0060     9.0450    23.2320   -27.8350     2.2620 
  101.3750    66.3040    11.9530     9.1200     9.0690    23.3070   -28.1540     2.2560 
  101.5000    66.9220    12.1570     9.2820     9.2450    23.4610   -28.4620     2.2480 
  101.6250    65.3200    12.2180     9.3870     9.4930    23.5840   -28.7790     2.2350 
  101.7500    63.0470    12.1400     9.4060     9.5960    23.6270   -29.0780     2.2210 
  101.8750    62.4490    11.9400     9.3360     9.5530    23.6640   -29.3430     2.2090 
  102.0000    63.1030    11.6600     9.1950     9.4540    23.7080   -29.5900     2.2010 
  102.1250    64.7080    11.3880     9.0290     9.4390    23.7290   -29.8220     2.1980 
  102.2500    66.3550    11.2170     8.9050     9.2310    23.7340   -30.0340     2.1960 
  102.3750    66.5160    11.2030     8.8650     9.1100    23.7270   -30.2030     2.1910 
  102.5000    64.3620    11.3530     8.9280     9.5550    23.7130   -30.3320     2.1830 
  102.6250    62.4200    11.6490     9.0990    10.7050    23.6800   -30.4270     2.1770 
  102.7500    63.3910    11.9930     9.3270    11.6540    23.6440   -30.4680     2.1780 
  102.8750    65.7170    12.3110     9.5630    11.1320    23.5760   -30.4500     2.1860 
  103.0000    67.0220    12.5470     9.7610    10.3310    23.4930   -30.3790     2.1930 
  103.1250    64.2890    12.6560     9.8790     9.8600    23.4420   -30.2930     2.1900 
  103.2500    60.4540    12.6490     9.9120     9.7280    23.4930   -30.1940     2.1750 
  103.3750    59.2470    12.5430     9.8670     9.7180    23.6920   -30.0820     2.1570 
  103.5000    61.0360    12.3820     9.7720     9.6880    23.9780   -29.9680     2.1450 
  103.6250    62.5950    12.2550     9.6830     9.7610    23.9680   -29.8650     2.1450 
  103.7500    62.7650    12.2330     9.6590     9.8500    23.7380   -29.7690     2.1550 
  103.8750    64.1080    12.3510     9.7330     9.9020    23.5570   -29.6550     2.1670 
  104.0000    65.9390    12.5870     9.9050    10.0590    23.5750   -29.4950     2.1780 
  104.1250    65.6040    12.8600    10.1340    10.6610    23.6740   -29.2530     2.1920 
  104.2500    64.5280    13.0480    10.3280    11.4850    23.7340   -28.9180     2.2090 
  104.3750    65.3540    13.0730    10.4210    11.6660    23.7530   -28.4670     2.2250 
  104.5000    66.0790    12.9150    10.3850    11.0350    23.7640   -27.9120     2.2400 
  104.6250    63.2790    12.5950    10.2200    10.7640    23.7640   -27.3180     2.2500 
  104.7500    60.8740    12.2290    10.0020    10.7230    23.6890   -26.7430     2.2530 
  104.8750    61.7820    11.9090     9.7920    10.7270    23.5860   -26.2290     2.2550 
  105.0000    63.8100    11.6960     9.6370    10.5870    23.5390   -25.8310     2.2590 
  105.1250    63.6500    11.5920     9.5480    10.1500    23.6790   -25.6100     2.2580 
  105.2500    63.5590    11.5220     9.4810    10.1360    23.9990   -25.5170     2.2450 
  105.3750    64.1110    11.4510     9.4140    10.7220    24.3290   -25.5170     2.2170 
  105.5000    64.9440    11.3700     9.3440    11.5830    24.4840   -25.5560     2.1840 
  105.6250    65.6570    11.2680     9.2670    11.2380    24.4700   -25.5690     2.1680 
  105.7500    67.3620    11.1460     9.1840     9.9970    24.3650   -25.5170     2.1830 
  105.8750    69.6210    11.0190     9.1080    10.0080    24.1730   -25.4000     2.2280 
  106.0000    70.4870    10.9250     9.0720    11.6370    23.9610   -25.2000     2.2760 
  106.1250    69.4260    10.9610     9.1460    12.4930    23.9650   -24.8990     2.2900 
