~V
VERS. 2.00: Ver 2.00
~W
STRT.M 50.0000:
STOP.M 221.0000:
STEP.M 0.1250:
NULL. -999.2500:
UWI. F11120:
~C
DEPT.M :
DEN.GM/CC :
GR.API :
RML.OHMM :
RI. :
RXO.OHMM :
CALI.CM :
SP.MV :
~A
# ...
  117.5000     2.2420    70.2130     6.9690     6.3000     6.1260    26.8060   -17.4440 
  117.6250     2.2290    69.6400     6.8120     6.2090     6.1480    26.7430   -17.4840 
  117.7500     2.2170    67.5630     6.7730     6.1820     6.4590    26.6700   -17.5390 
  117.8750     2.2100    67.0170     6.8300     6.2050     6.4780    26.6610   -17.6290 
  118.0000     2.2080    68.1930     6.9350     6.2510     6.2800    26.6920   -17.7600 
  118.1250     2.2060    69.4110     7.0220     6.2890     6.1940    26.6930   -17.9290 
  118.2500     2.2050    72.0500     7.0430     6.2940     6.3430    26.6470   -18.1060 
  118.3750     2.2040    76.1550     6.9900     6.2580     6.6030    26.5770   -18.2790 
  118.5000     2.2040    77.3630     6.8600     6.1670     6.8040    26.5210   -18.4430 
  118.6250     2.2130    75.2460     6.6300     6.0010     6.3460    26.4810   -18.5970 
  118.7500     2.2320    75.5500     6.3270     5.7850     5.9070    26.4660   -18.7470 
  118.8750     2.2500    78.1310     6.0020     5.5660     5.7440    26.4620   -18.8870 
  119.0000     2.2580    78.3950     5.7450     5.4150     5.6670    26.4560   -19.0150 
  119.1250     2.2560    76.3680     5.7430     5.4420     5.5920    26.4330   -19.1360 
  119.2500     2.2510    75.5140     6.0970     5.6940     5.7470    26.3830   -19.2640 
  119.3750     2.2490    74.4770     6.8380     6.1950     6.2770    26.2940   -19.3980 
  119.5000     2.2540    70.6800     7.8550     6.9040     7.2780    26.1620   -19.5290 
  119.6250     2.2780    64.0920     8.8380     7.6400     8.9480    26.0390   -19.6270 
  119.7500     2.3220    59.6640     9.4190     8.1290    10.4200    25.9950   -19.6740 
  119.8750     2.3710    60.0140     9.4750     8.2400    10.0340    26.0260   -19.6620 
  120.0000     2.3950    62.7110     9.2350     8.0970     8.4340    26.1050   -19.5990 
  120.1250     2.3850    63.8220     9.2680     8.0680     7.4420    26.1990   -19.4880 
  120.2500     2.3790    63.1370    10.0210     8.4840     8.4340    26.2820   -19.3360 
  120.3750     2.4040    61.4960    11.7260     9.5580    11.6360    26.3140   -19.1350 
  120.5000     2.4590    58.0560    14.4070    11.4020    17.4980    26.3190   -18.8790 
  120.6250     2.5200    51.8670    17.8030    14.0280    22.2410    26.3170   -18.5870 
  120.7500     2.5590    46.9710    21.0100    16.8520    23.4010    26.3050   -18.3110 
  120.8750     2.5720    44.8140    23.2420    19.2000    21.6480    26.2770   -18.0860 
  121.0000     2.5700    44.1120    24.1520    20.5780    19.9850    26.2570   -17.9200 
  121.1250     2.5630    42.4790    23.9710    20.9180    20.6130    26.2530   -17.7960 
  121.2500     2.5550    41.0750    23.5610    20.8530    22.9080    26.2720   -17.6860 
  121.3750     2.5440    41.6970    23.3740    20.7800    24.8390    26.3190   -17.5860 
  121.5000     2.5300    43.1800    23.6550    20.9560    23.5360    26.3680   -17.5090 
  121.6250     2.5190    43.3640    24.5630    21.5760    22.6100    26.3750   -17.4660 
  121.7500     2.5210    43.0900    25.8610    22.5280    23.2510    26.3540   -17.4410 
  121.8750     2.5350    43.0590    27.2090    23.6030    25.9670    26.3290   -17.4190 
  122.0000     2.5490    43.6220    28.1280    24.4630    30.0650    26.3260   -17.3880 
  122.1250     2.5440    45.2190    28.0060    24.6140    29.2550    26.3460   -17.3540 
  122.2500     2.5220    47.6900    26.9400    24.0270    25.3770    26.3620   -17.3340 
  122.3750     2.4970    49.9290    25.3330    22.9420    21.7190    26.3450   -17.3370 
  122.5000     2.4790    50.8650    23.7380    21.7590    19.6990    26.3200   -17.3590 
  122.6250     2.4730    49.6050    22.6330    20.8640    19.5480    26.3650   -17.3910 
  122.7500     2.4740    49.5100    22.0210    20.3360    19.7690    26.4210   -17.4170 
  122.8750     2.4780    50.2740    21.7710    20.1200    19.8950    26.4690   -17.4250 
  123.0000     2.4820    49.2560    21.7280    20.1170    20.1650    26.5080   -17.4120 
  123.1250     2.4790    46.5780    21.8430    20.2860    19.5970    26.5060   -17.3730 
  123.2500     2.4700    44.5580    22.1220    20.5930    18.9250    26.4940   -17.3180 
  123.3750     2.4660    42.7140    22.5910    21.0340    19.5710    26.5080   -17.2570 
  123.5000     2.4740    39.8400    23.1960    21.5830    22.0970    26.5050   -17.2010 
  123.6250     2.4880    38.6870    23.7830    22.1540    24.7690    26.4770   -17.1510 
  123.7500     2.4900    41.6650    24.1960    22.6180    25.1970    26.4660   -17.1010 
  123.8750     2.4790    45.7160    24.3590    22.8720    24.3530    26.4860   -17.0520 
  124.0000     2.4660    48.2900    24.2620    22.8630    24.3750    26.5160   -17.0050 
  124.1250     2.4620    48.8820    23.9280    22.5850    24.1150    26.5280   -16.9680 
  124.2500     2.4630    48.8190    23.4970    22.1880    22.5890    26.5320   -16.9410 
  124.3750     2.4650    47.9450    23.0840    21.7970    20.1260    26.5330   -16.9090 
  124.5000     2.4730    45.9730    22.7770    21.4940    19.0560    26.5430   -16.8620 
  124.6250     2.4870    44.8540    22.6130    21.3170    19.9250    26.5630   -16.7960 
  124.7500     2.5010    45.6240    22.5180    21.2300    21.1430    26.5870   -16.7270 
  124.8750     2.5090    46.2460    22.4640    21.2300    21.4400    26.6250   -16.6650 
  125.0000     2.5110    45.8730    22.4880    21.3520    22.1400    26.6820   -16.6150 
  125.1250     2.5090    45.4880    22.7270    21.6810    22.9930    26.7280   -16.5810 
  125.2500     2.5050    46.1800    23.2550    22.2310    24.1230    26.7390   -16.5600 
  125.3750     2.5000    46.5780    24.0860    23.0050    24.7120    26.7330   -16.5610 
  125.5000     2.4950    45.2500    25.1250    23.9550    26.7020    26.7250   -16.5870 
  125.6250     2.4930    43.4020    26.1480    24.9520    31.2410    26.7360   -16.6310 
  125.7500     2.4900    43.2860    26.9310    25.8040    32.6950    26.7370   -16.6760 
  125.8750     2.4840    45.4620    27.3710    26.3930    31.6350    26.7250   -16.7160 
  126.0000     2.4740    47.9090    27.4950    26.6890    30.2590    26.7010   -16.7530 
  126.1250     2.4590    47.5070    27.4270    26.7370    28.9310    26.7000   -16.7840 
  126.2500     2.4470    46.1720    27.3460    26.6990    25.5560    26.6980   -16.8020 
  126.3750     2.4430    46.8170    27.2950    26.6420    24.1600    26.6760   -16.7920 
  126.5000     2.4510    49.2370    27.2280    26.5570    26.0340    26.6820   -16.7510 
  126.6250     2.4680    48.6250    27.0100    26.3530    28.3110    26.7190   -16.6830 
  126.7500     2.4860    43.9840    26.5740    25.9840    27.9860    26.7380   -16.6190 
  126.8750     2.4960    40.8570    25.9410    25.4710    25.9820    26.7250   -16.5740 
  127.0000     2.4960    43.6380    25.2430    24.9170    23.7360    26.6740   -16.5440 
  127.1250     2.4810    50.4010    24.7640    24.5470    22.5300    26.6300   -16.5130 
  127.2500     2.4560    53.5450    24.6770    24.5100    22.5930    26.6000   -16.4670 
  127.3750     2.4370    51.4060    24.9870    24.8200    24.5950    26.5960   -16.4030 
  127.5000     2.4380    47.9120    25.5100    25.3290    28.4130    26.5780   -16.3380 
  127.6250     2.4540    46.5060    25.8720    25.6990    31.2220    26.5500   -16.2930 
  127.7500     2.4670    46.5880    25.8050    25.6690    30.1970    26.4860   -16.2760 
  127.8750     2.4650    46.8800    25.2710    25.1920    26.3310    26.4180   -16.2850 
  128.0000     2.4450    47.1720    24.4590    24.4490    22.3090    26.3790   -16.3110 
  128.1250     2.4190    48.0340    23.7120    23.7640    20.6950    26.3520   -16.3520 
  128.2500     2.4020    50.2340    23.2390    23.3280    20.7050    26.3390   -16.4120 
  128.3750     2.3990    52.2060    23.0420    23.1380    21.6870    26.3440   -16.4940 
  128.5000     2.4060    50.8160    23.0000    23.0700    22.9050    26.3320   -16.5970 
  128.6250     2.4160    45.1780    22.9190    22.9450    22.8270    26.3120   -16.7100 
