~V
VERS. 2.00: Ver 2.00
~W
STRT.M 45.0000:
STOP.M 264.0000:
STEP.M 0.1250:
NULL. -999.2500:
UWI. F11189:
~C
DEPT.M :
SP.MV :
GR.API :
RI. :
RML.OHMM :
RXO.OHMM :
DEN.GM/CC :
~A
# ...
  122.2500    -8.5470    88.9140     3.6560     4.0140     5.0720     2.1500 
  122.3750    -8.6900    90.6770     3.8720     4.2960     4.9770     2.1390 
  122.5000    -8.8360    90.6950     4.0860     4.5780     5.1120     2.1270 
  122.6250    -8.9510    90.2160     4.1770     4.6820     5.0580     2.1210 
  122.7500    -9.0110    90.2130     4.0900     4.5450     4.5730     2.1220 
  122.8750    -9.0010    89.8530     3.8860     4.2620     4.2050     2.1310 
  123.0000    -8.9370    90.3450     3.6160     3.9100     4.2290     2.1510 
  123.1250    -8.8390    94.8250     3.3990     3.6530     4.3140     2.1720 
  123.2500    -8.7340   101.5060     3.2520     3.4930     4.2740     2.1820 
  123.3750    -8.6440   105.8930     3.1810     3.4270     4.1930     2.1840 
  123.5000    -8.5780   106.0250     3.1990     3.4600     4.1950     2.1900 
  123.6250    -8.5370   104.3460     3.2910     3.5940     4.4300     2.1950 
  123.7500    -8.5060   104.2660     3.4190     3.7650     4.8820     2.1880 
  123.8750    -8.4680   103.7640     3.5320     3.9150     5.2750     2.1650 
  124.0000    -8.4050    99.8470     3.6370     4.0450     5.5130     2.1440 
  124.1250    -8.3020    93.6010     3.7090     4.1030     5.5270     2.1560 
  124.2500    -8.1630    90.2610     3.7070     4.0700     5.1460     2.2070 
  124.3750    -8.0040    92.8060     3.6520     3.9840     5.6550     2.2710 
  124.5000    -7.8580    98.4920     3.5700     3.8780     6.5480     2.2980 
  124.6250    -7.7670   103.1520     3.5140     3.8170     5.8100     2.2630 
  124.7500    -7.7560   104.4370     3.5340     3.8570     5.1170     2.2070 
  124.8750    -7.8380   102.3620     3.6420     4.0030     5.2730     2.1760 
  125.0000    -7.9870    98.3230     3.7670     4.1840     5.2380     2.1670 
  125.1250    -8.1660    94.3010     3.9020     4.3660     5.3260     2.1560 
  125.2500    -8.3280    90.2250     3.9820     4.4710     5.5000     2.1500 
  125.3750    -8.4370    86.3260     3.9460     4.4190     5.3570     2.1590 
  125.5000    -8.4830    84.5650     3.8130     4.2430     5.2490     2.1670 
  125.6250    -8.4700    85.9880     3.6100     3.9890     5.3470     2.1640 
  125.7500    -8.4220    88.0330     3.4010     3.7220     5.3020     2.1700 
  125.8750    -8.3650    90.2890     3.2480     3.5270     5.0410     2.1920 
  126.0000    -8.3290    94.7810     3.1950     3.4480     4.8300     2.2080 
  126.1250    -8.3320    99.1350     3.2780     3.5360     4.8960     2.2030 
  126.2500    -8.3750    98.4420     3.5590     3.8760     5.0610     2.1910 
  126.3750    -8.4420    91.8740     3.9930     4.4030     5.2790     2.2060 
  126.5000    -8.4990    84.9870     4.4560     4.9580     5.6140     2.2440 
  126.6250    -8.5140    82.1650     4.7340     5.2580     5.8570     2.2580 
  126.7500    -8.4750    83.5350     4.7040     5.1790     5.8950     2.2270 
  126.8750    -8.3880    85.2140     4.3580     4.7370     5.6580     2.1940 
  127.0000    -8.2830    86.0990     3.8510     4.1370     5.2840     2.2010 
  127.1250    -8.1840    89.3940     3.4020     3.6460     5.0740     2.2350 
  127.2500    -8.1080    95.2820     3.0940     3.3290     4.9490     2.2620 
  127.3750    -8.0620    99.0120     3.0000     3.2610     4.8710     2.2720 
  127.5000    -8.0460    98.9550     3.0450     3.3380     4.9660     2.2650 
  127.6250    -8.0590    97.9820     3.2850     3.6310     5.1760     2.2450 
  127.7500    -8.0920    94.8530     3.7530     4.1740     5.4020     2.2420 
  127.8750    -8.1290    87.4350     4.4230     4.9470     5.9470     2.2910 
  128.0000    -8.1460    78.7760     5.3870     6.0610     7.7120     2.3840 
  128.1250    -8.1210    73.8600     6.4530     7.2620    10.1220     2.4740 
  128.2500    -8.0530    71.4550     7.3180     8.1710    11.2640     2.5200 
  128.3750    -7.9550    69.6300     7.6160     8.4170    11.0070     2.5160 
  128.5000    -7.8540    68.8600     7.3270     7.9980     9.4990     2.4850 
  128.6250    -7.7780    69.3590     6.6340     7.1650     7.2360     2.4110 
  128.7500    -7.7390    69.8710     5.9260     6.3750     6.0660     2.2920 
  128.8750    -7.7400    69.1620     5.4180     5.8420     5.9930     2.1760 
  129.0000    -7.7710    69.0620     5.1020     5.5440     6.0620     2.1170 
  129.1250    -7.8240    70.6070     4.9840     5.4810     6.1070     2.1110 
  129.2500    -7.8950    71.3800     4.9960     5.5410     6.1000     2.1220 
  129.3750    -7.9940    70.6480     5.0270     5.5790     6.1090     2.1370 
  129.5000    -8.1320    70.0810     5.0150     5.5470     6.0890     2.1540 
  129.6250    -8.3160    70.9660     4.9420     5.4340     5.9900     2.1680 
  129.7500    -8.5290    70.4000     4.8360     5.2850     5.8770     2.1660 
  129.8750    -8.7430    69.0550     4.7390     5.1520     5.8190     2.1480 
  130.0000    -8.9230    70.2460     4.6560     5.0340     5.8370     2.1280 
  130.1250    -9.0430    73.0540     4.6040     4.9610     5.8280     2.1160 
  130.2500    -9.1060    74.1370     4.5860     4.9290     5.7430     2.1150 
  130.3750    -9.1240    72.8480     4.5930     4.9280     5.6820     2.1210 
  130.5000    -9.1200    72.2820     4.6110     4.9410     5.6930     2.1290 
  130.6250    -9.1080    71.6300     4.6350     4.9660     5.6580     2.1320 
  130.7500    -9.0840    68.3650     4.6820     5.0150     5.2890     2.1280 
  130.8750    -9.0550    68.1570     4.7200     5.0540     5.0420     2.1220 
  131.0000    -9.0130    70.0570     4.7570     5.0920     5.0630     2.1150 
  131.1250    -8.9560    71.0230     4.7890     5.1150     5.2600     2.1020 
  131.2500    -8.8830    70.6070     4.8090     5.1340     5.4220     2.0870 
  131.3750    -8.7940    70.0380     4.8360     5.1580     5.4970     2.0770 
  131.5000    -8.6930    68.8990     4.8830     5.2120     5.5830     2.0780 
  131.6250    -8.5790    67.4210     4.9840     5.3310     5.5870     2.0880 
  131.7500    -8.4540    67.9790     5.1120     5.4940     5.5480     2.0980 
  131.8750    -8.3140    70.3170     5.2730     5.6950     5.7530     2.1080 
  132.0000    -8.1660    71.5270     5.3930     5.8450     6.1010     2.1140 
  132.1250    -8.0200    70.0870     5.4140     5.8690     6.2260     2.1110 
  132.2500    -7.8880    67.0460     5.3090     5.7400     6.0240     2.1100 
  132.3750    -7.7650    64.5490     5.1290     5.5310     5.7900     2.1160 
  132.5000    -7.6250    64.5340     4.9690     5.3550     5.7440     2.1250 
  132.6250    -7.4220    66.6470     4.8950     5.2870     5.8540     2.1250 
  132.7500    -7.1270    67.7300     4.9400     5.3620     6.0130     2.1190 
  132.8750    -6.7260    66.6030     5.0920     5.5650     6.1140     2.1090 
  133.0000    -6.2520    65.0890     5.2950     5.8080     6.1690     2.1010 
  133.1250    -5.7470    63.7760     5.4970     6.0430     6.3100     2.0970 
  133.2500    -5.2550    63.1470     5.6550     6.2090     6.4790     2.0980 
  133.3750    -4.8120    63.0170     5.7640     6.3170     6.5130     2.0990 
  133.5000    -4.4360    62.0410     5.8360     6.3900     6.4610     2.0960 
  133.6250    -4.1500    61.0930     5.8900     6.4480     6.3860     2.0890 
  133.7500    -3.9570    60.8210     5.9170     6.4890     6.3440     2.0850 
  133.8750    -3.8690    61.5960     5.9300     6.5180     6.3750     2.0900 
  134.0000    -3.8680    63.5810     5.9210     6.5390     6.4290     2.1020 
  134.1250    -3.9340    65.9180     5.9060     6.5430     6.5340     2.1140 
  134.2500    -4.0240    67.6230     5.8710     6.5290     6.5890     2.1160 
  134.3750    -4.1040    66.4870     5.7870     6.4630     6.5410     2.1130 
  134.5000    -4.1550    63.7520     5.6870     6.3740     6.5660     2.1120 
  134.6250    -4.1810    62.3150     5.5710     6.2660     6.6160     2.1120 
  134.7500    -4.1990    63.9770     5.4890     6.1850     6.5920     2.1100 
  134.8750    -4.2230    66.7980     5.4610     6.1520     6.4740     2.1080 
  135.0000    -4.2470    67.7860     5.4830     6.1640     6.4070     2.1120 
