~V
VERS. 2.00: Ver 2.00
~W
STRT.M 58.0000:
STOP.M 208.0000:
STEP.M 0.1250:
NULL. -999.2500:
UWI. F11103:
~C
DEPT.M :
DEN.GM/CC :
SP.MV :
GR.API :
RML.OHMM :
RI. :
RXO.OHMM :
CALI.CM :
~A
# ...
  148.0000     2.1800   -38.8440    55.3400   213.6360   185.2930   280.0670    37.6820 
  148.1250     2.1770   -39.0130    55.6860   218.7880   190.5080   366.1200    37.7710 
  148.2500     2.1730   -39.1770    53.7820   219.6620   192.0340   409.6900    37.7880 
  148.3750     2.1690   -39.3040    49.0820   217.9620   190.9560   350.7730    37.8040 
  148.5000     2.1660   -39.4320    48.6400   217.2660   190.0070   243.7900    37.8920 
  148.6250     2.1630   -39.5150    52.9150   220.0890   191.7260   212.6470    38.0110 
  148.7500     2.1610   -39.5570    55.9520   226.5610   196.7960   255.1780    38.1140 
  148.8750     2.1600   -39.5620    55.4890   234.4530   203.8920   377.4070    38.3200 
  149.0000     2.1610   -39.5230    55.2950   238.5870   209.1470   595.0400    38.4600 
  149.1250     2.1620   -39.4900    55.3120   235.0990   208.7940   635.6850    38.6210 
  149.2500     2.1640   -39.4210    53.0250   223.2260   201.2070   501.3350    38.6530 
  149.3750     2.1660   -39.3080    49.4910   206.1950   188.0340   394.1500    38.6530 
  149.5000     2.1680   -39.1870    48.1400   189.9660   173.8010   341.9030    38.6260 
  149.6250     2.1700   -39.0470    48.9990   178.6530   162.9400   300.9300    38.5820 
  149.7500     2.1720   -38.9210    52.1220   173.5210   157.2730   256.7820    38.5880 
  149.8750     2.1730   -38.7790    55.5700   174.0820   156.9440   237.6380    38.5490 
  150.0000     2.1750   -38.6340    54.8050   178.5920   160.9370   257.2450    38.1220 
  150.1250     2.1750   -38.5180    51.3900   182.9490   165.6550   355.1630    38.2170 
  150.2500     2.1760   -38.3940    49.9570   183.9550   168.1150   502.1790    38.3620 
  150.3750     2.1760   -38.3180    51.2700   179.7440   166.2030   511.3710    38.4200 
  150.5000     2.1760   -38.2800    51.3520   170.4710   159.2510   403.0920    38.5300 
  150.6250     2.1750   -38.2880    51.3610   160.0510   150.4000   288.0140    38.8820 
  150.7500     2.1760   -38.3330    55.3610   151.3150   142.3260   205.0080    39.1490 
  150.8750     2.1760   -38.3320    60.9600   145.8280   136.7960   177.1650    39.1910 
  151.0000     2.1770   -38.3950    61.4960   144.3440   134.7630   165.7150    39.1430 
  151.1250     2.1780   -38.4620    57.6310   145.4780   135.1530   178.8650    39.0540 
  151.2500     2.1800   -38.5190    54.9720   148.0990   137.0070   197.6360    38.9150 
  151.3750     2.1810   -38.6150    55.1070   151.0570   139.2850   222.7640    38.7270 
  151.5000     2.1820   -38.6830    56.3300   153.1880   140.9130   248.3000    38.7610 
  151.6250     2.1830   -38.7230    58.5270   153.8640   141.3040   258.7970    38.7500 
  151.7500     2.1860   -38.7730    59.8760   152.6950   140.0930   234.6180    38.7110 
  151.8750     2.1890   -38.8310    56.9810   149.7130   137.2070   195.6570    38.7910 
  152.0000     2.1930   -38.8620    51.5540   145.5410   132.9830   175.9800    38.7570 
  152.1250     2.1960   -38.8690    50.7550   141.7370   128.7340   175.0560    38.5060 
  152.2500     2.1990   -38.8620    54.8100   139.6810   125.7220   164.7170    38.6450 
  152.3750     2.2000   -38.8330    58.2970   140.4380   125.0620   134.1610    39.1840 
  152.5000     2.2000   -38.7790    57.8770   144.7760   127.7530   112.0230    39.1350 
  152.6250     2.1980   -38.6820    57.6290   151.2180   132.7180   113.5560    38.6250 
  152.7500     2.1950   -38.5250    59.1650   157.8240   138.4110   140.7040    38.2250 
  152.8750     2.1920   -38.3290    60.6580   162.0930   142.7210   188.1820    37.7180 
  153.0000     2.1900   -38.1020    58.2430   161.1620   143.0230   209.2160    37.3340 
  153.1250     2.1890   -37.8630    53.9430   155.8990   139.4660   199.8670    36.9110 
  153.2500     2.1900   -37.5970    52.6010   148.2660   133.3400   176.9650    36.7740 
  153.3750     2.1920   -37.2880    54.8050   140.3660   126.3990   158.9030    36.7350 
  153.5000     2.1940   -36.9510    56.8100   133.7210   120.1310   139.1640    36.6320 
  153.6250     2.1950   -36.6080    56.1330   128.5700   115.0470   126.2010    36.3870 
  153.7500     2.1960   -36.2150    55.1620   124.8980   111.2650   123.2950    36.1970 
  153.8750     2.1970   -35.8310    56.6950   122.5920   108.7250   121.6310    36.0290 
  154.0000     2.1980   -35.4490    60.1610   121.6340   107.4230   108.5170    35.9970 
  154.1250     2.1980   -35.0140    61.9400   121.4970   106.9090    91.8890    36.0670 
  154.2500     2.1980   -34.6120    60.9490   121.8170   106.8930    87.3750    36.0060 
  154.3750     2.1980   -34.1670    58.6210   122.3500   107.1490   104.8830    35.6340 
  154.5000     2.1940   -33.6630    56.4880   123.2670   107.7440   117.6840    35.1090 
  154.6250     2.1890   -33.1580    55.3530   125.0030   108.9260   118.3190    34.8980 
  154.7500     2.1830   -32.6540    56.6000   128.0590   111.0550   121.6660    34.7770 
  154.8750     2.1770   -32.1740    58.4340   132.6180   114.2970   137.3270    34.6440 
  155.0000     2.1710   -31.6830    56.9550   138.2480   118.4010   150.2170    34.4540 
  155.1250     2.1680   -31.2010    55.1260   143.4190   122.2110   142.2380    34.2420 
  155.2500     2.1670   -30.7380    56.8240   146.7570   124.5810   125.9380    34.0290 
  155.3750     2.1670   -30.3080    61.5300   147.7030   124.8770   113.7920    33.8670 
  155.5000     2.1690   -29.9620    61.7250   147.2970   123.6090   113.2740    33.8180 
  155.6250     2.1700   -29.6500    58.2920   147.9940   122.8000   115.9220    33.7700 
  155.7500     2.1700   -29.3880    56.6220   151.1040   123.7420   114.1500    33.5680 
  155.8750     2.1680   -29.1690    57.0260   156.4980   126.6840   115.8260    33.4050 
  156.0000     2.1630   -28.9640    56.8350   162.0040   130.5020   139.9610    33.4570 
  156.1250     2.1580   -28.8440    55.1800   163.6820   132.4410   183.2550    33.2660 
  156.2500     2.1550   -28.7330    53.3000   158.2220   129.9370   208.5360    32.7660 
  156.3750     2.1550   -28.6590    52.7320   144.8740   121.7880   177.0050    32.2970 
  156.5000     2.1590   -28.6210    53.7970   126.1950   108.8030   145.1030    32.1890 
  156.6250     2.1670   -28.5930    55.9830   107.7300    94.8870   113.2260    32.0770 
  156.7500     2.1770   -28.5960    58.6090    92.2830    82.5180    97.0610    31.7620 
  156.8750     2.1880   -28.5450    63.0140    80.7510    72.9650    85.5180    31.4300 
  157.0000     2.2010   -28.5270    68.2330    73.0420    66.6220    76.0320    31.2460 
  157.1250     2.2140   -28.4880    70.3010    67.3700    62.1300    72.1060    31.0540 
  157.2500     2.2270   -28.4030    67.7720    62.6300    58.5030    69.2360    30.8330 
  157.3750     2.2390   -28.3090    64.3940    57.8240    54.7660    64.8140    30.4540 
  157.5000     2.2520   -28.1920    64.6940    52.0690    49.9440    61.5690    30.0500 
  157.6250     2.2640   -28.0780    67.5530    45.4920    44.0900    57.6310    29.6900 
  157.7500     2.2740   -27.9830    68.8430    38.7390    37.8160    48.9450    29.4620 
  157.8750     2.2840   -27.9270    68.7490    32.6880    32.0070    34.7790    29.1920 
  158.0000     2.2910   -27.8820    71.7500    28.3450    27.6490    25.5010    28.9080 
  158.1250     2.2960   -27.8150    77.3090    25.7100    24.8130    20.9470    28.6620 
  158.2500     2.2980   -27.7670    80.7390    24.5890    23.3600    19.5270    28.5140 
  158.3750     2.2990   -27.7220    79.8790    24.6060    22.9870    19.7490    28.2490 
  158.5000     2.2970   -27.6370    76.5300    25.3250    23.3530    21.6770    28.0600 
  158.6250     2.2950   -27.5550    73.3420    26.1610    23.9100    26.7790    27.9430 
  158.7500     2.2920   -27.4460    72.1010    26.9310    24.4260    28.9110    27.8370 
  158.8750     2.2900   -27.3210    72.6120    27.7970    24.9540    24.8650    27.7530 
  159.0000     2.2880   -27.1960    73.2120    29.3000    25.8960    21.2390    27.7160 
  159.1250     2.2850   -27.0870    71.3440    31.6600    27.5090    21.7690    27.7050 
