~V
VERS. 2.00: Ver 2.00
~W
STRT.M 50.0000:
STOP.M 170.0000:
STEP.M 0.1250:
NULL. -999.2500:
UWI. F11116:
~C
DEPT.M :
SP.MV :
DEN.GM/CC :
GR.API :
RML.OHMM :
RI. :
RXO.OHMM :
CALI.CM :
~A
   50.0000    67.9460     1.9630    41.2150     2.9480     0.5210     0.7640    25.7330 
   50.1250    67.4260     2.1350    41.6990     2.7340     0.5060     0.7770    25.7330 
   50.2500    66.8570     2.2150    40.7210     2.5360     0.4940    22.4360    25.7330 
   50.3750    66.3030     2.1940    39.4430     2.4050     0.4860    19.4480    25.7330 
   50.5000    65.8190     2.1260    39.1100     2.3520     0.4820     4.0600    25.7330 
   50.6250    65.4810     2.0760    39.6410     2.3790     0.4790     2.2450    25.7330 
   50.7500    65.2880     2.0680    39.9200     2.4310     0.4740     2.2740    25.7330 
   50.8750    65.2310     2.0970    39.1870     2.4400     0.4700     3.1110    25.7330 
   51.0000    65.2790     2.1480    38.0220     2.3640     0.4680     3.8610    25.7330 
   51.1250    65.3990     2.2020    38.2970     2.2150     0.4710     2.6400    25.7330 
   51.2500    65.5430     2.2540    39.4330     2.0680     0.4770     1.2230    25.7330 
   51.3750    65.6880     2.2980    39.7340     1.9690     0.4800     0.7840    25.7330 
   51.5000    65.8330     2.3320    39.2370     1.9150     0.4780     0.6190    25.7330 
   51.6250    65.9610     2.3560    39.6040     1.8640     0.4670     0.5620    25.7330 
   51.7500    66.0740     2.3740    40.6010     1.7650     0.4530     0.5730    25.7330 
   51.8750    66.1650     2.3920    41.4140     1.6320     0.4380     0.6270    25.7330 
   52.0000    66.2140     2.4120    41.6340     1.5300     0.4220     0.6620    25.7330 
   52.1250    66.1660     2.4350    41.7670     1.5030     0.4100     0.7400    25.7330 
   52.2500    66.0100     2.4550    41.9080     1.5310     0.4030     0.8640    25.7330 
   52.3750    65.7320     2.4690    40.7650     1.5840     0.4060     0.9910    25.7330 
   52.5000    65.3240     2.4810    37.8250     1.6360     0.4180     1.1010    25.7330 
   52.6250    64.7560     2.4970    35.7300     1.6990     0.4360     1.1550    25.7330 
   52.7500    64.0530     2.5220    37.3820     1.7990     0.4550     1.1950    25.7330 
   52.8750    63.2080     2.5500    42.3740     1.9350     0.4710     1.2750    25.7330 
   53.0000    62.2370     2.5710    46.7490     2.0820     0.4860     1.3850    25.7330 
   53.1250    61.1270     2.5770    47.7130     2.2010     0.5010     1.4670    25.7330 
   53.2500    59.9020     2.5770    47.1170     2.2890     0.5120     1.5240    25.7330 
   53.3750    58.5620     2.5760    46.7000     2.3590     0.5160     1.5250    25.7330 
   53.5000    57.1230     2.5680    46.6380     2.4500     0.5100     1.4260    25.7330 
   53.6250    55.5740     2.5310    45.2570     2.6480     0.4940     1.2260    25.7330 
   53.7500    53.9680     2.4610    42.3080     2.9710     0.4810     1.0590    25.7330 
   53.8750    52.3420     2.3700    38.7350     3.3800     0.4790     1.0880    25.7330 
   54.0000    50.7360     2.2810    36.7740     3.8050     0.4910     1.1310    25.7330 
   54.1250    49.2170     2.2230    37.7810     4.1550     0.5160     1.6710    25.7330 
   54.2500    47.8370     2.1980    39.4450     4.3690     0.5450     1.0150    25.7330 
   54.3750    46.6260     2.1890    39.8520     4.4070     0.5710     0.7400    25.7330 
   54.5000    45.6030     2.1800    39.4320     4.2570     0.5920     0.8040    25.7330 
   54.6250    44.7870     2.1700    40.6600     3.9110     0.6070     1.0780    25.7330 
   54.7500    44.1120     2.1660    42.2550     3.5030     0.6170     1.9600    25.7330 
   54.8750    43.5380     2.1720    43.0780     3.1580     0.6240     4.1740    25.7330 
   55.0000    43.0350     2.1860    43.8630     2.9250     0.6300     7.7280    25.7330 
   55.1250    42.6030     2.2000    43.9730     2.7960     0.6360    12.0470    25.7330 
   55.2500    42.2140     2.2150    43.6010     2.7350     0.6420    12.3680    25.7330 
   55.3750    41.8590     2.2280    44.6140     2.7390     0.6480    14.0330    25.7330 
   55.5000    41.5500     2.2360    47.9180     2.8000     0.6540    11.2350    25.7330 
   55.6250    41.3010     2.2310    48.8200     2.9030     0.6580    10.0220    25.7330 
   55.7500    41.1110     2.2110    45.5810     2.9930     0.6600     8.9460    25.7330 
   55.8750    40.9780     2.1780    42.3840     3.0040     0.6600    17.4840    25.7330 
   56.0000    40.8830     2.1410    41.4500     2.9050     0.6600    33.3850    25.7330 
   56.1250    40.8070     2.1120    41.4200     2.7330     0.6620    22.2370    25.7330 
   56.2500    40.7330     2.0960    40.2790     2.5900     0.6640    24.6560    25.7330 
   56.3750    40.6570     2.0920    38.0380     2.5290     0.6640    50.8530    25.7330 
   56.5000    40.5620     2.1020    35.6610     2.5480     0.6620   102.5250    25.7330 
   56.6250    40.4310     2.1290    35.5670     2.5910     0.6570   320.1200    25.7330 
   56.7500    40.2620     2.1630    38.5650     2.5940     0.6520   414.7670    25.7330 
   56.8750    40.0570     2.1910    42.4850     2.5480     0.6470   146.2320    25.7330 
   57.0000    39.8280     2.2040    44.7880     2.4670     0.6450    44.3460    25.7330 
   57.1250    39.5830     2.1980    46.1290     2.3820     0.6480    42.0850    25.7330 
   57.2500    39.3370     2.1830    47.3270     2.3170     0.6560    73.1260    25.7330 
   57.3750    39.1010     2.1680    48.7230     2.2710     0.6690   147.4380    25.7330 
   57.5000    38.8660     2.1520    50.3640     2.2300     0.6860   137.0690    25.7330 
   57.6250    38.6450     2.1360    51.4300     2.1620     0.7060    85.7530    25.7330 
   57.7500    38.4440     2.1240    49.9030     2.0600     0.7230    21.3630    25.7330 
   57.8750    38.2540     2.1160    46.8440     1.9360     0.7360     8.8320    25.7330 
   58.0000    38.0450     2.1140    44.6090     1.8200     0.7430     7.6260    25.7330 
   58.1250    37.8120     2.1190    43.7520     1.7640     0.7450     8.6410    25.7330 
   58.2500    37.5540     2.1300    42.8860     1.7870     0.7440    12.3310    25.7330 
   58.3750    37.2810     2.1480    41.9920     1.9020     0.7400    15.0480    25.7330 
   58.5000    37.0140     2.1700    41.8040     2.1110     0.7310    30.3000    25.7330 
   58.6250    36.7500     2.1930    42.0430     2.3970     0.7140    37.1750    25.7330 
   58.7500    36.4780     2.2170    41.6840     2.6850     0.6890    33.1500    25.7330 
   58.8750    36.1990     2.2450    41.7260     2.8850     0.6550    14.4150    25.7330 
   59.0000    35.9260     2.2870    43.7020     2.9270     0.6110     7.5010    25.7330 
   59.1250    35.6610     2.3420    46.1250     2.7760     0.5590     5.4370    25.5500 
   59.2500    35.3810     2.3910    46.0300     2.4770     0.5090     5.1870    25.4950 
   59.3750    35.0610     2.4240    44.4870     2.1010     0.4670     3.9090    25.4310 
   59.5000    34.6510     2.4410    44.4610     1.7490     0.4320     1.8520    25.3310 
   59.6250    34.0250     2.4510    46.1690     1.4700     0.3880     1.0860    25.1710 
   59.7500    33.0830     2.4640    46.6570     1.1720     0.3190     0.9340    24.9430 
   59.8750    31.6880     2.4840    47.2190     0.8080     0.2270     1.0560    24.3340 
   60.0000    29.6990     2.5130    49.0080     0.4510     0.1350     1.1410    23.9400 
   60.1250    26.8240     2.5730    48.9770     0.2160     0.0720     1.1110    23.7320 
   60.2500    23.0590     2.6720    47.2060     0.1050     0.0440     1.1730    23.4920 
   60.3750    18.3310     2.7720    46.5960     0.1040     0.0530     1.5040    23.2170 
   60.5000    12.6670     2.7960    48.2020     0.2120     0.1210     2.3620    22.9750 
   60.6250     6.2150     2.6750    50.7460     0.4980     0.3210     4.4060    22.8820 
   60.7500    -0.4750     2.4590    52.4080     1.0060     0.7070     6.0320    23.3050 
   60.8750    -6.9800     2.2210    52.6580     1.7580     1.3260     6.0100    24.4890 
   61.0000   -12.8920     2.0160    51.9400     2.6290     2.1680     5.4140    25.8640 
   61.1250   -17.6980     1.8940    54.0420     3.2870     3.1950     5.9000    26.3100 
