~V
VERS. 2.00: Ver 2.00
~W
STRT.M 59.0000:
STOP.M 221.0000:
STEP.M 0.1250:
NULL. -999.2500:
UWI. F11122:
~C
DEPT.M :
GR.API :
RML.OHMM :
RI. :
RXO.OHMM :
CALI.CM :
SP.MV :
DEN.GM/CC :
~A
   59.0000    47.7530     0.5470     0.1320    -0.9000    25.8110   128.6730     2.4230 
   59.1250    49.8990     0.3610     0.1170    -0.8990    25.8110   121.7500     2.5330 
   59.2500    50.4590     0.2670     0.1100    -0.8760    25.8110   114.5250     2.6390 
   59.3750    49.4310     0.2560     0.1140    -0.6590    25.7980   106.1740     2.7060 
   59.5000    50.3070     0.3260     0.1450     0.1130    25.7680    95.9890     2.7080 
   59.6250    53.2260     0.5360     0.2510     1.4080    25.7990    83.8200     2.6400 
   59.7500    57.2020     0.9570     0.4840     3.2110    25.9840    70.7360     2.5460 
   59.8750    65.9560     1.6680     0.9030     5.3050    26.0400    57.3400     2.4600 
   60.0000    81.6590     2.6310     1.5340     6.6070    25.5900    44.1030     2.4020 
   60.1250    98.8770     3.6000     2.3460     6.1040    24.8600    31.5300     2.3730 
   60.2500   107.9550     4.3180     3.1850     5.5800    24.5240    20.1960     2.3550 
   60.3750   108.8290     4.7560     3.9500     5.5500    24.4600    10.8570     2.3390 
   60.5000   106.3780     5.0510     4.5920     6.1810    24.4640     4.0950     2.3230 
   60.6250   102.5060     5.3280     5.0710     7.3840    24.5270     0.1410     2.3090 
   60.7500    99.5250     5.5680     5.3850     8.0420    24.6520    -2.4700     2.2960 
   60.8750    98.5500     5.6960     5.5120     7.5860    24.8170    -4.4170     2.2820 
   61.0000    99.9100     5.6770     5.4630     6.1380    24.9400    -5.9580     2.2670 
   61.1250   101.3500     5.5420     5.2900     4.8580    25.0170    -7.0720     2.2550 
   61.2500   104.2110     5.3990     5.1010     4.2480    25.1250    -7.9020     2.2500 
   61.3750   110.2240     5.3010     4.9480     4.0200    25.2670    -8.5210     2.2540 
   61.5000   116.3660     5.2600     4.8470     4.1380    25.3900    -8.9300     2.2610 
   61.6250   117.7240     5.2620     4.7950     4.4980    25.4900    -9.2750     2.2640 
   61.7500   116.2250     5.2850     4.7760     4.7300    25.5840    -9.6020     2.2610 
   61.8750   115.9180     5.3450     4.8000     4.7430    25.6930    -9.8780     2.2590 
   62.0000   116.1510     5.4730     4.8960     4.7520    25.7910   -10.1570     2.2690 
   62.1250   114.0170     5.7070     5.1050     4.6260    25.8000   -10.4530     2.2960 
   62.2500   111.2400     6.0080     5.3990     5.2370    25.6630   -10.7150     2.3280 
   62.3750   109.2320     6.3060     5.7220     6.6500    25.3960   -10.9280     2.3510 
   62.5000   106.6910     6.5080     5.9840     8.2500    25.1490   -11.2130     2.3540 
   62.6250   104.6330     6.5080     6.0610     6.7690    25.0290   -11.5010     2.3340 
   62.7500   105.8190     6.3300     5.9400     5.7490    24.9240   -11.7220     2.3070 
   62.8750   108.3460     6.0380     5.6580     5.0500    24.8370   -11.9480     2.2910 
   63.0000   110.8190     5.7190     5.2930     4.3440    24.8470   -12.1590     2.2930 
   63.1250   116.7330     5.4610     4.9430     4.2370    24.9050   -12.3420     2.3150 
   63.2500   124.8030     5.2910     4.6630     3.9000    24.9480   -12.4880     2.3390 
   63.3750   130.6490     5.2040     4.4660     3.5980    24.9490   -12.6300     2.3550 
   63.5000   132.8290     5.1780     4.3400     3.4630    24.9220   -12.7630     2.3550 
   63.6250   132.6690     5.2020     4.2790     3.7360    24.9160   -12.9250     2.3380 
   63.7500   128.6650     5.2910     4.2810     4.0080    24.9210   -13.1810     2.3150 
   63.8750   120.0610     5.5310     4.4000     4.3370    24.9020   -13.4930     2.2960 
   64.0000   110.7090     6.0700     4.7490     4.8280    24.8370   -13.8430     2.2930 
   64.1250   104.1190     7.2490     5.6350     6.1750    24.7850   -14.2360     2.3260 
   64.2500    97.8310     9.3200     7.3230     8.4780    24.7560   -14.7070     2.3980 
   64.3750    90.3970    12.6330    10.1480    13.5630    24.7330   -15.2790     2.5040 
   64.5000    82.7750    17.2850    14.2040    25.6290    24.6880   -15.9250     2.6240 
   64.6250    77.0430    22.2620    18.7530    47.1170    24.6750   -16.6450     2.7190 
   64.7500    73.0080    25.3290    21.9830    56.1500    24.6490   -17.4380     2.7550 
   64.8750    71.0030    24.9360    22.5630    45.0720    24.6550   -18.3420     2.7180 
   65.0000    70.6120    21.3480    20.4330    29.6860    24.8150   -19.3610     2.6160 
   65.1250    69.0410    16.6170    16.7730    18.4210    25.2920   -20.4730     2.4780 
   65.2500    66.3080    12.8590    13.3130    11.2760    25.8720   -21.6100     2.3470 
   65.3750    65.5310    10.4400    10.6500     8.1650    26.0440   -22.7190     2.2470 
   65.5000    69.2420     8.9860     8.8270     7.6920    25.7800   -23.7680     2.1840 
   65.6250    76.0310     8.2070     7.7700     7.6560    25.4600   -24.7660     2.1570 
   65.7500    80.8870     7.8230     7.1770     7.7700    25.4090   -25.7030     2.1470 
   65.8750    82.3930     7.6880     6.9050     8.2110    25.6120   -26.5570     2.1450 
   66.0000    82.5560     7.6910     6.8380     8.6470    25.9130   -27.2890     2.1470 
   66.1250    84.0330     7.7460     6.8860     8.5610    26.2210   -27.8820     2.1540 
   66.2500    85.8810     7.7890     6.9570     8.1650    26.4360   -28.3550     2.1660 
   66.3750    86.1890     7.8010     7.0130     8.0590    26.4450   -28.7130     2.1810 
   66.5000    84.4070     7.7810     7.0340     8.3770    26.3890   -28.9800     2.1950 
   66.6250    81.5880     7.7340     7.0140     8.7890    26.4200   -29.1210     2.2020 
   66.7500    79.1290     7.6770     6.9640     8.6860    26.5640   -29.1390     2.2000 
   66.8750    76.8940     7.6240     6.8960     8.2140    26.6660   -29.0430     2.1940 
   67.0000    75.7650     7.5880     6.8270     7.9550    26.7480   -28.8820     2.1850 
   67.1250    75.8800     7.5940     6.7820     8.0080    26.8370   -28.6660     2.1790 
   67.2500    75.8540     7.6410     6.7740     8.1630    26.8620   -28.3940     2.1770 
   67.3750    74.9450     7.7190     6.8020     8.2800    26.8010   -28.0680     2.1780 
   67.5000    73.7900     7.8020     6.8500     8.4400    26.6940   -27.6620     2.1750 
   67.6250    74.8730     7.8360     6.8740     8.6870    26.6560   -27.1430     2.1630 
   67.7500    77.4020     7.7850     6.8320     8.8350    26.7410   -26.4780     2.1460 
   67.8750    79.4910     7.6300     6.6980     8.7410    26.8300   -25.6610     2.1350 
   68.0000    81.1570     7.3730     6.4660     8.4060    26.6460   -24.7080     2.1440 
   68.1250    89.3540     7.0320     6.1460     7.3510    26.0880   -23.6140     2.1830 
   68.2500   103.8000     6.6650     5.7920     6.2020    25.3290   -22.4710     2.2330 
   68.3750   114.9630     6.3130     5.4400     5.6590    24.7790   -21.3510     2.2790 
   68.5000   117.0960     6.0170     5.1250     5.4520    24.5770   -20.3440     2.3140 
   68.6250   113.5260     5.8620     4.9050     5.4230    24.5770   -19.5650     2.3360 
   68.7500   111.6550     5.9200     4.8280     5.4170    24.5260   -19.0800     2.3490 
   68.8750   109.8110     6.2760     4.9600     5.3980    24.2770   -18.9200     2.3430 
   69.0000   104.0870     6.9700     5.3560     5.2530    23.8590   -19.0800     2.3140 
   69.1250    93.9320     7.9660     6.0520     5.1540    23.6880   -19.5960     2.2690 
   69.2500    83.1990     8.9830     6.8800     6.2020    23.8040   -20.3410     2.2310 
   69.3750    75.6080     9.7180     7.6240     9.5610    23.9930   -21.2180     2.2150 
   69.5000    73.0670     9.9230     8.0490    16.2370    24.2430   -22.1500     2.2150 
   69.6250    74.8700     9.4750     7.9510    15.9630    24.3070   -23.0600     2.2150 
   69.7500    76.6810     8.7100     7.5040    11.2310    24.3070   -23.8750     2.1990 
   69.8750    74.6380     7.9350     6.9190     9.1010    24.2890   -24.5610     2.1720 
   70.0000    70.2460     7.3690     6.3930     8.7170    24.2060   -25.1110     2.1480 
   70.1250    67.9810     7.1260     6.0680     8.7670    24.1350   -25.5100     2.1380 
