~V
VERS. 2.00: Ver 2.00
~W
STRT.M 58.0000:
STOP.M 208.0000:
STEP.M 0.1250:
NULL. -999.2500:
UWI. F11103:
~C
DEPT.M :
DEN.GM/CC :
SP.MV :
GR.API :
RML.OHMM :
RI. :
RXO.OHMM :
CALI.CM :
~A
# ...
  103.0000     2.2220   -21.1840    77.1360     6.0290     5.4750     7.0680    25.8550 
  103.1250     2.2350   -20.8310    84.7570     5.8590     5.3470     6.0690    26.0130 
  103.2500     2.2490   -20.5320    86.2730     5.8370     5.3150     5.8820    25.9860 
  103.3750     2.2610   -20.2700    85.0910     5.9510     5.3890     6.5100    25.9230 
  103.5000     2.2680   -20.0770    87.5960     6.1100     5.5170     6.7900    25.9410 
  103.6250     2.2660   -19.9540    91.7910     6.1840     5.5910     6.3110    25.9700 
  103.7500     2.2550   -19.9180    96.3400     6.1020     5.5320     6.0840    25.9740 
  103.8750     2.2350   -19.9430   100.3350     5.8570     5.3250     6.1590    26.0340 
  104.0000     2.2050   -20.0960   100.4650     5.5110     5.0290     5.5300    26.6660 
  104.1250     2.1730   -20.3160    98.9070     5.1890     4.7600     4.7130    28.0400 
  104.2500     2.1420   -20.6280    97.4380     4.9760     4.5890     4.4710    29.4850 
  104.3750     2.1190   -21.0380    93.6140     4.9370     4.5470     4.7480    29.4910 
  104.5000     2.1100   -21.5680    85.8710     5.1610     4.6780     5.2300    27.9990 
  104.6250     2.1160   -22.1830    82.2160     5.6310     4.9720     5.6260    27.4400 
  104.7500     2.1370   -22.9090    84.9540     6.3190     5.4300     6.1170    27.0610 
  104.8750     2.1660   -23.7250    87.2900     7.1630     6.0330     6.6670    26.7610 
  105.0000     2.1970   -24.6200    83.2510     8.0530     6.7320     6.7250    26.4610 
  105.1250     2.2210   -25.5240    77.1930     8.8190     7.4060     7.0730    26.1190 
  105.2500     2.2350   -26.4000    72.8170     9.3230     7.9330     8.0690    25.9870 
  105.3750     2.2360   -27.2250    71.4740     9.4900     8.2170     9.0620    25.9360 
  105.5000     2.2220   -27.9410    72.9610     9.3290     8.2090     9.5590    25.9150 
  105.6250     2.1970   -28.5260    73.0660     9.0430     8.0420    10.0090    25.9690 
  105.7500     2.1670   -28.9650    69.1050     8.7790     7.8290    10.4910    25.9780 
  105.8750     2.1380   -29.2350    63.1790     8.6230     7.6630    10.8340    25.9790 
  106.0000     2.1200   -29.2660    58.0460     8.5940     7.5930    10.5450    25.9720 
  106.1250     2.1150   -29.0960    56.0650     8.6150     7.5850    10.2490    25.9190 
  106.2500     2.1210   -28.7290    59.1150     8.6160     7.5850    10.1280    25.6470 
  106.3750     2.1370   -28.1330    64.3800     8.5220     7.5290    10.1320    25.3990 
  106.5000     2.1590   -27.3120    65.5140     8.2510     7.3350    10.0280    25.3600 
  106.6250     2.1820   -26.3460    64.2150     7.8270     7.0080     9.7730    25.4120 
  106.7500     2.2030   -25.2690    66.8200     7.3080     6.5920     9.0750    25.5190 
  106.8750     2.2190   -24.1620    75.2230     6.7960     6.1600     7.9320    25.6640 
  107.0000     2.2290   -23.0930    84.5730     6.4270     5.8120     6.8310    25.8410 
  107.1250     2.2350   -22.0720    89.7610     6.2310     5.5830     6.4660    26.1320 
  107.2500     2.2380   -21.1250    90.3870     6.1840     5.4700     6.4980    26.2090 
  107.3750     2.2390   -20.2940    86.8830     6.2240     5.4530     6.3950    26.2180 
  107.5000     2.2400   -19.6100    82.6500     6.2790     5.5020     6.3770    26.1990 
  107.6250     2.2420   -19.0810    80.9780     6.3010     5.5620     6.2260    26.1550 
  107.7500     2.2440   -18.6800    81.4560     6.2790     5.5990     6.2160    26.1320 
  107.8750     2.2470   -18.3560    81.9910     6.2160     5.5910     6.3090    26.0570 
  108.0000     2.2530   -18.0820    80.7060     6.1070     5.5270     6.4160    25.9770 
  108.1250     2.2590   -17.8750    81.7190     5.9540     5.4210     6.1620    25.9010 
  108.2500     2.2670   -17.7360    86.0830     5.7670     5.2820     5.7460    25.8840 
  108.3750     2.2750   -17.6740    91.5470     5.5800     5.1330     5.4800    26.1270 
  108.5000     2.2840   -17.6950    94.5960     5.4540     5.0070     5.3220    26.1400 
  108.6250     2.2920   -17.7760    93.6120     5.4150     4.9330     5.0460    26.0690 
  108.7500     2.2980   -17.9400    90.9720     5.4630     4.9250     4.7400    26.1400 
  108.8750     2.3020   -18.1650    88.8530     5.5710     4.9790     4.7280    26.3720 
  109.0000     2.3020   -18.4800    85.4150     5.7050     5.0790     5.1670    26.4680 
  109.1250     2.3010   -18.8560    81.2570     5.8330     5.1910     5.7080    26.4800 
  109.2500     2.2980   -19.2860    80.3800     5.9500     5.2990     5.9960    26.4780 
  109.3750     2.2970   -19.7780    83.4460     6.0590     5.3900     5.8310    26.2630 
  109.5000     2.2990   -20.3310    85.4490     6.1510     5.4570     5.7490    25.9850 
  109.6250     2.3040   -20.9420    83.3090     6.2100     5.4980     5.8420    25.8600 
  109.7500     2.3110   -21.5810    80.2650     6.2210     5.5020     6.1170    25.7730 
  109.8750     2.3160   -22.2770    80.4090     6.1940     5.4660     6.2220    25.6010 
  110.0000     2.3150   -23.0180    83.4020     6.2050     5.4270     6.1920    25.4890 
  110.1250     2.3070   -23.8220    83.9510     6.3520     5.4590     6.2440    25.3280 
  110.2500     2.2900   -24.6820    78.9970     6.7010     5.6320     6.6580    25.2510 
  110.3750     2.2670   -25.5750    70.5710     7.2520     5.9830     8.0270    25.1120 
  110.5000     2.2410   -26.4500    63.0140     7.9000     6.4950    11.8730    24.9900 
  110.6250     2.2140   -27.2730    57.9470     8.4180     7.0050    16.1580    24.8970 
  110.7500     2.1890   -28.0180    55.4160     8.6420     7.3560    15.1110    24.8960 
  110.8750     2.1680   -28.7020    55.6820     8.5410     7.4540    11.9660    24.9220 
  111.0000     2.1520   -29.2780    57.5830     8.2520     7.3140    10.7900    24.8340 
  111.1250     2.1400   -29.7590    60.7190     8.0180     7.1130    10.4550    24.8140 
  111.2500     2.1320   -30.1260    62.5320     7.9390     6.9640    10.2790    24.8400 
  111.3750     2.1260   -30.3830    60.0920     7.9990     6.9210    10.4330    24.8200 
  111.5000     2.1200   -30.5380    57.0550     8.1100     6.9690    10.4300    24.6450 
  111.6250     2.1150   -30.6370    57.4500     8.1780     7.0340    10.2720    24.7660 
  111.7500     2.1100   -30.6910    61.1880     8.1770     7.0720     9.8880    24.7760 
  111.8750     2.1080   -30.6660    65.6300     8.1200     7.0690     9.6350    24.6650 
  112.0000     2.1090   -30.5450    68.2920     8.0350     7.0370     9.7540    24.6130 
  112.1250     2.1120   -30.3310    68.2200     7.9670     7.0090     9.9910    24.5470 
  112.2500     2.1180   -30.0040    66.2160     7.9440     7.0130    10.1390    24.4680 
  112.3750     2.1240   -29.5880    67.3430     7.9870     7.0650    10.1750    24.4110 
  112.5000     2.1300   -29.0580    70.3330     8.0950     7.1630     9.9320    24.3930 
  112.6250     2.1360   -28.4290    68.0720     8.1870     7.2460     9.7900    24.4140 
  112.7500     2.1430   -27.7010    62.4280     8.1530     7.2240     9.8460    24.4880 
  112.8750     2.1520   -26.8990    61.2600     7.8820     7.0070     9.7930    24.6070 
  113.0000     2.1630   -26.0490    68.4210     7.2980     6.5360     9.5380    24.8020 
  113.1250     2.1780   -25.2460    76.8580     6.5520     5.9360     8.5470    25.2850 
  113.2500     2.1960   -24.5660    85.4410     5.8320     5.3410     6.7530    25.4030 
  113.3750     2.2170   -24.0080    94.2090     5.3320     4.8870     5.4500    25.1280 
  113.5000     2.2380   -23.6830    99.3150     5.2490     4.7260     5.6390    25.3270 
  113.6250     2.2550   -23.5820    99.9150     5.5380     4.8590     6.8160    25.9790 
  113.7500     2.2660   -23.7130    95.2370     6.1320     5.2680     8.2350    26.0400 
  113.8750     2.2700   -24.0830    85.6610     6.8930     5.8860    10.2020    26.2130 
  114.0000     2.2660   -24.7090    74.3460     7.5840     6.5700    15.3680    25.4200 
  114.1250     2.2580   -25.4580    66.4010     8.0060     7.1150    19.7260    24.9570 
