~V
VERS. 2.00: Ver 2.00
~W
STRT.M 51.0000:
STOP.M 249.0000:
STEP.M 0.1250:
NULL. -999.2500:
UWI. F11143:
~C
DEPT.M :
GR.API :
RML.OHMM :
RI. :
RXO.OHMM :
CALI.CM :
SP.MV :
DEN.GM/CC :
~A
# ...
  186.0000    60.7140   100.2840    86.2660    98.2010    24.3630   -30.9690     2.2810 
  186.1250    63.0450   111.2720    94.6970   114.5200    24.3340   -31.1030     2.2700 
  186.2500    64.7050   127.3920   108.1700   145.3370    24.3040   -31.2220     2.2530 
  186.3750    62.3630   146.0890   124.7280   186.7950    24.2910   -31.2900     2.2390 
  186.5000    56.9790   162.7190   140.4750   209.6090    24.2880   -31.3220     2.2320 
  186.6250    53.6900   170.4580   149.4080   187.2080    24.2580   -31.3340     2.2330 
  186.7500    54.7860   169.3030   150.6320   151.2400    24.1580   -31.3490     2.2400 
  186.8750    57.2930   162.4280   146.1790   128.2040    23.9850   -31.3650     2.2480 
  187.0000    58.4050   153.5000   139.1180   120.4490    23.8010   -31.3700     2.2540 
  187.1250    60.3290   144.4670   131.5550   110.2460    23.6850   -31.3930     2.2550 
  187.2500    63.8300   135.1930   123.8110   103.9770    23.6310   -31.4310     2.2550 
  187.3750    66.7020   125.1430   115.3810    99.7430    23.6280   -31.4780     2.2570 
  187.5000    65.6160   114.5870   106.2750    93.9840    23.6640   -31.5410     2.2610 
  187.6250    63.6290   105.0980    97.6980    83.2010    23.6860   -31.6320     2.2660 
  187.7500    64.4650    98.0260    91.0490    72.5790    23.7030   -31.7390     2.2710 
  187.8750    65.1170    93.9320    87.0550    65.7650    23.7550   -31.8550     2.2730 
  188.0000    63.3140    92.5950    85.7060    65.9500    23.8530   -31.9670     2.2680 
  188.1250    63.5150    93.5080    86.6970    77.6470    23.9420   -32.0250     2.2600 
  188.2500    68.1250    95.3420    88.8220    87.5700    23.9790   -32.0520     2.2550 
  188.3750    72.1600    97.2190    91.2740    89.7800    23.9960   -32.0840     2.2540 
  188.5000    72.2960    98.3430    93.2410    83.3890    24.0190   -32.1380     2.2570 
  188.6250    70.3010    97.8320    93.7870    81.2390    24.0450   -32.1770     2.2620 
  188.7500    67.3550    95.6210    92.6910    96.0160    24.0470   -32.2100     2.2660 
  188.8750    64.7970    91.8560    89.9460   106.1990    24.0080   -32.2580     2.2650 
  189.0000    64.3790    87.1290    85.9850    89.5250    23.9160   -32.3200     2.2640 
  189.1250    65.5620    82.4670    81.6930    68.8430    23.8540   -32.4330     2.2690 
  189.2500    66.8700    78.7430    78.0130    61.1170    23.8680   -32.5940     2.2790 
  189.3750    66.1360    76.4480    75.4760    63.4840    23.9310   -32.7790     2.2900 
  189.5000    63.6410    75.8610    74.4360    74.3320    23.9730   -32.9540     2.2980 
  189.6250    61.7860    77.2930    75.2860    81.7540    23.9840   -33.1250     2.3020 
  189.7500    60.8060    80.2940    77.6240    83.5070    23.9910   -33.2830     2.3050 
  189.8750    59.2860    84.8030    81.3500    82.2600    23.9990   -33.4280     2.3060 
  190.0000    59.0740    90.8870    86.5040    91.2290    24.0140   -33.5760     2.3050 
  190.1250    62.9810    98.8270    93.3500   111.3120    24.1030   -33.7320     2.2970 
  190.2500    65.8680   108.1290   101.4230   108.9420    24.2570   -33.8780     2.2850 
  190.3750    64.3910   118.3730   110.3200   101.3330    24.3700   -34.0150     2.2740 
  190.5000    61.9090   129.0280   119.5250   106.7150    24.4140   -34.1490     2.2660 
  190.6250    62.1650   139.5530   128.4770   124.6850    24.4060   -34.3020     2.2550 
  190.7500    63.0990   149.7860   136.9940   137.0480    24.4000   -34.4690     2.2440 
  190.8750    62.7880   159.9180   145.2090   143.1130    24.4060   -34.6460     2.2360 
  191.0000    60.6420   170.4040   153.5350   152.3760    24.4430   -34.8080     2.2340 
  191.1250    58.2870   182.2690   163.0030   168.4040    24.5210   -34.9520     2.2340 
  191.2500    58.1020   196.1600   174.4420   179.6560    24.5710   -35.0670     2.2330 
  191.3750    59.1500   211.9170   187.9820   185.5380    24.5640   -35.1630     2.2300 
  191.5000    59.6210   227.7890   202.4120   200.4760    24.4990   -35.2340     2.2270 
  191.6250    59.3120   239.2290   214.3180   234.2890    24.4190   -35.2860     2.2230 
  191.7500    58.2930   243.0150   220.6610   264.3350    24.3710   -35.3410     2.2200 
  191.8750    56.8380   238.5020   220.1200   243.7630    24.3270   -35.3860     2.2180 
  192.0000    54.5670   228.1530   213.8160   198.2630    24.2700   -35.4290     2.2170 
  192.1250    52.8470   215.3710   204.1290   168.4230    24.2890   -35.4470     2.2180 
  192.2500    54.5480   202.1600   193.4450   160.7800    24.3610   -35.4590     2.2220 
  192.3750    58.2530   187.8160   181.6560   166.3310    24.3960   -35.4620     2.2300 
  192.5000    59.4810   171.2170   167.7990   181.5240    24.3870   -35.4530     2.2380 
  192.6250    57.5080   152.9410   151.6590   185.7300    24.3780   -35.4140     2.2470 
  192.7500    57.2110   136.6260   136.1460   164.3740    24.3510   -35.3490     2.2550 
  192.8750    58.7570   125.6350   124.5790   132.2050    24.3010   -35.2600     2.2610 
  193.0000    58.2970   122.1180   119.6350   110.0630    24.2610   -35.1650     2.2660 
  193.1250    56.1210   128.2170   124.2580   100.9120    24.2980   -35.0570     2.2630 
  193.2500    55.2470   141.7820   136.8940   113.6730    24.3000   -34.9540     2.2510 
  193.3750    55.2470   160.1980   155.1160   160.7670    24.2310   -34.8430     2.2330 
  193.5000    55.7630   178.2330   173.7570   216.3000    24.0980   -34.7560     2.2210 
  193.6250    56.0410   186.7900   183.8800   226.0780    23.9950   -34.7280     2.2210 
  193.7500    55.8220   183.5270   182.3410   191.8250    23.8970   -34.7430     2.2270 
  193.8750    55.1600   172.0970   171.6170   151.7260    23.7770   -34.8040     2.2320 
  194.0000    54.5820   158.9190   157.6460   129.9120    23.6560   -34.8650     2.2350 
  194.1250    55.3600   149.4710   146.3890   114.8240    23.4650   -34.9260     2.2390 
  194.2500    56.2340   144.6960   139.6560   104.3410    23.2400   -34.9530     2.2430 
  194.3750    56.4330   144.2940   137.3970   100.9550    23.2230   -34.9530     2.2450 
  194.5000    56.4220   147.4620   138.8700   106.2130    23.4380   -34.9130     2.2460 
  194.6250    56.7390   153.2540   143.2070   123.7250    23.6540   -34.8030     2.2440 
  194.7500    57.0930   159.7640   148.5180   140.5860    23.8220   -34.6440     2.2390 
  194.8750    57.7420   165.8760   153.7040   150.0910    23.9690   -34.4350     2.2310 
  195.0000    60.0380   170.9790   158.1320   155.1810    24.0640   -34.2100     2.2210 
  195.1250    62.3050   174.3700   161.1800   157.8330    24.1170   -33.9780     2.2120 
  195.2500    61.3170   175.1690   162.1030   161.6940    24.1370   -33.7580     2.2060 
  195.3750    58.7970   171.7080   159.4470   173.2380    24.1600   -33.5710     2.2030 
  195.5000    58.4520   162.8710   152.0570   185.3540    24.1870   -33.4100     2.2040 
  195.6250    59.7230   149.1000   139.8310   188.2500    24.2090   -33.2610     2.2100 
  195.7500    60.1780   134.2270   125.9770   156.7120    24.1630   -33.1110     2.2250 
  195.8750    60.5970   121.0110   113.0920   112.8450    24.0980   -32.9890     2.2490 
  196.0000    60.6240   111.2450   103.0790    89.8150    24.0540   -32.8850     2.2730 
  196.1250    58.7200   106.3420    97.5170    90.8770    24.0290   -32.7810     2.2890 
  196.2500    56.2870   105.2500    95.6550    98.9890    23.9980   -32.6560     2.2960 
  196.3750    56.4900   106.8360    96.6090   101.7570    23.9740   -32.4750     2.3000 
  196.5000    58.5320   109.3130    98.8670   100.0720    23.9530   -32.2190     2.3050 
  196.6250    61.4590   110.1240   100.1690   117.6540    23.9740   -31.8880     2.2990 
  196.7500    64.4550   108.2150    99.2010   145.2020    24.0480   -31.5140     2.2800 
  196.8750    64.4030   104.3780    96.2690   145.7500    24.1380   -31.0980     2.2610 
  197.0000    61.8980   100.6590    92.9440   118.3810    24.1500   -30.6430     2.2620 
  197.1250    62.4470    99.3270    91.2840    98.7270    24.1320   -30.1640     2.2890 
