~V
VERS. 2.00: Ver 2.00
~W
STRT.M 63.0000:
STOP.M 246.0000:
STEP.M 0.1250:
NULL. -999.2500:
UWI. F11137:
~C
DEPT.M :
DEN.GM/CC :
GR.API :
RML.OHMM :
RI. :
RXO.OHMM :
CALI.CM :
SP.MV :
~A
# ...
  198.0000     2.6190    40.1740    12.6290    12.6700    18.0670    25.2850    -5.3290 
  198.1250     2.6040    45.2560    11.2570    11.2110    14.1460    25.0420    -4.9230 
  198.2500     2.5810    52.1980    10.0890     9.9320    11.1620    24.8690    -4.5530 
  198.3750     2.5500    56.2050     9.0820     8.8070     9.1780    24.6220    -4.2300 
  198.5000     2.5180    56.3320     8.2410     7.8620     7.3510    24.1860    -3.9130 
  198.6250     2.4910    56.0850     7.6160     7.1610     6.9220    23.6410    -3.6760 
  198.7500     2.4580    57.1070     7.1810     6.6740     6.5960    23.2230    -3.5010 
  198.8750     2.4080    57.3400     6.9130     6.3800     6.2910    22.9550    -3.3210 
  199.0000     2.3430    55.4710     6.7790     6.2430     6.1200    22.9010    -3.1440 
  199.1250     2.2890    53.5820     6.7580     6.2240     6.1800    22.9780    -3.0980 
  199.2500     2.2660    52.5400     6.8150     6.2600     6.3570    23.3570    -3.1740 
  199.3750     2.2810    50.8770     6.9590     6.3310     6.4930    24.0780    -3.3330 
  199.5000     2.3180    49.6780     7.1980     6.4460     6.5940    24.8210    -3.5590 
  199.6250     2.3560    54.1400     7.5390     6.6340     6.8880    25.1350    -3.8440 
  199.7500     2.3810    66.2350     7.9340     6.8860     7.6380    25.1280    -4.1960 
  199.8750     2.3940    82.6160     8.3580     7.1890     8.7070    25.0360    -4.6080 
  200.0000     2.3980    96.2100     8.8050     7.5250     9.4350    25.0270    -5.0720 
  200.1250     2.3990   103.2340     9.3040     7.8830    10.2430    25.0820    -5.5090 
  200.2500     2.3980   106.1590     9.8930     8.2580    10.6650    24.9560    -5.9240 
  200.3750     2.4000   105.4890    10.6030     8.6620    11.3990    24.4680    -6.3620 
  200.5000     2.4060   100.4430    11.2100     9.1200    12.7270    23.9180    -6.8240 
  200.6250     2.4170    92.0510    11.4930     9.6850    14.3670    23.6960    -7.2570 
  200.7500     2.4280    86.2230    11.7950    10.3840    15.9870    23.7080    -7.7180 
  200.8750     2.4350    83.9500    12.4560    11.2230    17.0090    23.8260    -8.1790 
  201.0000     2.4450    82.3850    13.3680    12.1200    17.2730    24.0030    -8.5700 
  201.1250     2.4690    82.1530    13.9300    12.7870    18.6380    24.2100    -8.7150 
  201.2500     2.5100    86.9790    13.8980    12.9470    20.0830    24.4020    -8.6790 
  201.3750     2.5570    96.4830    13.3250    12.5030    20.9920    24.5070    -8.5070 
  201.5000     2.5920   103.4130    12.4150    11.6120    19.1750    24.5180    -8.2340 
  201.6250     2.5920   100.3440    11.5350    10.6250    13.9090    24.4720    -7.8750 
  201.7500     2.5660    94.1440    10.9770     9.8690    10.5360    24.4230    -7.4470 
  201.8750     2.5280    90.6580    10.8390     9.4630    10.0440    24.3860    -6.9220 
  202.0000     2.4960    91.7290    11.0670     9.4080    10.8180    24.4040    -6.3600 
  202.1250     2.4820    95.3040    11.4890     9.6420    11.1040    24.4740    -5.9390 
  202.2500     2.4800    97.1130    11.8380     9.9480    11.2590    24.5460    -5.6670 
  202.3750     2.4830    96.6180    11.9650    10.1460    11.1940    24.5460    -5.5380 
  202.5000     2.4870    95.6950    11.8370    10.1240    11.0760    24.4750    -5.5670 
  202.6250     2.4870    97.4850    11.5620     9.9010    11.2880    24.3020    -5.7010 
  202.7500     2.4820    99.1890    11.4050     9.6980    11.4000    23.9150    -5.8780 
  202.8750     2.4750    96.7730    11.6160     9.7250    11.6680    23.5280    -6.1690 
  203.0000     2.4720    90.2200    12.4310    10.1870    12.1890    23.3140    -6.5740 
  203.1250     2.4800    84.8930    14.1660    11.4070    14.6940    23.3000    -7.0010 
  203.2500     2.5000    82.8690    16.6420    13.4530    18.9810    23.2540    -7.3430 
  203.3750     2.5280    81.0110    19.4270    16.2790    23.6620    23.2310    -7.5340 
  203.5000     2.5570    77.0280    21.6660    19.3270    26.7820    23.2280    -7.4890 
  203.6250     2.5770    73.4730    21.9770    20.9160    28.2660    23.2770    -7.2680 
  203.7500     2.5870    71.6060    20.1940    20.0020    29.2940    23.4340    -6.8640 
  203.8750     2.5840    71.1270    16.9070    17.0100    26.3140    23.6830    -6.2350 
  204.0000     2.5700    73.6160    13.2320    13.3600    17.6470    23.8900    -5.4020 
  204.1250     2.5490    77.8330    10.3210    10.3760     9.5050    23.9390    -4.4130 
  204.2500     2.5280    79.4750     8.4180     8.3180     7.0260    23.9910    -3.3720 
  204.3750     2.5070    79.2060     7.3790     7.0740     6.5810    24.1310    -2.3590 
  204.5000     2.4830    78.7110     6.9360     6.4500     6.6710    24.2610    -1.4710 
  204.6250     2.4510    77.9680     6.8650     6.3080     6.6100    24.2940    -0.6500 
  204.7500     2.4150    77.6890     6.9170     6.3820     6.3790    24.2640     0.0300 
  204.8750     2.3880    79.8540     6.9950     6.5330     6.1930    24.2530     0.5090 
  205.0000     2.3770    84.0330     7.0610     6.6770     6.1940    24.2670     0.7500 
  205.1250     2.3830    87.2020     7.0990     6.7730     6.3890    24.2340     0.7200 
  205.2500     2.3870    90.5960     7.0950     6.8080     6.7020    24.1900     0.5370 
  205.3750     2.3800    94.8040     7.0240     6.7590     6.8420    24.1560     0.3170 
  205.5000     2.3620    98.1010     6.8720     6.6090     6.7950    24.0930     0.1220 
  205.6250     2.3460   101.9870     6.6730     6.3650     6.7200    24.0230    -0.2120 
  205.7500     2.3410   107.5840     6.5400     6.1220     6.6090    24.0320    -0.6620 
  205.8750     2.3450   110.1350     6.6130     5.9950     6.4880    24.1460    -1.0810 
  206.0000     2.3500   105.5300     7.0460     6.1150     6.5430    24.1680    -1.3800 
  206.1250     2.3470    97.3810     8.0730     6.6940     7.1650    23.9870    -1.5690 
  206.2500     2.3380    92.2310     9.6470     7.7870     8.8490    23.8130    -1.7400 
  206.3750     2.3260    89.1620    11.5950     9.4120    11.6390    23.9200    -1.9200 
  206.5000     2.3160    86.0240    13.5050    11.3750    14.8630    24.3390    -2.0750 
  206.6250     2.3070    83.8120    14.6190    12.9890    16.6050    24.6960    -2.0790 
  206.7500     2.2980    82.2770    14.6210    13.5240    17.0100    24.8030    -1.9440 
  206.8750     2.2930    81.7220    13.6390    12.8380    15.5700    24.7430    -1.8190 
  207.0000     2.2980    82.4300    12.2310    11.4780    12.9180    24.6530    -1.7760 
  207.1250     2.3180    83.3070    11.2190    10.2760    10.4150    24.5930    -1.7750 
  207.2500     2.3470    83.8350    11.0680     9.6970     9.5930    24.5630    -1.8130 
  207.3750     2.3730    83.3510    11.9500     9.9250    10.4700    24.5690    -1.9930 
  207.5000     2.3860    80.9670    13.8480    11.0720    13.7650    24.6250    -2.3500 
  207.6250     2.3810    78.8960    16.6680    13.3480    18.7110    24.6710    -2.8860 
  207.7500     2.3650    79.3540    19.8240    16.4030    22.8160    24.7010    -3.4370 
  207.8750     2.3470    82.3550    22.7620    19.7420    25.0190    24.7090    -3.9460 
  208.0000     2.3320    85.3790    24.9600    22.6590    26.7360    24.6970    -4.3760 
  208.1250     2.3210    85.9200    25.9570    24.3830    28.8250    24.6680    -4.6940 
  208.2500     2.3110    82.5450    26.0340    25.0170    29.3500    24.6590    -5.2610 
  208.3750     2.3030    78.1980    25.5230    24.8730    29.0100    24.7160    -5.4540 
  208.5000     2.2970    76.9550    24.7790    24.3190    28.3820    24.7720    -5.5090 
  208.6250     2.2960    79.6170    24.0820    23.6500    25.3770    24.7750    -5.4580 
  208.7500     2.3010    81.7610    23.5310    23.0700    22.6190    24.7290    -5.3960 
  208.8750     2.3130    82.1660    23.0980    22.6340    23.1570    24.6460    -5.4260 
  209.0000     2.3260    84.2880    22.6970    22.2910    26.0400    24.6180    -5.5700 
  209.1250     2.3340    88.5310    22.3360    22.0160    25.7170    24.6030    -5.7410 
