~V
VERS. 2.00: Ver 2.00
~W
STRT.M 63.0000:
STOP.M 208.0000:
STEP.M 0.1250:
NULL. -999.2500:
UWI. F11108:
~C
DEPT.M :
GR.API :
RML.OHMM :
RI. :
RXO.OHMM :
CALI.CM :
SP.MV :
DEN.GM/CC :
~A
# ...
   85.5000    95.5840     8.0230     6.9660     7.5010    23.1060   -10.7940     2.3540 
   85.6250    94.8600     7.7340     6.7530     6.9200    22.8690   -10.8080     2.3240 
   85.7500    96.5620     7.4230     6.4860     6.7090    22.6880   -10.8460     2.2850 
   85.8750    97.2450     7.1560     6.2230     6.8940    22.6380   -11.0030     2.2500 
   86.0000    95.6810     6.9710     6.0050     7.2680    22.8260   -11.2520     2.2270 
   86.1250    96.5390     6.8920     5.8680     7.3920    23.1670   -11.5220     2.2170 
   86.2500    99.4760     6.8970     5.8060     7.2430    23.4890   -11.7520     2.2160 
   86.3750   100.2330     6.9800     5.8220     7.0110    23.6860   -11.9370     2.2160 
   86.5000    98.1150     7.1310     5.9120     6.9180    23.6740   -12.1120     2.2170 
   86.6250    94.9800     7.3370     6.0700     7.0820    23.4180   -12.3060     2.2170 
   86.7500    93.3930     7.5460     6.2560     7.4690    23.0590   -12.5090     2.2150 
   86.8750    93.5330     7.7070     6.4280     7.8020    22.7820   -12.6980     2.2110 
   87.0000    93.6850     7.7860     6.5460     7.8410    22.7770   -12.8870     2.2050 
   87.1250    90.4130     7.7640     6.5790     7.6270    22.9870   -13.1010     2.2000 
   87.2500    85.8580     7.6890     6.5520     7.5640    23.1210   -13.3630     2.2020 
   87.3750    83.7920     7.6080     6.4950     7.7010    23.1060   -13.6900     2.2100 
   87.5000    83.5430     7.5610     6.4460     7.7940    22.9890   -14.0840     2.2210 
   87.6250    82.3720     7.5790     6.4350     7.6840    22.8630   -14.4820     2.2260 
   87.7500    82.5690     7.6440     6.4670     7.6010    22.8780   -14.8470     2.2230 
   87.8750    86.1080     7.7330     6.5300     7.8610    23.0260   -15.2020     2.2090 
   88.0000    88.6810     7.8190     6.6060     9.4110    23.1970   -15.5850     2.1840 
   88.1250    85.9810     7.8690     6.6700    13.5670    23.3490   -15.9710     2.1540 
   88.2500    82.9780     7.8760     6.7070    16.5460    23.4510   -16.2870     2.1240 
   88.3750    82.9380     7.8460     6.7130    12.5490    23.4040   -16.5160     2.1020 
   88.5000    84.7470     7.7940     6.6980     9.0210    23.2330   -16.6720     2.0900 
   88.6250    84.3710     7.7470     6.6770     7.9460    23.2020   -16.8330     2.0820 
   88.7500    82.3450     7.7210     6.6690     7.7790    23.3180   -17.0380     2.0770 
   88.8750    81.9280     7.7160     6.6790     7.6710    23.4620   -17.2240     2.0790 
   89.0000    83.3650     7.7180     6.6970     7.6980    23.4990   -17.3190     2.0940 
   89.1250    82.9370     7.6970     6.6980     8.0890    23.3980   -17.3440     2.1270 
   89.2500    80.7510     7.6430     6.6660     8.4930    23.2670   -17.3920     2.1650 
   89.3750    81.3450     7.5640     6.6010     8.2270    23.1750   -17.4710     2.1930 
   89.5000    87.0470     7.4790     6.5160     7.7380    23.1080   -17.5810     2.2040 
   89.6250    92.3330     7.4200     6.4400     7.4870    23.0470   -17.7020     2.1960 
   89.7500    92.3660     7.3970     6.3930     7.4740    22.9950   -17.8100     2.1820 
   89.8750    87.6960     7.4090     6.3800     7.5460    22.9710   -17.9040     2.1690 
   90.0000    83.3440     7.4390     6.3920     7.6840    22.9620   -18.0390     2.1580 
   90.1250    83.3370     7.4650     6.4140     7.7450    22.9590   -18.2550     2.1490 
   90.2500    84.3410     7.4720     6.4270     7.7240    22.9420   -18.5210     2.1420 
   90.3750    83.8100     7.4620     6.4280     7.6390    22.8520   -18.7540     2.1400 
   90.5000    82.3580     7.4450     6.4150     7.5370    22.6730   -18.8870     2.1430 
   90.6250    83.1230     7.4350     6.3960     7.5500    22.4610   -18.8730     2.1520 
   90.7500    83.9300     7.4310     6.3760     7.6320    22.3900   -18.7470     2.1640 
   90.8750    83.2200     7.4290     6.3590     7.7150    22.4250   -18.5790     2.1770 
   91.0000    82.5730     7.5100     6.3440     7.7650    22.5140   -18.4170     2.1850 
   91.1250    83.8650     7.7530     6.3280     7.7210    22.5730   -18.2080     2.1870 
   91.2500    85.6360     8.0150     6.3050     7.6900    22.6110   -17.8920     2.1840 
   91.3750    85.2840     8.1410     6.2670     7.7040    22.6570   -17.5210     2.1800 
   91.5000    83.1980     8.1050     6.2110     7.7230    22.6970   -17.1720     2.1790 
   91.6250    82.6300     8.0100     6.1360     7.7480    22.7000   -16.9070     2.1900 
   91.7500    84.6410     7.9510     6.0710     7.8290    22.7180   -16.7330     2.2100 
   91.8750    87.8470     7.9960     6.0680     7.8880    22.8850   -16.5910     2.2370 
   92.0000    89.6160     8.2220     6.1820     7.9040    23.2510   -16.4030     2.2620 
   92.1250    88.7890     8.6720     6.4720     8.2000    23.4460   -16.2020     2.2760 
   92.2500    86.4120     9.2140     6.8770     9.9530    23.5010   -16.0950     2.2760 
   92.3750    83.6000     9.6820     7.2960    16.4260    23.5470   -16.1210     2.2640 
   92.5000    81.6670     9.9030     7.5970    28.5760    23.5990   -16.2500     2.2400 
   92.6250    81.2810     9.7310     7.6280    30.2740    23.4570   -16.4120     2.2090 
   92.7500    81.4540     9.2980     7.4250    19.0680    23.1650   -16.5430     2.1780 
   92.8750    80.9060     8.7740     7.0790    11.6530    22.9300   -16.6650     2.1530 
   93.0000    80.5980     8.3350     6.7140     9.2980    22.7570   -16.8180     2.1390 
   93.1250    79.8030     8.1150     6.4540     9.0350    22.5820   -17.0450     2.1350 
   93.2500    78.1100     8.0750     6.3210     9.0050    22.4600   -17.2850     2.1390 
   93.3750    77.4100     8.1420     6.2980     8.9340    22.4250   -17.4600     2.1450 
   93.5000    78.2310     8.2360     6.3400     8.7920    22.4540   -17.5140     2.1530 
   93.6250    80.1440     8.2910     6.3980     9.0320    22.5560   -17.4590     2.1590 
   93.7500    80.3790     8.2920     6.4370     9.6100    22.7450   -17.4010     2.1610 
   93.8750    79.0420     8.2460     6.4470    10.1310    22.9930   -17.3700     2.1580 
   94.0000    78.4000     8.1680     6.4270     9.5320    23.2300   -17.3730     2.1530 
   94.1250    78.5110     8.0710     6.3850     8.9890    23.4170   -17.3230     2.1470 
   94.2500    79.3970     7.9710     6.3370     8.5030    23.4910   -17.2150     2.1420 
   94.3750    80.1670     7.8730     6.2890     8.2130    23.4910   -17.1020     2.1370 
   94.5000    79.4830     7.7820     6.2470     7.9980    23.4770   -17.0560     2.1330 
   94.6250    77.3450     7.6980     6.2140     7.8690    23.4740   -17.0880     2.1300 
   94.7500    76.0990     7.6220     6.1910     7.7800    23.4770   -17.0740     2.1320 
   94.8750    78.2630     7.5550     6.1790     7.7260    23.4930   -16.9920     2.1390 
   95.0000    81.9290     7.5020     6.1860     7.6360    23.5330   -16.8240     2.1530 
   95.1250    83.2710     7.4810     6.2230     7.6390    23.5840   -16.6140     2.1750 
   95.2500    83.9670     7.4930     6.2900     7.6690    23.6530   -16.3600     2.2040 
   95.3750    85.6110     7.5150     6.3690     7.5780    23.7200   -16.0200     2.2340 
   95.5000    88.3140     7.4900     6.4160     7.0450    23.7480   -15.5240     2.2580 
   95.6250    88.7480     7.3220     6.3460     6.3420    23.7370   -14.7960     2.2590 
   95.7500    86.7140     6.9920     6.1330     6.0840    23.7640   -13.9100     2.2410 
   95.8750    86.1330     6.5250     5.7850     6.0080    23.9930   -12.8540     2.2160 
   96.0000    91.7530     5.9920     5.3540     5.4140    24.3210   -11.6790     2.2040 
   96.1250   101.4490     5.4850     4.9140     4.9160    24.5600   -10.4610     2.2210 
   96.2500   107.2930     5.0560     4.5210     4.6640    24.6170    -9.2740     2.2560 
   96.3750   108.1200     4.7170     4.1970     4.7020    24.6400    -8.1370     2.2940 
   96.5000   107.3400     4.4750     3.9520     4.7700    24.6670    -7.1010     2.3230 
   96.6250   108.1980     4.3740     3.8220     4.6110    24.6590    -6.3260     2.3400 
