~V
VERS. 2.00: Ver 2.00
~W
STRT.M 56.0000:
STOP.M 252.0000:
STEP.M 0.1250:
NULL. -999.2500:
UWI. F11142:
~C
DEPT.M :
SP.MV :
DEN.GM/CC :
GR.API :
RML.OHMM :
RI. :
RXO.OHMM :
CALI.CM :
~A
# ...
   89.7500   -19.5770     2.2330    90.9860     9.0020     6.5860     9.0640    23.5360 
   89.8750   -19.3600     2.2160    89.8300     9.5180     7.0530    11.4900    23.9670 
   90.0000   -19.7280     2.1580    88.3190     9.9950     7.5590    16.4270    24.4150 
   90.1250   -20.4350     2.0790    87.5000    10.3160     7.9820    21.3510    24.6380 
   90.2500   -21.3420     2.0190    85.6760    10.3910     8.2180    25.0580    24.6870 
   90.3750   -22.3750     2.0050    82.2620    10.1990     8.2090    23.8610    24.6120 
   90.5000   -23.4220     2.0340    81.1120     9.8030     7.9550    14.9130    24.3310 
   90.6250   -24.4290     2.0730    82.9650     9.3990     7.6040    11.0960    24.0840 
   90.7500   -25.2810     2.1010    84.7310     9.1070     7.2660    10.2300    23.9330 
   90.8750   -25.9030     2.1180    83.4170     8.9580     7.0140    10.2490    23.8810 
   91.0000   -26.3290     2.1250    80.6680     8.9220     6.8820    10.3200    23.8990 
   91.1250   -26.6970     2.1240    79.2130     8.9180     6.8280    10.3780    23.9570 
   91.2500   -27.0280     2.1200    78.8500     8.9120     6.8140    10.4150    24.0170 
   91.3750   -27.3070     2.1160    77.8150     8.8890     6.8080    10.4010    24.0750 
   91.5000   -27.6380     2.1160    76.5830     8.8310     6.7940    10.3600    24.1100 
   91.6250   -28.0330     2.1220    76.5240     8.7300     6.7750    10.4240    24.0970 
   91.7500   -28.4510     2.1290    77.1180     8.5910     6.7630    10.6580    24.0980 
   91.8750   -28.8630     2.1350    76.8440     8.4470     6.7720    11.1710    24.1920 
   92.0000   -29.2600     2.1380    75.5280     8.3620     6.8070    11.8300    24.4000 
   92.1250   -29.6390     2.1400    74.9760     8.3480     6.8570    12.6270    24.5940 
   92.2500   -29.9940     2.1390    74.8210     8.3830     6.9030    13.2120    24.7610 
   92.3750   -30.3160     2.1340    73.9100     8.4210     6.9300    13.2220    25.0020 
   92.5000   -30.5250     2.1240    71.6000     8.4210     6.9230    12.8350    25.2440 
   92.6250   -30.6240     2.1110    69.4500     8.3820     6.8870    12.3910    25.4890 
   92.7500   -30.6500     2.0920    68.8210     8.3170     6.8350    12.1900    25.7130 
   92.8750   -30.6030     2.0720    68.9050     8.2370     6.7780    12.1790    25.8410 
   93.0000   -30.4720     2.0570    69.1650     8.1500     6.7290    12.1680    25.8130 
   93.1250   -30.2640     2.0500    70.4200     8.0670     6.6930    12.1010    25.7080 
   93.2500   -30.0110     2.0530    73.0500     8.0020     6.6730    12.0850    25.5690 
   93.3750   -29.7670     2.0640    76.0190     7.9730     6.6670    12.0830    25.3200 
   93.5000   -29.6340     2.0830    77.0680     7.9980     6.6780    12.2520    25.1110 
   93.6250   -29.6110     2.1050    77.2850     8.0650     6.7000    12.3950    24.6570 
   93.7500   -29.6520     2.1250    77.7690     8.1570     6.7300    12.4680    24.4310 
   93.8750   -29.7730     2.1350    78.3370     8.2610     6.7620    12.3960    24.3690 
   94.0000   -30.0050     2.1340    78.6320     8.3760     6.7990    12.4040    24.3960 
   94.1250   -30.2700     2.1280    77.6180     8.5080     6.8430    12.5170    24.4320 
   94.2500   -30.5360     2.1230    75.3800     8.6580     6.8950    12.8080    24.4350 
   94.3750   -30.7860     2.1220    72.4590     8.8120     6.9560    13.0760    24.4250 
   94.5000   -30.9890     2.1170    70.8520     8.9290     7.0270    13.3250    24.5350 
   94.6250   -31.1190     2.1060    71.5250     8.9800     7.1030    13.4180    24.7730 
   94.7500   -31.1710     2.0930    73.3650     8.9580     7.1830    13.4460    24.9940 
   94.8750   -31.1520     2.0890    75.1750     8.8860     7.2560    13.5440    24.9860 
   95.0000   -30.9980     2.0960    75.6280     8.7970     7.3010    13.7320    24.6910 
   95.1250   -30.7680     2.1080    74.8730     8.7160     7.2990    13.8830    24.4250 
   95.2500   -30.4460     2.1200    74.2530     8.6400     7.2330    13.8990    24.2350 
   95.3750   -29.9800     2.1330    74.9190     8.5640     7.1040    13.6630    24.1060 
   95.5000   -29.3290     2.1490    77.5430     8.4840     6.9310    13.0170    24.0250 
   95.6250   -28.6160     2.1670    81.6380     8.4010     6.7560    12.2870    23.9770 
   95.7500   -27.9720     2.1790    86.0430     8.3040     6.5990    11.7140    23.9570 
   95.8750   -27.3990     2.1730    88.9170     8.1700     6.4550    11.4620    23.9380 
   96.0000   -26.8430     2.1490    88.1960     7.9570     6.2940    11.7200    23.9210 
   96.1250   -26.2050     2.1360    84.7700     7.6920     6.1010    11.7860    23.8960 
   96.2500   -25.4530     2.1480    81.2320     7.4650     5.9010    11.3290    23.8620 
   96.3750   -24.6090     2.1850    80.8790     7.4600     5.7890    10.5560    23.8750 
   96.5000   -23.6970     2.2410    83.7710     8.0680     6.0010    10.1630    23.9460 
   96.6250   -22.7290     2.3090    86.3110     9.4900     6.7310    10.4800    23.9820 
   96.7500   -21.6890     2.3890    86.3810    11.8000     8.1410    12.9790    23.9910 
   96.8750   -20.7030     2.4820    84.2490    14.7340    10.2130    19.1740    23.9910 
   97.0000   -19.9840     2.5700    81.6810    17.4730    12.5680    27.8090    24.0030 
   97.1250   -19.5890     2.6150    78.7140    18.9950    14.3940    36.3620    24.0400 
   97.2500   -19.6430     2.5920    74.7350    18.5920    14.9410    40.3780    24.0690 
   97.3750   -20.1660     2.5020    69.8690    16.2670    13.8510    31.5430    23.9830 
   97.5000   -21.1350     2.3770    66.8190    13.0360    11.6000    18.4590    23.6870 
   97.6250   -22.3630     2.2700    66.7710    10.3750     9.4540    13.9510    23.3780 
   97.7500   -23.7700     2.2010    68.4630     8.7540     7.9230    12.8990    23.2300 
   97.8750   -25.1950     2.1620    70.7190     8.0840     7.0680    13.0780    23.2430 
   98.0000   -26.5270     2.1400    72.1150     8.1340     6.8310    13.6690    23.4130 
   98.1250   -27.6950     2.1280    71.3240     8.4760     6.9350    14.2800    23.6260 
   98.2500   -28.5830     2.1240    70.1290     8.8930     7.2300    14.5330    23.7640 
   98.3750   -29.0950     2.1240    70.4120     9.2430     7.5900    14.5830    23.8150 
   98.5000   -29.1460     2.1230    71.5410     9.4350     7.9160    14.6380    23.8400 
   98.6250   -28.8050     2.1210    72.5480     9.4800     8.1640    14.6590    23.8610 
   98.7500   -28.0350     2.1180    74.0620     9.3950     8.3060    14.4500    23.8890 
   98.8750   -26.8490     2.1200    75.8690     9.1870     8.3140    13.9080    23.9320 
   99.0000   -25.1070     2.1300    76.7190     8.8240     8.1160    13.0590    23.9070 
   99.1250   -22.9800     2.1450    77.9720     8.3010     7.7070    11.9820    23.8440 
   99.2500   -20.5000     2.1650    81.0300     7.6230     7.0900    10.7020    23.7970 
   99.3750   -17.7800     2.1930    86.5120     6.8370     6.3190     9.4340    23.7800 
   99.5000   -15.0070     2.2340    94.3640     6.0670     5.5140     7.6520    23.8150 
   99.6250   -12.3990     2.2770   102.0070     5.4790     4.8280     5.7250    23.9310 
   99.7500   -10.1210     2.3100   107.2640     5.2100     4.3670     4.5450    24.1310 
   99.8750    -8.2700     2.3270   109.1780     5.3470     4.2040     4.3710    24.2810 
  100.0000    -7.1170     2.3340   107.5920     5.9800     4.4570     5.0030    24.3080 
  100.1250    -6.5580     2.3400   103.0790     6.9740     5.0950     6.3450    24.2330 
  100.2500    -6.5770     2.3490    96.1140     8.1980     6.0860     8.9370    24.0950 
  100.3750    -7.0860     2.3690    88.5040     9.4540     7.3090    12.6740    23.9920 
  100.5000    -8.0310     2.3950    82.8610    10.4330     8.5020    17.1610    23.9390 
  100.6250    -9.2190     2.3930    80.5700    10.9450     9.3620    21.0400    23.9420 
  100.7500   -10.5220     2.3410    80.3120    10.9250     9.6980    21.1980    24.0120 
  100.8750   -11.8530     2.2630    79.3890    10.4780     9.5150    16.2540    24.2020 
