~V
VERS. 2.00: Ver 2.00
~W
STRT.M 55.0000:
STOP.M 211.0000:
STEP.M 0.1250:
NULL. -999.2500:
UWI. F11125:
~C
DEPT.M :
DEN.GM/CC :
GR.API :
RML.OHMM :
RI. :
RXO.OHMM :
CALI.CM :
SP.MV :
~A
# ...
   88.7500     2.5440    66.9350    15.9270    12.4640    32.0630    24.4120   -15.0180 
   88.8750     2.5180    63.5550    15.2020    12.5100    30.2800    24.4460   -15.6910 
   89.0000     2.4470    63.2700    13.1050    11.2920    21.9980    24.3620   -16.4670 
   89.1250     2.3520    64.8580    10.7990     9.5540    14.6910    24.2590   -17.2640 
   89.2500     2.2650    65.0190     9.1460     8.0860     9.7800    24.1950   -18.0360 
   89.3750     2.2040    65.7490     8.2610     7.1010     8.2570    24.1660   -18.7390 
   89.5000     2.1720    69.5750     7.9670     6.5800     8.0850    24.1450   -19.3420 
   89.6250     2.1590    72.6170     8.0280     6.4480     8.2260    24.1310   -19.7830 
   89.7500     2.1500    71.0180     8.1430     6.4940     8.3580    24.0800   -20.0530 
   89.8750     2.1430    66.1370     8.1830     6.5880     8.4360    23.9200   -20.0990 
   90.0000     2.1400    63.8850     8.0910     6.6350     8.3340    23.6990   -19.9160 
   90.1250     2.1480    66.6970     7.8660     6.5730     8.1020    23.6380   -19.4560 
   90.2500     2.1690    72.2120     7.5710     6.4140     7.8010    23.7070   -18.8450 
   90.3750     2.1960    79.4450     7.2400     6.1800     7.3280    23.8380   -18.1000 
   90.5000     2.2240    87.1040     6.9100     5.9020     6.6180    24.0050   -17.2550 
   90.6250     2.2440    95.0420     6.6330     5.6260     5.8860    24.2020   -16.3600 
   90.7500     2.2530   102.7920     6.4400     5.4000     5.3410    24.3730   -15.4750 
   90.8750     2.2500   107.5510     6.3470     5.2480     5.2190    24.4740   -14.6410 
   91.0000     2.2380   105.3030     6.3510     5.1780     5.2150    24.5090   -13.8920 
   91.1250     2.2260    97.7100     6.4380     5.1890     5.2450    24.5130   -13.3540 
   91.2500     2.2180    94.1020     6.5530     5.2460     5.2460    24.5110   -12.9670 
   91.3750     2.2210    96.8140     6.6650     5.3220     5.2310    24.4860   -12.7620 
   91.5000     2.2320   100.0470     6.7560     5.3970     5.1700    24.4100   -12.6950 
   91.6250     2.2430    96.4340     6.8150     5.4590     5.1690    24.2820   -12.8230 
   91.7500     2.2480    90.2040     6.8560     5.5100     5.1550    24.1730   -13.0770 
   91.8750     2.2480    86.3560     6.8910     5.5570     5.2440    24.1190   -13.4440 
   92.0000     2.2440    86.9090     6.9260     5.6050     5.4820    24.1060   -13.9400 
   92.1250     2.2280    89.9590     6.9460     5.6590     5.6500    24.1030   -14.5340 
   92.2500     2.2020    90.2660     6.9480     5.7010     6.0440    24.0870   -15.1950 
   92.3750     2.1760    85.3530     6.9370     5.7150     6.5070    24.0670   -15.8650 
   92.5000     2.1590    77.8070     6.9280     5.6940     6.7190    24.1000   -16.5470 
   92.6250     2.1520    74.8580     6.9540     5.6640     6.5970    24.1620   -17.1510 
   92.7500     2.1510    76.7960     7.0390     5.6770     6.5650    24.1900   -17.7220 
   92.8750     2.1540    77.1810     7.2040     5.7790     6.6860    24.1690   -18.2740 
   93.0000     2.1590    73.9510     7.4710     5.9910     7.0100    24.1020   -18.8050 
   93.1250     2.1630    69.2740     7.8580     6.3030     7.6920    23.9640   -19.3250 
   93.2500     2.1640    65.3740     8.2790     6.6320     8.7980    23.8270   -19.8330 
   93.3750     2.1600    62.4390     8.6110     6.9000     9.9040    23.7380   -20.3370 
   93.5000     2.1510    62.4120     8.7530     7.0400     9.9180    23.7060   -20.8250 
   93.6250     2.1380    66.2920     8.6550     6.9990     8.9160    23.7240   -21.2980 
   93.7500     2.1250    68.7850     8.4380     6.8430     8.1430    23.7830   -21.7190 
   93.8750     2.1180    68.2270     8.2090     6.6470     7.6770    23.8750   -22.0720 
   94.0000     2.1240    66.3350     8.0430     6.4760     7.4340    24.0050   -22.3570 
   94.1250     2.1390    64.3190     7.9720     6.3800     7.4290    24.0270   -22.5710 
   94.2500     2.1490    63.3160     7.9630     6.3470     7.6590    23.9430   -22.7230 
   94.3750     2.1510    63.2920     7.9910     6.3540     7.8780    23.8300   -22.8390 
   94.5000     2.1480    63.5780     8.0260     6.3750     7.9390    23.7220   -22.9130 
   94.6250     2.1460    62.5490     8.0360     6.3870     7.9060    23.6500   -22.9860 
   94.7500     2.1460    60.3840     8.0250     6.3820     7.9840    23.5880   -23.0500 
   94.8750     2.1470    58.3780     8.0090     6.3610     8.0580    23.5570   -23.1320 
   95.0000     2.1490    59.5070     7.9890     6.3290     8.0600    23.5340   -23.1990 
   95.1250     2.1510    63.0520     7.9520     6.2910     8.1190    23.5060   -23.2190 
   95.2500     2.1530    63.9360     7.8960     6.2550     8.0760    23.4960   -23.2090 
   95.3750     2.1560    62.6130     7.8410     6.2290     7.9340    23.5000   -23.1480 
   95.5000     2.1620    61.8050     7.8140     6.2170     7.8900    23.5170   -23.0650 
   95.6250     2.1670    62.7720     7.8410     6.2200     8.0090    23.5410   -22.9490 
   95.7500     2.1720    63.3970     7.8930     6.2270     8.1220    23.5520   -22.8240 
   95.8750     2.1760    63.3330     7.9330     6.2290     8.1140    23.5570   -22.6710 
   96.0000     2.1810    62.5490     7.9340     6.2210     8.0060    23.5590   -22.5220 
   96.1250     2.1850    61.9780     7.8820     6.2000     7.8840    23.5650   -22.4150 
   96.2500     2.1870    63.4350     7.8010     6.1740     7.9540    23.5950   -22.3480 
   96.3750     2.1870    65.7710     7.7180     6.1510     8.1340    23.6480   -22.3310 
   96.5000     2.1890    65.4400     7.6640     6.1470     8.3250    23.6770   -22.3450 
   96.6250     2.1950    62.2010     7.6730     6.1800     8.3920    23.6590   -22.3430 
   96.7500     2.1980    60.4810     7.7450     6.2470     8.3190    23.6100   -22.3510 
   96.8750     2.1920    61.9380     7.8650     6.3380     8.3250    23.5560   -22.3400 
   97.0000     2.1780    64.1070     7.9940     6.4370     8.4700    23.5440   -22.3080 
   97.1250     2.1620    62.5880     8.0670     6.5090     8.5180    23.5840   -22.2210 
   97.2500     2.1480    59.6110     8.0560     6.5300     8.4710    23.5980   -22.1100 
   97.3750     2.1340    59.9900     7.9690     6.4910     8.4430    23.5840   -21.9440 
   97.5000     2.1200    63.7530     7.8400     6.4110     8.4420    23.5810   -21.7410 
   97.6250     2.1130    64.9030     7.7210     6.3260     8.2820    23.6200   -21.5240 
   97.7500     2.1160    61.7450     7.6500     6.2740     7.9590    23.6740   -21.2800 
   97.8750     2.1250    59.0290     7.6350     6.2720     7.7000    23.7250   -21.0360 
   98.0000     2.1340    60.3240     7.6590     6.3190     7.9350    23.7400   -20.7580 
   98.1250     2.1440    62.0140     7.6740     6.3810     8.0480    23.6970   -20.4800 
   98.2500     2.1560    60.3080     7.6170     6.4030     8.0350    23.6320   -20.1510 
   98.3750     2.1680    58.5760     7.4560     6.3510     7.9000    23.5520   -19.7940 
   98.5000     2.1790    60.1970     7.2130     6.2260     7.6260    23.4830   -19.4150 
   98.6250     2.1910    65.6910     6.9830     6.0830     6.8680    23.3970   -19.0000 
   98.7500     2.2030    70.2020     6.8660     6.0000     6.0560    23.2660   -18.5670 
   98.8750     2.2120    70.5110     6.9010     6.0130     5.8880    23.0730   -18.1200 
   99.0000     2.2150    67.7680     7.0580     6.1040     6.4520    22.8370   -17.6760 
   99.1250     2.2100    66.4780     7.2260     6.2090     6.8470    22.6440   -17.1970 
   99.2500     2.2010    68.8560     7.2770     6.2530     7.1570    22.5810   -16.7210 
   99.3750     2.1950    72.7320     7.1570     6.1950     6.9660    22.6430   -16.2630 
   99.5000     2.1970    75.0070     6.8920     6.0330     6.2480    22.7430   -15.8390 
   99.6250     2.2120    76.0020     6.5590     5.7890     5.3080    22.7450   -15.5060 
   99.7500     2.2340    77.3840     6.2490     5.5230     5.0560    22.6710   -15.2560 
   99.8750     2.2510    79.4630     6.0140     5.2870     5.1200    22.6090   -15.0830 
