~V
VERS. 2.00: Ver 2.00
~W
STRT.M 50.0000:
STOP.M 248.0000:
STEP.M 0.1250:
NULL. -999.2500:
UWI. F11129:
~C
DEPT.M :
SP.MV :
DEN.GM/CC :
GR.API :
RML.OHMM :
RI. :
RXO.OHMM :
CALI.CM :
~A
# ...
  162.5000   -25.3410     2.2740    77.3540    13.2580    10.8090    13.2190    22.6230 
  162.6250   -25.2710     2.2810    76.1840    12.2040    10.1180    12.2870    22.7950 
  162.7500   -25.2240     2.2840    76.6630    11.2010     9.3730    10.8870    23.0420 
  162.8750   -25.1790     2.2810    78.9060    10.5160     8.7850     9.4030    23.2370 
  163.0000   -25.0840     2.2760    80.5460    10.2220     8.4600     8.4820    23.2610 
  163.1250   -24.9270     2.2700    81.2390    10.2590     8.3950     8.5160    23.0830 
  163.2500   -24.7590     2.2670    81.9440    10.4480     8.4980     8.9790    22.8010 
  163.3750   -24.6250     2.2700    82.4920    10.5360     8.5910     9.2450    22.5780 
  163.5000   -24.5070     2.2780    82.1350    10.3050     8.4870     9.1870    22.4760 
  163.6250   -24.3760     2.2850    81.2830     9.6760     8.0890     8.7910    22.4590 
  163.7500   -24.2170     2.2880    80.2670     8.7410     7.4230     8.1330    22.4570 
  163.8750   -24.0350     2.2910    79.5680     7.7480     6.6420     7.4680    22.4190 
  164.0000   -23.8690     2.2960    80.3770     6.9550     5.9500     6.8790    22.3640 
  164.1250   -23.7800     2.3030    83.5150     6.5150     5.4780     6.2860    22.3920 
  164.2500   -23.8020     2.3050    86.4380     6.5290     5.3320     5.8710    22.5880 
  164.3750   -23.9090     2.3000    85.2580     6.9920     5.5500     6.0850    22.8830 
  164.5000   -24.0380     2.2890    79.9700     7.7460     6.0580     7.0930    23.1260 
  164.6250   -24.1740     2.2770    74.1700     8.6040     6.7460     8.5380    23.1960 
  164.7500   -24.3500     2.2680    73.7340     9.3090     7.4240     9.6160    23.1190 
  164.8750   -24.6050     2.2660    79.9430     9.6540     7.8970     9.8080    22.9950 
  165.0000   -24.8970     2.2690    86.3920     9.6340     8.0930     9.3780    22.8870 
  165.1250   -25.1290     2.2720    87.9050     9.3580     8.0490     8.9260    22.8130 
  165.2500   -25.2410     2.2750    85.4280     8.9670     7.8550     8.7140    22.8030 
  165.3750   -25.2710     2.2760    83.5660     8.5730     7.5970     8.4960    22.8400 
  165.5000   -25.3040     2.2790    83.0260     8.2410     7.3400     8.1170    22.8530 
  165.6250   -25.3610     2.2830    82.4100     8.0090     7.1200     7.5750    22.8300 
  165.7500   -25.4290     2.2880    82.4140     7.9070     6.9740     7.1450    22.7930 
  165.8750   -25.4630     2.2890    83.2300     7.9320     6.9180     7.0690    22.7720 
  166.0000   -25.4600     2.2860    82.4600     8.0290     6.9330     7.3330    22.7650 
  166.1250   -25.4740     2.2820    79.4470     8.1360     6.9830     7.7070    22.7610 
  166.2500   -25.5410     2.2780    78.5380     8.1820     7.0120     7.8220    22.7560 
  166.3750   -25.6570     2.2760    83.2090     8.1360     6.9790     7.7030    22.7410 
  166.5000   -25.7760     2.2790    88.7270     8.0460     6.8940     7.7820    22.7120 
  166.6250   -25.8700     2.2830    89.6140     7.9960     6.8080     7.8570    22.6840 
  166.7500   -25.9400     2.2870    88.2060     8.1190     6.8140     7.7860    22.6650 
  166.8750   -26.0290     2.2900    88.3970     8.5510     7.0230     7.8590    22.6390 
  167.0000   -26.1960     2.2920    87.3850     9.3800     7.5140     8.4960    22.6360 
  167.1250   -26.4670     2.2910    82.9420    10.6700     8.3580     9.5650    22.6810 
  167.2500   -26.8380     2.2860    78.0860    12.4980     9.6370    11.0130    22.7320 
  167.3750   -27.2890     2.2800    76.4490    14.9480    11.4140    13.0670    22.7290 
  167.5000   -27.8120     2.2750    76.9050    18.1600    13.7670    15.2650    22.6970 
  167.6250   -28.4070     2.2700    76.5160    23.5600    17.0180    17.2280    22.6770 
  167.7500   -29.0650     2.2620    72.7840    31.3070    22.0640    19.8800    22.6570 
  167.8750   -29.7890     2.2480    66.9690    40.1750    30.2590    24.7960    22.6240 
  168.0000   -30.5660     2.2290    62.2720    53.3640    42.6680    34.5240    22.6030 
  168.1250   -31.3440     2.2060    58.3920    72.0480    59.5240    49.6440    22.6120 
  168.2500   -32.0660     2.1890    55.1270    92.3570    78.1090    60.3670    22.6140 
  168.3750   -32.7130     2.1850    55.4610   106.2390    92.2290    58.4780    22.5850 
  168.5000   -33.3320     2.1950    60.7940   108.1910    96.9030    50.1480    22.5950 
  168.6250   -33.9590     2.2100    67.1860   101.1880    92.8860    44.2660    22.6950 
  168.7500   -34.5730     2.2230    69.7600    92.4030    85.3010    42.9740    22.8320 
  168.8750   -35.1180     2.2330    68.4650    86.2960    78.9410    44.2590    22.8720 
  169.0000   -35.5790     2.2430    68.1230    83.2760    75.4610    45.6690    22.8300 
  169.1250   -36.0060     2.2520    71.2080    82.5270    74.5240    48.1440    22.8220 
  169.2500   -36.4370     2.2620    74.3660    83.2120    75.3900    50.9420    22.9330 
  169.3750   -36.8580     2.2720    73.8920    84.8230    77.4500    52.3690    23.1400 
  169.5000   -37.2340     2.2780    71.9450    87.1820    80.3830    56.3160    23.4560 
  169.6250   -37.5360     2.2780    70.7070    90.1710    84.0830    68.2870    23.7670 
  169.7500   -37.7720     2.2730    69.0320    93.1020    87.9610    84.5190    23.9050 
  169.8750   -37.9940     2.2670    67.5870    94.8250    90.9050    91.6890    23.8900 
  170.0000   -38.2290     2.2630    68.5950    94.5230    91.9350    89.1820    23.8740 
  170.1250   -38.4430     2.2630    71.2830    92.1420    90.7160    80.7820    23.8900 
  170.2500   -38.6130     2.2680    73.2360    88.4070    87.7160    69.3100    23.9070 
  170.3750   -38.7480     2.2750    74.1230    84.3200    83.9630    63.2180    23.9010 
  170.5000   -38.8670     2.2820    74.9550    80.4680    80.2830    66.9810    23.8780 
  170.6250   -39.0010     2.2910    76.3360    76.9610    76.8520    71.2750    23.8250 
  170.7500   -39.2030     2.3030    78.8920    74.1300    73.8790    66.8060    23.7350 
  170.8750   -39.4620     2.3140    79.9560    72.7050    71.9520    57.1450    23.6210 
  171.0000   -39.7180     2.3210    76.8980    73.5130    71.9120    49.4710    23.4690 
  171.1250   -39.9570     2.3230    73.2590    77.4220    74.7610    46.8490    23.2400 
  171.2500   -40.2060     2.3140    73.5940    85.4550    81.7080    51.2850    23.0730 
  171.3750   -40.5110     2.2920    75.4580    98.1540    93.3470    63.8240    23.1920 
  171.5000   -40.8900     2.2630    72.4540   114.7610   108.7960    82.4950    23.5280 
  171.6250   -41.3020     2.2380    65.6330   134.0640   126.7010   103.9710    23.8760 
  171.7500   -41.6780     2.2210    61.2060   154.4260   145.3860   120.3380    24.0870 
  171.8750   -41.9870     2.2110    61.8570   175.3610   164.3710   124.4020    24.1340 
  172.0000   -42.2570     2.2040    63.0500   198.9350   185.5490   124.3870    24.0560 
  172.1250   -42.5370     2.1970    61.0500   229.0630   212.3790   133.8150    23.8640 
  172.2500   -42.8240     2.1890    57.6870   270.9190   249.2330   154.6180    23.6380 
  172.3750   -43.0420     2.1810    56.8380   327.8710   298.6830   182.4590    23.5180 
  172.5000   -43.1320     2.1720    58.5310   397.7600   358.6700   215.6250    23.5340 
  172.6250   -43.1080     2.1650    59.8620   474.3740   424.2650   246.7980    23.5120 
  172.7500   -43.0220     2.1620    59.7740   544.6360   485.2100   267.1410    23.3500 
  172.8750   -42.9280     2.1590    59.1970   593.5160   529.2520   275.9550    23.2390 
  173.0000   -42.8200     2.1510    58.0620   614.1610   550.0430   270.5270    23.3670 
  173.1250   -42.6360     2.1440    55.8920   609.2510   548.7570   250.2360    23.5150 
  173.2500   -42.3410     2.1460    54.1800   589.0050   533.4000   228.5090    23.3670 
  173.3750   -41.9680     2.1610    53.9720   563.5480   513.5920   220.6760    23.0380 
  173.5000   -41.5790     2.1790    54.4450   535.6060   493.6590   222.2110    22.8420 
  173.6250   -41.1990     2.1910    55.6080   500.0360   469.9990   225.9110    22.8480 
