~V
VERS. 2.00: Ver 2.00
~W
STRT.M 60.0000:
STOP.M 282.0000:
STEP.M 0.1250:
NULL. -999.2500:
UWI. F11159:
~C
DEPT.M :
GR.API :
RML.OHMM :
RI. :
RXO.OHMM :
CALI.CM :
SP.MV :
DEN.GM/CC :
~A
# ...
  127.5000    49.4410    19.0640    17.6580    16.7410    24.3890   -14.3620     2.3770 
  127.6250    49.6850    19.0900    17.7170    15.7650    24.0240   -14.4350     2.4050 
  127.7500    52.6530    19.0450    17.7270    15.4350    23.8380   -14.4960     2.4290 
  127.8750    55.7370    18.8870    17.6520    15.7050    23.7500   -14.5610     2.4350 
  128.0000    57.3370    18.5780    17.4510    15.7550    23.6680   -14.6120     2.4390 
  128.1250    58.3670    18.0780    17.0700    16.0150    23.5120   -14.6910     2.4430 
  128.2500    60.3920    17.4700    16.5590    16.3400    23.4100   -14.7740     2.4460 
  128.3750    60.9160    16.8740    16.0100    15.6400    23.3790   -14.8560     2.4390 
  128.5000    58.3040    16.4290    15.5510    14.6560    23.3200   -14.9600     2.4160 
  128.6250    56.5130    16.2640    15.3140    14.1140    23.3340   -15.0270     2.3730 
  128.7500    56.8790    16.3160    15.2810    14.6420    23.4940   -15.0910     2.3300 
  128.8750    55.9280    16.4850    15.3880    15.7680    24.1690   -15.1370     2.3050 
  129.0000    54.5800    16.6330    15.5290    16.4500    24.7960   -15.1610     2.3110 
  129.1250    55.8620    16.6200    15.5670    15.9850    24.8050   -15.1570     2.3510 
  129.2500    57.5360    16.4640    15.4680    15.3110    24.6130   -15.0940     2.3980 
  129.3750    56.4400    16.2530    15.2820    15.1270    24.5400   -14.9990     2.4260 
  129.5000    55.3610    16.0960    15.1040    14.6290    24.4720   -14.8560     2.4250 
  129.6250    58.8340    16.1010    15.0460    14.3030    24.4740   -14.7480     2.3990 
  129.7500    62.4650    16.2570    15.1310    14.6630    24.6790   -14.6150     2.3710 
  129.8750    62.3390    16.5230    15.3370    15.5990    25.1720   -14.4680     2.3500 
  130.0000    60.0090    16.8250    15.6060    16.4830    25.7510   -14.3310     2.3440 
  130.1250    59.1590    17.0490    15.8480    16.4020    25.5420   -14.1890     2.3560 
  130.2500    59.5430    17.1170    15.9790    15.8670    24.9460   -14.1050     2.3810 
  130.3750    59.5530    17.0120    15.9650    15.0390    24.6580   -14.0490     2.4150 
  130.5000    60.4860    16.8070    15.8440    14.1330    24.2880   -14.0440     2.4460 
  130.6250    61.4820    16.6600    15.7350    13.5120    24.0370   -14.0170     2.4590 
  130.7500    60.7260    16.6840    15.7540    13.1530    24.3060   -13.9890     2.4540 
  130.8750    58.2850    16.8920    15.9410    13.6030    24.6150   -13.9850     2.4330 
  131.0000    56.0840    17.2120    16.2580    14.9810    24.7440   -13.9890     2.4070 
  131.1250    54.7650    17.4800    16.5850    17.4120    24.9050   -14.0170     2.3820 
  131.2500    53.0520    17.5550    16.7780    18.7470    24.7360   -14.0290     2.3620 
  131.3750    53.1310    17.3970    16.7650    17.9180    24.5260   -14.0410     2.3500 
  131.5000    54.8640    17.0760    16.5790    16.2180    24.4380   -14.0320     2.3470 
  131.6250    56.4160    16.7440    16.3310    16.1670    24.2560   -14.0270     2.3530 
  131.7500    57.0690    16.5210    16.1430    16.6420    23.9120   -14.0350     2.3580 
  131.8750    57.1800    16.4200    16.0430    16.7200    23.5690   -14.0330     2.3560 
  132.0000    58.4960    16.3870    15.9970    16.4100    23.1790   -14.0140     2.3450 
  132.1250    61.6250    16.3370    15.9300    16.2220    22.9840   -13.9940     2.3300 
  132.2500    63.3740    16.2410    15.8100    15.2660    23.1550   -13.9500     2.3210 
  132.3750    61.5520    16.1180    15.6530    14.2040    23.8950   -13.8960     2.3210 
  132.5000    58.1140    16.0020    15.4900    13.7300    24.4000   -13.8370     2.3300 
  132.6250    58.2320    15.9420    15.3590    13.9450    24.6370   -13.7760     2.3450 
  132.7500    60.5850    15.9620    15.2860    14.5600    25.2080   -13.7180     2.3640 
  132.8750    61.1950    16.0770    15.2880    15.3370    26.1660   -13.6870     2.3870 
  133.0000    59.3280    16.2950    15.3710    16.3030    27.3460   -13.7080     2.4120 
  133.1250    58.0860    16.6630    15.5700    17.4070    27.8680   -13.7690     2.4300 
  133.2500    58.4600    17.2250    15.9300    18.0340    27.8700   -13.8760     2.4300 
  133.3750    60.3140    18.0390    16.5190    18.1200    27.5910   -14.0060     2.4030 
  133.5000    63.7950    19.1170    17.3710    17.3450    27.1520   -14.1480     2.3490 
  133.6250    68.0170    20.4260    18.4890    16.3620    26.6530   -14.2820     2.2800 
  133.7500    69.7250    21.7980    19.7270    17.7150    26.6070   -14.4040     2.2160 
  133.8750    68.2110    23.0850    20.9570    22.5030    27.5940   -14.5170     2.1740 
  134.0000    67.5710    24.1640    22.0600    27.8600    29.6890   -14.5870     2.1570 
  134.1250    71.3230    24.9450    22.9120    28.1580    30.6730   -14.6260     2.1650 
  134.2500    74.8380    25.5080    23.5300    25.2080    30.8010   -14.6550     2.1840 
  134.3750    76.5910    25.9180    23.9420    23.1760    30.3060   -14.6700     2.2070 
  134.5000    78.4280    26.2180    24.1930    24.0630    29.5230   -14.7030     2.2340 
  134.6250    79.7950    26.3530    24.2660    27.6870    29.2250   -14.7310     2.2640 
  134.7500    78.9780    26.2600    24.1320    28.7110    28.8930   -14.7770     2.2950 
  134.8750    78.5030    25.8870    23.7440    27.7850    28.0030   -14.8180     2.3220 
  135.0000    79.6680    25.2450    23.1050    26.1720    27.0490   -14.8680     2.3380 
  135.1250    78.7470    24.3950    22.2710    25.6200    27.7960   -14.9400     2.3390 
  135.2500    75.5280    23.5170    21.4080    25.5640    28.2800   -15.0150     2.3280 
  135.3750    74.2310    22.8080    20.6740    24.7550    28.4130   -15.0760     2.3090 
  135.5000    77.2190    22.5040    20.2500    23.0160    28.3340   -15.1180     2.2920 
  135.6250    81.0810    22.9640    20.4260    20.7560    27.4730   -15.1530     2.2910 
  135.7500    82.0410    24.1860    21.2390    20.0340    26.6310   -15.1610     2.3090 
  135.8750    79.1410    26.0660    22.6660    20.1740    26.1290   -15.1550     2.3430 
  136.0000    76.1060    28.3140    24.5260    20.7540    25.6960   -15.1430     2.3840 
  136.1250    77.0000    30.3660    26.4240    19.7150    24.9850   -15.0890     2.4130 
  136.2500    78.2790    31.5950    27.7980    18.6710    24.7710   -15.0050     2.4170 
  136.3750    76.5750    31.4420    28.1020    17.6950    24.9650   -14.9220     2.3910 
  136.5000    73.3630    29.5530    26.9110    18.3570    25.5830   -14.8190     2.3420 
  136.6250    71.2550    25.8710    24.0200    22.1060    26.5750   -14.7410     2.2900 
  136.7500    69.5520    21.5160    20.3810    25.9740    27.4630   -14.6670     2.2540 
  136.8750    69.2240    17.4280    16.8340    24.3120    27.9690   -14.6010     2.2420 
  137.0000    73.2650    14.2610    13.9630    16.7170    27.6900   -14.5390     2.2510 
  137.1250    81.8390    12.3960    12.1140    12.5030    26.2020   -14.4760     2.2700 
  137.2500    87.8970    11.4400    11.0230    11.3410    25.1470   -14.4130     2.2780 
  137.3750    87.1890    11.0370    10.4560    11.1690    24.7350   -14.3370     2.2650 
  137.5000    83.2970    10.7970    10.1350    10.4980    24.7050   -14.2460     2.2320 
  137.6250    79.4120    10.3020     9.7240     9.8820    24.3260   -14.1460     2.1920 
  137.7500    76.3710     9.4130     9.0230     9.3370    24.2600   -14.0410     2.1630 
  137.8750    74.6580     8.2360     8.0520     8.8390    25.2540   -13.9130     2.1550 
  138.0000    76.4450     7.0270     6.9870     8.1750    26.9420   -13.7510     2.1580 
  138.1250    81.9270     6.0780     6.0730     6.8990    28.5080   -13.5570     2.1460 
  138.2500    87.5100     5.4610     5.4130     5.3920    28.9320   -13.3510     2.1080 
  138.3750    90.9490     5.1600     5.0240     4.8030    29.0440   -13.1640     2.0480 
  138.5000    89.3260     5.1070     4.8660     4.7610    28.5350   -12.9880     1.9830 
  138.6250    83.1060     5.2090     4.8790     4.8390    28.6070   -12.8190     1.9360 
