~V
VERS. 2.00: Ver 2.00
~W
STRT.M 55.0000:
STOP.M 207.0000:
STEP.M 0.1250:
NULL. -999.2500:
UWI. F11112:
~C
DEPT.M :
SP.MV :
RML.OHMM :
RI. :
RXO.OHMM :
CALI.CM :
DEN.GM/CC :
GR.API :
~A
# ...
  111.2500   -22.7270    12.3280    10.9340    14.2130    25.5580     2.2000    70.5210 
  111.3750   -22.7630    13.4530    11.9820    14.9110    25.7130     2.1910    70.9550 
  111.5000   -22.8780    14.4620    13.0290    16.5320    25.8950     2.1620    68.8670 
  111.6250   -23.0500    15.1710    13.9040    17.8490    26.0680     2.1200    65.7280 
  111.7500   -23.2600    15.4300    14.4180    17.9930    26.1260     2.0960    64.8580 
  111.8750   -23.4980    15.4040    14.6290    17.5100    25.9960     2.0980    66.2270 
  112.0000   -23.6620    15.2950    14.6680    17.6520    25.8470     2.1050    66.9270 
  112.1250   -23.7140    15.2810    14.6900    19.0630    25.7250     2.1110    64.9030 
  112.2500   -23.6270    15.4410    14.7980    21.6060    25.6530     2.1180    62.5890 
  112.3750   -23.4110    15.6510    14.9450    23.1260    25.6430     2.1270    62.2480 
  112.5000   -23.0490    15.7760    15.0340    22.8730    25.7060     2.1420    63.5140 
  112.6250   -22.5530    15.7320    14.9870    21.3290    25.7970     2.1580    65.2690 
  112.7500   -21.9150    15.5420    14.7970    20.3260    25.9150     2.1740    64.7460 
  112.8750   -21.1520    15.3690    14.5940    19.6700    26.0310     2.1970    63.3390 
  113.0000   -20.3560    15.3420    14.4930    19.2280    26.0770     2.2370    63.3610 
  113.1250   -19.5430    15.5250    14.5760    19.4680    26.0260     2.2890    65.1130 
  113.2500   -18.7660    15.9230    14.8890    20.8710    25.8760     2.3320    64.6440 
  113.3750   -18.0160    16.4040    15.3350    22.4610    25.7430     2.3550    62.3040 
  113.5000   -17.3030    16.8740    15.8330    22.7710    25.6940     2.3670    61.7850 
  113.6250   -16.6480    17.2730    16.3110    21.4120    25.7130     2.3760    63.2390 
  113.7500   -16.0520    17.5700    16.7180    19.8290    25.7670     2.3800    63.6290 
  113.8750   -15.4730    17.7760    17.0490    18.7300    25.8010     2.3760    63.9460 
  114.0000   -14.8940    17.8370    17.2630    18.5870    25.7790     2.3760    66.3580 
  114.1250   -14.3040    17.6210    17.2530    18.9790    25.7460     2.3910    69.4140 
  114.2500   -13.6990    16.9560    16.7730    18.6570    25.7270     2.4280    69.5960 
  114.3750   -13.1100    15.8170    15.7950    17.2850    25.7290     2.4660    68.7650 
  114.5000   -12.5110    14.3700    14.4130    15.1140    25.7270     2.4840    69.9780 
  114.6250   -11.9040    12.9660    12.8670    12.7750    25.7020     2.4620    73.8890 
  114.7500   -11.3950    11.5430    11.4900    10.8270    25.6590     2.4090    79.2030 
  114.8750   -11.0270    10.5220    10.4490     9.8200    25.6280     2.3610    84.1180 
  115.0000   -10.7550     9.8780     9.7680     9.5430    25.6210     2.3370    86.9450 
  115.1250   -10.5720     9.5010     9.3830     9.5500    25.6160     2.3340    87.2090 
  115.2500   -10.4560     9.2830     9.2150     9.1120    25.6100     2.3320    86.8940 
  115.3750   -10.4100     9.1330     9.1420     8.5810    25.5950     2.3230    87.5330 
  115.5000   -10.4510     9.0460     9.1200     8.3550    25.5840     2.3150    88.8080 
  115.6250   -10.5400     9.0500     9.1480     8.4330    25.5840     2.3140    89.9560 
  115.7500   -10.5840     9.1940     9.2520     8.7220    25.5740     2.3220    90.8140 
  115.8750   -10.5670     9.4220     9.4130     9.3620    25.5710     2.3310    91.8250 
  116.0000   -10.4910     9.5900     9.5840     9.9920    25.5780     2.3430    91.0150 
  116.1250   -10.3620     9.6440     9.6930    10.2690    25.5830     2.3550    88.2670 
  116.2500   -10.1850     9.4900     9.6280     9.7650    25.5580     2.3670    85.7780 
  116.3750    -9.9280     9.1280     9.3610     8.8250    25.5260     2.3770    84.4780 
  116.5000    -9.6210     8.5800     8.9170     8.0670    25.5100     2.3890    84.2950 
  116.6250    -9.2810     8.1370     8.3820     7.6100    25.5030     2.3990    86.1090 
  116.7500    -8.9020     7.9010     7.9290     7.2490    25.4860     2.3960    90.7180 
  116.8750    -8.4930     8.0030     7.7290     7.0710    25.4590     2.3830    95.1120 
  117.0000    -8.0970     8.6330     7.9500     7.6080    25.4400     2.3750    97.5740 
  117.1250    -7.6860     9.9730     8.7570     9.7880    25.4300     2.3840    96.9450 
  117.2500    -7.2560    12.2990    10.4500    14.4510    25.3990     2.4120    91.8150 
  117.3750    -6.8280    15.4500    12.9930    21.3830    25.3590     2.4540    84.3290 
  117.5000    -6.3960    19.2060    16.3110    29.1750    25.3360     2.5050    76.0090 
  117.6250    -5.9940    23.1690    20.1220    34.1710    25.3340     2.5520    66.9400 
  117.7500    -5.7200    26.7640    23.8860    33.5780    25.3230     2.5760    58.5600 
  117.8750    -5.5790    29.6970    27.0900    30.0530    25.3120     2.5810    53.7820 
  118.0000    -5.5110    31.9750    29.5410    28.4910    25.3070     2.5820    52.5340 
  118.1250    -5.5290    33.7970    31.3540    30.3200    25.3060     2.5890    52.7760 
  118.2500    -5.6280    35.2420    32.6780    34.1130    25.3000     2.6010    52.6010 
  118.3750    -5.8160    36.1850    33.5580    36.9010    25.2970     2.6100    51.7120 
  118.5000    -6.0760    36.3170    33.7620    36.7960    25.3070     2.6110    50.4090 
  118.6250    -6.3770    35.4830    33.1110    33.5180    25.3260     2.5980    49.6770 
  118.7500    -6.6190    33.8450    31.6420    30.2610    25.3480     2.5730    49.1700 
  118.8750    -6.7850    32.1460    29.9710    27.1080    25.3760     2.5460    48.1280 
  119.0000    -6.8870    30.9330    28.6030    24.8560    25.4110     2.5280    47.1430 
  119.1250    -6.9860    30.5220    27.8900    24.6870    25.4450     2.5290    47.1880 
  119.2500    -7.0940    31.0890    28.0930    26.3250    25.4820     2.5520    48.8150 
  119.3750    -7.1960    32.2960    28.9920    28.0350    25.4950     2.5780    50.2010 
  119.5000    -7.2700    33.8220    30.3630    29.2900    25.4830     2.5930    50.2320 
  119.6250    -7.3080    35.2300    31.8480    30.9450    25.4510     2.6000    49.1210 
  119.7500    -7.2730    35.8670    32.8640    32.2950    25.4070     2.6070    47.9990 
  119.8750    -7.1850    35.4290    33.0180    33.1720    25.3890     2.6100    47.2590 
  120.0000    -7.0800    33.8150    32.1160    31.8840    25.4160     2.6030    47.5480 
  120.1250    -6.9410    31.2150    30.2160    28.7410    25.4860     2.5840    49.1120 
  120.2500    -6.7690    28.0390    27.5790    25.0560    25.5640     2.5610    50.4100 
  120.3750    -6.5530    24.9170    24.7980    21.9000    25.6720     2.5450    50.0420 
  120.5000    -6.3170    22.1870    22.2290    19.1500    25.7730     2.5380    48.9530 
  120.6250    -6.0670    20.0070    20.0760    16.3850    25.8340     2.5360    48.9770 
  120.7500    -5.8630    18.4620    18.4780    14.7050    25.8230     2.5340    50.6360 
  120.8750    -5.6910    17.3550    17.2960    14.1240    25.7330     2.5320    52.2220 
  121.0000    -5.5590    16.5740    16.4440    14.1720    25.5220     2.5330    52.8030 
  121.1250    -5.4670    16.0420    15.8530    14.3300    25.1420     2.5370    51.7420 
  121.2500    -5.3630    15.7490    15.5150    14.0150    24.6560     2.5370    49.8260 
  121.3750    -5.2710    15.6510    15.3770    13.3990    24.1740     2.5290    48.4910 
  121.5000    -5.2160    15.7430    15.4330    12.9430    23.8250     2.5130    47.6520 
  121.6250    -5.2220    16.0000    15.6650    13.1510    23.7150     2.4950    47.5500 
  121.7500    -5.2540    16.3480    16.0240    13.9800    23.7200     2.4870    48.1250 
  121.8750    -5.2820    16.6420    16.3710    15.0430    23.7300     2.4930    48.8820 
  122.0000    -5.3020    16.7780    16.5900    15.8010    23.7460     2.5080    49.4960 
  122.1250    -5.3250    16.7230    16.6140    16.4440    23.7870     2.5190    49.8270 
  122.2500    -5.3620    16.5370    16.4520    16.3000    23.8720     2.5190    49.9000 
  122.3750    -5.3970    16.4020    16.2660    15.3640    23.9890     2.5090    50.2800 
