~V
VERS. 2.00: Ver 2.00
~W
STRT.M 52.0000:
STOP.M 216.0000:
STEP.M 0.1250:
NULL. -999.2500:
UWI. F11106:
~C
DEPT.M :
DEN.GM/CC :
GR.API :
RML.OHMM :
RI. :
RXO.OHMM :
CALI.CM :
SP.MV :
~A
# ...
   63.2500     2.2350    54.5000     7.2810     7.3380     5.8230    24.1880   -30.1710 
   63.3750     2.2120    51.8350     7.0630     7.2850     6.0750    24.5060   -30.1550 
   63.5000     2.1820    51.1840     6.9370     7.2650     6.4420    24.6000   -30.1340 
   63.6250     2.1620    52.1400     6.9800     7.3000     6.5660    24.8060   -30.1530 
   63.7500     2.1530    51.9100     7.1360     7.3670     6.5860    25.0400   -30.1520 
   63.8750     2.1500    52.2060     7.3280     7.4220     6.6370    25.1670   -30.1220 
   64.0000     2.1480    53.4200     7.4920     7.4240     6.6760    25.1710   -30.1390 
   64.1250     2.1470    52.9830     7.6160     7.3520     6.7320    25.0530   -30.1630 
   64.2500     2.1460    50.6120     7.7290     7.2280     6.8350    24.8370   -30.1720 
   64.3750     2.1430    50.5520     7.8140     7.0720     6.8730    24.8590   -30.1670 
   64.5000     2.1390    53.8910     7.8440     6.9060     6.8040    25.0580   -30.1380 
   64.6250     2.1350    54.4200     7.8010     6.7500     6.6580    25.0440   -30.1040 
   64.7500     2.1310    51.0190     7.7280     6.6240     6.5750    24.8990   -30.1130 
   64.8750     2.1290    48.9160     7.6590     6.5340     6.6510    24.8420   -30.1080 
   65.0000     2.1300    51.0800     7.5930     6.4740     6.7860    24.9330   -29.9960 
   65.1250     2.1340    54.4460     7.5050     6.4220     6.8830    24.8750   -29.8170 
   65.2500     2.1390    55.9340     7.3920     6.3510     6.7780    24.6680   -29.6510 
   65.3750     2.1430    58.6910     7.2970     6.2550     6.4200    24.9770   -29.5440 
   65.5000     2.1460    64.9710     7.2730     6.1550     6.1030    25.3260   -29.4940 
   65.6250     2.1460    70.2650     7.3610     6.1030     6.4140    25.1790   -29.4440 
   65.7500     2.1410    69.4070     7.5060     6.1210     7.1750    24.7470   -29.4020 
   65.8750     2.1330    62.9130     7.6580     6.2050     7.6620    24.8660   -29.4250 
   66.0000     2.1260    57.0940     7.7930     6.3210     7.5860    24.9860   -29.5240 
   66.1250     2.1230    54.0660     7.9400     6.4240     7.2310    24.9540   -29.6530 
   66.2500     2.1240    51.4110     8.1100     6.5000     7.1850    24.8730   -29.8010 
   66.3750     2.1250    50.3210     8.2500     6.5550     7.2430    24.7730   -29.9620 
   66.5000     2.1240    52.3490     8.2830     6.6010     7.2290    24.8200   -30.1330 
   66.6250     2.1180    54.8110     8.1320     6.6390     7.2290    25.0470   -30.3230 
   66.7500     2.1120    53.2390     7.8530     6.6600     7.2010    25.3800   -30.5050 
   66.8750     2.1090    48.0760     7.5520     6.6650     7.2580    25.2610   -30.6220 
   67.0000     2.1110    44.1330     7.3480     6.6660     7.2460    25.1510   -30.7300 
   67.1250     2.1190    44.6290     7.3290     6.6670     6.8990    25.4040   -30.8990 
   67.2500     2.1280    47.9770     7.4260     6.6590     6.6150    25.3320   -31.0900 
   67.3750     2.1360    50.7590     7.5680     6.6300     6.4860    25.3130   -31.2570 
   67.5000     2.1400    51.0220     7.7040     6.5770     6.5410    25.4720   -31.3330 
   67.6250     2.1390    50.2030     7.7890     6.5030     6.5500    25.5650   -31.3100 
   67.7500     2.1360    50.1360     7.8110     6.4170     6.3320    25.7310   -31.2350 
   67.8750     2.1290    51.3260     7.7660     6.3110     5.9560    25.8630   -31.1410 
   68.0000     2.1210    52.0510     7.6580     6.1790     5.5720    25.9030   -30.9540 
   68.1250     2.1160    50.5470     7.4860     6.0170     5.3310    25.8960   -30.5920 
   68.2500     2.1180    51.0920     7.2670     5.8500     5.2140    25.8010   -30.1050 
   68.3750     2.1280    55.4820     7.0390     5.7030     5.2800    25.3570   -29.5440 
   68.5000     2.1460    62.3720     6.8640     5.5980     5.6270    24.2540   -28.9630 
   68.6250     2.1680    69.2100     6.8190     5.5570     5.9070    23.9870   -28.3660 
   68.7500     2.1850    73.3100     6.8930     5.5590     5.9200    23.8700   -27.7840 
   68.8750     2.1920    74.8870     7.0590     5.5870     5.8940    23.7130   -27.2340 
   69.0000     2.1890    75.6260     7.2740     5.6270     6.0400    23.6270   -26.7830 
   69.1250     2.1770    77.5850     7.4820     5.6750     5.9710    23.7350   -26.4970 
   69.2500     2.1620    77.8190     7.6640     5.7430     5.8440    24.2710   -26.2850 
   69.3750     2.1450    72.4060     7.8160     5.8360     5.8430    24.9650   -26.1270 
   69.5000     2.1280    64.0770     7.9280     5.9420     6.1400    25.1690   -26.0790 
   69.6250     2.1140    59.0220     7.9880     6.0200     6.4230    25.1730   -26.1780 
   69.7500     2.1040    57.3550     8.0290     6.0440     6.5540    25.0650   -26.3110 
   69.8750     2.1000    57.1800     8.0770     6.0130     6.6010    24.7720   -26.4340 
   70.0000     2.1030    58.3540     8.1300     5.9540     6.7040    24.6700   -26.5790 
   70.1250     2.1130    60.6270     8.1800     5.9090     7.1620    24.9550   -26.7230 
   70.2500     2.1260    60.7230     8.2260     5.9020     7.9560    25.0370   -26.8930 
   70.3750     2.1400    58.2080     8.2580     5.9320     8.4560    24.6200   -27.0800 
   70.5000     2.1530    57.3510     8.2720     5.9790     7.9290    24.0090   -27.2430 
   70.6250     2.1640    62.8060     8.2700     6.0050     7.4420    23.7650   -27.3740 
   70.7500     2.1700    66.8790     8.2640     6.0000     7.1310    23.5570   -27.5450 
   70.8750     2.1710    65.7780     8.2500     5.9770     6.9770    23.3610   -27.7380 
   71.0000     2.1680    62.2740     8.2150     5.9560     7.0420    23.3070   -27.8640 
   71.1250     2.1620    60.2530     8.1120     5.9490     7.1730    23.3490   -27.9390 
   71.2500     2.1560    59.7460     7.9450     5.9430     7.0210    23.4920   -28.0320 
   71.3750     2.1490    59.6420     7.7650     5.9170     6.8070    23.6290   -28.1340 
   71.5000     2.1430    61.0800     7.6380     5.8600     6.6910    23.6540   -28.1990 
   71.6250     2.1400    62.7280     7.6100     5.7780     6.7030    23.5690   -28.1990 
   71.7500     2.1400    63.8600     7.6460     5.6960     6.6430    23.5780   -28.1460 
   71.8750     2.1420    65.1240     7.7040     5.6280     6.5680    23.5940   -28.0900 
   72.0000     2.1450    65.2810     7.7530     5.5760     6.4510    23.5790   -28.0210 
   72.1250     2.1460    63.5470     7.7910     5.5410     6.3820    23.5040   -27.9180 
   72.2500     2.1450    61.7770     7.8260     5.5200     6.1620    23.4110   -27.7610 
   72.3750     2.1440    61.0510     7.8490     5.5040     5.9620    23.3240   -27.5530 
   72.5000     2.1420    60.0760     7.8340     5.4880     5.7610    23.2970   -27.3300 
   72.6250     2.1410    57.1520     7.7770     5.4710     5.5890    23.2930   -27.0550 
   72.7500     2.1400    54.1940     7.7550     5.4780     5.4650    23.2930   -26.6430 
   72.8750     2.1410    52.7770     7.8520     5.5590     5.4340    23.2930   -26.0890 
   73.0000     2.1450    52.3640     8.1320     5.7630     5.6700    23.2930   -25.4490 
   73.1250     2.1540    53.3250     8.6000     6.1120     6.6840    23.2940   -24.7510 
   73.2500     2.1630    56.1360     9.0760     6.5070     9.5420    23.3040   -23.9960 
   73.3750     2.1720    58.8460     9.3450     6.8120    15.8060    23.3640   -23.1440 
   73.5000     2.1790    59.1510     9.2140     6.8760    18.8970    23.4790   -22.2070 
   73.6250     2.1860    58.6140     8.6130     6.5870    13.2070    23.6600   -21.2850 
   73.7500     2.1960    59.6990     7.8600     6.1150     8.2920    23.9280   -20.4910 
   73.8750     2.2100    59.8140     7.2380     5.6490     6.5640    24.2220   -19.8160 
   74.0000     2.2250    58.9880     6.9280     5.3410     6.2350    24.3090   -19.1970 
   74.1250     2.2350    60.2160     6.9850     5.2760     6.5520    24.3190   -18.5590 
   74.2500     2.2390    65.1070     7.1800     5.3530     7.0530    24.3210   -17.9230 
   74.3750     2.2380    71.0070     7.2890     5.4440     7.3130    24.3300   -17.3110 
