~V
VERS. 2.00: Ver 2.00
~W
STRT.M 50.0000:
STOP.M 209.0000:
STEP.M 0.1250:
NULL. -999.2500:
UWI. F11109:
~C
DEPT.M :
GR.API :
RML.OHMM :
RI. :
RXO.OHMM :
CALI.CM :
SP.MV :
DEN.GM/CC :
~A
# ...
   61.2500    47.6520     2.4870     1.3480     0.5690    25.5440    70.3650     2.0030 
   61.3750    46.8620     2.8800     1.3560     0.6250    25.5450    69.5330     2.0000 
   61.5000    45.4670     3.1890     1.3690     0.7260    25.5440    68.6920     1.9960 
   61.6250    45.5840     3.1930     1.3820     0.8040    25.5460    67.8510     1.9930 
   61.7500    45.7020     2.9410     1.3830     0.7630    25.5460    66.9830     1.9930 
   61.8750    46.2100     2.6620     1.3520     0.7320    25.5430    66.0460     2.0010 
   62.0000    48.1850     2.5350     1.2610     0.8290    25.5320    65.0000     2.0250 
   62.1250    51.3090     2.4120     1.0730     1.0690    25.5060    63.7620     2.1070 
   62.2500    53.3880     1.9990     0.8240     1.1550    25.4930    62.2740     2.2730 
   62.3750    54.7600     1.3330     0.5690     1.1240    25.4880    60.4210     2.4760 
   62.5000    56.1810     0.6820     0.3580     1.2970    25.4850    58.0280     2.5960 
   62.6250    55.7380     0.2570     0.2170     1.3490    25.4700    54.7360     2.5730 
   62.7500    53.8760     0.0240     0.1270     1.4950    25.4190    50.5250     2.4530 
   62.8750    53.3470    -0.0700     0.0820     2.1120    25.3330    45.3570     2.2780 
   63.0000    55.7290    -0.0630     0.0870     3.6950    25.2700    39.3060     2.0980 
   63.1250    59.3370     0.0730     0.1920     4.7040    25.3500    32.5180     1.9710 
   63.2500    62.5590     0.4020     0.4750     5.3900    25.4110    25.4560     1.9310 
   63.3750    64.2850     1.0820     1.1100     6.8580    25.4230    18.4220     1.9990 
   63.5000    63.1000     2.3500     2.3590    10.8100    25.4000    11.6650     2.1440 
   63.6250    60.5070     4.4500     4.5120    19.1680    25.3360     5.5130     2.2670 
   63.7500    60.4960     6.5840     6.8820    23.8110    25.2190     0.0030     2.2950 
   63.8750    63.7600     7.5960     8.4190    18.1870    24.9880    -4.8790     2.2550 
   64.0000    68.3190     7.3050     8.6770    10.6970    24.5680    -9.1740     2.2030 
   64.1250    72.4070     6.5490     8.1140     8.4780    24.2650   -12.7710     2.1690 
   64.2500    74.2230     6.0100     7.5190     8.0690    24.0700   -15.7820     2.1460 
   64.3750    73.7950     5.7940     7.1650     8.1310    23.8600   -18.2280     2.1230 
   64.5000    72.4620     5.8420     7.1020     7.9970    23.5840   -20.1210     2.1000 
   64.6250    70.6520     6.0480     7.2690     7.6740    23.4700   -21.4230     2.0860 
   64.7500    68.3650     6.2710     7.4980     7.5040    23.4720   -22.3180     2.0860 
   64.8750    66.5210     6.4590     7.7050     7.6260    23.5380   -22.8910     2.1010 
   65.0000    65.7720     6.6040     7.8570     8.1160    23.6080   -23.2170     2.1250 
   65.1250    65.2270     6.7100     7.9460     8.7200    23.6570   -23.3800     2.1480 
   65.2500    64.1590     6.7880     8.0000     8.9280    23.6750   -23.4950     2.1670 
   65.3750    64.2750     6.8460     8.0290     8.8010    23.6820   -23.5960     2.1780 
   65.5000    66.6380     6.8810     8.0330     8.8190    23.7080   -23.6990     2.1790 
   65.6250    68.6450     6.8540     7.9760     8.8130    23.7900   -23.8480     2.1700 
   65.7500    67.5320     6.7360     7.8240     8.6400    23.9160   -24.0630     2.1630 
   65.8750    64.9090     6.5230     7.5640     8.4950    24.0520   -24.3080     2.1690 
   66.0000    65.4740     6.2630     7.2410     8.5890    24.1740   -24.5710     2.1900 
   66.1250    70.7260     6.0610     6.9540     8.3270    24.3790   -24.8910     2.2180 
   66.2500    76.2150     6.0080     6.7970     7.9540    24.7430   -25.2690     2.2340 
   66.3750    78.2100     6.1460     6.8180     7.8840    25.0810   -25.6970     2.2300 
   66.5000    75.3930     6.4530     7.0140     8.4800    25.2650   -26.2030     2.2070 
   66.6250    69.8510     6.8340     7.3180     8.5150    24.8770   -26.7580     2.1800 
   66.7500    64.8590     7.1430     7.5930     8.3890    24.6990   -27.2560     2.1600 
   66.8750    61.7430     7.3040     7.7560     8.1380    24.5770   -27.6810     2.1470 
   67.0000    60.7020     7.3200     7.7810     7.9850    24.3990   -28.0350     2.1390 
   67.1250    61.0100     7.2560     7.7050     7.9640    24.2350   -28.2520     2.1380 
   67.2500    61.3130     7.2050     7.6170     7.9620    24.1100   -28.3380     2.1430 
   67.3750    60.4820     7.1960     7.5580     7.9870    24.0190   -28.3220     2.1530 
   67.5000    58.2620     7.2210     7.5250     8.1510    23.9480   -28.2240     2.1640 
   67.6250    55.9580     7.2710     7.5070     8.3940    23.8890   -28.0650     2.1700 
   67.7500    56.2080     7.3410     7.4920     8.5170    23.8170   -27.8800     2.1720 
   67.8750    59.2130     7.4210     7.4780     8.4800    23.7360   -27.6660     2.1730 
   68.0000    62.2750     7.4870     7.4630     8.3400    23.6800   -27.4450     2.1780 
   68.1250    64.9550     7.5210     7.4490     8.3990    23.6440   -27.2850     2.1890 
   68.2500    67.4150     7.5270     7.4330     8.6910    23.6080   -27.1800     2.2040 
   68.3750    67.3970     7.5130     7.4130     9.0500    23.5830   -27.1150     2.2180 
   68.5000    65.3270     7.4940     7.3850     9.2190    23.5430   -27.1120     2.2230 
   68.6250    64.0240     7.4820     7.3460     9.0590    23.5050   -27.1750     2.2120 
   68.7500    63.0400     7.4760     7.3010     8.5260    23.4940   -27.2770     2.1870 
   68.8750    60.9020     7.4830     7.2570     7.9340    23.5080   -27.4000     2.1560 
   69.0000    59.5050     7.5160     7.2240     7.5860    23.5320   -27.4730     2.1310 
   69.1250    61.2010     7.5840     7.2120     7.5190    23.5700   -27.4420     2.1240 
   69.2500    62.3280     7.6730     7.2160     7.7220    23.6830   -27.3400     2.1350 
   69.3750    62.8650     7.7720     7.2310     8.0690    23.8950   -27.1920     2.1590 
   69.5000    63.5350     7.8680     7.2510     8.2260    24.1230   -27.0010     2.1860 
   69.6250    61.8400     7.9640     7.2730     8.2040    24.1780   -26.7940     2.2090 
   69.7500    59.5890     8.0720     7.2970     8.0840    24.0930   -26.6480     2.2290 
   69.8750    60.5450     8.1980     7.3260     8.0740    23.9400   -26.6010     2.2490 
   70.0000    63.8990     8.3490     7.3660     8.3580    23.8170   -26.6520     2.2670 
   70.1250    64.9750     8.5470     7.4390     8.6350    23.7250   -26.8060     2.2680 
   70.2500    63.9290     8.7850     7.5480     8.5800    23.6490   -27.0210     2.2430 
   70.3750    64.1730     9.0290     7.6750     8.2390    23.5760   -27.2790     2.1960 
   70.5000    66.1080     9.2270     7.7830     7.9950    23.5260   -27.5570     2.1390 
   70.6250    67.0590     9.2850     7.8050     7.8360    23.5440   -27.8580     2.0900 
   70.7500    65.7410     9.1770     7.7160     7.9370    23.6150   -28.1650     2.0600 
   70.8750    62.4900     8.9270     7.5190     7.9620    23.7000   -28.4340     2.0500 
   71.0000    59.2990     8.6050     7.2560     7.8040    23.7720   -28.6620     2.0550 
   71.1250    59.8040     8.3060     6.9910     7.6500    23.7940   -28.8580     2.0660 
   71.2500    62.8190     8.0970     6.7800     7.5340    23.8020   -29.0340     2.0760 
   71.3750    65.2310     8.0130     6.6580     7.4090    23.8190   -29.1970     2.0850 
   71.5000    65.1600     8.0610     6.6350     7.3210    23.8580   -29.3470     2.0920 
   71.6250    65.3960     8.2310     6.7100     7.6440    23.8790   -29.5060     2.1000 
   71.7500    68.5330     8.4540     6.8350     9.7640    23.7840   -29.6670     2.1080 
   71.8750    71.1110     8.6630     6.9720    15.1050    23.5480   -29.8110     2.1170 
   72.0000    68.8470     8.7780     7.0670    22.1180    23.3490   -29.9240     2.1260 
   72.1250    64.7460     8.7200     7.0530    14.5940    23.2390   -29.9750     2.1350 
   72.2500    65.6100     8.5380     6.9400    10.2790    23.1490   -29.9530     2.1420 
   72.3750    70.0890     8.3130     6.7700     8.4970    22.9950   -29.8890     2.1420 
