~V
VERS. 2.00: Ver 2.00
~W
STRT.M 40.0000:
STOP.M 232.0000:
STEP.M 0.1250:
NULL. -999.2500:
UWI. F11121:
~C
DEPT.M :
SP.MV :
DEN.GM/CC :
GR.API :
RML.OHMM :
RI. :
RXO.OHMM :
CALI.CM :
~A
# ...
   85.0000     1.9210     2.1880    71.0550     8.1740     5.7910     7.0750    23.5290 
   85.1250     2.5040     2.2080    78.8400     7.5460     5.2730     6.1250    23.6120 
   85.2500     3.1290     2.2190    83.9600     7.1040     4.8600     5.3550    23.8920 
   85.3750     3.7040     2.2140    89.6180     6.8380     4.5830     5.1430    24.3460 
   85.5000     4.1780     2.2000    94.2180     6.7090     4.4350     5.3420    24.7540 
   85.6250     4.5380     2.1960    93.8330     6.6730     4.3980     5.5900    24.9010 
   85.7500     4.8180     2.2090    90.1650     6.6880     4.4210     5.5710    24.9050 
   85.8750     5.0020     2.2290    88.6640     6.7910     4.5130     5.2870    24.9030 
   86.0000     5.0860     2.2350    90.8220     7.0530     4.7050     5.1740    24.9050 
   86.1250     5.0490     2.2230    90.0670     7.5370     5.0330     5.5180    24.8150 
   86.2500     4.9600     2.2170    83.5740     8.1210     5.4340     6.4860    24.6130 
   86.3750     4.8760     2.2310    75.9950     8.6190     5.8070     8.6010    24.3900 
   86.5000     4.8040     2.2600    72.0060     8.8240     6.0270    10.9850    24.2540 
   86.6250     4.6950     2.2790    75.8910     8.6010     5.9820     9.8840    24.2130 
   86.7500     4.5650     2.2790    84.8840     8.1830     5.7650     7.0650    24.1900 
   86.8750     4.4900     2.2730    95.3480     7.8110     5.4970     5.9220    24.1800 
   87.0000     4.4790     2.2760   102.8280     7.6330     5.2760     6.1330    24.1850 
   87.1250     4.4710     2.2890   104.2980     7.6720     5.1640     6.3530    24.1860 
   87.2500     4.4300     2.2970   102.1950     7.7740     5.1360     5.9720    24.1760 
   87.3750     4.3830     2.2920    98.5950     7.8310     5.1540     5.5330    24.1670 
   87.5000     4.3740     2.2770    97.7410     7.8080     5.1910     5.3490    24.1690 
   87.6250     4.4210     2.2600    99.5990     7.7590     5.2410     5.7220    24.2290 
   87.7500     4.4710     2.2450    99.3690     7.7530     5.3050     6.4110    24.3340 
   87.8750     4.4800     2.2300    96.6530     7.7780     5.3740     6.6720    24.4240 
   88.0000     4.4400     2.2170    94.0080     7.7800     5.4250     6.3940    24.4600 
   88.1250     4.4160     2.2110    92.5110     7.7020     5.4300     6.1710    24.4580 
   88.2500     4.4480     2.2160    92.7780     7.5680     5.3870     6.0960    24.4600 
   88.3750     4.5070     2.2310    97.6630     7.4240     5.3100     5.8870    24.4630 
   88.5000     4.5120     2.2510   105.5560     7.3180     5.2240     5.7120    24.4610 
   88.6250     4.4430     2.2660   106.4810     7.3020     5.1720     5.7280    24.4570 
   88.7500     4.3950     2.2730   101.1260     7.3850     5.1800     5.8440    24.4550 
   88.8750     4.3880     2.2770    96.2720     7.5690     5.2610     5.9750    24.4610 
   89.0000     4.3940     2.2800    94.4900     7.8500     5.4140     6.1710    24.4510 
   89.1250     4.3040     2.2740    92.2480     8.2060     5.6300     6.4290    24.3950 
   89.2500     4.1100     2.2530    88.0830     8.5650     5.8690     7.2310    24.2910 
   89.3750     3.8700     2.2210    84.4730     8.8660     6.0910     8.3680    24.0760 
   89.5000     3.6360     2.1860    82.0240     9.0640     6.2620     8.1520    23.6810 
   89.6250     3.3900     2.1650    79.6230     9.1400     6.3490     7.8340    23.2030 
   89.7500     3.0950     2.1600    77.9640     9.1660     6.3770     7.6410    22.8850 
   89.8750     2.7540     2.1640    77.8450     9.2010     6.3770     7.5570    22.7870 
   90.0000     2.4380     2.1660    78.3490     9.2590     6.3790     7.3610    22.7920 
   90.1250     2.2700     2.1610    77.6740     9.2910     6.3860     7.1900    22.7930 
   90.2500     2.1720     2.1520    77.0020     9.2600     6.3730     7.2860    22.7840 
   90.3750     2.0700     2.1440    77.6410     9.1650     6.3120     7.6750    22.7840 
   90.5000     1.9730     2.1420    79.0590     9.0090     6.1960     7.8940    22.8650 
   90.6250     1.9450     2.1470    80.3870     8.7860     6.0330     7.6270    23.1220 
   90.7500     1.9910     2.1590    81.2440     8.5190     5.8640     7.1020    23.4540 
   90.8750     2.0860     2.1700    82.7380     8.2550     5.7160     6.6770    23.7060 
   91.0000     2.1360     2.1760    84.1830     8.0660     5.6070     6.4730    23.8130 
   91.1250     2.0770     2.1680    84.6740     8.0440     5.5640     6.4890    23.8170 
   91.2500     2.0110     2.1530    83.2490     8.1570     5.5830     6.5330    23.6670 
   91.3750     1.9680     2.1360    80.0620     8.3370     5.6580     6.5380    23.2600 
   91.5000     1.8910     2.1220    75.9450     8.5050     5.7560     6.7410    22.6990 
   91.6250     1.7120     2.1130    73.0940     8.5730     5.8210     7.2310    22.3190 
   91.7500     1.4480     2.1060    74.2920     8.5060     5.8120     7.6340    22.2330 
   91.8750     1.1610     2.0970    77.5690     8.3310     5.7350     7.8230    22.3100 
   92.0000     0.9130     2.0820    78.1470     8.1880     5.6630     7.9770    22.4030 
   92.1250     0.6880     2.0620    74.4920     8.4330     5.7930     8.1510    22.5140 
   92.2500     0.4510     2.0500    70.7320     9.4070     6.3160     8.3990    22.6810 
   92.3750     0.2010     2.0670    69.6630    11.5180     7.4810     9.1760    22.9110 
   92.5000    -0.0220     2.1350    70.3980    15.1830     9.5910    11.7960    23.2110 
   92.6250    -0.1890     2.2770    70.9600    20.8810    13.1210    21.3150    23.5880 
   92.7500    -0.3650     2.4530    70.0970    27.4960    17.6040    38.5100    23.9210 
   92.8750    -0.6140     2.6000    66.9420    32.6700    21.6960    52.0240    24.0960 
   93.0000    -0.9030     2.6620    61.3810    33.3340    23.2470    52.6270    24.1260 
   93.1250    -1.1840     2.6190    55.9120    28.2560    20.8380    38.9350    24.0740 
   93.2500    -1.5070     2.5170    55.4610    21.5870    16.8270    25.7530    23.9170 
   93.3750    -1.8950     2.3910    60.2810    15.9520    12.9970    17.4360    23.6430 
   93.5000    -2.3140     2.2690    64.0570    12.1640    10.1000    12.0870    23.3690 
   93.6250    -2.7190     2.1770    61.7340    10.1850     8.3120    10.0970    23.2430 
   93.7500    -3.1110     2.1200    57.0070     9.2360     7.2540     9.2960    23.2200 
   93.8750    -3.4670     2.0960    55.1920     8.9440     6.7350     9.1690    23.2300 
   94.0000    -3.7860     2.0950    56.3540     9.0210     6.5840     9.2010    23.2570 
   94.1250    -4.0670     2.0980    57.1390     9.2370     6.6630     9.1390    23.3200 
   94.2500    -4.2810     2.0940    56.4790     9.4100     6.8040     8.9520    23.3890 
   94.3750    -4.4170     2.0840    55.3760     9.4880     6.9380     8.7680    23.4290 
   94.5000    -4.4650     2.0720    55.4870     9.4750     7.0370     8.7160    23.4370 
   94.6250    -4.4240     2.0670    56.7200     9.3950     7.0830     8.7900    23.4880 
   94.7500    -4.3160     2.0710    58.0850     9.2960     7.0830     8.8350    23.6180 
   94.8750    -4.1760     2.0850    60.7850     9.2080     7.0500     9.0040    23.7690 
   95.0000    -4.0210     2.1060    65.3130     9.1500     6.9970     9.2850    23.8630 
   95.1250    -3.8590     2.1250    69.4690     9.1300     6.9460     9.3490    23.8790 
   95.2500    -3.7070     2.1330    69.3490     9.1330     6.9070     9.2810    23.8840 
   95.3750    -3.5180     2.1260    66.4110     9.1450     6.8820     9.3830    23.8690 
   95.5000    -3.3330     2.1090    64.9800     9.1550     6.8630     9.4140    23.7370 
   95.6250    -3.2050     2.0890    65.8400     9.1460     6.8410    10.1360    23.4550 
   95.7500    -3.1100     2.0760    65.2050     9.1170     6.8120    10.6310    23.1950 
   95.8750    -3.0250     2.0720    62.3130     9.0730     6.7760    10.5370    23.0770 
   96.0000    -2.9800     2.0760    59.8200     9.0280     6.7370    10.5530    23.0740 
   96.1250    -2.9830     2.0820    61.2170     8.9950     6.7020    10.8370    23.0850 
