~V
VERS. 2.00: Ver 2.00
~W
STRT.M 50.0000:
STOP.M 240.0000:
STEP.M 0.1250:
NULL. -999.2500:
UWI. F11117:
~C
DEPT.M :
DEN.GM/CC :
GR.API :
RML.OHMM :
RI. :
RXO.OHMM :
CALI.CM :
SP.MV :
~A
# ...
  230.0000     2.4170    54.5500    10.4840     9.2650     8.0340    24.1910    -4.9950 
  230.1250     2.4150    54.5500    10.7100     9.4150     8.0980    23.9580    -4.7830 
  230.2500     2.4160    54.5500    10.8240     9.5360     8.1010    23.6280    -4.7500 
  230.3750     2.4200    54.5500    10.8550     9.6120     8.1260    23.3780    -4.8310 
  230.5000     2.4260    54.5500    10.8470     9.6490     8.1680    23.5070    -4.8950 
  230.6250     2.4350    54.5500    10.8040     9.6570     8.3080    23.5940    -4.9460 
  230.7500     2.4470    54.5500    10.7180     9.6560     8.5870    23.7560    -4.9700 
  230.8750     2.4610    54.5500    10.6040     9.6530     8.7850    23.8830    -4.9890 
  231.0000     2.4730    54.5500    10.4960     9.6490     8.5870    23.9760    -5.0020 
  231.1250     2.4790    54.5500    10.4370     9.6480     8.3570    23.8990    -5.0270 
  231.2500     2.4800    54.5500    10.4370     9.6620     8.3340    23.8950    -5.0340 
  231.3750     2.4780    54.5500    10.4850     9.7040     8.5600    23.8700    -5.0360 
  231.5000     2.4780    54.5500    10.5670     9.7790     8.8510    23.9470    -5.0540 
  231.6250     2.4840    54.5500    10.6670     9.8880     9.1170    23.9640    -5.0860 
  231.7500     2.4920    54.5500    10.7720    10.0160     9.3320    23.9180    -5.0980 
  231.8750     2.4970    54.5500    10.8970    10.1440     9.6390    23.9070    -5.1140 
  232.0000     2.4930    54.5500    11.0560    10.2470    10.0570    23.9810    -5.1360 
  232.1250     2.4840    54.5500    11.2290    10.2970     9.9480    24.0110    -5.1200 
  232.2500     2.4750    54.5500    11.3510    10.3030     9.7760    24.1500    -5.1070 
  232.3750     2.4720    54.5500    11.3800    10.2780     9.7090    24.1580    -5.0670 
  232.5000     2.4770    54.5500    11.3210    10.2430     9.7790    24.0580    -5.0360 
  232.6250     2.4920    54.5500    11.2260    10.2230    10.0160    24.1430    -5.0200 
  232.7500     2.5110    54.5500    11.1640    10.2200    10.6060    24.2180    -5.0340 
  232.8750     2.5280    54.5500    11.1480    10.2270    10.8580    24.0370    -5.0760 
  233.0000     2.5340    54.5500    11.1510    10.2380    10.7230    23.8610    -5.1120 
  233.1250     2.5130    54.5500    11.1470    10.2560    10.4210    23.9090    -5.1780 
  233.2500     2.4730    54.5500    11.1460    10.2790    10.0810    23.8610    -5.2510 
  233.3750     2.4260    54.5500    11.1650    10.2980     9.7680    23.6490    -5.3320 
  233.5000     2.3930    54.5500    11.2050    10.3050     9.6360    23.8680    -5.4200 
  233.6250     2.3860    54.5500    11.2520    10.2990     9.6810    23.9600    -5.4960 
  233.7500     2.3980    54.5500    11.2750    10.2910     9.8080    23.8080    -5.5320 
  233.8750     2.4160    54.5500    11.2620    10.2890    10.0800    23.7970    -5.5130 
  234.0000     2.4300    54.5500    11.2220    10.2960    10.5190    23.8090    -5.5030 
  234.1250     2.4360    54.5500    11.1810    10.3030    10.9540    23.7810    -5.5340 
  234.2500     2.4380    54.5500    11.1670    10.3020    11.2140    23.6710    -5.5960 
  234.3750     2.4360    54.5500    11.1800    10.2950    11.3150    23.7640    -5.6760 
  234.5000     2.4280    54.5500    11.2080    10.2910    11.3400    23.6660    -5.7380 
  234.6250     2.4170    54.5500    11.2340    10.2950    11.3150    24.0000    -5.7580 
  234.7500     2.4150    54.5500    11.2470    10.3020    11.2430    24.2060    -5.8160 
  234.8750     2.4310    54.5500    11.2470    10.3080    11.0850    24.1250    -5.9420 
  235.0000     2.4630    54.5500    11.2410    10.3100    10.8070    23.4640    -6.0700 
  235.1250     2.4980    54.5500    11.2380    10.3080    10.4110    23.5600    -6.1630 
  235.2500     2.5090    54.5500    11.2420    10.3070    10.1210    23.6600    -6.2460 
  235.3750     2.4830    54.5500    11.2440    10.3060    10.1770    23.5940    -6.3340 
  235.5000     2.4210    54.5500    11.2440    10.3060    10.5640    23.6380    -6.4030 
  235.6250     2.3460    54.5500    11.2440    10.3060    10.9640    23.6380    -6.6830 
  235.7500     2.2860    54.5500    11.2440    10.3060    11.1370    23.5950    -7.1040 
  235.8750     2.2560    54.5500    11.2440    10.3060    11.1020    23.5530    -7.4740 
  236.0000     2.2620    54.5500    11.2440    10.3060    10.9480    23.8980    -7.8530 
  236.1250     2.2910    54.5500    11.2440    10.3060    10.7030    23.8040    -8.2370 
  236.2500     2.3680    54.5500    11.2440    10.3060    10.3130    23.7260    -8.6110 
  236.3750     2.3940    54.5500    11.2440    10.3060     9.1520    23.8490    -8.9770 
  236.5000     2.3790    54.5500    11.2440    10.3060     9.2670    23.7890    -9.3570 
  236.6250     2.3230    54.5500    11.2440    10.3060     9.5970    22.6180    -9.3840 
  236.7500     2.2440    54.5500    11.2440    10.3060     9.0990    20.7060    -9.4110 
  236.8750     2.1790    54.5500    11.2440    10.3060     7.2950    20.2200  -999.2500 
  237.0000     2.1540    54.5500    11.2440    10.3060     5.8240    20.4500  -999.2500 
  237.1250     2.1710    54.5500    11.2440    10.3060     5.4210    20.5480  -999.2500 
  237.2500     2.2160    54.5500    11.2440    10.3060     5.5240    16.7810  -999.2500 
  237.3750     2.2630    54.5500    11.2440    10.3060     5.5980    16.4100  -999.2500 
  237.5000     2.2920    54.5500    11.2440    10.3060     5.6110    16.3430  -999.2500 
  237.6250     2.3010    54.5500    11.2440    10.3060     5.6090    16.3430  -999.2500 
  237.7500     2.2990    54.5500    11.2440    10.3060     5.6100    16.3430  -999.2500 
  237.8750     2.2960    54.5500    11.2440    10.3060     5.6090    16.3430  -999.2500 
  238.0000     2.2960    54.5500    11.2440    10.3060     5.6100    16.3430  -999.2500 
  238.1250     2.2990    54.5500    11.2440    10.3060     5.6110    16.3430  -999.2500 
  238.2500     2.3020    54.5500    11.2440    10.3060     5.6110    16.3430  -999.2500 
  238.3750     2.3040    54.5500    11.2440    10.3060     5.6090    16.3430  -999.2500 
  238.5000     2.3030    54.5500    11.2440    10.3060     5.6090    16.3430  -999.2500 
  238.6250     2.3010    54.5500    11.2440    10.3060     5.6100    16.3430  -999.2500 
  238.7500     2.2980    54.5500    11.2440    10.3060     5.6100    16.3430  -999.2500 
  238.8750     2.2970    54.5500    11.2440    10.3060     5.6090    16.3430  -999.2500 
  239.0000     2.2980    54.5500    11.2440    10.3060     5.6070    16.3430  -999.2500 
  239.1250     2.3010    54.5500    11.2440    10.3060     5.6060    16.3430  -999.2500 
  239.2500     2.3040    54.5500    11.2440    10.3060     5.6070    16.3430  -999.2500 
  239.3750     2.3060    54.5500    11.2440    10.3060     5.6060    16.3430  -999.2500 
  239.5000     2.3070    54.5500    11.2440    10.3060     5.6050    16.3440  -999.2500 
  239.6250     2.3070    54.5500    11.2440    10.3060     5.6030    16.3450  -999.2500 
  239.7500     2.3060    54.5500    11.2440    10.3060     5.5990    16.3530  -999.2500 
  239.8750     2.3050    54.5500    11.2440    10.3060     5.5970    16.3540  -999.2500 
  240.0000     2.3050    54.5500    11.2440    10.3060     5.5950    16.3530  -999.2500 
