~V
VERS. 2.00: Ver 2.00
~W
STRT.M 45.0000:
STOP.M 264.0000:
STEP.M 0.1250:
NULL. -999.2500:
UWI. F11189:
~C
DEPT.M :
SP.MV :
GR.API :
RI. :
RML.OHMM :
RXO.OHMM :
DEN.GM/CC :
~A
# ...
  173.7500    -6.5380    61.7420    28.4640    28.8070    33.2820     2.0700 
  173.8750    -6.4920    62.9600    25.6580    25.7380    28.4870     2.1030 
  174.0000    -6.4440    64.4020    23.9290    23.8920    27.1390     2.1500 
  174.1250    -6.4080    67.1040    23.3380    23.2840    27.8110     2.1780 
  174.2500    -6.3930    71.2560    23.3670    23.3460    27.0780     2.1800 
  174.3750    -6.4050    73.7230    23.3630    23.3530    26.9400     2.1680 
  174.5000    -6.4380    73.0330    23.0120    22.9630    26.7570     2.1630 
  174.6250    -6.4840    70.4620    22.1440    22.0430    25.8170     2.1920 
  174.7500    -6.5330    69.5790    21.1070    21.0450    26.9060     2.2410 
  174.8750    -6.5780    70.9240    20.5870    20.6910    29.4940     2.2710 
  175.0000    -6.6170    72.4350    20.9830    21.3700    30.7390     2.2690 
  175.1250    -6.6500    72.3560    22.8000    23.5530    30.8390     2.2470 
  175.2500    -6.6780    70.3770    26.0040    27.3280    38.2020     2.2110 
  175.3750    -6.6980    67.6880    31.2720    33.4750    43.3550     2.1600 
  175.5000    -6.7060    65.6520    37.2850    40.3290    46.9610     2.1100 
  175.6250    -6.6940    63.8530    41.7500    45.2940    46.7030     2.0780 
  175.7500    -6.6640    62.2670    43.8430    47.4130    46.4440     2.0710 
  175.8750    -6.6180    62.2590    42.8510    46.0870    47.6930     2.0900 
  176.0000    -6.5630    63.0220    40.7950    43.7210    47.9490     2.1160 
  176.1250    -6.5050    62.8300    39.1720    41.9730    48.3180     2.1190 
  176.2500    -6.4480    61.8830    38.2570    41.0340    51.1860     2.1030 
  176.3750    -6.3940    59.8660    37.9300    40.6590    54.1980     2.0920 
  176.5000    -6.3470    57.2610    37.6760    40.2400    54.6950     2.0950 
  176.6250    -6.3040    55.6250    36.9670    39.2160    49.9020     2.1030 
  176.7500    -6.2610    57.4350    35.6680    37.5650    43.1480     2.1100 
  176.8750    -6.2090    60.7700    34.2360    35.9410    39.9440     2.1180 
  177.0000    -6.1420    62.5180    33.3070    34.9790    38.8130     2.1250 
  177.1250    -6.0620    62.9510    33.2810    35.0830    38.3580     2.1280 
  177.2500    -5.9750    63.2820    34.0530    36.1070    38.8290     2.1280 
  177.3750    -5.8890    64.5810    35.6640    38.0860    39.7830     2.1280 
  177.5000    -5.8090    66.3160    37.6890    40.5470    41.1240     2.1350 
  177.6250    -5.7390    66.6380    40.1220    43.5140    42.2750     2.1410 
  177.7500    -5.6790    67.0050    42.4030    46.3350    42.5850     2.1420 
  177.8750    -5.6270    66.9440    44.5570    49.0280    43.3950     2.1360 
  178.0000    -5.5840    65.4630    46.6330    51.6080    45.3570     2.1270 
  178.1250    -5.5520    62.3430    48.4850    53.8830    47.2410     2.1180 
  178.2500    -5.5350    60.1380    50.5330    56.3300    48.7100     2.1140 
  178.3750    -5.5340    61.0610    52.5210    58.6130    49.9890     2.1120 
  178.5000    -5.5450    62.3150    54.5380    60.8000    51.1620     2.1120 
  178.6250    -5.5600    60.7770    56.1590    62.3340    51.2840     2.1060 
  178.7500    -5.5730    59.5620    56.1220    61.6640    47.7030     2.0960 
  178.8750    -5.5830    61.0270    53.3740    57.4570    43.6540     2.0900 
  179.0000    -5.5900    62.6700    48.6640    51.0800    44.4310     2.0990 
  179.1250    -5.5970    62.6860    42.5930    43.5950    45.0140     2.1250 
  179.2500    -5.6020    63.3080    36.4030    36.6910    41.8870     2.1480 
  179.3750    -5.6020    65.2530    30.9780    31.2140    37.1520     2.1650 
  179.5000    -5.5950    66.8020    26.5920    26.8860    30.7990     2.1810 
  179.6250    -5.5810    68.4440    23.5710    23.9110    25.0900     2.2020 
  179.7500    -5.5610    71.1740    22.2930    22.6970    23.8980     2.2220 
  179.8750    -5.5360    70.9190    22.6650    23.1870    26.8180     2.2200 
  180.0000    -5.5110    67.5960    24.3850    25.0730    30.6050     2.1910 
  180.1250    -5.4900    63.9470    27.4830    28.4690    35.0100     2.1520 
  180.2500    -5.4730    61.1610    31.5730    33.0580    38.2240     2.1210 
  180.3750    -5.4590    56.9560    36.2530    38.2810    37.0120     2.1030 
  180.5000    -5.4400    53.5570    40.3820    42.9800    35.6620     2.0990 
  180.6250    -5.4050    54.8200    43.7640    46.9110    38.1100     2.1120 
  180.7500    -5.3470    58.5510    46.3080    50.0940    39.2900     2.1330 
  180.8750    -5.2640    61.0260    48.9810    53.9170    37.2320     2.1460 
  181.0000    -5.1610    62.2580    52.7150    59.1810    35.8400     2.1410 
  181.1250    -5.0490    62.9680    57.1220    65.2360    35.9970     2.1270 
  181.2500    -4.9360    61.8050    61.4830    71.0650    36.7140     2.1110 
  181.3750    -4.8300    60.2620    64.3230    74.7720    36.5290     2.0990 
  181.5000    -4.7260    59.7070    63.9830    74.3260    35.2100     2.0960 
  181.6250    -4.6190    58.5170    60.0470    69.2900    34.8470     2.1000 
  181.7500    -4.5010    56.6570    53.4860    60.7600    35.1720     2.1080 
  181.8750    -4.3720    56.8530    45.5080    50.5570    33.1030     2.1200 
  182.0000    -4.2380    59.9210    38.1360    41.3560    29.5800     2.1360 
  182.1250    -4.1050    63.6310    32.2500    34.2030    27.7930     2.1510 
  182.2500    -3.9810    66.0990    28.3650    29.6460    27.7990     2.1620 
  182.3750    -3.8700    67.6650    26.8670    27.7660    27.5150     2.1870 
  182.5000    -3.7740    69.1750    26.6170    27.2400    28.6440     2.2480 
  182.6250    -3.6990    69.6790    26.5920    26.9690    34.8640     2.3530 
  182.7500    -3.6450    67.6730    26.2680    26.4180    39.3970     2.4430 
  182.8750    -3.6130    64.3310    25.3870    25.3300    35.0110     2.4420 
  183.0000    -3.6000    64.2890    24.1510    23.9830    26.6090     2.3670 
  183.1250    -3.6020    67.7400    22.7150    22.5610    21.7370     2.2920 
  183.2500    -3.6150    71.5220    21.4500    21.4250    23.1070     2.2560 
  183.3750    -3.6380    72.6180    20.7580    20.9720    26.1930     2.2540 
  183.5000    -3.6710    70.5480    20.9990    21.5240    26.9150     2.2670 
  183.6250    -3.7210    67.0600    22.4150    23.3210    28.1850     2.2880 
  183.7500    -3.7890    64.5780    25.4510    27.1620    31.6660     2.2920 
  183.8750    -3.8710    64.6290    30.8210    33.9060    39.3350     2.2530 
  184.0000    -3.9600    64.4970    37.9880    42.7480    43.8200     2.1800 
  184.1250    -4.0450    64.0840    46.8890    53.2200    61.2170     2.1170 
  184.2500    -4.1180    65.3750    53.9240    60.8150    71.7320     2.1040 
  184.3750    -4.1670    66.8120    57.8180    64.5820    67.3830     2.1330 
  184.5000    -4.1840    66.1060    58.6480    64.9500    58.4710     2.1560 
  184.6250    -4.1550    66.3140    57.8100    63.9660    52.9860     2.1530 
  184.7500    -4.0740    69.0460    57.7630    64.1620    51.2960     2.1390 
  184.8750    -3.9290    70.0230    58.3430    64.8900    52.2730     2.1270 
  185.0000    -3.7290    65.6890    58.3440    64.3790    52.9690     2.1160 
  185.1250    -3.4840    60.2070    56.5340    61.0880    51.7210     2.1140 
  185.2500    -3.2190    57.6690    53.2630    55.8320    49.4430     2.1270 
  185.3750    -2.9580    58.3980    48.2550    48.6020    47.7400     2.1450 
  185.5000    -2.7170    60.0200    42.4150    41.2080    45.3150     2.1550 
  185.6250    -2.4990    62.0610    36.8100    34.7370    46.1130     2.1660 
  185.7500    -2.2940    64.0610    31.8870    29.4640    49.3760     2.1860 
  185.8750    -2.0830    64.4330    28.7000    26.3140    45.1760     2.2110 
  186.0000    -1.8470    63.1250    26.7350    24.3570    40.3210     2.2260 
  186.1250    -1.5760    63.6520    25.2340    22.8320    40.5340     2.2220 
  186.2500    -1.2760    65.7780    23.5090    21.0840    39.7330     2.2090 
  186.3750    -0.9620    65.7020    20.2790    17.9830    38.4080     2.1980 
  186.5000    -0.6580    64.1170    16.1890    14.1910    35.4700     2.1910 
