~V
VERS. 2.00: Ver 2.00
~W
STRT.M 51.0000:
STOP.M 249.0000:
STEP.M 0.1250:
NULL. -999.2500:
UWI. F11143:
~C
DEPT.M :
GR.API :
RML.OHMM :
RI. :
RXO.OHMM :
CALI.CM :
SP.MV :
DEN.GM/CC :
~A
# ...
   84.7500    65.4500    10.9220     8.8730    14.5500    22.2450   -33.6820     2.1440 
   84.8750    65.5120    10.9320     8.8780    14.7510    22.3330   -34.0100     2.1440 
   85.0000    66.9820    10.9650     8.8710    14.9900    22.4060   -34.2250     2.1440 
   85.1250    66.6870    11.0360     8.8830    15.1770    22.3960   -34.2690     2.1450 
   85.2500    66.3320    11.1380     8.9270    15.5050    22.3550   -34.2060     2.1470 
   85.3750    66.6040    11.2630     9.0070    15.7710    22.3290   -34.0970     2.1490 
   85.5000    64.8840    11.4040     9.1180    15.9800    22.3230   -33.9740     2.1500 
   85.6250    59.9500    11.5480     9.2500    16.0340    22.3200   -33.7870     2.1510 
   85.7500    58.3760    11.6740     9.3810    15.9490    22.2970   -33.5280     2.1530 
   85.8750    62.0630    11.7670     9.4910    15.6490    22.2580   -33.2220     2.1530 
   86.0000    66.8870    11.8150     9.5690    15.4110    22.2280   -32.8560     2.1530 
   86.1250    67.8830    11.8110     9.6080    15.4130    22.2130   -32.4840     2.1540 
   86.2500    66.9730    11.7820     9.6310    15.6120    22.2070   -32.0780     2.1570 
   86.3750    67.1390    11.7490     9.6550    15.6420    22.1610   -31.6120     2.1650 
   86.5000    67.2360    11.7270     9.6880    15.4370    22.0710   -31.0850     2.1780 
   86.6250    67.2010    11.7170     9.7240    15.0410    22.0330   -30.4980     2.1890 
   86.7500    67.6190    11.6890     9.7400    15.0030    22.0390   -29.8800     2.1900 
   86.8750    67.4150    11.6070     9.7070    15.0820    22.0630   -29.2160     2.1770 
   87.0000    66.0740    11.4400     9.5960    15.2520    22.0390   -28.5150     2.1570 
   87.1250    65.6740    11.1540     9.3630    14.5200    22.0090   -27.7870     2.1380 
   87.2500    67.6140    10.7680     9.0230    13.6580    21.9240   -27.0680     2.1300 
   87.3750    71.0140    10.2870     8.5890    12.8390    21.7070   -26.3820     2.1400 
   87.5000    72.8260     9.7360     8.0960    12.1700    21.3820   -25.7740     2.1680 
   87.6250    73.0790     9.1970     7.6190    11.4280    21.2270   -25.3180     2.2080 
   87.7500    74.9580     8.7910     7.2440    11.0650    21.2580   -25.0500     2.2410 
   87.8750    78.6380     8.6210     7.0370    11.0650    21.4380   -25.0670     2.2560 
   88.0000    80.7030     8.7410     7.0370    10.9260    21.7180   -25.4070     2.2500 
   88.1250    78.3860     9.1470     7.2670    11.0450    21.9990   -25.9750     2.2260 
   88.2500    74.5020     9.6360     7.6220    12.2200    22.1790   -26.6060     2.1970 
   88.3750    71.8490    10.0330     8.0020    13.2410    22.2740   -27.2290     2.1700 
   88.5000    70.9990    10.2210     8.3110    13.6290    22.3020   -27.7690     2.1500 
   88.6250    70.8080    10.1680     8.4770    13.3840    22.2530   -28.2000     2.1360 
   88.7500    69.9390    10.0130     8.5270    12.9150    22.1790   -28.4700     2.1270 
   88.8750    68.6610     9.8510     8.5000    12.4910    22.1170   -28.5160     2.1230 
   89.0000    68.6820     9.7240     8.4360    12.3870    22.0410   -28.3110     2.1220 
   89.1250    70.4530     9.6270     8.3660    12.1720    21.9890   -27.8590     2.1240 
   89.2500    71.8860     9.5580     8.3120    11.9560    21.9580   -27.2820     2.1270 
   89.3750    72.5850     9.5460     8.2930    12.0030    21.9660   -26.6050     2.1290 
   89.5000    73.0520     9.6120     8.3190    12.1600    22.0120   -25.8450     2.1310 
   89.6250    72.3220     9.7080     8.3550    12.2960    22.0800   -24.8660     2.1290 
   89.7500    67.8070     9.7070     8.3150    12.2460    22.1630   -23.6750     2.1250 
   89.8750    63.4360     9.4870     8.1120    12.0390    22.2180   -22.3090     2.1250 
   90.0000    68.5500     8.9890     7.6990    11.6280    22.2590   -20.8450     2.1330 
   90.1250    83.6020     8.2650     7.1030    10.5130    22.3270   -19.3920     2.1590 
   90.2500    95.9970     7.5400     6.4950     8.9930    22.3990   -18.0650     2.1970 
   90.3750    99.4410     6.9870     6.0040     7.5370    22.4590   -16.9290     2.2390 
   90.5000    95.8680     6.7130     5.7170     6.8110    22.5380   -15.9920     2.2720 
   90.6250    89.8720     6.8060     5.7200     7.2280    22.8900   -15.4140     2.2780 
   90.7500    84.5220     7.1820     5.9780     8.2940    23.3610   -15.1960     2.2620 
   90.8750    81.8600     7.7650     6.4570     8.8490    23.7600   -15.3160     2.2410 
   91.0000    80.6960     8.4470     7.0790     8.7890    23.8000   -15.6320     2.2290 
   91.1250    80.4290     9.0590     7.7040     9.4600    23.4520   -16.0270     2.2270 
   91.2500    80.6450     9.4580     8.1710    11.1430    23.1090   -16.3610     2.2250 
   91.3750    80.6030     9.5660     8.3790    11.9590    23.0000   -16.6080     2.2270 
   91.5000    80.3240     9.3880     8.3060    11.0050    23.1610   -16.8090     2.2390 
   91.6250    79.1070     9.0150     8.0020     9.4500    23.4470   -16.9520     2.2620 
   91.7500    76.3480     8.6500     7.6440     8.8120    23.6260   -17.0620     2.2850 
   91.8750    73.9760     8.4540     7.3750     9.0670    23.6800   -17.1940     2.3070 
   92.0000    75.6100     8.5440     7.3080     9.3530    23.7210   -17.4670     2.3250 
   92.1250    80.6800     9.0340     7.5590     9.1700    23.7800   -18.0010     2.3250 
   92.2500    82.6680     9.8370     8.0950     9.0770    23.7950   -18.7730     2.3020 
   92.3750    78.5010    10.8700     8.8770    10.0200    23.6850   -19.7280     2.2690 
   92.5000    73.0640    12.0060     9.8330    12.5650    23.4140   -20.7750     2.2440 
   92.6250    72.9560    13.0780    10.8590    15.7800    23.0350   -21.8000     2.2390 
   92.7500    73.5960    13.9590    11.8030    16.3690    22.7220   -22.7120     2.2470 
   92.8750    70.1170    14.5700    12.5370    15.9510    22.5980   -23.4690     2.2600 
   93.0000    66.2130    14.8710    12.9580    16.5530    22.6960   -24.0460     2.2730 
   93.1250    70.4040    14.7870    12.9640    19.3580    23.0140   -24.4010     2.2840 
   93.2500    77.2250    14.3820    12.6420    22.4220    23.2610   -24.5760     2.2870 
   93.3750    77.5080    13.7340    12.0850    20.7510    23.2390   -24.5960     2.2720 
   93.5000    71.4660    13.0030    11.4300    17.7100    23.0160   -24.5210     2.2400 
   93.6250    67.8820    12.4140    10.8480    15.1440    22.8620   -24.4330     2.2110 
   93.7500    68.6380    12.0670    10.4390    14.3220    22.8310   -24.3770     2.1980 
   93.8750    70.8300    11.9540    10.2300    14.1290    22.8740   -24.3500     2.1940 
   94.0000    72.3650    11.9930    10.1880    14.1240    22.9060   -24.3560     2.1920 
   94.1250    73.3080    12.0740    10.2480    14.2110    22.9110   -24.3920     2.1920 
   94.2500    72.7600    12.1390    10.3290    14.1790    22.9210   -24.4410     2.1970 
   94.3750    69.8480    12.1970    10.4160    14.2040    22.9480   -24.5220     2.2080 
   94.5000    66.6250    12.2690    10.5150    14.1600    22.9690   -24.6360     2.2210 
   94.6250    64.9540    12.3700    10.6300    14.0050    22.9910   -24.7330     2.2300 
   94.7500    65.2940    12.4960    10.7540    14.0710    23.0360   -24.7850     2.2280 
   94.8750    68.6400    12.6430    10.8770    14.4050    23.1070   -24.7500     2.2150 
   95.0000    73.9740    12.7970    10.9840    14.5240    23.1690   -24.5800     2.1950 
   95.1250    75.5560    12.9050    11.0380    14.4990    23.1840   -24.2260     2.1730 
   95.2500    72.5110    12.9040    11.0020    14.7120    23.1180   -23.7500     2.1480 
   95.3750    68.2850    12.7510    10.8460    15.1090    22.9000   -23.1640     2.1330 
   95.5000    66.8700    12.4540    10.5800    15.1110    22.5290   -22.4560     2.1410 
   95.6250    67.4600    12.0710    10.2450    14.2780    22.2130   -21.7080     2.1700 
   95.7500    67.0820    11.7020     9.9190    13.0010    21.9730   -20.9840     2.1950 
   95.8750    65.3230    11.3990     9.6460    12.1450    21.8180   -20.2840     2.2040 
