~V
VERS. 2.00: Ver 2.00
~W
STRT.M 14.0000:
STOP.M 209.0000:
STEP.M 0.1250:
NULL. -999.2500:
UWI. F11100:
~C
DEPT.M :
GR.API :
RML.OHMM :
RI. :
RXO.OHMM :
CALI.CM :
SP.MV :
DEN.GM/CC :
~A
# ...
   47.7500  -999.2500  -999.2500  -999.2500  -999.2500  -999.2500  -999.2500  -999.2500 
   47.8750  -999.2500  -999.2500  -999.2500  -999.2500  -999.2500  -999.2500  -999.2500 
   48.0000  -999.2500  -999.2500  -999.2500  -999.2500  -999.2500  -999.2500  -999.2500 
   48.1250  -999.2500  -999.2500  -999.2500  -999.2500  -999.2500  -999.2500  -999.2500 
   48.2500  -999.2500  -999.2500  -999.2500  -999.2500  -999.2500  -999.2500  -999.2500 
   48.3750  -999.2500  -999.2500  -999.2500  -999.2500  -999.2500  -999.2500  -999.2500 
   48.5000  -999.2500  -999.2500  -999.2500  -999.2500  -999.2500  -999.2500  -999.2500 
   48.6250  -999.2500  -999.2500  -999.2500  -999.2500  -999.2500  -999.2500  -999.2500 
   48.7500  -999.2500  -999.2500  -999.2500  -999.2500  -999.2500  -999.2500  -999.2500 
   48.8750  -999.2500  -999.2500  -999.2500  -999.2500  -999.2500  -999.2500  -999.2500 
   49.0000  -999.2500  -999.2500  -999.2500  -999.2500  -999.2500  -999.2500  -999.2500 
   49.1250  -999.2500  -999.2500  -999.2500  -999.2500  -999.2500  -999.2500  -999.2500 
   49.2500  -999.2500  -999.2500  -999.2500  -999.2500  -999.2500  -999.2500  -999.2500 
   49.3750  -999.2500  -999.2500  -999.2500  -999.2500  -999.2500  -999.2500  -999.2500 
   49.5000  -999.2500  -999.2500  -999.2500  -999.2500  -999.2500  -999.2500  -999.2500 
   49.6250  -999.2500  -999.2500  -999.2500  -999.2500  -999.2500  -999.2500  -999.2500 
   49.7500  -999.2500  -999.2500  -999.2500  -999.2500  -999.2500  -999.2500  -999.2500 
   49.8750  -999.2500  -999.2500  -999.2500  -999.2500  -999.2500  -999.2500  -999.2500 
   50.0000  -999.2500  -999.2500  -999.2500  -999.2500  -999.2500  -999.2500  -999.2500 
   50.1250  -999.2500  -999.2500  -999.2500  -999.2500  -999.2500  -999.2500  -999.2500 
   50.2500  -999.2500  -999.2500  -999.2500  -999.2500  -999.2500  -999.2500  -999.2500 
   50.3750  -999.2500  -999.2500  -999.2500  -999.2500  -999.2500  -999.2500  -999.2500 
   50.5000  -999.2500  -999.2500  -999.2500  -999.2500  -999.2500  -999.2500  -999.2500 
   50.6250  -999.2500  -999.2500  -999.2500  -999.2500  -999.2500  -999.2500  -999.2500 
   50.7500  -999.2500  -999.2500  -999.2500  -999.2500  -999.2500  -999.2500  -999.2500 
   50.8750  -999.2500  -999.2500  -999.2500  -999.2500  -999.2500  -999.2500  -999.2500 
   51.0000  -999.2500  -999.2500  -999.2500  -999.2500  -999.2500  -999.2500  -999.2500 
   51.1250  -999.2500  -999.2500  -999.2500  -999.2500  -999.2500  -999.2500  -999.2500 
   51.2500  -999.2500  -999.2500  -999.2500  -999.2500  -999.2500  -999.2500  -999.2500 
   51.3750  -999.2500  -999.2500  -999.2500  -999.2500  -999.2500  -999.2500  -999.2500 
   51.5000    41.5280    24.1980     0.9700     4.0830    25.5990  -999.2500  -999.2500 
   51.6250    41.5280    24.1980     0.9700     4.0830    25.5990  -999.2500  -999.2500 
   51.7500    45.2520    21.7880     0.9490     4.2520    25.5950  -999.2500  -999.2500 
   51.8750    47.0620    19.1270     0.9450     3.3690    25.5940  -999.2500  -999.2500 
   52.0000    46.8500    17.2210     0.9510     2.1830    25.5950  -999.2500  -999.2500 
   52.1250    47.0150    17.1260     0.9500     1.1530    25.5900  -999.2500  -999.2500 
   52.2500    48.2840    18.3610     0.9390     0.5620    25.5860  -999.2500  -999.2500 
   52.3750    47.9980    19.9240     0.9260     0.4400    25.5880  -999.2500  -999.2500 
   52.5000    46.5370    20.3600     0.9160     0.5650    25.5950  -999.2500  -999.2500 
   52.6250    49.1220    17.9120     0.9080     1.4090    25.6000  -999.2500  -999.2500 
   52.7500    54.4260    13.4930     0.8990     2.8700    25.5980  -999.2500  -999.2500 
   52.8750    57.7740     9.0320     0.8870     2.8100    25.5940  -999.2500  -999.2500 
   53.0000    57.4670     5.7960     0.8700     3.4450    25.5920  -999.2500  -999.2500 
   53.1250    55.1900     4.1930     0.8470     3.8130    25.5930  -999.2500  -999.2500 
   53.2500    52.1190     3.6600     0.8240     4.0800    25.5980  -999.2500  -999.2500 
   53.3750    48.9330     3.7310     0.8130     3.7750    25.6070  -999.2500  -999.2500 
   53.5000    47.1000     3.7080     0.8310     3.2930    25.6120  -999.2500  -999.2500 
   53.6250    47.1080     3.1510     0.8880     2.7800    25.6070  -999.2500  -999.2500 
   53.7500    47.8360     2.5570     0.9570     2.3640    25.6000  -999.2500  -999.2500 
   53.8750    49.7110     2.3020     1.0080     2.2840    25.5990  -999.2500  -999.2500 
   54.0000    52.6940     2.3630     1.0210     2.1560    25.5960  -999.2500  -999.2500 
   54.1250    53.9150     2.3970     0.9990     3.5210    25.5900  -999.2500  -999.2500 
   54.2500    53.5800     2.0710     0.9610     3.3780    25.5880  -999.2500  -999.2500 
   54.3750    52.9830     1.3720     0.9250     2.8190    25.5910  -999.2500  -999.2500 
   54.5000    51.4070     0.6560     0.9040     2.5150    25.5950  -999.2500  -999.2500 
   54.6250    48.5560     0.2700     0.9070     2.5450    25.5940  -999.2500  -999.2500 
   54.7500    46.1190     0.1100     0.9250     2.9340    25.5930  -999.2500  -999.2500 
   54.8750    44.8700     0.0690     0.9500     3.0930    25.5950  -999.2500  -999.2500 
   55.0000    44.2750     0.0830     0.9720     2.9400    25.6030  -999.2500  -999.2500 
   55.1250    44.8470     0.1770     0.9710     2.8260    25.6060  -999.2500  -999.2500 
   55.2500    47.5680     0.3340     0.9440     2.7140    25.6000  -999.2500  -999.2500 
   55.3750    50.0070     0.5370     0.8940     2.2580    25.5910  -999.2500  -999.2500 
   55.5000    50.7970     0.8080     0.8310     1.8270    25.5840  -999.2500  -999.2500 
   55.6250    50.8960     1.2430     0.7610     1.8970    25.5820  -999.2500  -999.2500 
   55.7500    50.7940     1.8520     0.6970     2.1990    25.5860    72.8880  -999.2500 
   55.8750    49.8570     2.5360     0.6460     2.1080    25.5910    72.8880  -999.2500 
   56.0000    47.7160     3.0660     0.6080     1.8020    25.5940    73.1230  -999.2500 
   56.1250    45.1200     3.1500     0.5810     1.6070    25.5960    73.3980  -999.2500 
   56.2500    42.5360     2.8270     0.5620     1.6950    25.6000    73.6750  -999.2500 
   56.3750    40.5100     2.3300     0.5500     1.7480    25.6000    73.9490  -999.2500 
   56.5000    39.1970     1.9590     0.5460     1.7940    25.5980    74.2110  -999.2500 
   56.6250    38.5100     1.8500     0.5510     1.7400    25.5980    74.4550  -999.2500 
   56.7500    39.3080     1.8500     0.5560     1.5430    25.5990    74.6470  -999.2500 
   56.8750    41.2510     1.8320     0.5550     1.4670    25.5990    74.8020  -999.2500 
   57.0000    41.7300     1.7500     0.5490     1.5580    25.5980    74.8990     2.0300 
   57.1250    39.6480     1.7220     0.5420     1.4880    25.5880    74.9630     2.0300 
   57.2500    39.1150     1.8810     0.5390     1.1240    25.5680    75.0020     2.0300 
   57.3750    41.0260     2.2060     0.5390     0.9870    25.5540    75.0420     2.0220 
   57.5000    42.0340     2.5010     0.5430     1.1600    25.5610    75.0760     2.0120 
   57.6250    40.8010     2.3510     0.5540     1.2140    25.5770    75.1010     2.0030 
   57.7500    41.9390     1.8330     0.5700     1.1230    25.5850    75.1110     1.9990 
   57.8750    45.9750     1.2990     0.5880     1.0030    25.5840    75.1110     1.9960 
   58.0000    48.7010     0.9490     0.6010     0.9610    25.5840    75.0920     1.9890 
   58.1250    48.2690     0.7940     0.6020     0.9860    25.5810    75.0850     1.9830 
   58.2500    49.0910     0.7620     0.5950     0.9950    25.5770    75.0850     1.9760 
   58.3750    51.1950     0.8580     0.5860     0.9210    25.5760    75.1180     1.9710 
   58.5000    50.7470     1.0630     0.5750     0.8590    25.5800    75.2070     1.9700 
   58.6250    46.5860     1.2320     0.5640     0.9590    25.5860    75.3390     1.9790 
   58.7500    43.1420     1.1970     0.5520     0.9480    25.5860    75.4850     1.9950 
   58.8750    41.5840     0.9380     0.5450     0.7190    25.5820    75.6030     2.0090 
