~V
VERS. 2.00: Ver 2.00
~W
STRT.M 50.0000:
STOP.M 248.0000:
STEP.M 0.1250:
NULL. -999.2500:
UWI. F11129:
~C
DEPT.M :
SP.MV :
DEN.GM/CC :
GR.API :
RML.OHMM :
RI. :
RXO.OHMM :
CALI.CM :
~A
# ...
  128.7500   -15.0650     2.4820    59.0120    24.5540    21.6300    20.3580    22.1940 
  128.8750   -15.1250     2.4960    56.5590    25.4600    22.3540    21.7090    22.0090 
  129.0000   -15.1630     2.5070    53.4910    26.2640    23.0690    22.7840    21.7610 
  129.1250   -15.1410     2.5130    51.0520    26.8040    23.6050    22.5090    21.6950 
  129.2500   -15.0890     2.5170    50.3200    27.0670    23.9020    21.6200    21.9850 
  129.3750   -15.0360     2.5250    51.3940    27.1670    24.0210    21.2160    22.4520 
  129.5000   -14.9780     2.5370    52.0940    27.2430    24.0810    21.7690    22.7740 
  129.6250   -14.9060     2.5480    50.5340    27.3440    24.1490    23.0390    22.8970 
  129.7500   -14.8110     2.5500    46.9650    27.4480    24.2360    24.2650    22.9410 
  129.8750   -14.6950     2.5400    43.3000    27.4770    24.2910    24.3220    22.9740 
  130.0000   -14.5770     2.5230    42.4360    27.3520    24.2410    23.4480    22.9990 
  130.1250   -14.4680     2.5080    45.0060    27.0400    24.0340    22.4170    23.0180 
  130.2500   -14.3560     2.5020    48.5310    26.5640    23.6660    21.6860    23.0050 
  130.3750   -14.2280     2.5040    51.1030    26.0260    23.2030    21.3110    22.9160 
  130.5000   -14.0940     2.5050    52.9810    25.5930    22.7840    20.4650    22.7680 
  130.6250   -13.9690     2.5090    54.1190    25.4210    22.5450    19.3130    22.6330 
  130.7500   -13.8540     2.5210    53.8330    25.6180    22.5980    18.9220    22.6070 
  130.8750   -13.7500     2.5390    53.6120    26.1540    22.9540    19.6700    22.7390 
  131.0000   -13.6830     2.5520    54.5210    26.8470    23.4960    21.0560    22.9280 
  131.1250   -13.6740     2.5570    54.4020    27.5100    24.0850    22.6140    23.0510 
  131.2500   -13.7180     2.5490    52.0740    27.9540    24.5520    23.4980    23.0940 
  131.3750   -13.7810     2.5280    50.4840    28.1040    24.7820    23.3880    23.1230 
  131.5000   -13.8660     2.5030    53.1740    28.0400    24.7950    23.4070    23.2000 
  131.6250   -14.0130     2.4870    58.3100    27.8580    24.6620    24.7470    23.3260 
  131.7500   -14.2190     2.4870    61.5820    27.6350    24.4640    26.4840    23.4510 
  131.8750   -14.4410     2.4950    61.5310    27.4410    24.2750    26.8070    23.5130 
  132.0000   -14.6640     2.5000    59.6540    27.3580    24.1630    25.7470    23.5040 
  132.1250   -14.9020     2.4940    57.0090    27.4740    24.1930    24.2880    23.4500 
  132.2500   -15.1520     2.4830    54.7220    27.8480    24.4290    24.0620    23.3540 
  132.3750   -15.4240     2.4830    54.2970    28.4060    24.8550    25.0280    23.1110 
  132.5000   -15.6950     2.4980    54.9590    28.9010    25.3270    26.4480    22.6030 
  132.6250   -15.9230     2.5220    54.8270    29.0640    25.6570    28.2740    21.9740 
  132.7500   -16.1100     2.5380    54.1550    28.6940    25.6630    28.2470    21.5280 
  132.8750   -16.2920     2.5350    54.4530    27.8700    25.3240    25.5810    21.2670 
  133.0000   -16.4500     2.5210    55.6540    27.0050    24.8750    22.6690    21.0570 
  133.1250   -16.5560     2.5040    56.1410    26.5500    24.6390    21.5540    21.0150 
  133.2500   -16.6340     2.4890    55.7360    26.9440    25.0040    22.7410    21.4010 
  133.3750   -16.6990     2.4780    54.5990    28.3010    26.1820    24.9640    22.2250 
  133.5000   -16.7630     2.4740    52.6690    30.0750    27.8880    27.7510    23.0320 
  133.6250   -16.8570     2.4770    51.0330    31.2080    29.3160    31.9450    23.4290 
  133.7500   -17.0060     2.4740    50.3960    30.1490    28.9980    35.5730    23.5200 
  133.8750   -17.1630     2.4520    50.8280    26.2150    25.9830    33.9940    23.5480 
  134.0000   -17.2880     2.4120    53.9430    20.7090    21.1660    27.3790    23.6070 
  134.1250   -17.4130     2.3630    61.1920    15.3390    16.1040    18.7690    23.7030 
  134.2500   -17.5800     2.3210    69.5590    11.3360    12.0730    12.1360    23.8530 
  134.3750   -17.7710     2.2960    74.2020     8.9700     9.4640     8.9150    24.0000 
  134.5000   -17.9160     2.2890    74.6330     7.8370     7.9870     7.7110    24.1170 
  134.6250   -18.0030     2.2940    73.8460     7.7240     7.4500     7.5350    24.2130 
  134.7500   -18.0900     2.3050    74.2060     8.6070     7.8310     7.8260    24.2320 
  134.8750   -18.1870     2.3250    74.4920    10.4680     9.1650     8.7250    24.0860 
  135.0000   -18.2580     2.3520    72.1230    13.0260    11.3260    11.3100    23.8240 
  135.1250   -18.3410     2.3770    67.1890    15.7530    13.9710    17.0330    23.5740 
  135.2500   -18.4490     2.3910    61.8950    17.6130    16.1570    22.7970    23.3410 
  135.3750   -18.5520     2.3870    58.7720    17.7700    16.8630    22.4390    22.9960 
  135.5000   -18.6480     2.3720    59.2750    16.6350    16.1400    17.6590    22.4810 
  135.6250   -18.7370     2.3580    63.3440    15.3040    14.8830    13.1720    21.9050 
  135.7500   -18.7960     2.3610    66.9470    14.8450    14.1130    11.5960    21.3920 
  135.8750   -18.8100     2.3850    65.6820    15.6880    14.3580    12.8800    21.0030 
  136.0000   -18.7970     2.4190    60.5870    17.5810    15.5710    15.3680    20.7610 
  136.1250   -18.7590     2.4490    55.3090    20.1320    17.5260    17.2890    20.7400 
  136.2500   -18.6990     2.4640    52.7740    22.7540    19.7820    18.5330    21.0390 
  136.3750   -18.6220     2.4610    52.8140    24.8730    21.7930    19.8550    21.6040 
  136.5000   -18.5200     2.4520    53.4310    26.2590    23.2280    21.6100    22.2260 
  136.6250   -18.4050     2.4540    53.7630    26.9690    24.0700    23.9620    22.7630 
  136.7500   -18.3130     2.4660    53.9660    27.0790    24.3770    26.3340    23.1060 
  136.8750   -18.2310     2.4780    53.4480    26.6150    24.1670    27.3140    23.2370 
  137.0000   -18.1380     2.4810    50.7850    25.7270    23.5330    26.1320    23.2760 
  137.1250   -18.0450     2.4780    47.1000    24.6680    22.6470    23.5380    23.3170 
  137.2500   -17.9430     2.4730    46.0450    23.7680    21.7840    21.2000    23.3940 
  137.3750   -17.8330     2.4680    48.1070    23.2080    21.1480    20.2370    23.4480 
  137.5000   -17.7700     2.4640    49.8790    22.9010    20.7540    20.6850    23.4400 
  137.6250   -17.7760     2.4630    50.0300    22.6640    20.5000    21.7920    23.3800 
  137.7500   -17.8040     2.4620    49.7220    22.3190    20.2470    22.2640    23.3500 
  137.8750   -17.8240     2.4580    50.7040    21.8330    19.9180    21.2680    23.3730 
  138.0000   -17.8930     2.4520    53.5150    21.3590    19.5740    19.4910    23.3800 
  138.1250   -18.0540     2.4480    56.1000    21.0620    19.3320    18.4910    23.3580 
  138.2500   -18.2560     2.4470    55.7780    21.0040    19.2710    18.8730    23.3380 
  138.3750   -18.4470     2.4470    54.6000    21.0540    19.3200    19.6980    23.3030 
  138.5000   -18.6340     2.4440    56.9420    20.9440    19.2720    20.3280    23.2000 
  138.6250   -18.8120     2.4400    62.0540    20.4650    18.9350    20.1950    22.9900 
  138.7500   -18.9560     2.4370    65.3050    19.5780    18.2260    18.8010    22.6440 
  138.8750   -19.0800     2.4380    63.5630    18.5010    17.2730    16.5200    22.1390 
  139.0000   -19.1830     2.4450    58.0740    17.5810    16.3610    14.9620    21.6350 
  139.1250   -19.2330     2.4560    51.8700    17.0140    15.6780    14.7250    21.4470 
  139.2500   -19.2390     2.4650    49.0900    16.8340    15.3030    15.2380    21.7050 
  139.3750   -19.2190     2.4700    52.0820    16.9230    15.1920    15.9870    22.2880 
  139.5000   -19.1800     2.4780    58.9210    17.1000    15.2180    17.0310    22.9490 
  139.6250   -19.1490     2.4880    65.4070    17.2840    15.3080    18.3480    23.4790 
  139.7500   -19.1420     2.4980    66.2250    17.5140    15.4610    18.7650    23.7280 
  139.8750   -19.1280     2.5030    61.4120    17.9260    15.7530    17.9930    23.7570 
