~V
VERS. 2.00: Ver 2.00
~W
STRT.M 51.0000:
STOP.M 249.0000:
STEP.M 0.1250:
NULL. -999.2500:
UWI. F11143:
~C
DEPT.M :
GR.API :
RML.OHMM :
RI. :
RXO.OHMM :
CALI.CM :
SP.MV :
DEN.GM/CC :
~A
# ...
  231.0000    61.3220     8.9930     8.0920     9.3740    23.6400   -10.3540     2.3780 
  231.1250    56.5880     8.9480     8.0270     9.9050    23.7900   -10.3940     2.3750 
  231.2500    55.2350     8.8840     7.9850     9.6630    23.8710   -10.4000     2.3730 
  231.3750    57.7700     8.8130     7.9540     8.9500    23.8210   -10.3600     2.3800 
  231.5000    60.3220     8.7510     7.9240     8.1960    23.7520   -10.3540     2.3950 
  231.6250    60.7270     8.7160     7.8960     7.5210    23.8220   -10.3670     2.4080 
  231.7500    61.5970     8.7170     7.8850     7.4640    23.8760   -10.3260     2.4150 
  231.8750    64.2560     8.7640     7.9070     8.2180    23.8600   -10.3210     2.4140 
  232.0000    66.7230     8.8660     7.9700     9.1520    23.8850   -10.3160     2.3970 
  232.1250    65.7480     9.0320     8.0900    10.2120    23.8880   -10.2920     2.3670 
  232.2500    62.0280     9.2390     8.2550    11.1580    23.8480   -10.3490     2.3500 
  232.3750    59.0500     9.4510     8.4470    10.9920    23.6840   -10.4030     2.3590 
  232.5000    59.5990     9.6150     8.6250    10.4140    23.5110   -10.3770     2.3880 
  232.6250    61.3210     9.6460     8.7110     9.4450    23.4660   -10.3570     2.4090 
  232.7500    61.1120     9.5340     8.6710     9.4390    23.5060   -10.3920     2.4110 
  232.8750    59.8470     9.3050     8.5090    10.0670    23.5930   -10.3720     2.3980 
  233.0000    59.2680     9.0250     8.2740    10.9630    23.5470   -10.2720     2.3680 
  233.1250    60.3230     8.7910     8.0430    10.2690    23.5560   -10.1620     2.3270 
  233.2500    62.4970     8.6690     7.8860     9.0050    23.6380   -10.0520     2.3010 
  233.3750    64.0050     8.6860     7.8340     8.5430    23.6810    -9.9700     2.3040 
  233.5000    64.0910     8.8280     7.8860     8.5010    23.6450    -9.9420     2.3330 
  233.6250    63.2220     9.0430     8.0090     8.4240    23.6480    -9.8840     2.3620 
  233.7500    62.9220     9.2320     8.1310     8.0450    23.6840    -9.8320     2.3740 
  233.8750    63.1480     9.3260     8.2020     7.6600    23.6510    -9.8390     2.3810 
  234.0000    61.8810     9.2990     8.1950     7.4710    23.5780    -9.9290     2.3940 
  234.1250    58.3500     9.1780     8.1180     7.4530    23.5500   -10.0220     2.4110 
  234.2500    55.5000     9.0610     8.0280     7.5880    23.5890   -10.0750     2.4140 
  234.3750    55.6290     9.0210     7.9730     8.0980    23.5870   -10.1470     2.4010 
  234.5000    57.4400     9.0910     7.9870     9.1070    23.5400   -10.2090     2.3860 
  234.6250    57.4600     9.2560     8.0870    10.4860    23.5250   -10.2560     2.3890 
  234.7500    55.6530     9.4240     8.2200    12.3620    23.4940   -10.2790     2.4050 
  234.8750    52.7390     9.5250     8.3290    14.7720    23.4470   -10.2840     2.4170 
  235.0000    50.1810     9.5130     8.3600    17.2480    23.4950   -10.3060     2.4080 
  235.1250    51.2890     9.3660     8.2690    15.3440    23.7490   -10.3320     2.3790 
  235.2500    55.7960     9.1430     8.0970    11.5570    23.8950   -10.3460     2.3470 
  235.3750    59.0190     8.9080     7.8980     9.3770    23.8590   -10.3590     2.3260 
  235.5000    58.1940     8.7300     7.7320     8.9250    23.6930   -10.4090     2.3240 
  235.6250    56.5270     8.6770     7.6590     9.4750    23.6470   -10.5010     2.3420 
  235.7500    56.2860     8.7400     7.6730     9.4960    23.6730   -10.5770     2.3670 
  235.8750    56.5870     8.8830     7.7520     9.2320    23.7280   -10.6530     2.3940 
  236.0000    56.8290     9.0520     7.8600     9.0200    23.7510   -10.6770     2.4210 
  236.1250    59.3310     9.1830     7.9590     8.7520    23.7280   -10.6890     2.4490 
  236.2500    61.3800     9.2510     8.0300     8.5450    23.6890   -10.7230     2.4710 
  236.3750    60.1830     9.2650     8.0720     8.4210    23.6870   -10.7150     2.4780 
  236.5000    56.7310     9.2520     8.0930     8.1040    23.7150   -10.7070     2.4660 
  236.6250    54.2280     9.2500     8.1020     8.0530    23.8320   -10.6690     2.4450 
  236.7500    54.7820     9.2810     8.1130     8.0550    23.8870   -10.6120     2.4290 
  236.8750    57.6560     9.3480     8.1340     8.0930    23.9030   -10.5690     2.4240 
  237.0000    61.3830     9.4380     8.1660     8.3510    23.9040   -10.5720     2.4280 
  237.1250    63.1530     9.5300     8.2090     8.5810    23.9010   -10.5920     2.4410 
  237.2500    62.4520     9.6090     8.2630     8.8500    23.8970   -10.5840     2.4590 
  237.3750    60.9820     9.6740     8.3270     9.1140    23.9000   -10.5720     2.4720 
  237.5000    59.6250     9.7260     8.4000     9.2360    23.9200   -10.5170     2.4720 
  237.6250    58.5890     9.7690     8.4730     9.2030    23.9440   -10.5130     2.4650 
  237.7500    57.7490     9.8020     8.5330     9.4650    23.9420   -10.5680     2.4660 
  237.8750    57.5550     9.8200     8.5710    10.1160    23.9050   -10.6000     2.4780 
  238.0000    58.1110     9.8160     8.5800    10.3570    23.8580   -10.6380     2.4960 
  238.1250    59.4370     9.7970     8.5590    10.1610    23.8510   -10.6990     2.5060 
  238.2500    60.1410     9.7840     8.5300    10.2170    23.8940   -10.7600     2.5030 
  238.3750    59.1980     9.7980     8.5160    10.6570    24.0470   -10.8070     2.4850 
  238.5000    57.1930     9.8530     8.5390    11.2640    24.2830   -10.8750     2.4550 
  238.6250    57.2220     9.9660     8.6220    11.4180    24.2920   -10.9270     2.4180 
  238.7500    58.1060    10.1230     8.7540    11.0760    23.9770   -10.9510     2.3940 
  238.8750    57.4500    10.2960     8.9100    10.8670    23.9770   -10.9570     2.3920 
  239.0000    57.1880    10.4420     9.0460    10.8020    24.2590   -10.9050     2.4110 
  239.1250    57.1880    10.4850     9.0970    10.6070    24.3020   -10.7920     2.4340 
  239.2500    57.1880    10.4050     9.0380    10.2040    24.0110   -10.6850     2.4500 
  239.3750    57.1880    10.2180     8.8690     9.4030    23.8560   -10.6100     2.4600 
  239.5000    57.1880     9.9800     8.6230     8.7020    24.0610   -10.5200     2.4570 
  239.6250    57.1880     9.7700     8.3580     8.5350    24.3620   -10.4120     2.4310 
  239.7500    57.1880     9.6290     8.1320     8.5070    24.4010   -10.2880     2.4050 
  239.8750    57.1880     9.5660     7.9800     8.8150    24.1400   -10.2050     2.3980 
  240.0000    57.1880     9.5980     7.9300     9.1440    23.9110   -10.1840     2.4120 
  240.1250    57.1880     9.7530     8.0100     9.3460    23.8280   -10.1960     2.4360 
  240.2500    57.1880    10.0000     8.1730     9.1870    23.7710   -10.2050     2.4590 
  240.3750    57.1880    10.2920     8.3680     9.4370    23.6660   -10.1910     2.4780 
  240.5000    57.1880    10.5590     8.5360    10.4690    23.4980   -10.1650     2.4880 
  240.6250    57.1880    10.7260     8.6150    10.2820    23.2970   -10.1430     2.4870 
  240.7500    57.1880    10.8070     8.6150     9.8150    23.0110   -10.1310     2.4870 
  240.8750    57.1880    10.8430     8.5690     9.4530    22.7700   -10.0960     2.4930 
  241.0000    57.1880    10.8660     8.5230     9.3610    22.5510   -10.0540     2.5020 
  241.1250    57.1880    10.8840     8.5120     9.3010    22.5100   -10.0340     2.5090 
  241.2500    57.1880    10.8940     8.5320     9.2530    22.5430   -10.0390     2.5120 
  241.3750    57.1880    10.8960     8.5680     9.2890    22.5350   -10.0430     2.5110 
  241.5000    57.1880    10.8930     8.5990     9.3930    22.3220   -10.0660     2.5050 
  241.6250    57.1880    10.8840     8.6140     9.8180    22.1780   -10.1160     2.4920 
  241.7500    57.1880    10.8710     8.6190    10.1760    22.1170   -10.1720     2.4750 
  241.8750    57.1880    10.8610     8.6210    10.1740    22.1460   -10.2420     2.4560 
  242.0000    57.1880    10.8560     8.6240     9.9320    22.0550   -10.3090     2.4290 
  242.1250    57.1880    10.8540     8.6270     9.4320    21.6970   -10.3670     2.3970 
