~V
VERS. 2.00: Ver 2.00
~W
STRT.M 50.0000:
STOP.M 206.0000:
STEP.M 0.1250:
NULL. -999.2500:
UWI. F11107:
~C
DEPT.M :
DEN.GM/CC :
GR.API :
RML.OHMM :
RI. :
RXO.OHMM :
CALI.CM :
SP.MV :
~A
# ...
  196.2500     2.3680    86.3400     7.5520     6.9220     7.7720    24.1930    -4.5510 
  196.3750     2.3460    86.3400     7.3160     6.6800     7.8230    24.2920    -4.4270 
  196.5000     2.3390    86.3400     7.1470     6.5010     9.1430    24.3860    -4.2850 
  196.6250     2.3530    86.3400     7.0470     6.3850    11.6270    24.1710    -4.1710 
  196.7500     2.3830    86.3400     7.0160     6.3380     9.1100    23.5780    -4.0490 
  196.8750     2.4100    86.3400     7.0350     6.3430     7.1880    23.1710    -3.9080 
  197.0000     2.4180    86.3400     7.0990     6.3930     6.1850    23.0640    -3.8090 
  197.1250     2.4060    86.3400     7.2180     6.4890     6.0330    23.1830    -3.7130 
  197.2500     2.3830    86.3400     7.4200     6.6450     6.4600    23.4030    -3.6250 
  197.3750     2.3710    86.3400     7.7020     6.8590     7.0830    23.7530    -3.5450 
  197.5000     2.3800    86.3400     8.0500     7.1300     8.0890    23.9360    -3.4520 
  197.6250     2.4050    86.3400     8.4330     7.4480     9.1720    23.9260    -3.3650 
  197.7500     2.4310    86.3400     8.8130     7.7930    10.2340    23.9570    -3.3530 
  197.8750     2.4370    86.3400     9.1600     8.1310    10.6690    24.0230    -3.3900 
  198.0000     2.4240    86.3400     9.4630     8.4380    10.5650    23.9790    -3.4450 
  198.1250     2.4030    86.3400     9.7200     8.7010    10.3880    23.7540    -3.5360 
  198.2500     2.3880    86.3400     9.9300     8.9160    10.6290    23.6080    -3.6550 
  198.3750     2.3850    86.3400    10.1070     9.1040    10.9650    23.6870    -3.7650 
  198.5000     2.3870    86.3400    10.2590     9.2760    10.7770    23.6620    -3.8980 
  198.6250     2.3830    86.3400    10.3870     9.4350    10.0980    23.5000    -4.0180 
  198.7500     2.3720    86.3400    10.4740     9.5640     9.3980    23.2650    -4.0530 
  198.8750     2.3600    86.3400    10.5130     9.6490     8.6310    23.1820    -4.0270 
  199.0000     2.3590    86.3400    10.5060     9.6850     8.3850    23.2370    -3.9510 
  199.1250     2.3750    86.3400    10.4630     9.6800     8.9070    23.3610    -3.8290 
  199.2500     2.4040    86.3400    10.4020     9.6500     9.1550    23.3830    -3.6640 
  199.3750     2.4360    86.3400    10.3360     9.6150     9.3890    23.5090    -3.5330 
  199.5000     2.4610    86.3400    10.2660     9.5800     9.0940    23.6890    -3.4200 
  199.6250     2.4750    86.3400    10.1860     9.5440     8.9700    23.8930    -3.3160 
  199.7500     2.4810    86.3400    10.0960     9.4970     8.5780    24.0270    -3.2890 
  199.8750     2.4860    86.3400    10.0020     9.4410     8.8010    24.1080    -3.3010 
  200.0000     2.4990    86.3400     9.9230     9.3800     8.8870    24.1170    -3.3730 
  200.1250     2.5190    86.3400     9.8810     9.3200     9.2580    24.1350    -3.4510 
  200.2500     2.5380    86.3400     9.8970     9.2720     9.5470    24.1360    -3.5220 
  200.3750     2.5420    86.3400     9.9570     9.2390     9.1050    24.2290    -3.5670 
  200.5000     2.5280    86.3400    10.0310     9.2220     8.1990    24.4550    -3.6020 
  200.6250     2.5020    86.3400    10.0880     9.2180     8.0410    24.6330    -3.6220 
  200.7500     2.4750    86.3400    10.1090     9.2210     9.9550    24.5590    -3.6550 
  200.8750     2.4590    86.3400    10.1090     9.2270    11.4720    24.2450    -3.7130 
  201.0000     2.4510    86.3400    10.1050     9.2320    12.2430    23.9110    -3.7390 
  201.1250     2.4470    86.3400    10.1050     9.2350    13.2380    23.8270    -3.7800 
  201.2500     2.4420    86.3400    10.1060     9.2350    14.0760    23.9510    -3.8540 
  201.3750     2.4310    86.3400    10.1060     9.2350    13.1680    23.9840    -3.9240 
  201.5000     2.4180    86.3400    10.1060     9.2350    11.5500    23.8860    -3.9390 
  201.6250     2.4100    86.3400    10.1060     9.2350    10.6620    23.8100    -3.9150 
  201.7500     2.4110    86.3400    10.1060     9.2350    10.6070    23.9040    -3.8430 
  201.8750     2.4230    86.3400    10.1060     9.2350    10.6810    23.9310    -3.8020 
  202.0000     2.4390    86.3400    10.1060     9.2350    10.8430    23.8350    -3.7740 
  202.1250     2.4510    86.3400    10.1060     9.2350    11.0190    23.9310    -3.7190 
  202.2500     2.4560    86.3400    10.1060     9.2350    10.6210    24.1280    -3.6430 
  202.3750     2.4530    86.3400    10.1060     9.2350    10.4730    24.1650    -3.7040 
  202.5000     2.4470    86.3400    10.1060     9.2350    10.7750    24.0490    -3.8570 
  202.6250     2.4380    86.3400    10.1060     9.2350     9.7350    23.9190    -4.1100 
  202.7500     2.4240    86.3400    10.1060     9.2350     7.6930    24.0720    -4.3950 
  202.8750     2.4020    86.3400    10.1060     9.2350     6.8270    24.2580    -4.6380 
  203.0000     2.3790    86.3400    10.1060     9.2350     7.2220    24.3700    -4.8850 
  203.1250     2.3660    86.3400    10.1060     9.2350     7.8970    24.4620    -5.1350 
  203.2500     2.3670    86.3400    10.1060     9.2350     9.5230    24.4820    -5.3490 
  203.3750     2.3700    86.3400    10.1060     9.2350    10.8450    24.2520    -5.3490 
  203.5000     2.3520    86.3400    10.1060     9.2350    12.5440    24.1260    -5.3490 
  203.6250     2.3010    86.3400    10.1060     9.2350     8.9810    24.3000  -999.2500 
  203.7500     2.2210    86.3400    10.1060     9.2350     7.1900    24.8160  -999.2500 
  203.8750     2.1360    86.3400    10.1060     9.2350     5.6880    25.4210  -999.2500 
  204.0000     2.0730    86.3400    10.1060     9.2350     5.1740    26.0830  -999.2500 
  204.1250     2.0430    86.3400    10.1060     9.2350     4.6470    26.6820  -999.2500 
  204.2500     2.0450    86.3400    10.1060     9.2350     5.1790    26.4490  -999.2500 
  204.3750     2.0610    86.3400    10.1060     9.2350     6.2710    25.6470  -999.2500 
  204.5000     2.0630    86.3400    10.1060     9.2350     6.7280    25.1110  -999.2500 
  204.6250     2.0310    86.3400    10.1060     9.2350     6.4830    24.4030  -999.2500 
  204.7500     1.9660    86.3400    10.1060     9.2350     4.9150    22.1420  -999.2500 
  204.8750     1.8810    86.3400    10.1060     9.2350     3.6590    19.4630  -999.2500 
  205.0000     1.8080    86.3400    10.1060     9.2350     3.1780    18.2710  -999.2500 
  205.1250     1.7620    86.3400    10.1060     9.2350     3.1180    18.0820  -999.2500 
  205.2500     1.7390    86.3400    10.1060     9.2350     3.1200    18.0790  -999.2500 
  205.3750     1.7470    86.3400    10.1060     9.2350     3.1210    18.0760  -999.2500 
  205.5000     1.7460    86.3400    10.1060     9.2350     3.1200    18.0730  -999.2500 
  205.6250     1.7400    86.3400    10.1060     9.2350     3.1170    18.0670  -999.2500 
  205.7500  -999.2500    86.3400    10.1060     9.2350     3.1170    18.0620  -999.2500 
  205.8750  -999.2500    86.3400    10.1060     9.2350     3.1190    18.0580  -999.2500 
  206.0000  -999.2500    86.3400    10.1060     9.2350     3.1190    18.0560  -999.2500 
