~V
VERS. 2.00: Ver 2.00
~W
STRT.M 50.0000:
STOP.M 265.0000:
STEP.M 0.1250:
NULL. -999.2500:
UWI. F11185:
~C
DEPT.M :
SP.MV :
GR.API :
RI. :
RML.OHMM :
RXO.OHMM :
DEN.GM/CC :
~A
# ...
  230.2500  -123.0670    54.5210     5.4130     5.9300     6.8180     2.1790 
  230.3750  -123.1100    54.2340     5.2420     5.7520     6.7440     2.1800 
  230.5000  -123.0810    54.8050     5.0850     5.5890     6.5640     2.1840 
  230.6250  -122.9710    55.0360     4.9740     5.4730     6.1750     2.1840 
  230.7500  -122.8540    54.5710     4.9260     5.4230     5.8630     2.1830 
  230.8750  -122.7660    55.2730     4.9910     5.4910     6.0020     2.1830 
  231.0000  -122.6750    58.3530     5.1260     5.6310     6.3500     2.1880 
  231.1250  -122.4670    61.4350     5.3240     5.8370     6.4790     2.1910 
  231.2500  -122.1930    62.3810     5.5830     6.1060     6.3910     2.1860 
  231.3750  -121.9820    61.2520     5.9180     6.4540     6.4230     2.1730 
  231.5000  -121.8340    59.3490     6.2690     6.8200     6.7040     2.1640 
  231.6250  -121.6700    57.3400     6.3740     6.9280     7.0080     2.1730 
  231.7500  -121.3860    55.2590     6.2230     6.7720     7.0450     2.2110 
  231.8750  -120.9190    54.8790     5.8690     6.4040     6.8450     2.2710 
  232.0000  -120.3360    56.5150     5.5220     6.0420     6.8740     2.3010 
  232.1250  -119.7750    58.6550     5.4180     5.9340     7.0820     2.2680 
  232.2500  -119.3470    58.9310     5.5630     6.0860     6.9250     2.2120 
  232.3750  -119.2160    59.0610     6.0340     6.5750     6.6500     2.1890 
  232.5000  -119.4250    60.2630     6.6700     7.2370     6.7280     2.1990 
  232.6250  -119.7930    60.5910     7.3480     7.9420     6.9800     2.2040 
  232.7500  -119.9890    59.8160     7.8280     8.4410     7.2560     2.1920 
  232.8750  -119.9580    60.2500     8.0550     8.6770     7.7100     2.1800 
  233.0000  -119.7700    61.5360     8.2000     8.8280     8.2550     2.1940 
  233.1250  -119.3700    62.0350     8.5340     9.1760     8.6920     2.2490 
  233.2500  -118.7690    61.3350     9.2230     9.8920     9.3270     2.3460 
  233.3750  -117.9590    59.0080    10.6220    11.3470    10.3260     2.4600 
  233.5000  -116.9180    55.6940    12.3890    13.1850    11.7580     2.5540 
  233.6250  -115.5440    53.3950    12.9240    13.7410    16.1730     2.6050 
  233.7500  -113.8690    55.5940    11.5060    12.2670    24.0120     2.6410 
  233.8750  -111.9380    59.0310     8.4550     9.0930    30.1520     2.6510 
  234.0000  -109.8630    59.8380     4.9240     5.4210    33.2970     2.5850 
  234.1250  -107.7790    58.5870     2.6330     3.0380    33.5080     2.4510 
  234.2500  -105.7890    59.6830     1.5890     1.9520    25.1800     2.3460 
  234.3750  -103.9690    63.1900     1.1520     1.4990    11.2800     2.3250 
  234.5000  -102.4690    63.1480     1.0020     1.3420     3.2310     2.3430 
  234.6250  -101.4200    58.9190     0.9970     1.3360     1.7990     2.3530 
  234.7500  -100.7680    53.8100     1.0510     1.3930     1.7670     2.3580 
  234.8750  -100.4080    51.8700     1.1110     1.4550     1.8050     2.3590 
  235.0000  -100.2400    52.6620     1.1330     1.4790     1.8230     2.3520 
  235.1250  -100.2230    53.7290     1.1240     1.4690     1.7980     2.3380 
  235.2500  -100.2650    53.1640     1.0870     1.4300     1.7300     2.3290 
  235.3750  -100.3060    52.1590     1.0490     1.3910     1.6220     2.3320 
  235.5000  -100.2190    52.1400     1.0250     1.3660     1.5340     2.3420 
  235.6250   -99.9950    51.4860     1.0260     1.3670     1.5630     2.3530 
  235.7500   -99.7510    47.8170     1.0440     1.3850     1.6690     2.3590 
  235.8750   -99.6000    43.9610     1.0460     1.3870     1.7450     2.3620 
  236.0000   -99.5790    44.0570     1.0060     1.3460     1.8320     2.3660 
  236.1250   -99.6670    47.9980     0.9330     1.2700     1.9740     2.3690 
  236.2500   -99.7840    51.6390     0.8480     1.1820     1.9490     2.3640 
  236.3750   -99.9740    53.2710     0.7980     1.1300     1.7120     2.3460 
  236.5000  -100.2080    54.6440     0.8160     1.1490     1.7910     2.3310 
  236.6250  -100.4560    56.6710     0.9050     1.2410     2.3610     2.3250 
  236.7500  -100.6740    59.8470     1.0440     1.3860     2.7970     2.3210 
  236.8750  -100.8760    65.3050     1.2070     1.5550     2.8360     2.3150 
  237.0000  -101.0480    71.6330     1.3300     1.6830     2.7460     2.3130 
  237.1250  -101.1360    78.9500     1.3740     1.7290     2.5960     2.3260 
  237.2500  -101.0720    85.5950     1.3400     1.6940     2.4230     2.3430 
  237.3750  -100.7600    89.7950     1.2760     1.6270     2.2830     2.3550 
  237.5000  -100.3470    90.5880     1.2250     1.5740     2.2130     2.3550 
  237.6250   -99.9600    91.0880     1.2230     1.5720     2.2420     2.3460 
  237.7500   -99.6750    94.0760     1.2600     1.6110     2.2890     2.3350 
  237.8750   -99.5900    98.5520     1.3170     1.6700     2.2880     2.3290 
  238.0000   -99.6180   100.8360     1.3700     1.7250     2.3040     2.3260 
  238.1250   -99.6730    99.9700     1.3940     1.7500     2.3890     2.3210 
  238.2500   -99.7350    99.2040     1.3920     1.7470     2.4330     2.3210 
  238.3750   -99.7770   102.7340     1.3740     1.7290     2.3360     2.3290 
  238.5000   -99.7450   106.9030     1.3710     1.7260     2.1900     2.3340 
  238.6250   -99.6230   107.5270     1.4030     1.7590     2.1730     2.3320 
  238.7500   -99.4790   105.9420     1.4550     1.8130     2.3640     2.3300 
  238.8750   -99.4570   105.1830     1.5200     1.8810     2.6880     2.3400 
  239.0000   -99.6310   105.9480     1.5750     1.9380     2.8900     2.3510 
  239.1250   -99.9320   106.1970     1.6030     1.9670     2.8550     2.3520 
  239.2500  -100.2000   103.7110     1.6000     1.9640     2.8050     2.3460 
  239.3750  -100.3640    99.7550     1.5780     1.9410     2.8430     2.3350 
  239.5000  -100.4940    97.2000     1.5550     1.9170     2.8510     2.3210 
  239.6250  -100.7160    97.0530     1.5950     1.9590     2.7570     2.3040 
  239.7500  -100.9720    95.8750     1.7720     2.1430     2.6410     2.2930 
  239.8750  -101.2720    94.8820     2.0920     2.4750     2.8920     2.2970 
  240.0000  -101.7780    95.3690     2.5640     2.9660     4.2070     2.3160 
  240.1250  -102.7190    95.2520     3.1810     3.6080     6.5390     2.3300 
  240.2500  -104.1920    90.6500     3.8990     4.3540     7.9130     2.3120 
  240.3750  -106.2340    83.5370     4.5760     5.0590     7.4080     2.2690 
  240.5000  -108.4150    78.4480     5.1290     5.6340     6.8460     2.2370 
  240.6250  -110.1530    74.9450     5.5840     6.1070     7.2500     2.2230 
  240.7500  -111.2800    71.3080     6.0360     6.5770     8.1130     2.2080 
  240.8750  -111.9240    66.1930     6.5650     7.1270     8.9870     2.1850 
  241.0000  -112.2740    61.6620     7.1600     7.7470     9.4830     2.1680 
  241.1250  -112.3700    59.2350     7.7110     8.3200     9.5040     2.1590 
  241.2500  -112.3660    56.7430     8.2400     8.8690     9.4680     2.1520 
  241.3750  -112.4090    53.9930     8.7460     9.3960     9.6300     2.1520 
  241.5000  -112.6000    51.4720     9.1870     9.8540     9.8260     2.1590 
  241.6250  -112.9600    50.6360     9.4510    10.1290     9.9760     2.1650 
  241.7500  -113.3270    51.0110     9.4690    10.1480    10.1210     2.1630 
  241.8750  -113.6190    51.7000     9.2430     9.9130     9.9270     2.1600 
  242.0000  -113.8330    52.1120     8.7920     9.4440     9.2180     2.1600 
  242.1250  -114.0510    50.8870     8.2020     8.8310     8.3960     2.1610 
  242.2500  -114.3230    48.8630     7.6370     8.2430     7.7760     2.1590 
  242.3750  -114.6260    49.5860     7.1130     7.6970     7.3000     2.1570 
  242.5000  -114.9710    53.2890     6.7320     7.3010     6.9430     2.1570 
  242.6250  -115.3270    58.3850     6.5020     7.0620     6.6360     2.1630 
  242.7500  -115.7380    62.5020     6.4330     6.9900     6.2800     2.1780 
  242.8750  -116.1380    63.8330     6.6040     7.1690     6.1030     2.2030 
  243.0000  -116.4930    61.7600     6.9140     7.4910     6.6360     2.2320 
