~V
VERS. 2.00: Ver 2.00
~W
STRT.M 55.0000:
STOP.M 207.0000:
STEP.M 0.1250:
NULL. -999.2500:
UWI. F11112:
~C
DEPT.M :
SP.MV :
RML.OHMM :
RI. :
RXO.OHMM :
CALI.CM :
DEN.GM/CC :
GR.API :
~A
# ...
  122.5000    -5.3860    16.4580    16.2000    14.6370    24.1430     2.4870    51.5620 
  122.6250    -5.3300    16.7640    16.3470    15.1690    24.4110     2.4570    52.9140 
  122.7500    -5.2330    17.2680    16.7160    16.2330    24.8800     2.4320    53.3720 
  122.8750    -5.1430    17.7540    17.1370    16.5360    25.4100     2.4280    53.7090 
  123.0000    -5.0200    18.0430    17.4450    16.3810    25.7490     2.4420    53.4160 
  123.1250    -4.8580    18.0320    17.5070    16.4240    25.9030     2.4630    52.0890 
  123.2500    -4.6540    17.7340    17.2670    15.6570    25.9570     2.4840    50.6280 
  123.3750    -4.4670    17.3880    16.9160    14.4360    25.9860     2.5040    49.7020 
  123.5000    -4.3360    17.1970    16.6430    13.4510    26.0100     2.5120    48.7330 
  123.6250    -4.2530    17.2900    16.5970    12.8990    26.0460     2.5030    48.3430 
  123.7500    -4.2240    17.7310    16.8760    13.4150    26.0960     2.4890    50.3780 
  123.8750    -4.2430    18.3880    17.3870    14.6220    26.1060     2.4870    52.9240 
  124.0000    -4.3310    19.1630    18.0480    15.9340    26.0540     2.4970    53.4340 
  124.1250    -4.5080    19.9800    18.7850    16.7330    25.9580     2.5060    52.5280 
  124.2500    -4.7640    20.8060    19.5630    16.9780    25.9190     2.5060    52.0920 
  124.3750    -4.9380    21.6230    20.3650    17.1820    25.9300     2.5010    52.3420 
  124.5000    -5.0240    22.3910    21.1690    17.9890    25.9600     2.4980    52.4050 
  124.6250    -5.0870    23.0160    21.9040    19.3300    25.9450     2.5010    52.1080 
  124.7500    -5.1610    23.2950    22.3830    19.9540    25.8840     2.5000    51.5290 
  124.8750    -5.2170    23.1590    22.4920    19.4250    25.7820     2.4940    51.3110 
  125.0000    -5.2690    22.6070    22.1790    18.6700    25.7000     2.4880    52.4210 
  125.1250    -5.2690    21.7560    21.5050    17.7670    25.7480     2.4860    54.8920 
  125.2500    -5.2590    20.8030    20.6270    16.6580    25.8860     2.4830    56.8180 
  125.3750    -5.3470    19.9600    19.7780    15.6610    25.9860     2.4750    56.8370 
  125.5000    -5.5500    19.3360    19.0890    15.1210    26.0340     2.4680    55.3060 
  125.6250    -5.7800    18.9810    18.6360    15.1730    26.0510     2.4670    54.6130 
  125.7500    -5.9890    18.9520    18.4900    15.5180    26.1270     2.4690    55.9860 
  125.8750    -6.1950    19.1760    18.5990    15.9040    26.1870     2.4670    56.4250 
  126.0000    -6.3870    19.5920    18.9240    16.4400    26.2150     2.4660    54.4560 
  126.1250    -6.5540    20.1030    19.3880    17.2050    26.2730     2.4710    51.6700 
  126.2500    -6.6900    20.5770    19.8780    17.9530    26.4120     2.4860    50.1290 
  126.3750    -6.8100    20.9200    20.2860    18.3490    26.5060     2.5050    49.0220 
  126.5000    -6.8750    21.1010    20.5610    18.5820    26.5660     2.5190    47.5030 
  126.6250    -6.9010    21.1410    20.6940    18.2350    26.6100     2.5210    46.0890 
  126.7500    -6.9100    21.0840    20.7050    17.4850    26.6170     2.5110    45.1530 
  126.8750    -6.9090    21.0040    20.6640    17.7230    26.6000     2.5020    44.9660 
  127.0000    -6.8680    20.9150    20.6000    18.7320    26.5700     2.4970    45.0020 
  127.1250    -6.8140    20.7880    20.5060    19.7370    26.5820     2.4990    44.3250 
  127.2500    -6.7670    20.5110    20.3060    19.8220    26.6130     2.5090    42.9690 
  127.3750    -6.7370    19.9750    19.8920    18.9820    26.6210     2.5240    43.1890 
  127.5000    -6.7080    19.0890    19.1550    18.3460    26.6140     2.5340    45.3560 
  127.6250    -6.6910    17.8520    18.0550    17.7190    26.6070     2.5370    47.8810 
  127.7500    -6.7090    16.3870    16.6600    16.3740    26.6010     2.5360    48.4610 
  127.8750    -6.7450    15.0020    15.2600    13.7170    26.5930     2.5310    48.7870 
  128.0000    -6.8270    13.9460    14.1010    11.0830    26.5910     2.5230    50.8660 
  128.1250    -6.9520    13.3770    13.3620     9.8330    26.5870     2.5170    53.7950 
  128.2500    -7.1040    13.3860    13.1790    10.0550    26.5880     2.5200    54.2160 
  128.3750    -7.2480    13.7590    13.3980    11.2180    26.5880     2.5340    52.7400 
  128.5000    -7.4320    14.3220    13.8810    12.6940    26.6050     2.5530    51.8710 
  128.6250    -7.6470    14.9080    14.4730    13.7080    26.6110     2.5700    52.2100 
  128.7500    -7.8630    15.3710    15.0130    13.7950    26.6290     2.5760    53.8210 
  128.8750    -8.0520    15.6780    15.4210    13.3870    26.6540     2.5740    56.4430 
  129.0000    -8.2410    15.8230    15.6700    13.3490    26.6840     2.5680    58.7920 
  129.1250    -8.4330    15.7910    15.7340    13.9170    26.7160     2.5660    59.1170 
  129.2500    -8.6540    15.5360    15.5530    14.2820    26.7370     2.5640    58.9790 
  129.3750    -8.8840    15.1250    15.1720    14.2360    26.7570     2.5520    61.3480 
  129.5000    -9.0910    14.6550    14.6700    13.4510    26.7700     2.5270    65.3820 
  129.6250    -9.2620    14.2660    14.1740    12.1700    26.7680     2.4950    69.0130 
  129.7500    -9.4030    14.1410    13.8640    11.4630    26.7550     2.4660    71.5010 
  129.8750    -9.5630    14.3020    13.8060    12.0180    26.7440     2.4470    74.1810 
  130.0000    -9.7000    14.7120    13.9980    13.0880    26.7580     2.4390    76.8270 
  130.1250    -9.8100    15.2950    14.3840    14.0810    26.8130     2.4380    78.1080 
  130.2500    -9.8570    16.0030    14.9090    14.5480    26.8350     2.4400    78.1960 
  130.3750    -9.9100    16.8110    15.5100    14.7550    26.8330     2.4370    79.2820 
  130.5000    -9.9590    17.7740    16.2100    14.9600    26.8130     2.4310    81.0460 
  130.6250   -10.0040    18.9810    17.0790    15.7130    26.7760     2.4220    81.4910 
  130.7500   -10.0210    20.5700    18.2650    17.2200    26.8020     2.4150    81.3850 
  130.8750   -10.0610    22.4900    19.7740    18.8360    26.8530     2.4060    81.7210 
  131.0000   -10.1710    24.6280    21.5570    20.4820    26.9120     2.3920    81.6380 
  131.1250   -10.3080    26.7660    23.4530    22.3080    26.9600     2.3760    79.8250 
  131.2500   -10.4330    28.4900    25.1340    24.3640    27.0020     2.3630    78.5290 
  131.3750   -10.5390    29.5170    26.3030    26.5850    27.0250     2.3560    79.1970 
  131.5000   -10.6550    29.6670    26.7560    27.9870    27.0430     2.3580    81.1190 
  131.6250   -10.7770    28.9320    26.4280    26.8670    27.0320     2.3640    82.3220 
  131.7500   -10.9090    27.3760    25.2930    24.2390    26.9850     2.3700    82.5170 
  131.8750   -10.9780    25.3950    23.6670    22.0010    26.9290     2.3740    84.4410 
  132.0000   -10.9730    23.2580    21.7810    21.1280    26.9080     2.3800    86.4410 
  132.1250   -10.9040    21.2040    19.8750    19.8540    26.9050     2.3930    86.0400 
  132.2500   -10.8460    19.4810    18.2090    17.4110    26.8790     2.4170    84.9570 
  132.3750   -10.7900    18.1460    16.8740    15.2530    26.8570     2.4460    85.5800 
  132.5000   -10.7630    17.2080    15.8950    14.4840    26.8480     2.4680    84.9080 
  132.6250   -10.7320    16.6240    15.2420    14.5000    26.8440     2.4790    80.1730 
  132.7500   -10.6990    16.3650    14.9000    14.0460    26.8370     2.4750    75.4900 
  132.8750   -10.6270    16.3160    14.7660    12.8900    26.8200     2.4660    74.8310 
  133.0000   -10.5460    16.4360    14.8000    12.2520    26.7890     2.4580    77.6000 
  133.1250   -10.5230    16.7070    14.9770    12.4260    26.7450     2.4540    81.2800 
  133.2500   -10.5520    17.1320    15.3040    13.0880    26.6950     2.4560    83.2340 
  133.3750   -10.5770    17.6190    15.7160    14.0020    26.6350     2.4630    83.0920 
  133.5000   -10.5710    18.0230    16.1080    15.1070    26.5750     2.4750    82.4370 
  133.6250   -10.5650    18.1280    16.2970    16.2050    26.4950     2.4880    82.1340 
