~V
VERS. 2.00: Ver 2.00
~W
STRT.M 53.0000:
STOP.M 252.0000:
STEP.M 0.1250:
NULL. -999.2500:
UWI. F11141:
~C
DEPT.M :
SP.MV :
DEN.GM/CC :
GR.API :
RML.OHMM :
RI. :
RXO.OHMM :
CALI.CM :
~A
# ...
   86.7500   -29.0180     1.8740    64.9930    10.3050     8.2000    12.7200    25.5630 
   86.8750   -28.1260     1.9490    67.7010    10.8210     8.5250    11.8100    24.9540 
   87.0000   -27.1740     2.0870    68.5830    11.7030     9.1240    12.0960    24.5910 
   87.1250   -26.1560     2.2300    68.5660    12.6890     9.8650    14.9690    24.3870 
   87.2500   -25.2560     2.3200    68.0970    13.3160    10.4090    18.9570    24.1740 
   87.3750   -24.6270     2.3410    68.2340    13.2710    10.4780    18.8880    23.9320 
   87.5000   -24.3030     2.3100    68.7910    12.5440    10.0120    14.2500    23.8520 
   87.6250   -24.2460     2.2610    70.1970    11.4730     9.2210    12.0620    23.8860 
   87.7500   -24.3630     2.2170    72.0650    10.5710     8.4820    11.4560    23.9540 
   87.8750   -24.7130     2.1830    71.4870    10.0600     7.9740    11.5430    24.0060 
   88.0000   -25.2650     2.1530    69.4860     9.9640     7.7520    11.7440    24.0540 
   88.1250   -25.8810     2.1300    68.8460    10.1760     7.8120    12.0340    24.1080 
   88.2500   -26.3960     2.1150    68.9090    10.4620     8.0110    12.4090    24.0590 
   88.3750   -26.7010     2.1100    67.4110    10.7140     8.2530    12.6590    24.0070 
   88.5000   -26.7460     2.1110    65.7370    10.8960     8.4660    12.7470    23.9720 
   88.6250   -26.5640     2.1140    67.5350    10.9940     8.5880    12.3470    23.9330 
   88.7500   -26.2170     2.1130    68.3630    10.9970     8.5960    11.8250    23.8580 
   88.8750   -25.6550     2.1080    66.6850    10.8680     8.4720    12.1870    23.8080 
   89.0000   -24.9500     2.1040    66.9500    10.5830     8.2150    12.4170    23.7520 
   89.1250   -24.1020     2.1110    73.4580    10.1540     7.8370    11.6860    23.6200 
   89.2500   -23.1850     2.1300    79.4500     9.6860     7.4140    10.1240    23.4850 
   89.3750   -22.3080     2.1570    79.0090     9.2420     7.0020     9.1700    23.5690 
   89.5000   -21.5720     2.1820    74.4240     8.8340     6.6300     9.6680    23.6430 
   89.6250   -20.9720     2.1870    72.4510     8.4460     6.3230     9.9510    23.6530 
   89.7500   -20.4180     2.1710    73.3640     8.1620     6.1290    10.0690    23.9260 
   89.8750   -19.8910     2.1450    73.7160     8.2300     6.1750    10.2360    24.3870 
   90.0000   -19.4460     2.1380    74.1120     8.9930     6.6390    11.0600    24.6270 
   90.1250   -19.1880     2.1860    78.3240    10.9460     7.8510    11.8430    24.6230 
   90.2500   -19.0640     2.2800    83.3500    13.9270     9.8570    17.0080    24.5710 
   90.3750   -19.0590     2.3830    83.2410    17.3790    12.5040    36.6790    24.5000 
   90.5000   -19.1630     2.4450    77.8810    20.0330    14.9960    65.6180    24.3990 
   90.6250   -19.5510     2.4220    73.8390    19.8800    15.5430    66.1190    24.3650 
   90.7500   -20.1820     2.3440    73.4500    17.2390    13.9550    38.5230    24.3370 
   90.8750   -20.8540     2.2570    73.2040    13.2310    11.3330    19.1630    24.3190 
   91.0000   -21.4260     2.1970    71.7250     9.9650     8.8640    11.2690    24.2780 
   91.1250   -21.8860     2.1800    72.8800     8.1620     7.1970     8.2030    24.2650 
   91.2500   -22.3130     2.1820    76.2030     7.4260     6.2290     7.1700    24.3310 
   91.3750   -22.7210     2.1830    78.5170     7.4760     5.8390     7.3290    24.3570 
   91.5000   -23.1510     2.1740    79.0870     8.0090     5.8900     8.2460    24.2670 
   91.6250   -23.4940     2.1520    79.1920     8.7210     6.2530     9.5570    24.1260 
   91.7500   -23.6720     2.1230    79.0080     9.3600     6.7220    10.4290    24.1090 
   91.8750   -23.7990     2.1000    77.8910     9.9050     7.2240    10.9050    24.0970 
   92.0000   -23.9610     2.1010    78.0550    10.4750     7.7690    11.2830    24.0350 
   92.1250   -24.1630     2.1430    81.7120    11.2380     8.4160    11.7770    24.1390 
   92.2500   -24.3690     2.2050    84.7090    12.1560     9.1490    13.4070    24.3710 
   92.3750   -24.5190     2.2550    85.2170    13.0180     9.8550    16.4940    24.4820 
   92.5000   -24.5750     2.2650    84.1960    13.4680    10.3040    18.8180    24.4270 
   92.6250   -24.6480     2.2270    80.7730    13.0950    10.1680    13.8910    24.3180 
   92.7500   -24.8880     2.1790    76.3000    12.1430     9.5650    11.8970    24.2760 
   92.8750   -25.2940     2.1470    74.8510    11.0230     8.7570    11.3690    24.3290 
   93.0000   -25.8000     2.1370    76.7700    10.1250     8.0120    11.2320    24.4600 
   93.1250   -26.4130     2.1360    74.3710     9.7340     7.5420    11.1420    24.5880 
   93.2500   -27.1200     2.1300    69.3110     9.7390     7.3450    11.2390    24.6400 
   93.3750   -27.8640     2.1210    66.8490     9.9490     7.3520    11.8960    24.5810 
   93.5000   -28.4950     2.1130    66.9400    10.1540     7.4510    12.3860    24.6210 
   93.6250   -28.8260     2.1120    67.4330    10.2070     7.5260    12.3230    24.7870 
   93.7500   -28.9280     2.1130    68.3670    10.1140     7.5280    12.5580    24.6830 
   93.8750   -28.9060     2.1120    70.3300     9.9120     7.4520    12.5250    24.3970 
   94.0000   -28.7980     2.1010    72.9490     9.6760     7.3310    11.9210    24.1240 
   94.1250   -28.5550     2.0780    74.7730     9.5280     7.2410    11.6080    24.0380 
   94.2500   -28.1900     2.0520    73.4040     9.5280     7.2290    11.6250    24.1630 
   94.3750   -27.7790     2.0390    69.5110     9.6630     7.3010    11.8720    24.3800 
   94.5000   -27.3860     2.0490    66.8540     9.8530     7.4200    12.1390    24.5150 
   94.6250   -26.9460     2.0850    67.0340     9.9590     7.5100    12.2060    24.5400 
   94.7500   -26.4450     2.1250    67.3320     9.9040     7.5110    11.8820    24.5440 
   94.8750   -25.9990     2.1510    67.8260     9.7040     7.4160    11.3140    24.6010 
   95.0000   -25.7180     2.1540    69.9290     9.4510     7.2680    10.7350    24.6910 
   95.1250   -25.6370     2.1400    73.6300     9.2710     7.1370    10.8950    24.8180 
   95.2500   -25.6320     2.1220    75.7710     9.2060     7.0660    11.7740    24.9350 
   95.3750   -25.7040     2.1120    73.8670     9.2390     7.0600    12.0640    25.0100 
   95.5000   -25.9480     2.1100    68.8100     9.3180     7.1010    11.8980    25.0180 
   95.6250   -26.4110     2.1160    67.1000     9.3770     7.1590    11.7150    25.0010 
   95.7500   -27.0120     2.1200    69.6470     9.3970     7.2100    11.7180    25.0220 
   95.8750   -27.6350     2.1180    72.4450     9.3970     7.2540    11.8950    25.0550 
   96.0000   -28.1800     2.1100    73.2160     9.4120     7.3050    11.9910    25.0810 
   96.1250   -28.5650     2.0990    73.0040     9.4780     7.3780    11.8230    25.1370 
   96.2500   -28.7710     2.0840    72.6710     9.5840     7.4670    11.7580    25.1760 
   96.3750   -28.6790     2.0630    71.3980     9.6750     7.5380    11.6520    25.0350 
   96.5000   -28.1960     2.0360    71.4890     9.6680     7.5350    11.5530    24.6830 
   96.6250   -27.3850     2.0150    73.6710     9.4530     7.3820    11.4510    24.4760 
   96.7500   -26.3210     2.0210    76.0450     9.0540     7.0910    10.7770    24.5570 
   96.8750   -25.0230     2.0610    79.4460     8.5490     6.7100     9.1340    24.6020 
   97.0000   -23.6040     2.1290    85.8760     8.0650     6.3220     7.4310    24.3870 
   97.1250   -22.2710     2.2000    91.3230     7.7550     6.0300     6.9090    24.1510 
   97.2500   -21.2710     2.2520    91.5650     7.6570     5.8750     6.9600    24.0390 
   97.3750   -20.6920     2.2770    89.4840     7.7630     5.8710     7.1160    23.9310 
   97.5000   -20.4890     2.2790    88.8100     8.0160     5.9930     7.3880    23.7240 
   97.6250   -20.6930     2.2640    88.1090     8.3070     6.1880     7.7060    23.4990 
   97.7500   -21.2140     2.2400    84.8470     8.5330     6.3730     8.0380    23.4960 
   97.8750   -21.8910     2.2150    80.1000     8.6710     6.5140     9.0370    23.6840 
