~V
VERS. 2.00: Ver 2.00
~W
STRT.M 62.0000:
STOP.M 217.0000:
STEP.M 0.1250:
NULL. -999.2500:
UWI. F11126:
~C
DEPT.M :
DEN.GM/CC :
SP.MV :
GR.API :
RML.OHMM :
RI. :
RXO.OHMM :
CALI.CM :
~A
# ...
  107.0000     2.0810   -24.9520    65.5710     7.1060     5.9490     9.4680    30.8760 
  107.1250     2.0900   -25.0160    64.7270     7.0630     5.9190     9.3020    31.0640 
  107.2500     2.1030   -25.0670    64.5580     7.0550     5.9090     9.3710    31.1380 
  107.3750     2.1080   -25.0630    65.0950     7.0890     5.9250     9.7080    31.1950 
  107.5000     2.0960   -25.0220    65.1520     7.1530     5.9600     9.8520    31.3040 
  107.6250     2.0690   -24.9990    64.0270     7.2090     5.9890     9.8250    31.3930 
  107.7500     2.0360   -24.9770    62.5510     7.2290     5.9890     9.6510    31.4710 
  107.8750     2.0180   -24.8870    61.8230     7.1980     5.9450     9.4600    31.5510 
  108.0000     2.0400   -24.7590    63.5770     7.1080     5.8440     9.3160    31.5450 
  108.1250     2.0890   -24.5610    67.5080     6.9790     5.7070     9.2810    31.3670 
  108.2500     2.1390   -24.2990    71.1040     6.8320     5.5560     9.2580    31.1390 
  108.3750     2.1660   -24.0280    71.6500     6.6960     5.4200     9.0210    30.9200 
  108.5000     2.1660   -23.8190    69.1400     6.6160     5.3430     8.5940    30.8350 
  108.6250     2.1620   -23.6890    66.3230     6.6150     5.3360     8.1610    30.8770 
  108.7500     2.1590   -23.7070    63.9080     6.7000     5.3990     8.0240    30.8710 
  108.8750     2.1530   -23.8880    62.5690     6.8610     5.5170     8.3500    30.7550 
  109.0000     2.1340   -24.1700    63.7030     7.0660     5.6670     9.1740    30.7140 
  109.1250     2.1070   -24.5360    65.0330     7.2650     5.8110     9.5300    30.8400 
  109.2500     2.0880   -24.9710    63.5400     7.4220     5.9220     9.6500    31.0540 
  109.3750     2.0880   -25.4340    61.3240     7.5180     5.9860     9.7400    31.1190 
  109.5000     2.1090   -25.8360    62.9040     7.5520     5.9940     9.9260    30.8750 
  109.6250     2.1330   -26.1730    66.7190     7.5570     5.9750    10.1080    30.5090 
  109.7500     2.1460   -26.4280    69.8960     7.5530     5.9490    10.2510    30.2470 
  109.8750     2.1490   -26.5890    70.9760     7.5440     5.9290    10.3700    30.1290 
  110.0000     2.1470   -26.6910    70.0670     7.5230     5.9180    10.4770    30.1400 
  110.1250     2.1460   -26.7080    68.5680     7.4940     5.9090    10.4300    30.2130 
  110.2500     2.1430   -26.6930    66.4430     7.4710     5.8970    10.2960    30.3130 
  110.3750     2.1350   -26.6510    64.0710     7.4610     5.8780    10.1590    30.4060 
  110.5000     2.1220   -26.5950    63.3690     7.4650     5.8550    10.0870    30.5050 
  110.6250     2.1110   -26.5540    64.6310     7.4720     5.8320    10.1280    30.6400 
  110.7500     2.1020   -26.5080    65.1210     7.4670     5.8130    10.2180    30.7850 
  110.8750     2.0940   -26.4870    63.4680     7.4430     5.7990    10.2390    30.9270 
  111.0000     2.0850   -26.4020    62.2810     7.4000     5.7890    10.1680    31.0620 
  111.1250     2.0750   -26.3350    62.4730     7.3480     5.7850    10.0720    31.1270 
  111.2500     2.0590   -26.2230    62.5570     7.2970     5.7900    10.0410    31.1470 
  111.3750     2.0340   -26.0190    61.5980     7.2560     5.8050    10.0280    31.1580 
  111.5000     2.0110   -25.6670    60.5810     7.2430     5.8370     9.9470    31.1770 
  111.6250     2.0060   -25.1500    61.7720     7.2760     5.8850     9.9170    31.1770 
  111.7500     2.0220   -24.5000    65.1250     7.3790     5.9640     9.9430    31.0770 
  111.8750     2.0560   -23.6580    68.2700     7.5650     6.0930     9.9490    30.7050 
  112.0000     2.0950   -22.6240    69.4060     7.8200     6.2880    10.0220    30.0740 
  112.1250     2.1210   -21.3610    69.9030     8.0560     6.5070    10.0100    29.4990 
  112.2500     2.1220   -19.9190    70.0330     8.1710     6.6750     9.7590    29.2190 
  112.3750     2.1130   -18.3310    70.9490     8.0700     6.6970     9.2570    29.3950 
  112.5000     2.1420   -16.6250    74.3000     7.6700     6.4650     8.3500    29.8140 
  112.6250     2.2110   -14.9070    79.7960     7.0850     6.0340     7.3660    29.8530 
  112.7500     2.2740   -13.2350    86.8120     6.4470     5.4970     6.4910    29.2140 
  112.8750     2.2860   -11.7340    94.1660     5.8900     4.9700     5.5670    28.5990 
  113.0000     2.2670   -10.4880    97.8440     5.5250     4.5740     5.1380    28.2880 
  113.1250     2.2650    -9.4830    97.5710     5.3230     4.3270     5.0580    28.0610 
  113.2500     2.2830    -8.6790    98.5840     5.2370     4.2120     4.9860    27.8790 
  113.3750     2.3100    -8.1100   103.6880     5.2170     4.1890     4.8060    27.7050 
  113.5000     2.3320    -7.8480   108.4970     5.2320     4.2110     4.5990    27.5380 
  113.6250     2.3440    -7.7570   111.6640     5.2610     4.2360     4.5180    27.3240 
  113.7500     2.3430    -7.7660   114.5490     5.2970     4.2540     4.5580    27.0910 
  113.8750     2.3350    -7.7750   115.0580     5.3360     4.2730     4.6830    26.9010 
  114.0000     2.3220    -7.7300   111.1920     5.3780     4.3130     4.8010    26.7070 
  114.1250     2.3070    -7.6300   108.5540     5.4370     4.3890     4.8320    26.4930 
  114.2500     2.2950    -7.5520   109.8190     5.5300     4.5100     4.8570    26.2800 
  114.3750     2.2880    -7.5870   111.3180     5.6580     4.6730     4.9560    26.0610 
  114.5000     2.2880    -7.7300   108.6920     5.7920     4.8510     5.2240    25.8860 
  114.6250     2.2900    -7.9420   104.6470     5.8780     4.9980     5.5710    25.7350 
  114.7500     2.2930    -8.0860   101.5390     5.8780     5.0790     5.8550    25.6080 
  114.8750     2.2940    -8.1500   100.9060     5.7870     5.0790     5.8640    25.5090 
  115.0000     2.2910    -8.1510   103.9220     5.6410     5.0100     5.5110    25.4450 
  115.1250     2.2850    -8.2030   107.0850     5.5180     4.9260     5.3000    25.3940 
  115.2500     2.2760    -8.2690   106.5270     5.4610     4.8630     5.3500    25.3060 
  115.3750     2.2700    -8.2370   101.6070     5.4780     4.8350     5.4300    25.1990 
  115.5000     2.2680    -8.1150    95.4330     5.5360     4.8260     5.4890    25.1570 
  115.6250     2.2690    -7.9510    92.1210     5.5670     4.7960     5.5070    25.1340 
  115.7500     2.2730    -7.8370    93.3690     5.5320     4.7220     5.5680    25.0620 
  115.8750     2.2800    -7.7990    98.2780     5.4300     4.6040     5.5860    24.9610 
  116.0000     2.2920    -7.8740   103.9080     5.3160     4.4810     5.4010    24.9930 
  116.1250     2.3040    -7.9400   107.6550     5.3050     4.4290     5.2780    25.0720 
  116.2500     2.3150    -7.9690   108.6630     5.5240     4.5310     5.4050    25.1460 
  116.3750     2.3270    -7.9590   105.7840     6.0840     4.8720     5.9750    25.1930 
  116.5000     2.3480    -7.8930    98.3700     7.0950     5.5720     7.5360    25.2130 
  116.6250     2.3820    -7.9100    90.3560     8.4160     6.5860    10.0690    25.2110 
  116.7500     2.4120    -8.0830    84.6670     9.8700     7.8450    13.2020    25.2220 
  116.8750     2.4020    -8.4600    81.9490    11.2220     9.2070    16.4520    25.2400 
  117.0000     2.3270    -9.0180    79.7970    12.1990    10.4470    17.6930    25.2490 
  117.1250     2.2360    -9.6570    77.7120    12.8670    11.4180    16.9550    25.2200 
  117.2500     2.1680   -10.3430    76.5940    13.3600    12.0930    16.6320    25.2480 
  117.3750     2.1310   -11.0620    75.9740    13.8600    12.5420    17.3480    25.3900 
  117.5000     2.1190   -11.7700    75.3380    14.3980    12.8190    18.0190    25.5420 
  117.6250     2.1190   -12.3040    75.1590    14.7980    12.9290    17.8180    25.6000 
  117.7500     2.1290   -12.6140    75.2890    14.4620    12.7610    16.9300    25.5840 
  117.8750     2.1440   -12.6130    74.7900    13.6940    12.1900    15.8830    25.5590 
  118.0000     2.1680   -12.2150    75.3430    12.4240    11.1150    14.7250    25.5140 
  118.1250     2.2040   -11.5430    78.6390    10.9060     9.7510    13.1620    25.4360 
