~V
VERS. 2.00: Ver 2.00
~W
STRT.M 55.0000:
STOP.M 201.0000:
STEP.M 0.1250:
NULL. -999.2500:
UWI. F11111:
~C
DEPT.M :
GR.API :
RML.OHMM :
RI. :
RXO.OHMM :
CALI.CM :
SP.MV :
DEN.GM/CC :
~A
# ...
   66.2500    66.9870     6.8600     7.4880     7.8760    20.0650   -35.4460     2.0890 
   66.3750    67.0890     7.1700     7.7750     8.1610    19.9650   -35.8800     2.0940 
   66.5000    65.7210     7.3620     7.9670     8.3860    20.0170   -36.2260     2.0880 
   66.6250    65.1740     7.3230     7.9420     8.0560    20.5760   -36.5210     2.0730 
   66.7500    66.3530     7.1120     7.7330     7.4810    20.9690   -36.7630     2.0580 
   66.8750    68.6440     6.8360     7.4250     7.0780    21.2500   -36.9500     2.0490 
   67.0000    71.3360     6.6170     7.1330     6.7980    21.4160   -37.1100     2.0460 
   67.1250    73.8310     6.5520     6.9710     6.5720    21.3020   -37.2500     2.0420 
   67.2500    73.7270     6.6110     6.9420     6.4350    21.1210   -37.3880     2.0360 
   67.3750    70.8320     6.7190     6.9960     6.3750    20.7780   -37.5290     2.0290 
   67.5000    68.5030     6.7730     7.0420     6.2970    20.6600   -37.6710     2.0260 
   67.6250    70.2710     6.6700     6.9650     6.1930    20.6940   -37.7730     2.0320 
   67.7500    74.8450     6.4480     6.7580     6.1050    20.8680   -37.8230     2.0440 
   67.8750    79.6490     6.1960     6.4790     6.0150    21.1610   -37.8270     2.0580 
   68.0000    80.4800     6.0200     6.2200     5.9270    21.3050   -37.7980     2.0660 
   68.1250    78.3480     6.0240     6.0900     5.8990    21.5130   -37.7470     2.0650 
   68.2500    77.4150     6.1920     6.1050     6.0170    21.6220   -37.6910     2.0570 
   68.3750    78.2890     6.4790     6.2490     6.1630    21.3480   -37.6340     2.0500 
   68.5000    78.9210     6.8010     6.4660     6.2630    21.2770   -37.5710     2.0460 
   68.6250    75.4860     7.0430     6.6750     6.3570    21.8260   -37.5110     2.0490 
   68.7500    69.6840     7.1570     6.8110     6.4990    22.3600   -37.4760     2.0540 
   68.8750    64.1150     7.1570     6.8530     6.6810    22.1450   -37.4500     2.0590 
   69.0000    61.0650     7.0970     6.8220     6.8180    20.9780   -37.4050     2.0630 
   69.1250    62.0790     7.0390     6.7600     6.8190    20.6630   -37.3070     2.0690 
   69.2500    65.3120     7.0220     6.7120     6.8860    20.8050   -37.1480     2.0790 
   69.3750    67.5000     7.0500     6.6900     6.9940    21.1570   -36.9390     2.0900 
   69.5000    65.9840     7.1170     6.6900     7.0540    21.5990   -36.6780     2.0990 
   69.6250    62.9360     7.2040     6.6930     7.0440    21.4600   -36.3480     2.1000 
   69.7500    64.2690     7.2650     6.6740     7.0030    20.8410   -35.9330     2.0930 
   69.8750    71.3080     7.2530     6.6050     6.9420    20.6260   -35.4310     2.0800 
   70.0000    79.4590     7.1280     6.4570     6.8530    20.5220   -34.8460     2.0610 
   70.1250    83.9200     6.8760     6.2080     6.7870    20.3410   -34.2120     2.0360 
   70.2500    86.1340     6.5750     5.9030     6.6820    21.1750   -33.6090     2.0080 
   70.3750    87.9080     6.3070     5.5990     6.3470    23.1600   -33.0890     1.9830 
   70.5000    89.0890     6.1490     5.3590     5.9240    24.8400   -32.7030     1.9710 
   70.6250    87.8090     6.1700     5.2560     5.7620    24.4530   -32.4780     1.9780 
   70.7500    83.4780     6.3320     5.2850     6.0450    22.6860   -32.3910     1.9980 
   70.8750    78.1300     6.5790     5.4180     6.4440    20.9040   -32.4320     2.0170 
   71.0000    73.6150     6.8390     5.6070     6.7030    20.2490   -32.5920     2.0240 
   71.1250    72.6020     7.0600     5.7970     6.8320    20.4770   -32.8570     2.0140 
   71.2500    72.4630     7.2630     5.9710     6.8540    21.0910   -33.1650     2.0030 
   71.3750    70.4000     7.5130     6.1570     6.8430    21.7450   -33.4640     2.0110 
   71.5000    66.9820     7.8610     6.3960     7.1750    21.9790   -33.7020     2.0550 
   71.6250    65.0690     8.3190     6.7120     9.1140    21.9630   -33.8570     2.1420 
   71.7500    66.4680     8.7920     7.0580    13.8760    22.1290   -33.9640     2.2450 
   71.8750    69.6030     9.1840     7.3690    20.5310    22.3720   -34.0430     2.3290 
   72.0000    70.0760     9.4080     7.5760    21.7610    22.2640   -34.1280     2.3690 
   72.1250    67.5350     9.3950     7.6150    16.7680    21.9880   -34.2560     2.3610 
   72.2500    65.8250     9.2180     7.5200    12.9070    21.5780   -34.3780     2.3330 
   72.3750    66.6180     8.9480     7.3380    12.0720    21.2930   -34.4540     2.3010 
   72.5000    67.6730     8.6670     7.1280    12.5020    21.3440   -34.4810     2.2650 
   72.6250    66.9900     8.4780     6.9670    10.5840    21.6520   -34.4560     2.2250 
   72.7500    66.6940     8.4350     6.9020     9.1490    21.8070   -34.3980     2.1890 
   72.8750    67.3460     8.5530     6.9520     8.4640    21.7960   -34.2980     2.1640 
   73.0000    67.4640     8.7950     7.1050     8.4290    21.6770   -34.1260     2.1530 
   73.1250    64.9510     9.0440     7.3010     8.7330    21.4220   -33.8450     2.1540 
   73.2500    62.6530     9.1370     7.4250     9.1590    21.4480   -33.5240     2.1570 
   73.3750    62.7760     8.9770     7.3880     9.1500    21.6800   -33.2350     2.1580 
   73.5000    65.0910     8.5770     7.1660     8.7340    21.7760   -33.0140     2.1570 
   73.6250    68.8840     8.0530     6.8010     8.2340    21.6880   -32.8780     2.1610 
   73.7500    72.6290     7.5670     6.4130     7.9850    21.5950   -32.8180     2.1720 
   73.8750    74.2960     7.1870     6.0690     8.0370    21.5870   -32.8500     2.1880 
   74.0000    73.3060     6.9400     5.8120     8.4220    21.6160   -32.9760     2.2050 
   74.1250    74.5360     6.8470     5.6830     8.2990    21.4350   -33.1960     2.2120 
   74.2500    79.1640     6.8750     5.6650     8.0270    20.8460   -33.4490     2.2080 
   74.3750    81.0010     7.0010     5.7430     7.7260    20.3700   -33.6790     2.1950 
   74.5000    76.5100     7.1780     5.8870     7.5220    19.9680   -33.8790     2.1790 
   74.6250    70.2350     7.3170     6.0400     7.5590    19.8090   -34.0430     2.1680 
   74.7500    70.0170     7.3500     6.1380     7.5070    20.1020   -34.1530     2.1670 
   74.8750    75.0190     7.2620     6.1500     7.2800    20.9270   -34.1940     2.1750 
   75.0000    79.5800     7.0950     6.0770     7.0430    21.4760   -34.1770     2.1860 
   75.1250    79.0640     6.9380     5.9560     6.9270    21.5840   -34.0970     2.1930 
   75.2500    77.5120     6.8580     5.8550     6.8240    21.6710   -33.9750     2.1890 
   75.3750    76.0260     6.8630     5.8040     6.7600    21.7570   -33.8250     2.1750 
   75.5000    73.6080     6.9140     5.8000     6.7540    21.7880   -33.6570     2.1530 
   75.6250    69.9880     6.9440     5.8090     6.7440    21.7630   -33.4700     2.1270 
   75.7500    67.6680     6.9180     5.7970     6.6800    21.6020   -33.2840     2.1040 
   75.8750    67.8970     6.8430     5.7590     6.4080    21.1150   -33.0750     2.0870 
   76.0000    70.5190     6.7530     5.7100     5.9520    20.8080   -32.8070     2.0770 
   76.1250    73.4500     6.6930     5.6810     5.9480    20.6650   -32.5220     2.0770 
   76.2500    74.8060     6.6890     5.6880     6.7510    20.6940   -32.2910     2.0850 
   76.3750    73.7050     6.8030     5.7610     7.5860    20.8880   -32.1250     2.0970 
   76.5000    70.5560     7.1470     5.9670     8.1300    21.1790   -31.9950     2.1130 
   76.6250    67.0380     7.9330     6.4630     8.2830    21.3610   -31.8740     2.1320 
   76.7500    66.8890     9.1410     7.2970     8.1200    21.3710   -31.6770     2.1570 
   76.8750    69.9660    10.5890     8.4330     8.3800    21.3230   -31.4060     2.1910 
   77.0000    74.1950    11.8060     9.6260    10.5710    21.4800   -31.1090     2.2330 
   77.1250    77.6280    11.8750    10.1980    16.5680    22.2900   -30.7740     2.2740 
   77.2500    83.4570    10.6550     9.7590    16.9210    23.0980   -30.3730     2.2990 
   77.3750    91.9230     8.7130     8.5030    11.8520    23.6480   -29.9120     2.2950 
