~V
VERS. 2.00: Ver 2.00
~W
STRT.M 50.0000:
STOP.M 221.0000:
STEP.M 0.1250:
NULL. -999.2500:
UWI. F11120:
~C
DEPT.M :
DEN.GM/CC :
GR.API :
RML.OHMM :
RI. :
RXO.OHMM :
CALI.CM :
SP.MV :
~A
# ...
  140.0000     2.2390    79.4010     8.4890     7.9050     9.0260    26.4220   -14.7250 
  140.1250     2.2460    74.8810     8.1320     7.6600     7.2550    26.4680   -14.7950 
  140.2500     2.2550    75.3770     7.6640     7.2810     6.4110    26.5090   -14.8650 
  140.3750     2.2660    79.6290     7.2660     6.9130     6.2420    26.5280   -14.9460 
  140.5000     2.2740    82.7760     7.1140     6.7020     6.4390    26.5450   -15.0480 
  140.6250     2.2790    82.1030     7.4460     6.8370     6.9540    26.5870   -15.1790 
  140.7500     2.2820    79.9620     8.2760     7.3520     7.6090    26.6470   -15.3280 
  140.8750     2.2790    76.5930     9.5900     8.2580     8.6250    26.7120   -15.4840 
  141.0000     2.2650    71.6090    11.3040     9.5310    10.8430    26.7670   -15.6480 
  141.1250     2.2440    66.0810    13.2800    11.1400    15.7680    26.8220   -15.8440 
  141.2500     2.2210    61.6100    15.2960    12.9160    19.8970    26.8650   -16.0920 
  141.3750     2.2040    58.9520    17.2910    14.7740    19.3860    26.8960   -16.3960 
  141.5000     2.1950    57.7200    19.3860    16.7310    17.6510    26.9200   -16.7410 
  141.6250     2.1930    57.4550    21.9550    19.0100    20.2450    26.9510   -17.1160 
  141.7500     2.1860    57.7680    25.2160    21.8080    26.5540    26.9980   -17.5080 
  141.8750     2.1730    57.7420    29.2430    25.2620    32.7670    27.0570   -17.9090 
  142.0000     2.1620    55.9410    33.7780    29.2640    37.6770    27.0730   -18.3060 
  142.1250     2.1620    53.0020    37.8090    33.0970    41.4490    27.0260   -18.6840 
  142.2500     2.1690    52.5600    39.9240    35.4930    43.6430    26.9850   -19.0300 
  142.3750     2.1780    54.7660    39.0020    35.3070    44.4820    26.9640   -19.3320 
  142.5000     2.1880    57.4630    35.0470    32.3240    41.5930    26.9440   -19.5850 
  142.6250     2.2010    58.6210    29.3840    27.5610    32.2750    26.9120   -19.7900 
  142.7500     2.2170    60.3660    24.1270    22.9540    22.3040    26.8980   -19.9670 
  142.8750     2.2340    63.7600    20.2490    19.3970    15.6730    26.8910   -20.1290 
  143.0000     2.2490    66.8130    18.0630    17.1940    13.6320    26.8790   -20.2870 
  143.1250     2.2580    67.4180    17.7110    16.5030    16.1290    26.8570   -20.4460 
  143.2500     2.2630    65.6110    18.6260    16.9250    18.6460    26.8660   -20.6040 
  143.3750     2.2620    61.8910    20.5010    18.2860    19.5330    26.9060   -20.7680 
  143.5000     2.2540    58.2070    22.9810    20.3710    20.8140    26.9170   -20.9400 
  143.6250     2.2340    55.9410    25.5390    22.8150    25.2520    26.8690   -21.1090 
  143.7500     2.2110    55.0870    27.5660    24.9970    28.8640    26.8250   -21.2580 
  143.8750     2.2000    55.9000    28.6580    26.4570    30.7050    26.7930   -21.3810 
  144.0000     2.2090    59.1830    28.6390    26.9150    30.6550    26.7680   -21.4740 
  144.1250     2.2300    62.9690    27.4730    26.2030    28.3390    26.7870   -21.5310 
  144.2500     2.2410    63.9790    25.7760    24.8420    25.2100    26.8090   -21.5690 
  144.3750     2.2400    62.5940    24.0560    23.3110    23.1000    26.7540   -21.5930 
  144.5000     2.2370    61.3610    22.6930    21.9990    22.2330    26.6160   -21.6070 
  144.6250     2.2450    61.4760    21.9870    21.2200    21.5590    26.5460   -21.6060 
  144.7500     2.2570    62.3940    21.8490    20.9680    20.8040    26.5260   -21.5900 
  144.8750     2.2640    63.2310    22.0950    21.1510    21.0540    26.5260   -21.5660 
  145.0000     2.2670    63.1430    22.4100    21.5350    22.2540    26.5220   -21.5560 
  145.1250     2.2640    63.7830    22.3700    21.7470    23.0210    26.5030   -21.5790 
  145.2500     2.2560    67.0110    21.8200    21.5300    23.2980    26.4560   -21.6260 
  145.3750     2.2450    70.1630    20.8000    20.8250    21.3360    26.3890   -21.6930 
  145.5000     2.2370    70.3160    19.5170    19.7730    17.5320    26.3410   -21.7810 
  145.6250     2.2370    67.6640    18.2710    18.6470    15.6320    26.3140   -21.8970 
  145.7500     2.2360    64.2640    17.2670    17.6830    15.2280    26.3090   -22.0430 
  145.8750     2.2320    62.1840    16.5820    16.9730    15.2650    26.3180   -22.2140 
  146.0000     2.2330    63.4670    16.2400    16.5490    14.7860    26.3450   -22.3820 
  146.1250     2.2470    66.8320    16.2480    16.4460    13.5500    26.3940   -22.5030 
  146.2500     2.2660    67.7490    16.4610    16.5590    12.7380    26.4080   -22.5620 
  146.3750     2.2780    66.4580    16.7920    16.8170    14.1760    26.3870   -22.5620 
  146.5000     2.2760    66.6460    17.1710    17.1400    16.0630    26.4100   -22.5170 
  146.6250     2.2670    67.1640    17.5330    17.4300    16.2220    26.4740   -22.4450 
  146.7500     2.2600    64.7290    17.8600    17.6360    15.3220    26.5140   -22.3600 
  146.8750     2.2600    61.8750    18.2030    17.7970    15.5540    26.5520   -22.2640 
  147.0000     2.2630    62.1000    18.6910    18.0440    17.4660    26.6300   -22.1630 
  147.1250     2.2630    64.4140    19.6170    18.6510    19.5670    26.7420   -22.0760 
  147.2500     2.2600    64.1220    21.1960    19.7990    19.2980    26.8330   -22.0180 
  147.3750     2.2520    61.5620    23.6740    21.6840    19.8400    26.9190   -21.9920 
  147.5000     2.2380    60.4260    27.2440    24.4690    22.9980    26.9800   -21.9870 
  147.6250     2.2180    60.0040    32.1490    28.3990    28.7010    26.9970   -21.9930 
  147.7500     2.1960    56.8590    37.9340    33.1590    34.2650    27.0410   -21.9960 
  147.8750     2.1760    52.7960    43.9900    38.2940    37.3880    27.1330   -21.9910 
  148.0000     2.1660    51.6320    49.4680    43.0770    38.6320    27.2850   -21.9790 
  148.1250     2.1660    52.4660    53.3980    46.5750    41.3340    27.4550   -21.9660 
  148.2500     2.1670    52.3370    55.9190    48.7920    46.2940    27.5580   -21.9420 
  148.3750     2.1620    52.5170    57.4460    50.0560    50.5760    27.5370   -21.8990 
  148.5000     2.1540    54.4750    58.4320    50.7990    51.8340    27.4150   -21.8390 
  148.6250     2.1460    56.5200    59.2240    51.3650    51.4890    27.2600   -21.7690 
  148.7500     2.1440    56.3770    60.1050    51.9860    52.0230    27.2100   -21.6970 
  148.8750     2.1450    54.8740    61.1550    52.7030    53.2830    27.2240   -21.6290 
  149.0000     2.1470    53.0630    62.2460    53.4050    55.3750    27.2440   -21.5610 
  149.1250     2.1460    51.9950    62.8820    53.7450    55.6250    27.2490   -21.4870 
  149.2500     2.1440    51.7680    62.5940    53.4420    53.3080    27.2450   -21.3990 
  149.3750     2.1430    52.8630    61.1450    52.3530    48.3520    27.2370   -21.2920 
  149.5000     2.1460    54.3120    58.7140    50.6090    45.9660    27.2400   -21.1590 
  149.6250     2.1520    55.7130    55.8340    48.6150    46.3430    27.3140   -20.9940 
  149.7500     2.1580    55.9230    53.1750    46.8900    43.6200    27.4310   -20.8000 
  149.8750     2.1570    54.7660    51.0920    45.7290    38.0680    27.4510   -20.5740 
  150.0000     2.1520    52.9980    49.8040    45.2860    34.1820    27.3550   -20.3190 
  150.1250     2.1470    50.9360    49.6310    45.7510    38.7050    27.2940   -20.0470 
  150.2500     2.1450    49.8130    50.5140    47.0150    46.0260    27.3280   -19.7840 
  150.3750     2.1450    50.3300    52.3850    49.0470    52.9860    27.3690   -19.5460 
  150.5000     2.1460    52.2610    54.6010    51.4590    57.8910    27.3670   -19.3320 
  150.6250     2.1520    53.2090    54.6550    52.2040    61.1380    27.3070   -19.1380 
  150.7500     2.1680    52.1010    49.9700    48.5340    61.2970    27.2230   -18.9560 
  150.8750     2.1960    51.5830    40.1810    39.6330    56.3880    27.1320   -18.7810 
  151.0000     2.2270    53.8560    28.2060    28.3350    44.2720    26.9930   -18.6090 
  151.1250     2.2490    59.7210    18.2890    18.9870    25.4570    26.8340   -18.4400 
