~V
VERS. 2.00: Ver 2.00
~W
STRT.M 50.0000:
STOP.M 209.0000:
STEP.M 0.1250:
NULL. -999.2500:
UWI. F11109:
~C
DEPT.M :
GR.API :
RML.OHMM :
RI. :
RXO.OHMM :
CALI.CM :
SP.MV :
DEN.GM/CC :
~A
# ...
  117.5000    58.2840    10.2480     8.3420     8.0420    25.3980   -16.8630     2.4320 
  117.6250    55.5130    12.7610    10.0600     9.5990    25.4410   -16.7310     2.4940 
  117.7500    52.4730    15.9560    12.4130    13.5300    25.3510   -16.6420     2.5590 
  117.8750    47.9290    19.1980    15.0380    18.5110    25.1270   -16.5680     2.6040 
  118.0000    44.2380    21.4590    17.1680    21.0760    25.0180   -16.5150     2.6080 
  118.1250    43.8820    21.5340    17.6870    20.7250    25.0780   -16.5080     2.5700 
  118.2500    45.3980    20.0680    16.8560    18.8140    25.1330   -16.5150     2.5240 
  118.3750    46.7770    18.2710    15.5290    15.4650    25.1160   -16.5150     2.4950 
  118.5000    48.3130    17.3280    14.5910    12.9710    25.0430   -16.5140     2.4990 
  118.6250    50.0130    18.1600    14.7520    12.8000    24.9320   -16.5310     2.5390 
  118.7500    50.1350    20.4550    15.9590    16.9370    24.9030   -16.5670     2.5870 
  118.8750    48.5740    23.6210    17.9760    24.0770    24.9110   -16.6390     2.6180 
  119.0000    47.0170    26.6480    20.2230    28.4340    24.9100   -16.7510     2.6190 
  119.1250    45.7490    28.0660    21.6340    26.5260    24.8860   -16.8880     2.5940 
  119.2500    44.8220    27.6990    21.7860    22.7000    24.9310   -17.0360     2.5570 
  119.3750    44.4020    26.2860    21.0310    20.6100    25.0830   -17.1810     2.5130 
  119.5000    44.4660    24.9330    20.1130    19.8220    25.2700   -17.2860     2.4700 
  119.6250    44.4080    24.5690    19.7460    19.7630    25.3590   -17.3150     2.4400 
  119.7500    43.9070    25.1740    20.0580    19.5380    25.3900   -17.3050     2.4330 
  119.8750    43.4020    26.4790    20.9560    20.4590    25.4160   -17.2600     2.4530 
  120.0000    43.2210    28.0300    22.1760    23.0130    25.3960   -17.1700     2.4950 
  120.1250    43.4680    29.1100    23.2120    26.2400    25.3300   -17.0600     2.5440 
  120.2500    43.1480    29.2210    23.5880    27.3420    25.2890   -16.9770     2.5800 
  120.3750    43.3000    28.2150    23.0950    25.6870    25.2380   -16.9000     2.6020 
  120.5000    45.3340    26.3510    21.8690    21.9740    25.1530   -16.8050     2.6140 
  120.6250    47.8420    24.1760    20.2830    19.6340    25.1230   -16.7080     2.6230 
  120.7500    47.7790    22.2480    18.7890    17.0040    25.2130   -16.6060     2.6240 
  120.8750    46.0560    20.7800    17.5810    15.6490    25.4250   -16.4830     2.6180 
  121.0000    45.6890    19.7870    16.7120    15.5990    25.4340   -16.3470     2.6050 
  121.1250    46.0870    19.1990    16.1740    16.4720    25.3990   -16.2150     2.5930 
  121.2500    46.0620    18.8030    15.8250    15.6530    25.3550   -16.0950     2.5830 
  121.3750    46.4400    18.4910    15.5830    14.1880    25.3330   -16.0200     2.5680 
  121.5000    47.5850    18.2010    15.3830    13.1730    25.3100   -16.0020     2.5450 
  121.6250    49.1350    17.9720    15.2320    13.1450    25.3010   -16.0320     2.5210 
  121.7500    50.2370    17.8950    15.1860    13.2430    25.2900   -16.1140     2.5080 
  121.8750    50.0480    18.0470    15.3070    12.7190    25.2850   -16.2480     2.5150 
  122.0000    48.9300    18.4340    15.6110    12.6950    25.3200   -16.4230     2.5370 
  122.1250    49.1970    18.9890    16.0660    14.7000    25.3550   -16.6350     2.5560 
  122.2500    51.4150    19.5120    16.5250    17.4480    25.3820   -16.8470     2.5560 
  122.3750    52.1050    19.8310    16.8520    17.9930    25.3960   -17.0280     2.5420 
  122.5000    49.7060    19.8620    16.9560    16.6100    25.4590   -17.1670     2.5270 
  122.6250    47.8270    19.6430    16.8270    14.8250    25.3750   -17.2690     2.5280 
  122.7500    48.3840    19.3920    16.6270    14.1720    25.3560   -17.3230     2.5460 
  122.8750    48.9910    19.2650    16.4820    14.3170    25.3510   -17.3320     2.5720 
  123.0000    46.9470    19.3420    16.4760    15.3030    25.2830   -17.3200     2.5940 
  123.1250    46.0650    19.6210    16.6420    15.5850    25.1290   -17.2930     2.6000 
  123.2500    48.1800    19.9930    16.9100    16.3220    25.0080   -17.2800     2.5930 
  123.3750    50.1990    20.4030    17.2350    16.5750    24.9090   -17.2900     2.5810 
  123.5000    48.4570    20.8030    17.5730    16.8590    24.7980   -17.3220     2.5720 
  123.6250    45.3820    21.1260    17.8620    16.5380    24.7130   -17.3630     2.5690 
  123.7500    46.1010    21.3510    18.0730    16.3420    24.6940   -17.3880     2.5700 
  123.8750    49.9470    21.4990    18.2170    16.2160    24.7150   -17.4020     2.5730 
  124.0000    52.2940    21.6480    18.3470    16.3760    24.7370   -17.4030     2.5770 
  124.1250    50.4490    21.9280    18.5580    16.6530    24.7610   -17.4070     2.5820 
  124.2500    48.5660    22.3820    18.8910    18.0830    24.7780   -17.4240     2.5870 
  124.3750    48.9020    22.9690    19.3380    18.8300    24.7840   -17.4560     2.5880 
  124.5000    49.6430    23.5900    19.8410    18.6130    24.7960   -17.5140     2.5810 
  124.6250    49.4560    24.1390    20.3300    18.6740    24.8340   -17.6230     2.5590 
  124.7500    49.8180    24.6130    20.7850    19.6670    24.9650   -17.7710     2.5290 
  124.8750    52.2510    25.0710    21.2360    20.2280    25.2790   -17.9140     2.4980 
  125.0000    55.0820    25.5640    21.7160    21.0130    25.8360   -18.0330     2.4740 
  125.1250    54.2940    26.0410    22.2040    21.7560    25.7100   -18.1150     2.4630 
  125.2500    50.5110    26.3410    22.5850    23.7580    25.5720   -18.1570     2.4640 
  125.3750    47.7020    26.3020    22.7210    24.7650    25.4450   -18.1730     2.4760 
  125.5000    48.4150    25.8390    22.5160    23.8400    25.4260   -18.1680     2.4980 
  125.6250    51.6630    24.9290    21.9150    23.6710    25.4440   -18.1420     2.5210 
  125.7500    53.5470    23.7870    21.0810    22.4100    25.4480   -18.0990     2.5260 
  125.8750    53.5130    22.6060    20.1700    21.4820    25.4450   -18.0500     2.5050 
  126.0000    52.6410    21.5910    19.3550    20.4460    25.4220   -17.9890     2.4680 
  126.1250    51.7780    20.9950    18.8450    18.5100    25.3760   -17.9110     2.4360 
  126.2500    50.5500    20.8330    18.6780    17.4910    25.4460   -17.8300     2.4240 
  126.3750    48.0460    21.0440    18.8280    17.4730    25.4760   -17.7450     2.4330 
  126.5000    45.1770    21.4400    19.1700    18.9690    25.4310   -17.6620     2.4550 
  126.6250    43.6870    21.6810    19.4470    20.7240    25.3260   -17.5980     2.4760 
  126.7500    43.9100    21.5150    19.4160    20.8010    25.2170   -17.5500     2.4920 
  126.8750    45.7930    20.8890    18.9860    19.5990    25.2020   -17.5170     2.5040 
  127.0000    48.0790    19.9650    18.2540    17.7380    25.3050   -17.4750     2.5140 
  127.1250    50.1940    19.0900    17.4860    16.7380    25.3760   -17.4220     2.5240 
  127.2500    51.5380    18.5570    16.9440    15.7740    25.4130   -17.3570     2.5350 
  127.3750    51.9140    18.4820    16.7520    15.0740    25.4100   -17.2830     2.5420 
  127.5000    50.9450    18.8360    16.9210    15.3780    25.3930   -17.2060     2.5380 
  127.6250    48.3480    19.4910    17.3860    16.7280    25.4060   -17.1420     2.5190 
  127.7500    46.5250    20.1600    17.9250    17.6680    25.4000   -17.0800     2.4950 
  127.8750    46.8570    20.6410    18.3630    17.6570    25.3770   -17.0040     2.4770 
  128.0000    48.8090    20.8100    18.5740    17.0090    25.3540   -16.9280     2.4750 
  128.1250    49.3020    20.6370    18.4980    16.9010    25.3470   -16.8860     2.4900 
  128.2500    47.1660    20.3030    18.2730    17.1810    25.3380   -16.8670     2.5130 
  128.3750    44.9880    19.9380    18.0060    17.2010    25.3360   -16.8590     2.5340 
  128.5000    45.3810    19.6190    17.7670    17.2070    25.3350   -16.8640     2.5480 
  128.6250    46.1850    19.3850    17.5870    16.8650    25.3610   -16.8870     2.5550 
