~V
VERS. 2.00: Ver 2.00
~W
STRT.M 63.0000:
STOP.M 246.0000:
STEP.M 0.1250:
NULL. -999.2500:
UWI. F11137:
~C
DEPT.M :
DEN.GM/CC :
GR.API :
RML.OHMM :
RI. :
RXO.OHMM :
CALI.CM :
SP.MV :
~A
# ...
  153.0000     2.3790    79.1640    10.9510     9.0060     9.0350    25.1510    -3.1980 
  153.1250     2.3720    80.4940    11.4700     9.5890    11.9370    24.8220    -3.3740 
  153.2500     2.3540    83.3470    11.6830     9.9400    12.6390    24.6430    -3.5590 
  153.3750     2.3330    84.9940    11.6480    10.0270    11.3350    24.7330    -3.7520 
  153.5000     2.3190    84.9620    11.5340     9.9620    10.5870    24.8720    -3.9130 
  153.6250     2.3130    82.9810    11.5620     9.9500    10.2630    24.8160    -4.0290 
  153.7500     2.3090    81.3510    11.7960    10.1060    10.0740    24.7310    -4.0800 
  153.8750     2.3010    81.9830    12.1840    10.4100     9.9920    24.6430    -4.0960 
  154.0000     2.2900    82.5490    12.6200    10.7780     9.9750    24.6110    -4.0900 
  154.1250     2.2780    80.0830    12.9820    11.0980    10.6030    24.6690    -4.0900 
  154.2500     2.2710    78.3040    13.2430    11.3180    11.3090    24.6940    -4.0470 
  154.3750     2.2700    78.6720    13.4360    11.4490    11.6710    24.6560    -3.9450 
  154.5000     2.2750    78.2830    13.6310    11.5500    11.8220    24.6450    -3.8150 
  154.6250     2.2810    75.6810    13.9100    11.7110    12.0260    24.7220    -3.6960 
  154.7500     2.2880    75.8740    14.2740    11.9680    12.4030    24.8450    -3.6260 
  154.8750     2.2910    77.9250    14.6790    12.3080    13.0970    24.9670    -3.6470 
  155.0000     2.2920    76.7820    15.0570    12.6860    13.5510    25.0380    -3.7360 
  155.1250     2.2920    73.8140    15.3260    13.0350    13.6620    24.9780    -3.8520 
  155.2500     2.2930    73.9240    15.4810    13.3220    13.6120    24.8630    -3.9920 
  155.3750     2.2970    76.3220    15.5470    13.5520    13.7240    24.8260    -4.1410 
  155.5000     2.3010    77.2590    15.5680    13.7370    13.7470    24.8680    -4.2540 
  155.6250     2.3010    75.9870    15.5860    13.8870    13.9890    24.8770    -4.3870 
  155.7500     2.2960    76.9360    15.6000    14.0120    13.8620    24.8020    -4.5320 
  155.8750     2.2880    80.4630    15.5570    14.0800    13.4720    24.6800    -4.6770 
  156.0000     2.2790    82.8230    15.3570    14.0170    13.0550    24.6410    -4.8220 
  156.1250     2.2740    80.0630    14.8170    13.6420    13.3220    24.7960    -4.9940 
  156.2500     2.2740    75.6620    13.9070    12.8810    13.7910    25.0580    -5.1270 
  156.3750     2.2790    74.1760    12.6730    11.7370    13.5990    25.2590    -5.2370 
  156.5000     2.2870    76.8270    11.2860    10.3650    12.2620    25.3240    -5.4080 
  156.6250     2.2970    83.6320    10.0690     9.0690     9.9090    25.2940    -5.6430 
  156.7500     2.3070    90.6730     9.3210     8.1140     8.1460    25.2660    -5.8990 
  156.8750     2.3170    93.1460     9.2920     7.6890     7.0680    25.2490    -6.1280 
  157.0000     2.3250    90.3250    10.1850     7.9510     7.5400    25.2250    -6.2990 
  157.1250     2.3300    84.8830    12.2790     9.2370     9.9220    25.1920    -6.3720 
  157.2500     2.3270    80.9710    15.2280    11.5510    13.3210    25.2290    -6.4640 
  157.3750     2.3160    78.5180    18.4320    14.7400    19.1160    25.3440    -6.6100 
  157.5000     2.2980    75.4190    20.8850    18.0220    25.8830    25.4010    -6.7080 
  157.6250     2.2790    71.2580    21.2110    19.5110    28.0150    25.3450    -6.6320 
  157.7500     2.2670    69.7640    19.5360    18.5600    23.2280    25.1510    -6.4520 
  157.8750     2.2630    73.8440    16.6800    15.9830    16.8630    24.8530    -6.2760 
  158.0000     2.2680    81.5100    13.7990    13.1610    11.4400    24.4980    -6.1830 
  158.1250     2.2780    86.9430    11.9670    11.1680    10.1300    24.2360    -6.2640 
  158.2500     2.2930    87.1750    11.3410    10.1570     9.8260    24.0250    -6.3630 
  158.3750     2.3080    83.2570    11.8560    10.1220     9.6000    23.9150    -6.3980 
  158.5000     2.3170    82.2600    13.3160    11.0340    10.2030    23.8720    -6.4090 
  158.6250     2.3150    84.6710    15.3830    12.8900    14.4520    23.8290    -6.5000 
  158.7500     2.3040    82.8690    17.2980    15.1070    18.3540    23.7520    -6.6440 
  158.8750     2.2920    75.9600    18.3890    16.9220    19.2440    23.6510    -6.8100 
  159.0000     2.2860    70.7970    18.2270    17.5380    18.2240    23.5610    -7.0010 
  159.1250     2.2900    72.2790    16.7540    16.5290    16.1040    23.5270    -7.1280 
  159.2500     2.2990    74.4140    14.7930    14.7780    13.8890    23.5490    -7.2790 
  159.3750     2.3060    76.1180    12.9620    12.9930    11.5230    23.6070    -7.4760 
  159.5000     2.3100    79.0190    11.6360    11.5850     9.7190    23.6860    -7.7460 
  159.6250     2.3090    80.8550    10.9940    10.7660     9.5460    23.7910    -8.0400 
  159.7500     2.3070    81.7000    10.7960    10.4080    10.0510    23.9360    -8.3770 
  159.8750     2.3040    81.6170    10.8420    10.3810    10.5660    24.1220    -8.6460 
  160.0000     2.3000    81.5520    10.9250    10.4950    10.4440    24.2970    -8.8020 
  160.1250     2.2940    81.5390    10.8650    10.5250    10.5280    24.3780    -8.7600 
  160.2500     2.2900    81.0140    10.6430    10.3740    10.6400    24.4080    -8.5970 
  160.3750     2.2880    80.1260    10.3200    10.0720    10.0450    24.4250    -8.3880 
  160.5000     2.2890    79.3310     9.9930     9.7040     8.9910    24.4210    -8.1240 
  160.6250     2.2930    81.2080     9.7640     9.3680     8.5550    24.3270    -7.7990 
  160.7500     2.2990    86.5650     9.6640     9.1180     9.3710    24.2580    -7.4160 
  160.8750     2.3060    91.5700     9.7110     8.9790     9.8100    24.2730    -7.0190 
  161.0000     2.3120    92.8740     9.9350     8.9760     9.5620    24.3120    -6.6100 
  161.1250     2.3200    90.0570    10.4760     9.1890     9.0180    24.1800    -6.2900 
  161.2500     2.3300    86.7440    11.4700     9.6960     9.9260    23.8730    -6.0490 
  161.3750     2.3400    83.4720    13.1670    10.6740    11.7190    23.5850    -5.8350 
  161.5000     2.3470    79.7260    15.8750    12.3960    13.4340    23.5490    -5.6460 
  161.6250     2.3410    75.3800    20.1230    15.4790    16.1570    23.6900    -5.5130 
  161.7500     2.3190    71.0200    25.7150    20.1470    21.2360    23.7310    -5.4140 
  161.8750     2.2820    67.3590    32.0800    26.3930    29.7010    23.7810    -5.3470 
  162.0000     2.2410    66.6700    37.9200    33.3050    37.9940    24.0250    -5.3350 
  162.1250     2.2110    66.7000    40.9050    38.1970    41.1400    24.4030    -5.3700 
  162.2500     2.1980    66.1880    40.3350    39.1490    40.8710    24.7620    -5.3990 
  162.3750     2.2010    67.5810    36.7680    36.3000    38.1720    25.0900    -5.4690 
  162.5000     2.2100    72.0260    31.7750    31.4830    31.7390    25.5080    -5.5850 
  162.6250     2.2170    76.6010    27.1040    26.7540    24.8730    25.8580    -5.6920 
  162.7500     2.2220    78.8500    23.4940    22.9970    22.3800    26.0140    -5.7650 
  162.8750     2.2280    80.6740    20.9710    20.2450    21.3050    25.9800    -5.8430 
  163.0000     2.2410    81.7530    19.3930    18.3710    20.0970    25.8900    -5.9510 
  163.1250     2.2570    80.8090    18.8220    17.4450    19.0690    25.8110    -6.1210 
  163.2500     2.2700    78.4320    19.1240    17.3540    18.3210    25.7540    -6.3390 
  163.3750     2.2750    74.4970    20.2690    18.1480    18.3910    25.7390    -6.5340 
  163.5000     2.2720    71.7050    22.0670    19.8110    20.6210    25.7340    -6.6710 
  163.6250     2.2620    72.4350    24.0320    22.1310    25.4280    25.6690    -6.7580 
  163.7500     2.2520    75.2160    25.4460    24.3020    30.9540    25.5880    -6.8450 
  163.8750     2.2460    77.1360    25.8280    25.5560    34.1760    25.5200    -6.9410 
  164.0000     2.2480    77.7370    25.0790    25.4730    31.4480    25.4730    -7.0010 
  164.1250     2.2620    77.4170    23.4810    24.1780    24.9740    25.4170    -6.9810 
