~V
VERS. 2.00: Ver 2.00
~W
STRT.M 14.0000:
STOP.M 209.0000:
STEP.M 0.1250:
NULL. -999.2500:
UWI. F11100:
~C
DEPT.M :
GR.API :
RML.OHMM :
RI. :
RXO.OHMM :
CALI.CM :
SP.MV :
DEN.GM/CC :
~A
# ...
   70.2500    75.1240     7.2180     6.3640    10.5450    25.6710    -5.9180     2.4760 
   70.3750    77.2850     6.2830     5.7330     6.1400    25.6720    -6.9240     2.4410 
   70.5000    79.9170     5.3560     4.9990     5.1530    25.6730    -7.8780     2.3650 
   70.6250    82.1000     4.8490     4.4890     5.3610    25.6740    -8.7460     2.2940 
   70.7500    83.2850     4.8750     4.3300     5.2510    25.6480    -9.5230     2.2470 
   70.8750    82.6380     5.5030     4.5670     5.4240    25.5660   -10.2500     2.2180 
   71.0000    79.4010     6.7390     5.1720     6.0550    25.4540   -10.9320     2.2020 
   71.1250    73.2960     8.4860     6.0740     7.6910    25.3820   -11.5980     2.2120 
   71.2500    67.3610    10.2110     7.0050    10.6860    25.3660   -12.2410     2.2620 
   71.3750    64.5240    11.2660     7.6670    16.3540    25.3720   -12.8630     2.3420 
   71.5000    64.5490    11.1660     7.7960    21.0830    25.3720   -13.4360     2.4090 
   71.6250    63.2720    10.0010     7.3050    14.6150    25.3710   -13.9130     2.4050 
   71.7500    61.0330     8.6520     6.5740     9.3580    25.3710   -14.2860     2.3470 
   71.8750    60.8580     7.5790     5.8810     7.4660    25.3720   -14.5570     2.2720 
   72.0000    63.3870     6.9720     5.3980     7.1220    25.3680   -14.7730     2.2140 
   72.1250    65.4920     6.9210     5.2380     7.3020    25.3590   -14.9520     2.1840 
   72.2500    65.2460     7.2530     5.3180     7.4060    25.3590   -15.1410     2.1650 
   72.3750    64.0380     7.8210     5.5500     7.4040    25.3540   -15.3430     2.1510 
   72.5000    63.3040     8.4280     5.8260     7.3520    25.2930   -15.5750     2.1530 
   72.6250    62.2110     8.7930     6.0200     7.1930    25.1780   -15.8560     2.1930 
   72.7500    60.4020     8.7860     6.0680     7.2350    25.1390   -16.2100     2.2580 
   72.8750    59.7070     8.4580     5.9620     7.5650    25.2620   -16.6610     2.3110 
   73.0000    59.7940     8.0110     5.7520     7.8230    25.5150   -17.2160     2.3200 
   73.1250    59.1300     7.6770     5.5180     7.7030    25.7940   -17.8770     2.2410 
   73.2500    58.1770     7.5300     5.3290     7.3720    26.0110   -18.5940     2.2070 
   73.3750    57.6370     7.5580     5.2290     7.2320    26.1310   -19.3070     2.1900 
   73.5000    57.7610     7.7280     5.2360     7.4600    26.1670   -19.9730     2.1850 
   73.6250    58.1140     8.0190     5.3610     7.6550    26.1780   -20.5320     2.1930 
   73.7500    58.3830     8.3710     5.5510     7.8670    26.2190   -20.9680     2.2160 
   73.8750    58.8060     8.7230     5.7640     8.9140    26.2820   -21.2720     2.2480 
   74.0000    59.2030     8.9770     5.9450    11.4600    26.3890   -21.4640     2.2710 
   74.1250    59.0160     9.0000     6.0150    13.8390    26.5690   -21.5230     2.2660 
   74.2500    58.3880     8.8170     5.9680    11.2480    26.7520   -21.5090     2.2390 
   74.3750    58.9790     8.5040     5.8280     8.8170    26.8630   -21.4130     2.2020 
   74.5000    60.0900     8.1690     5.6480     7.9120    26.8920   -21.2430     2.1710 
   74.6250    59.4550     7.9270     5.5010     7.7160    26.8870   -20.9630     2.1570 
   74.7500    59.3050     7.8160     5.4290     7.5230    26.8650   -20.5970     2.1550 
   74.8750    60.8570     7.8240     5.4380     7.6430    26.8270   -20.1370     2.1590 
   75.0000    62.6910     7.9130     5.5050     7.9590    26.8000   -19.5840     2.1630 
   75.1250    63.4830     8.0360     5.5970     8.1560    26.7940   -18.9440     2.1600 
   75.2500    64.2650     8.1260     5.6690     8.1650    26.7770   -18.2130     2.1510 
   75.3750    63.9940     8.1100     5.6790     8.0080    26.7320   -17.3920     2.1390 
   75.5000    62.2020     7.9280     5.5910     7.7770    26.6790   -16.4930     2.1310 
   75.6250    62.4760     7.5410     5.3810     7.3300    26.6360   -15.5020     2.1300 
   75.7500    64.8800     7.0780     5.1190     6.7590    26.5730   -14.4420     2.1350 
   75.8750    66.5890     6.6930     4.8880     6.1170    26.4720   -13.3220     2.1450 
   76.0000    68.1940     6.5350     4.7740     5.5320    26.3630   -12.1730     2.1560 
   76.1250    71.4170     6.7310     4.8530     5.9390    26.2450   -11.0620     2.1680 
   76.2500    73.8220     7.1500     5.0710     6.8570    26.0860   -10.0390     2.1730 
   76.3750    74.3550     7.5970     5.3290     8.4710    25.9210    -9.1240     2.1720 
   76.5000    74.6110     7.8240     5.4970     9.7320    25.8260    -8.3180     2.1670 
   76.6250    77.6420     7.5980     5.4290     8.0560    25.8220    -7.5670     2.1650 
   76.7500    81.9660     7.0570     5.1590     6.3860    25.8300    -6.8470     2.1740 
   76.8750    86.6740     6.4080     4.7820     5.0570    25.8270    -6.1340     2.1990 
   77.0000    92.8910     5.8380     4.4120     4.3770    25.8250    -5.4420     2.2370 
   77.1250    98.3210     5.4580     4.1470     3.9960    25.8190    -4.8270     2.2760 
   77.2500    99.2950     5.2120     3.9850     3.9040    25.8010    -4.3340     2.3000 
   77.3750    96.8430     5.0540     3.8970     3.9940    25.7660    -4.0110     2.3080 
   77.5000    95.2420     4.9690     3.8540     4.2570    25.7240    -3.8860     2.3040 
   77.6250    97.1390     5.0540     3.8860     4.5040    25.6740    -4.0070     2.2960 
   77.7500    98.3950     5.4320     4.0660     4.4310    25.5980    -4.3020     2.2920 
   77.8750    96.1960     6.2510     4.4890     4.3990    25.4910    -4.7510     2.3050 
   78.0000    90.8820     7.6260     5.2300     5.1220    25.3860    -5.3110     2.3480 
   78.1250    84.4100     9.5910     6.3370     8.2120    25.3300    -6.0060     2.4210 
   78.2500    78.7880    11.6590     7.5720    14.4410    25.3120    -6.7890     2.4840 
   78.3750    74.3390    13.1310     8.5770    20.2350    25.3050    -7.6680     2.4980 
   78.5000    70.3570    13.3510     8.9810    20.4110    25.2980    -8.6200     2.4550 
   78.6250    67.5700    12.1800     8.5900    15.0910    25.2970    -9.5780     2.3720 
   78.7500    66.4260    10.6250     7.8430    10.4030    25.3000   -10.4820     2.2910 
   78.8750    66.1100     9.3620     7.0960     8.3280    25.3040   -11.2700     2.2290 
   79.0000    65.1190     8.6680     6.5640     7.6220    25.3060   -11.9310     2.1890 
   79.1250    64.4680     8.5530     6.3310     7.3710    25.3060   -12.4260     2.1680 
   79.2500    67.2910     8.7080     6.2810     7.2800    25.3040   -12.7810     2.1560 
   79.3750    70.9930     8.9430     6.3240     7.3330    25.3090   -13.0130     2.1500 
   79.5000    70.7910     9.1210     6.3820     7.4760    25.3370   -13.1490     2.1490 
   79.6250    67.7480     9.1540     6.3950     7.5840    25.4040   -13.2330     2.1510 
   79.7500    67.2440     9.0720     6.3560     7.4520    25.4850   -13.3200     2.1560 
   79.8750    69.0040     8.9260     6.2800     7.1490    25.5450   -13.4410     2.1580 
   80.0000    70.6320     8.7680     6.1860     6.9440    25.5700   -13.5830     2.1580 
   80.1250    70.9540     8.6300     6.0930     6.9230    25.5660   -13.7620     2.1540 
   80.2500    68.6300     8.5080     6.0030     6.9510    25.5690   -13.9520     2.1490 
   80.3750    65.4190     8.3990     5.9150     6.9470    25.6000   -14.1360     2.1410 
   80.5000    63.9990     8.3120     5.8340     6.9900    25.6480   -14.2940     2.1280 
   80.6250    65.8360     8.2660     5.7730     7.0280    25.6770   -14.3940     2.1140 
   80.7500    67.7560     8.2680     5.7400     7.0820    25.6800   -14.4270     2.1050 
   80.8750    69.1930     8.3170     5.7420     7.1360    25.6730   -14.3840     2.1030 
   81.0000    70.4580     8.4010     5.7760     7.0760    25.6680   -14.2930     2.1060 
   81.1250    71.1760     8.4990     5.8340     6.9200    25.6780   -14.1630     2.1100 
   81.2500    70.2680     8.5870     5.8990     6.7600    25.6850   -14.0160     2.1120 
   81.3750    67.4000     8.6520     5.9530     6.7330    25.6160   -13.8670     2.1130 
