~V
VERS. 2.00: Ver 2.00
~W
STRT.M 59.0000:
STOP.M 221.0000:
STEP.M 0.1250:
NULL. -999.2500:
UWI. F11122:
~C
DEPT.M :
GR.API :
RML.OHMM :
RI. :
RXO.OHMM :
CALI.CM :
SP.MV :
DEN.GM/CC :
~A
# ...
   70.2500    68.0880     7.0940     5.9170     8.7730    24.0680   -25.7970     2.1410 
   70.3750    68.2040     7.1790     5.8930     8.7750    24.0440   -25.9970     2.1530 
   70.5000    68.7710     7.3040     5.9400     8.9030    24.1200   -26.1240     2.1680 
   70.6250    72.2590     7.4170     6.0120     9.1000    24.3490   -26.1880     2.1790 
   70.7500    75.5710     7.4880     6.0730     9.0970    24.5110   -26.2310     2.1800 
   70.8750    77.4280     7.5010     6.1030     8.9410    24.4190   -26.2780     2.1720 
   71.0000    78.5840     7.4540     6.0900     8.8200    24.2770   -26.3430     2.1550 
   71.1250    78.9300     7.3620     6.0360     8.8150    24.2530   -26.4180     2.1360 
   71.2500    78.7260     7.2660     5.9680     8.8580    24.3660   -26.4810     2.1220 
   71.3750    76.6540     7.1980     5.9100     8.9600    24.6000   -26.5300     2.1180 
   71.5000    73.8770     7.1770     5.8830     9.0160    24.8160   -26.5750     2.1290 
   71.6250    71.4930     7.2140     5.9030     9.1830    24.8030   -26.6350     2.1540 
   71.7500    70.0100     7.2900     5.9610     9.9550    24.6780   -26.7250     2.1830 
   71.8750    69.5750     7.3860     6.0430    10.9810    24.6310   -26.8060     2.2050 
   72.0000    68.2320     7.4790     6.1280    10.5630    24.6990   -26.8320     2.2140 
   72.1250    64.5800     7.5350     6.1900     9.8510    24.7280   -26.7770     2.2050 
   72.2500    59.8670     7.5340     6.2060     9.6620    24.7530   -26.6730     2.1900 
   72.3750    56.7080     7.4600     6.1630     9.8020    24.8500   -26.5140     2.1750 
   72.5000    57.2430     7.3210     6.0560     9.9000    24.9540   -26.2700     2.1650 
   72.6250    61.2280     7.1530     5.9000     9.8190    24.8140   -25.8960     2.1590 
   72.7500    65.3980     7.0280     5.7460     9.3300    24.6250   -25.3940     2.1540 
   72.8750    69.3880     7.0100     5.6460     8.2520    24.5970   -24.7960     2.1500 
   73.0000    73.2470     7.1320     5.6370     7.0570    24.7160   -24.1340     2.1540 
   73.1250    76.0060     7.3810     5.7410     7.1510    24.8360   -23.4120     2.1750 
   73.2500    78.6710     7.6340     5.8880     8.6220    24.8270   -22.6110     2.2080 
   73.3750    81.9000     7.7700     5.9980     9.8860    24.7920   -21.7280     2.2420 
   73.5000    85.9800     7.7100     5.9980    10.4550    24.6540   -20.7770     2.2640 
   73.6250    88.2560     7.4440     5.8460     9.7380    24.2810   -19.7760     2.2650 
   73.7500    88.4400     7.1320     5.6210     8.7510    24.0140   -18.7690     2.2550 
   73.8750    86.9080     6.9130     5.4120     7.5240    23.9160   -17.7850     2.2410 
   74.0000    84.6610     6.8820     5.3000     6.7810    23.8730   -16.8830     2.2300 
   74.1250    86.0610     7.0720     5.3420     7.3590    23.8140   -16.0960     2.2220 
   74.2500    89.7780     7.3610     5.4920     8.2930    23.7930   -15.4520     2.2160 
   74.3750    91.5740     7.6400     5.6860     9.0650    23.8630   -14.9770     2.2110 
   74.5000    89.2180     7.8210     5.8570     9.5490    24.0530   -14.6610     2.2090 
   74.6250    86.8050     7.8600     5.9470     9.7100    24.2770   -14.5290     2.2080 
   74.7500    86.1190     7.8230     5.9690     9.4530    24.4560   -14.5450     2.2070 
   74.8750    84.7380     7.7710     5.9580     9.1020    24.5300   -14.6490     2.2070 
   75.0000    82.2770     7.7520     5.9510     9.0120    24.5640   -14.7710     2.2080 
   75.1250    79.8140     7.7800     5.9730     9.5580    24.6420   -14.8990     2.2120 
   75.2500    79.6840     7.8280     6.0130    10.0290    24.7130   -15.0670     2.2170 
   75.3750    80.6180     7.8700     6.0550    10.0970    24.7950   -15.2850     2.2210 
   75.5000    79.6840     7.8840     6.0780     9.5980    24.9560   -15.5590     2.2240 
   75.6250    78.1570     7.8510     6.0630     8.5750    25.1090   -15.8500     2.2270 
   75.7500    79.1920     7.7590     6.0000     7.6650    25.1670   -16.0960     2.2260 
   75.8750    81.3390     7.5890     5.8750     7.6110    25.1970   -16.2630     2.2180 
   76.0000    82.0350     7.3260     5.6760     8.0040    25.3280   -16.3210     2.2010 
   76.1250    82.1770     6.9760     5.4030     8.1210    25.7010   -16.2280     2.1840 
   76.2500    84.6410     6.6180     5.1110     7.2140    26.0790   -16.0040     2.1800 
   76.3750    89.6520     6.3440     4.8650     6.1450    26.1280   -15.7110     2.1950 
   76.5000    94.2950     6.2600     4.7370     5.5490    25.8940   -15.4120     2.2240 
   76.6250    93.6090     6.5280     4.8440     6.1240    25.6740   -15.1600     2.2490 
   76.7500    88.3910     7.1580     5.2180     7.2490    25.5630   -14.9730     2.2560 
   76.8750    84.0170     8.1150     5.8780     8.0220    25.6020   -14.9090     2.2480 
   77.0000    83.8320     9.2510     6.7710     8.3790    25.7000   -14.9850     2.2350 
   77.1250    84.9950    10.2330     7.7110     8.5820    25.5770   -15.1820     2.2230 
   77.2500    82.9110    10.7440     8.4030     9.0560    25.2260   -15.3780     2.2060 
   77.3750    78.1110    10.6130     8.6290    10.0030    24.8730   -15.4520     2.1740 
   77.5000    74.2500     9.8890     8.3220     9.1810    24.8080   -15.2900     2.1310 
   77.6250    75.3020     8.7960     7.5720     8.1770    25.1420   -14.7700     2.1040 
   77.7500    81.2630     7.7130     6.7000     7.6470    25.4870   -13.9230     2.1160 
   77.8750    90.6820     6.8270     5.8940     7.2300    25.4580   -12.7970     2.1640 
   78.0000   101.9040     6.2010     5.2530     5.7480    25.1740   -11.5180     2.2220 
   78.1250   111.4280     5.8350     4.8240     4.5850    25.0470   -10.2000     2.2510 
   78.2500   118.4160     5.6150     4.5400     4.0290    25.0830    -8.9030     2.2480 
   78.3750   124.9530     5.4720     4.3570     3.7700    25.1580    -7.6830     2.2330 
   78.5000   132.4270     5.3620     4.2350     3.5910    25.0980    -6.6350     2.2300 
   78.6250   135.6780     5.2700     4.1540     3.5640    24.9450    -5.9170     2.2590 
   78.7500   132.0070     5.2260     4.1120     3.6980    24.5940    -5.5490     2.3080 
   78.8750   124.4550     5.2940     4.1380     3.8850    24.3970    -5.4920     2.3610 
   79.0000   118.2220     5.5500     4.2800     3.9860    24.4170    -5.6890     2.3970 
   79.1250   112.8060     6.0840     4.6090     3.9820    24.5550    -6.1790     2.3960 
   79.2500   103.5700     6.8220     5.1030     4.2440    24.7410    -6.9280     2.3540 
   79.3750    89.5560     7.6400     5.7060     4.9770    25.0670    -7.8470     2.2770 
   79.5000    74.5950     8.3570     6.3070     5.7960    25.5460    -8.8260     2.1890 
   79.6250    65.9650     8.7350     6.7270     6.3930    25.9460    -9.7680     2.1240 
   79.7500    65.4850     8.7570     6.8920     6.7920    26.2620   -10.6360     2.0970 
   79.8750    68.1510     8.4980     6.8080     7.0540    26.3640   -11.4310     2.1040 
   80.0000    68.3980     8.1050     6.5550     6.7750    26.3190   -12.1220     2.1290 
   80.1250    68.7350     7.7370     6.2460     6.3480    26.1750   -12.6010     2.1540 
   80.2500    70.9650     7.4730     5.9740     5.9700    26.2080   -12.8580     2.1720 
   80.3750    72.3690     7.3310     5.7740     5.7740    26.4150   -12.9400     2.1790 
   80.5000    70.0550     7.3130     5.6620     5.8630    26.5890   -12.9220     2.1750 
   80.6250    64.7160     7.4350     5.6590     6.1210    26.6280   -12.8360     2.1620 
   80.7500    61.9860     7.6520     5.7420     6.4060    26.6350   -12.6990     2.1470 
   80.8750    64.6630     7.9110     5.8790     6.8230    26.4270   -12.4980     2.1380 
   81.0000    72.6070     8.1340     6.0220     7.6800    25.9370   -12.2260     2.1380 
   81.1250    77.7290     8.2240     6.1010     8.3920    25.5170   -11.9210     2.1480 
   81.2500    77.2990     8.1860     6.0940     8.4680    25.2930   -11.6280     2.1630 
   81.3750    77.3140     8.0700     6.0160     7.8610    25.1860   -11.4040     2.1840 
