~V
VERS. 2.00: Ver 2.00
~W
STRT.M 50.0000:
STOP.M 240.0000:
STEP.M 0.1250:
NULL. -999.2500:
UWI. F11117:
~C
DEPT.M :
DEN.GM/CC :
GR.API :
RML.OHMM :
RI. :
RXO.OHMM :
CALI.CM :
SP.MV :
~A
# ...
  106.2500     2.2470    62.6980     9.2610     8.8370     8.0970    26.5180   -24.8830 
  106.3750     2.2190    63.5480     8.4870     8.1940     7.9020    26.7100   -24.8740 
  106.5000     2.1970    58.8020     8.1440     7.8900     7.7020    26.8770   -24.7410 
  106.6250     2.1810    54.8170     8.0360     7.8110     7.5300    26.9060   -24.4610 
  106.7500     2.1690    56.8520     7.9900     7.8170     7.4370    26.8620   -24.0280 
  106.8750     2.1600    59.9410     7.9590     7.8550     7.3830    26.7360   -23.4540 
  107.0000     2.1550    58.3420     7.9430     7.9020     7.4130    26.5740   -22.7670 
  107.1250     2.1570    53.6800     7.9610     7.9540     7.5110    26.5010   -21.9210 
  107.2500     2.1670    51.7600     8.0050     7.9990     7.6020    26.5320   -20.9220 
  107.3750     2.1880    53.2720     8.0470     8.0150     7.7830    26.6430   -19.7580 
  107.5000     2.2180    56.0480     8.0450     7.9760     8.2390    26.8190   -18.4240 
  107.6250     2.2540    58.7860     7.9570     7.8570     8.5890    27.1280   -16.9750 
  107.7500     2.2860    59.7210     7.8010     7.6800     8.2930    27.3870   -15.4870 
  107.8750     2.3060    58.6310     7.6170     7.4800     7.5770    27.5660   -14.0620 
  108.0000     2.3090    57.2530     7.4500     7.2920     7.2860    27.7210   -12.7450 
  108.1250     2.2980    56.8350     7.3490     7.1570     7.4820    27.6850   -11.5480 
  108.2500     2.2810    57.0020     7.3180     7.0870     7.6070    27.6820   -10.5700 
  108.3750     2.2650    56.4300     7.3650     7.0990     7.3950    27.6800    -9.8040 
  108.5000     2.2580    56.0530     7.5080     7.2120     7.2160    27.6800    -9.2630 
  108.6250     2.2670    55.4130     7.8070     7.4780     7.2120    27.6600    -8.9840 
  108.7500     2.2910    52.9140     8.2730     7.8880     7.8020    27.5430    -8.8430 
  108.8750     2.3260    50.0000     8.8930     8.4190     8.7980    27.2340    -8.8260 
  109.0000     2.3670    51.2170     9.5970     9.0120    10.3710    27.0540    -8.8810 
  109.1250     2.4030    59.1570    10.2540     9.5670    12.3370    27.1830    -9.0750 
  109.2500     2.4260    66.2910    10.7670    10.0170    13.6450    27.6400    -9.3800 
  109.3750     2.4360    67.4950    11.1390    10.3730    13.1270    27.9450    -9.8190 
  109.5000     2.4370    63.3570    11.5040    10.7420    12.2840    27.9570   -10.4590 
  109.6250     2.4340    59.3880    12.1570    11.3580    13.9000    27.9600   -11.2990 
  109.7500     2.4370    58.5060    13.2440    12.3320    16.7430    27.9680   -12.3650 
  109.8750     2.4450    59.5310    14.7160    13.6150    17.9480    28.0170   -13.6550 
  110.0000     2.4500    60.0120    16.2380    14.8950    20.2020    28.0340   -15.1380 
  110.1250     2.4360    59.2330    16.9950    15.4180    27.8110    28.0740   -16.8290 
  110.2500     2.3930    59.3620    16.4420    14.7730    33.9870    27.9160   -18.6030 
  110.3750     2.3280    61.0880    14.5970    13.1060    27.2980    27.5070   -20.3950 
  110.5000     2.2540    62.2150    12.1090    11.0260    14.9900    27.1760   -22.0930 
  110.6250     2.1950    61.2020     9.8920     9.2230     9.6940    26.9750   -23.5950 
  110.7500     2.1600    58.1620     8.3450     7.9420     7.7500    26.8970   -24.8930 
  110.8750     2.1520    54.8330     7.4670     7.1780     7.0910    26.7750   -25.8930 
  111.0000     2.1640    53.9480     7.0930     6.8190     6.9640    26.6460   -26.6190 
  111.1250     2.1830    55.4800     7.0310     6.7170     7.3200    26.5780   -26.9700 
  111.2500     2.1930    58.2910     7.0260     6.6680     7.7750    26.5930   -27.0110 
  111.3750     2.1830    62.3620     6.9720     6.5970     7.8230    26.7650   -26.7950 
  111.5000     2.1550    66.4240     6.8640     6.5170     7.2940    27.0580   -26.3290 
  111.6250     2.1190    67.0870     6.8150     6.5270     6.6510    27.4760   -25.6340 
  111.7500     2.1010    64.3960     6.9530     6.7070     6.5180    27.7790   -24.7830 
  111.8750     2.1170    60.8840     7.3530     7.0970     7.5480    27.8200   -23.8180 
  112.0000     2.1760    59.2720     7.9890     7.6510    10.6410    27.6280   -22.7980 
  112.1250     2.2650    59.8400     8.6640     8.1600    13.9160    27.7170   -21.8280 
  112.2500     2.3450    59.7670     9.0200     8.3210    13.7560    27.8210   -20.9870 
  112.3750     2.3790    58.0620     8.7680     7.9410    11.7040    27.6250   -20.3330 
  112.5000     2.3600    58.5420     7.8700     7.0870     8.6450    27.1500   -19.9320 
  112.6250     2.3060    64.9740     6.6440     6.0690     6.6900    26.7610   -19.9060 
  112.7500     2.2580    69.2130     5.6010     5.2390     5.3920    26.8160   -20.2090 
  112.8750     2.2300    67.7140     4.9780     4.7440     4.8500    26.9290   -20.8730 
  113.0000     2.2210    64.4530     4.8250     4.6140     5.1000    26.7230   -21.8460 
  113.1250     2.2190    63.0410     5.1230     4.8440     6.1300    26.3570   -22.9610 
  113.2500     2.2130    61.8730     5.6450     5.2590     6.8480    26.2010   -24.0690 
  113.3750     2.2020    59.6040     6.2150     5.7180     7.1250    26.2890   -25.0450 
  113.5000     2.1920    57.5950     6.6600     6.0790     7.1750    26.3690   -25.8160 
  113.6250     2.1890    56.9130     6.8230     6.2290     7.0860    26.3770   -26.2860 
  113.7500     2.1910    58.7240     6.7450     6.1960     6.9220    26.3720   -26.3730 
  113.8750     2.1940    63.2580     6.4840     6.0060     6.7570    26.5040   -26.0310 
  114.0000     2.1970    67.0620     6.0850     5.6790     6.6580    26.8840   -25.2090 
  114.1250     2.1980    67.7030     5.5700     5.2300     6.4780    27.5330   -23.9890 
  114.2500     2.1950    69.6650     5.0310     4.7500     5.8450    27.9400   -22.5770 
  114.3750     2.1890    75.8190     4.5700     4.3330     4.9180    27.9870   -21.0600 
  114.5000     2.1830    82.5910     4.2810     4.0550     4.2360    27.7540   -19.5540 
  114.6250     2.1860    85.0060     4.2460     3.9810     4.1320    27.4200   -18.0540 
  114.7500     2.2030    86.0180     4.3970     4.0520     4.4520    26.8560   -16.6660 
  114.8750     2.2310    88.2360     4.6370     4.1900     5.1050    26.3470   -15.4480 
  115.0000     2.2580    89.4510     4.8270     4.2870     5.4860    26.3420   -14.4490 
  115.1250     2.2650    88.5390     4.7910     4.2140     5.2900    26.2900   -13.7550 
  115.2500     2.2500    87.0520     4.5250     3.9810     4.7330    26.3940   -13.2720 
  115.3750     2.2230    85.5380     4.1300     3.6670     4.2630    26.7640   -13.0050 
  115.5000     2.2000    84.3790     3.7730     3.3900     3.9080    27.1910   -12.9200 
  115.6250     2.1960    85.3390     3.6590     3.2980     3.8560    27.1260   -13.0550 
  115.7500     2.2160    87.2150     3.8570     3.4530     4.3000    27.0760   -13.4190 
  115.8750     2.2560    83.8930     4.4090     3.8930     5.4880    27.1670   -13.9980 
  116.0000     2.3050    73.7790     5.3150     4.6110     7.7820    27.1080   -14.8340 
  116.1250     2.3440    63.2230     6.5090     5.5380     9.8110    27.2700   -15.9600 
  116.2500     2.3520    58.1310     7.6870     6.4200    11.2470    26.8870   -17.2670 
  116.3750     2.3280    57.2360     8.5090     7.0020    11.8710    26.2090   -18.6700 
  116.5000     2.2800    56.2250     8.7120     7.1270    10.8140    25.3350   -20.0430 
  116.6250     2.2310    56.4300     8.2450     6.8100     8.6560    25.1630   -21.3470 
  116.7500     2.1940    56.8950     7.5350     6.3410     7.4800    25.1180   -22.5040 
  116.8750     2.1720    54.1130     6.8670     5.8870     6.8600    25.0090   -23.4790 
  117.0000     2.1620    49.5060     6.3810     5.5320     6.5870    24.8750   -24.2450 
  117.1250     2.1610    49.8870     6.1210     5.3150     6.5230    24.6350   -24.6570 
  117.2500     2.1650    55.2380     6.0010     5.1980     6.4650    24.4480   -24.8300 
  117.3750     2.1720    58.5720     5.9750     5.1670     6.3760    24.3820   -24.8060 
