~V
VERS. 2.00: Ver 2.00
~W
STRT.M 45.0000:
STOP.M 268.0000:
STEP.M 0.1250:
NULL. -999.2500:
UWI. F11184:
~C
DEPT.M :
SP.MV :
GR.API :
RI. :
RML.OHMM :
RXO.OHMM :
DEN.GM/CC :
~A
# ...
  173.7500   -31.5380    64.9120    55.7140    58.7000    52.5620     2.1540 
  173.8750   -31.5240    62.2790    56.9350    59.9820    52.9220     2.1530 
  174.0000   -31.5130    59.9990    58.6700    61.8040    49.3580     2.1520 
  174.1250   -31.5010    59.5500    59.8910    63.0860    45.4180     2.1520 
  174.2500   -31.4860    58.8510    59.6400    62.8220    44.2990     2.1520 
  174.3750   -31.4670    57.7360    57.5930    60.6720    42.0640     2.1550 
  174.5000   -31.4480    59.9620    54.6150    57.5460    38.7280     2.1630 
  174.6250   -31.4370    65.2100    51.5850    54.3640    38.3210     2.1740 
  174.7500   -31.4360    67.9010    49.7600    52.4480    38.7920     2.1760 
  174.8750   -31.4500    65.0480    49.7120    52.3980    38.8640     2.1630 
  175.0000   -31.4770    59.8930    51.5520    54.3290    40.7610     2.1440 
  175.1250   -31.5110    56.4150    55.0800    58.0340    43.5540     2.1330 
  175.2500   -31.5430    56.4160    59.0480    62.2000    47.6070     2.1380 
  175.3750   -31.5680    59.5080    62.8980    66.2430    52.5940     2.1460 
  175.5000   -31.5860    62.0150    66.0820    69.5860    54.1500     2.1420 
  175.6250   -31.6010    61.0130    68.4610    72.0840    52.2180     2.1360 
  175.7500   -31.6190    59.0840    70.2220    73.9330    50.8650     2.1350 
  175.8750   -31.6440    58.1370    70.7000    74.4350    51.6180     2.1340 
  176.0000   -31.6700    56.9120    69.9060    73.6010    52.7310     2.1310 
  176.1250   -31.6870    56.0620    67.9550    71.5520    51.4320     2.1320 
  176.2500   -31.6870    57.7480    65.4630    68.9360    48.5050     2.1400 
  176.3750   -31.6670    60.2060    63.2700    66.6330    48.2690     2.1520 
  176.5000   -31.6340    60.0520    61.6580    64.9410    50.0210     2.1580 
  176.6250   -31.5930    57.6220    60.5740    63.8020    49.0850     2.1570 
  176.7500   -31.5500    56.1450    59.1290    62.2860    47.1770     2.1540 
  176.8750   -31.5030    56.0200    56.2890    59.3030    47.2180     2.1530 
  177.0000   -31.4510    55.5280    52.6480    55.4810    47.2630     2.1550 
  177.1250   -31.3930    55.1870    49.1990    51.8590    46.9040     2.1600 
  177.2500   -31.3330    56.5710    46.8390    49.3810    46.7070     2.1600 
  177.3750   -31.2770    60.1250    46.2210    48.7320    47.2840     2.1530 
  177.5000   -31.2320    62.6790    46.6840    49.2180    47.8260     2.1490 
  177.6250   -31.2010    61.2700    48.1690    50.7770    46.0770     2.1610 
  177.7500   -31.1830    57.1720    50.2060    52.9160    43.4140     2.1790 
  177.8750   -31.1800    53.2970    52.2090    55.0200    43.7840     2.1830 
  178.0000   -31.1870    52.2780    53.2320    56.0930    49.2370     2.1740 
  178.1250   -31.2020    52.3340    52.7070    55.5420    56.7300     2.1670 
  178.2500   -31.2170    51.0460    50.5510    53.2780    59.9040     2.1700 
  178.3750   -31.2260    49.8450    47.1300    49.6860    55.4810     2.1850 
  178.5000   -31.2270    50.7730    43.5520    45.9300    48.1470     2.2050 
  178.6250   -31.2220    53.9950    40.4840    42.7080    44.8760     2.2150 
  178.7500   -31.2180    57.5830    38.6330    40.7650    47.2110     2.2080 
  178.8750   -31.2220    61.0330    37.9700    40.0690    53.1950     2.1980 
  179.0000   -31.2350    63.6660    38.4450    40.5680    53.5760     2.2060 
  179.1250   -31.2510    64.3750    40.2010    42.4110    47.2720     2.2190 
  179.2500   -31.2620    63.2650    42.7810    45.1200    47.4710     2.2110 
  179.3750   -31.2570    62.2290    46.4180    48.9390    53.6280     2.1820 
  179.5000   -31.2320    62.9230    50.9140    53.6590    57.8400     2.1530 
  179.6250   -31.1850    64.6610    55.3930    58.3630    58.2440     2.1440 
  179.7500   -31.1210    65.8720    58.7370    61.8740    53.3270     2.1530 
  179.8750   -31.0410    65.8820    59.4460    62.6180    46.2980     2.1620 
  180.0000   -30.9490    66.7310    57.5420    60.6190    45.7030     2.1550 
  180.1250   -30.8450    67.9830    53.7870    56.6760    50.4580     2.1420 
  180.2500   -30.7290    68.4360    50.3090    53.0240    53.0460     2.1420 
  180.3750   -30.6010    68.0270    47.7560    50.3440    53.4220     2.1560 
  180.5000   -30.4650    68.2090    46.8910    49.4360    51.6410     2.1660 
  180.6250   -30.3280    67.8960    47.4260    49.9970    46.9930     2.1660 
  180.7500   -30.1950    66.6540    48.8250    51.4660    44.7630     2.1620 
  180.8750   -30.0720    63.8850    50.2610    52.9740    48.2860     2.1600 
  181.0000   -29.9590    61.4800    50.8190    53.5600    53.2590     2.1660 
  181.1250   -29.8530    62.0870    49.8420    52.5340    54.6780     2.1800 
  181.2500   -29.7480    65.6180    47.3340    49.9010    57.5310     2.1960 
  181.3750   -29.6420    68.8320    44.1160    46.5210    60.2580     2.2060 
  181.5000   -29.5360    69.6820    40.9060    43.1510    52.8530     2.2050 
  181.6250   -29.4390    70.6220    38.3520    40.4700    43.7590     2.1920 
  181.7500   -29.3630    72.5130    37.0930    39.1480    40.6630     2.1750 
  181.8750   -29.3200    72.8620    37.2990    39.3640    39.7120     2.1620 
  182.0000   -29.3140    71.0130    39.3650    41.5330    42.5160     2.1570 
  182.1250   -29.3440    69.3790    42.7490    45.0860    49.6440     2.1610 
  182.2500   -29.3990    69.6260    46.8450    49.3870    55.5440     2.1650 
  182.3750   -29.4680    70.1550    50.3340    53.0510    57.7680     2.1600 
  182.5000   -29.5430    70.0880    52.5700    55.3990    58.1610     2.1550 
  182.6250   -29.6200    70.9760    53.0380    55.8900    57.9140     2.1580 
  182.7500   -29.7000    73.5720    52.5370    55.3640    56.9050     2.1680 
  182.8750   -29.7890    75.7450    52.3310    55.1480    56.2120     2.1790 
  183.0000   -29.8880    73.7940    52.9830    55.8320    56.8070     2.1860 
  183.1250   -29.9990    68.1860    54.5180    57.4440    58.5800     2.1830 
  183.2500   -30.1110    62.7620    56.4640    59.4870    60.9870     2.1700 
  183.3750   -30.2130    59.8780    58.1220    61.2280    62.7520     2.1590 
  183.5000   -30.2970    59.7240    59.1400    62.2970    61.6890     2.1550 
  183.6250   -30.3630    61.1860    59.6580    62.8410    58.9750     2.1570 
  183.7500   -30.4180    62.3810    60.2460    63.4590    59.2600     2.1580 
  183.8750   -30.4650    61.2620    61.9320    65.2290    60.3660     2.1530 
  184.0000   -30.5090    59.4080    65.9090    69.4040    60.6470     2.1420 
  184.1250   -30.5470    57.4810    73.0670    76.9210    63.9350     2.1300 
  184.2500   -30.5770    55.9320    82.1420    86.4490    70.0280     2.1200 
  184.3750   -30.5920    55.0550    90.6240    95.3550    75.0750     2.1120 
  184.5000   -30.5900    55.3260    96.1960   101.2060    76.4440     2.1070 
  184.6250   -30.5670    54.0990    96.9960   102.0460    76.0260     2.1180 
  184.7500   -30.5250    51.5900    93.0150    97.8660    75.2840     2.1400 
  184.8750   -30.4710    51.7510    85.6280    90.1090    71.3950     2.1610 
  185.0000   -30.4120    54.7400    77.2150    81.2750    65.7890     2.1690 
  185.1250   -30.3530    57.8080    70.3660    74.0850    61.8900     2.1710 
  185.2500   -30.2920    60.0240    66.2630    69.7760    59.7130     2.1740 
  185.3750   -30.2250    61.2690    65.3000    68.7650    59.1010     2.1780 
  185.5000   -30.1470    61.4890    66.5600    70.0880    58.7380     2.1770 
  185.6250   -30.0530    60.7660    69.2870    72.9510    58.9770     2.1690 
  185.7500   -29.9490    60.5580    71.8160    75.6070    63.0070     2.1580 
  185.8750   -29.8390    59.5120    72.5610    76.3890    68.5600     2.1420 
  186.0000   -29.7270    56.7720    71.3030    75.0680    71.9320     2.1280 
  186.1250   -29.6130    55.3570    67.8550    71.4480    71.8480     2.1250 
  186.2500   -29.4920    56.0700    63.5140    66.8900    70.8820     2.1360 
  186.3750   -29.3590    56.5670    58.6590    61.7920    76.1980     2.1570 
  186.5000   -29.2110    55.1510    53.7590    56.6470    79.0170     2.1790 
