~V
VERS. 2.00: Ver 2.00
~W
STRT.M 50.0000:
STOP.M 201.0000:
STEP.M 0.1250:
NULL. -999.2500:
UWI. F11102:
~C
DEPT.M :
GR.API :
RML.OHMM :
RI. :
RXO.OHMM :
CALI.CM :
SP.MV :
DEN.GM/CC :
~A
# ...
  162.5000    59.6840    77.9920    75.6350    91.0550    27.1000   -15.6270     2.4570 
  162.6250    60.4260    57.4890    56.7610    66.0040    26.5180   -15.4790     2.4880 
  162.7500    62.9870    40.9480    40.7420    41.8710    25.7200   -15.3560     2.4880 
  162.8750    67.7990    29.6920    29.4900    24.1130    24.6840   -15.2690     2.4630 
  163.0000    72.0230    23.0950    22.6970    15.0700    23.8350   -15.2010     2.4270 
  163.1250    72.5060    20.3110    19.5620    12.1530    23.3610   -15.1600     2.3970 
  163.2500    72.9240    19.6550    18.4470    11.6540    22.9190   -15.1470     2.3770 
  163.3750    75.5980    20.4220    18.7510    12.2130    22.6490   -15.1800     2.3660 
  163.5000    77.6980    21.9510    19.9660    13.4820    22.5490   -15.2210     2.3610 
  163.6250    76.6980    23.4530    21.4490    14.8540    22.5320   -15.2860     2.3600 
  163.7500    74.7500    24.3390    22.5040    15.2950    22.5340   -15.3470     2.3620 
  163.8750    74.8730    24.5340    22.9010    14.9160    22.5240   -15.3810     2.3650 
  164.0000    76.5680    24.4100    22.8560    14.2240    22.4670   -15.4310     2.3680 
  164.1250    78.1990    24.6170    22.9010    13.5080    22.3870   -15.4870     2.3690 
  164.2500    78.0690    25.4730    23.4130    12.8260    22.3150   -15.5200     2.3690 
  164.3750    74.7760    26.9060    24.4230    12.4580    22.1230   -15.5390     2.3670 
  164.5000    70.6130    28.5150    25.6530    12.9350    21.9580   -15.5540     2.3670 
  164.6250    68.9790    29.5950    26.4950    13.9150    21.9880   -15.5750     2.3690 
  164.7500    69.5900    29.8270    26.6010    13.8990    21.9830   -15.6250     2.3720 
  164.8750    70.9590    29.2960    26.0100    12.7750    21.8520   -15.7080     2.3740 
  165.0000    71.4920    28.3020    24.9980    11.7440    21.7680   -15.7940     2.3750 
  165.1250    70.3220    27.0320    23.7780    11.5520    21.8120   -15.9010     2.3770 
  165.2500    67.5910    25.5610    22.4410    11.7490    21.9470   -16.0420     2.3820 
  165.3750    66.9380    23.9350    21.0290    12.2370    22.0200   -16.2010     2.3870 
  165.5000    70.3240    22.4160    19.7150    12.5580    22.0150   -16.3940     2.3930 
  165.6250    74.5370    21.7020    18.9680    11.3900    22.0740   -16.5850     2.4000 
  165.7500    75.3760    22.2750    19.1440    10.4330    22.1160   -16.7640     2.4080 
  165.8750    71.9590    24.3300    20.4920    10.4970    22.0490   -16.9160     2.4210 
  166.0000    66.9750    27.5270    22.9700    11.4590    21.7790   -17.0800     2.4380 
  166.1250    64.6150    30.5740    25.8730    12.7420    21.4010   -17.2160     2.4570 
  166.2500    63.2530    31.5670    27.4980    13.2360    21.2860   -17.3280     2.4730 
  166.3750    62.0380    29.3720    26.4860    13.1300    21.3330   -17.4210     2.4820 
  166.5000    62.8060    24.5820    22.9740    12.8180    21.4060   -17.5270     2.4810 
  166.6250    69.0020    19.3000    18.6250    12.3190    21.7660   -17.6050     2.4700 
  166.7500    77.8950    15.1920    15.0190    11.5150    22.6020   -17.6830     2.4540 
  166.8750    84.9140    12.5170    12.5010    10.4170    23.7000   -17.7660     2.4390 
  167.0000    90.1040    11.0050    10.9510     9.6610    24.9150   -17.8340     2.4280 
  167.1250    93.9430    10.3550    10.2080     9.1590    25.4890   -17.8740     2.4220 
  167.2500    92.7450    10.1030     9.9020     9.0360    25.5220   -17.9200     2.4190 
  167.3750    88.2660    10.0430     9.8500     8.8790    25.3850   -17.9660     2.4200 
  167.5000    86.8390    10.0390     9.9060     8.3640    25.1800   -17.9940     2.4210 
  167.6250    91.3090    10.0020     9.9610     7.7700    24.3590   -18.0270     2.4210 
  167.7500    94.1440     9.9000     9.9630     7.3160    23.4550   -18.0590     2.4200 
  167.8750    91.2520     9.7380     9.8990     7.2490    22.7520   -18.1100     2.4170 
  168.0000    86.2230     9.5600     9.7810     7.4100    22.4900   -18.2040     2.4120 
  168.1250    82.1000     9.4960     9.6830     7.4900    22.7520   -18.3140     2.4050 
  168.2500    80.6550     9.6930     9.7350     7.5580    23.4780   -18.4300     2.3970 
  168.3750    80.0010    10.2720    10.0610     7.8620    24.2780   -18.5650     2.3850 
  168.5000    78.1050    11.2780    10.7350     8.3030    24.6630   -18.7060     2.3720 
  168.6250    75.2570    12.6590    11.7680     9.1800    24.7430   -18.8570     2.3570 
  168.7500    74.0060    14.0500    12.8960    11.5120    24.5020   -19.0210     2.3430 
  168.8750    75.3930    15.0380    13.7680    15.5900    24.1960   -19.1670     2.3310 
  169.0000    78.3310    15.3090    14.0520    18.3130    24.0910   -19.2810     2.3220 
  169.1250    80.5620    14.9180    13.6730    15.0090    24.9060   -19.4180     2.3170 
  169.2500    79.6270    14.6370    13.2170    12.7300    24.9360   -19.5660     2.3110 
  169.3750    78.1650    15.2370    13.2630    12.2300    24.7060   -19.7050     2.3020 
  169.5000    78.8550    17.4960    14.3960    11.7950    24.8280   -19.8510     2.2890 
  169.6250    78.7700    22.7220    17.7370    13.3490    25.3270   -19.9700     2.2710 
  169.7500    74.3890    31.2990    23.9610    19.1610    25.3320   -20.0650     2.2520 
  169.8750    67.4210    43.5790    33.8240    33.7450    25.1860   -20.1380     2.2350 
  170.0000    62.1610    58.9360    47.2430    53.3920    25.0590   -20.1760     2.2220 
  170.1250    61.9790    74.2600    61.8770    70.8450    25.2620   -20.1840     2.2180 
  170.2500    63.5340    84.7670    73.0790    89.6440    25.2960   -20.1340     2.2220 
  170.3750    63.5280    88.3880    78.3970    89.5240    25.1150   -20.0300     2.2320 
  170.5000    61.3610    87.2210    78.8940    64.8600    24.6700   -19.8670     2.2460 
  170.6250    61.0220    85.4400    77.7540    41.2790    23.9190   -19.6900     2.2620 
  170.7500    63.6750    85.5720    77.7750    31.1400    23.3420   -19.5040     2.2740 
  170.8750    64.2530    87.6150    79.4890    30.7430    22.8540   -19.3370     2.2800 
  171.0000    60.8740    90.0670    81.9530    36.3540    22.5760   -19.1670     2.2810 
  171.1250    57.4180    89.8870    82.6780    49.5180    23.0270   -19.0070     2.2790 
  171.2500    56.2730    86.0220    80.2940    69.1390    23.8240   -18.8840     2.2770 
  171.3750    56.6070    79.8290    75.4100    82.2890    24.1690   -18.7880     2.2740 
  171.5000    57.8580    74.0860    70.1760    68.2530    24.1310   -18.7290     2.2710 
  171.6250    59.7930    71.8460    67.5400    48.6290    24.0320   -18.6930     2.2660 
  171.7500    58.7410    73.5680    68.5840    43.5250    24.3880   -18.6660     2.2630 
  171.8750    55.0660    78.7770    73.2170    57.4570    24.8070   -18.6430     2.2640 
  172.0000    53.3490    85.9800    80.2020    76.1130    24.9030   -18.6090     2.2700 
  172.1250    55.8370    92.4800    87.1330    83.0720    24.6780   -18.5660     2.2840 
  172.2500    58.7240    96.3900    91.9280    69.3640    24.0760   -18.5060     2.3040 
  172.3750    59.3130    98.1440    94.4920    59.9880    23.5680   -18.4540     2.3350 
  172.5000    57.1790   100.1560    96.7300    60.4300    23.0760   -18.3850     2.3820 
  172.6250    53.9630   106.2030   102.4920    62.0250    22.5160   -18.3270     2.4450 
  172.7500    52.4360   124.8910   113.8770    76.8510    22.2480   -18.2270     2.5160 
  172.8750    52.5280   153.5490   131.6230   107.3530    22.5930   -18.1040     2.5830 
  173.0000    52.2980   182.8250   154.8780   130.8390    22.9650   -17.9840     2.6370 
  173.1250    52.0680   201.3340   178.6770   153.0070    23.1070   -17.8450     2.6700 
  173.2500    53.0150   206.8000   189.5640   218.5130    23.2770   -17.6880     2.6900 
  173.3750    54.4340   172.1380   170.6580   332.1460    23.2890   -17.5090     2.6990 
  173.5000    53.3020   111.5260   120.9100   393.8050    23.2930   -17.2770     2.6970 
  173.6250    48.6850    60.9510    69.0050   274.1350    23.2330   -16.9820     2.6800 
