~V
VERS. 2.00: Ver 2.00
~W
STRT.M 45.0000:
STOP.M 268.0000:
STEP.M 0.1250:
NULL. -999.2500:
UWI. F11184:
~C
DEPT.M :
SP.MV :
GR.API :
RI. :
RML.OHMM :
RXO.OHMM :
DEN.GM/CC :
~A
   45.0000    52.3430    46.3740    42.6830    28.1550     0.1310     2.2210 
   45.1250    57.4070    44.1980    42.6830    28.1550     0.1110     2.3060 
   45.2500    62.5040    42.5020    42.6870    28.1550     0.1120     2.4760 
   45.3750    67.3800    42.7480    42.6880    28.1550     0.1570     2.5290 
   45.5000    71.8150    45.4180    42.6890    28.1550     0.2490     2.4120 
   45.6250    75.5670    48.1680    42.6910    28.1550     0.3130     2.2810 
   45.7500    78.5790    48.6890    42.6910    28.1550     0.3050     2.2480 
   45.8750    80.7770    47.8570    42.6940    28.1550     0.2590     2.2560 
   46.0000    82.2780    47.5890    42.6940    28.1550     0.2160     2.2510 
   46.1250    83.1260    47.6440    42.6920    28.1550     0.1480     2.2420 
   46.2500    83.4790    46.2890    42.6910    28.1550     0.0650     2.2440 
   46.3750    83.4130    45.0780    42.6910    28.1550     0.0280     2.2550 
   46.5000    83.0560    46.0910    42.6910    28.1550     0.0260     2.2650 
   46.6250    82.4690    48.7900    42.6910    28.1550     0.0230     2.2690 
   46.7500    81.7260    48.9810    42.6910    28.1550     0.0210     2.2670 
   46.8750    80.8570    46.0490    42.6910    28.1550     0.0200     2.2670 
   47.0000    79.8990    42.5810    42.6910    28.1550     0.0230     2.2690 
   47.1250    78.8710    42.6790    42.6910    28.1550     0.0250     2.2710 
   47.2500    77.7950    45.8020    42.6910    28.1550     0.0230     2.2750 
   47.3750    76.6630    47.6640    42.6910    28.1550     0.0210     2.2790 
   47.5000    75.4300    46.9250    42.6910    28.1550     0.0210     2.2800 
   47.6250    73.9590    45.1130    42.6910    28.1550     0.0200     2.2790 
   47.7500    72.0950    44.5690    42.6910    28.1550     0.0190     2.2800 
   47.8750    69.5890    45.4940    42.6910    28.1550     0.0190     2.2760 
   48.0000    66.3150    46.8870    42.6900    28.1550     0.0200     2.2620 
   48.1250    62.1140    47.4650    42.6880    28.1550     0.0200     2.2460 
   48.2500    57.0770    46.5370    42.6870    28.1550     0.0200     2.2330 
   48.3750    51.2970    45.2550    42.6870    28.1550     0.0220     2.2240 
   48.5000    45.0720    45.0880    42.6880    28.1550     0.0330     2.2160 
   48.6250    38.6930    46.2290    42.6880    28.1550     0.0390     2.2090 
   48.7500    32.4650    47.8550    42.6870    28.1550     0.0300     2.2070 
   48.8750    26.6460    48.2770    42.6850    28.1550     0.0200     2.2130 
   49.0000    21.3340    46.4870    42.6850    28.1550     0.0180     2.2220 
   49.1250    16.6080    44.8770    42.6850    28.1550     0.0180     2.2300 
   49.2500    12.4100    45.7740    42.6840    28.1540     0.0180     2.2330 
   49.3750     8.7590    48.2080    42.6830    28.1480     0.0180     2.2260 
   49.5000     5.6030    48.6210    42.6770    28.0000     0.0190     2.2170 
   49.6250     2.9710    47.3980    36.0070    22.9350     0.0200     2.2210 
   49.7500     0.7990    45.7940    24.1880    15.2070     0.0200     2.2520 
   49.8750    -0.9200    42.6840    12.3680     7.4860     0.0190     2.3000 
   50.0000    -2.2740    39.3430     1.5360     0.6080     0.0180     2.3330 
   50.1250    -3.2910    39.1010     0.1310     0.3210     0.0180     2.3310 
   50.2500    -4.0480    40.9930     0.1310     0.3190     0.0180     2.3150 
   50.3750    -4.5760    42.8350     0.1320     0.3190     0.0190     2.3010 
   50.5000    -4.9380    45.1890     0.1340     0.3200     0.0190     2.2880 
   50.6250    -5.1590    47.8780     0.1350     0.3210     0.0180     2.2750 
   50.7500    -5.2760    47.7620     0.1360     0.3220     0.0180     2.2700 
   50.8750    -5.3040    45.5550     0.1360     0.3200     0.0200     2.2750 
   51.0000    -5.2740    44.0450     0.1370     0.3160     0.0210     2.2960 
   51.1250    -5.2070    43.8650     0.1370     0.3100     0.0190     2.3410 
   51.2500    -5.1270    43.1160     0.1380     0.3070     0.0180     2.3840 
   51.3750    -5.0400    41.4520     0.1400     0.3090     0.0180     2.3890 
   51.5000    -4.9400    39.7840     0.1410     0.3120     0.0180     2.3590 
   51.6250    -4.8080    38.8870     0.1420     0.3120     0.0180     2.3310 
   51.7500    -4.6240    38.9070     0.1430     0.3080     0.0180     2.3290 
   51.8750    -4.3640    39.4570     0.1450     0.3020     0.0170     2.3340 
   52.0000    -4.0150    39.5980     0.1580     0.2940     0.0170     2.3300 
   52.1250    -3.5470    39.9570     0.1710     0.2880     0.0170     2.3240 
   52.2500    -2.9480    42.1240     0.1850     0.2860     0.0180     2.3280 
   52.3750    -2.1770    46.0750     0.1910     0.2870     0.0180     2.3330 
   52.5000    -1.2080    48.3070     0.1920     0.2870     0.0180     2.3210 
   52.6250     0.0290    48.5720     0.1920     0.2840     0.0180     2.3020 
   52.7500     1.5700    48.3900     0.1920     0.2770     0.0180     2.2970 
   52.8750     3.5010    46.6110     0.1920     0.2670     0.0190     2.3120 
   53.0000     5.8300    42.2690     0.1910     0.2580     0.0190     2.3600 
   53.1250     8.6030    39.3840     0.1890     0.2520     0.0190     2.4450 
   53.2500    11.7810    40.2720     0.1850     0.2490     0.0200     2.5080 
   53.3750    15.3840    41.2860     0.1780     0.2450     0.0200     2.4910 
   53.5000    19.3570    39.9750     0.1670     0.2380     0.0220     2.4260 
   53.6250    23.6780    39.1620     0.1540     0.2300     0.0260     2.3790 
   53.7500    28.2180    40.3840     0.1490     0.2250     0.0420     2.3590 
   53.8750    32.7960    41.7140     0.1460     0.2260     0.1270     2.3400 
   54.0000    37.1330    41.7420     0.1510     0.2350     0.2760     2.3230 
   54.1250    40.8190    41.1230     0.1580     0.2410     0.3460     2.3250 
   54.2500    43.4930    41.0730     0.1480     0.2290     0.2760     2.3590 
   54.3750    44.6300    42.2680     0.1220     0.1930     0.2050     2.4330 
   54.5000    43.9980    44.6130     0.0880     0.1400     0.2590     2.5180 
   54.6250    41.1940    45.4980     0.0660     0.0970     0.3910     2.5520 
   54.7500    36.3160    43.3550     0.0730     0.0870     0.4730     2.5420 
   54.8750    29.3800    41.0160     0.1390     0.1480     0.6250     2.5000 
   55.0000    21.0190    43.3240     0.2870     0.4160     1.6270     2.3930 
   55.1250    11.9610    49.5670     0.7300     1.2290     3.2680     2.2340 
   55.2500     3.1880    54.9880     1.8420     2.2660     4.6060     2.1320 
   55.3750    -4.3910    56.7980     3.0030     3.1600     6.5410     2.1540 
   55.5000   -10.3970    56.5510     3.6420     3.5740     7.5280     2.1770 
   55.6250   -14.6760    56.3600     3.7100     3.4530     5.7180     2.1030 
   55.7500   -17.6630    58.1240     3.1160     3.2420     3.7820     2.0200 
   55.8750   -19.7270    63.7760     2.8840     3.0240     3.0220     2.0450 
   56.0000   -21.3450    71.0910     2.9050     2.9620     2.9250     2.1530 
   56.1250   -22.8000    78.2980     3.0210     3.1330     3.2310     2.2290 
   56.2500   -24.2950    83.6110     3.2450     3.4760     3.3790     2.2400 
   56.3750   -25.9410    85.6180     3.5970     3.9590     3.5250     2.2320 
   56.5000   -27.7510    84.8310     4.0900     4.5080     4.1190     2.2270 
   56.6250   -29.6870    80.3180     4.6340     5.0250     4.9330     2.1980 
   56.7500   -31.6330    74.5430     5.1200     5.4470     5.5230     2.1420 
   56.8750   -33.4450    70.4500     5.3510     5.6750     5.9470     2.0910 
   57.0000   -35.0120    66.6730     5.3230     5.6960     6.2690     2.0660 
   57.1250   -36.2420    61.1560     5.1200     5.5610     6.3970     2.0620 
   57.2500   -37.1540    56.2060     4.8930     5.3920     6.4070     2.0660 
   57.3750   -37.7750    55.9150     4.7840     5.2680     6.4160     2.0730 
   57.5000   -38.1970    59.8570     4.7550     5.2100     6.3470     2.0780 
   57.6250   -38.4760    64.6060     4.7530     5.1980     6.2520     2.0850 
   57.7500   -38.6750    67.4450     4.7640     5.2050     6.1940     2.0960 
