~V
VERS. 2.00: Ver 2.00
~W
STRT.M 55.0000:
STOP.M 201.0000:
STEP.M 0.1250:
NULL. -999.2500:
UWI. F11111:
~C
DEPT.M :
GR.API :
RML.OHMM :
RI. :
RXO.OHMM :
CALI.CM :
SP.MV :
DEN.GM/CC :
~A
# ...
   77.5000    99.1950     6.9010     7.0290     7.8180    23.7590   -29.4290     2.2620 
   77.6250   100.3860     5.8220     5.9050     5.3610    23.7560   -28.9790     2.2120 
   77.7500    98.4000     5.3490     5.2270     4.4980    23.6220   -28.6510     2.1680 
   77.8750    96.9620     5.2600     4.9170     4.4710    23.1150   -28.4500     2.1380 
   78.0000    96.7200     5.2970     4.8160     4.8800    21.8480   -28.3720     2.1210 
   78.1250    99.7280     5.2090     4.7320     5.0680    21.6260   -28.4240     2.1150 
   78.2500   106.2470     4.9710     4.5670     4.6050    22.4760   -28.5850     2.1140 
   78.3750   109.9740     4.7480     4.3850     4.3770    23.7180   -28.8700     2.1210 
   78.5000   106.1300     4.7770     4.3400     4.3760    24.0850   -29.2680     2.1350 
   78.6250    98.5920     5.3290     4.6510     4.5540    24.0840   -29.8100     2.1540 
   78.7500    95.0310     6.4040     5.3600     5.2790    24.0160   -30.4610     2.1670 
   78.8750    91.9050     7.9120     6.4470     7.7620    23.8480   -31.2270     2.1680 
   79.0000    85.1250     9.5590     7.7400    13.3720    23.3870   -32.0810     2.1580 
   79.1250    77.4840    10.6830     8.7860    18.6590    22.7280   -32.9860     2.1430 
   79.2500    71.8570    10.8970     9.2070    14.0000    21.6300   -33.8750     2.1310 
   79.3750    68.4520    10.3070     8.9690     9.4220    21.0260   -34.7050     2.1220 
   79.5000    66.7180     9.4010     8.3530     8.0530    20.6850   -35.4490     2.1170 
   79.6250    66.6220     8.6910     7.7230     8.1730    20.2030   -36.0730     2.1150 
   79.7500    66.5540     8.3020     7.2650     8.1650    19.9540   -36.5660     2.1140 
   79.8750    63.9600     8.1540     6.9820     7.8070    19.8600   -36.9210     2.1170 
   80.0000    60.4660     8.1300     6.8160     7.5850    19.7490   -37.1390     2.1240 
   80.1250    57.3790     8.1560     6.7190     7.6390    19.8060   -37.2210     2.1320 
   80.2500    55.6610     8.2050     6.6610     7.7820    19.8910   -37.2270     2.1360 
   80.3750    56.3430     8.2820     6.6410     7.8290    20.1220   -37.1780     2.1310 
   80.5000    57.8220     8.3930     6.6630     7.7800    20.6030   -37.0950     2.1190 
   80.6250    58.5850     8.5680     6.7420     7.5980    20.9260   -36.9670     2.1100 
   80.7500    57.7040     8.8080     6.8830     7.3640    20.8420   -36.8260     2.1130 
   80.8750    55.9820     9.0890     7.0840     7.3000    20.3490   -36.6810     2.1310 
   81.0000    54.9780     9.3460     7.3130     7.9320    20.0940   -36.5270     2.1570 
   81.1250    56.0730     9.4580     7.4810     9.5430    19.9080   -36.3600     2.1740 
   81.2500    57.9000     9.3650     7.5020    10.5590    19.5710   -36.1720     2.1740 
   81.3750    58.3180     9.0790     7.3410     9.7610    19.5760   -35.9520     2.1580 
   81.5000    57.9520     8.6950     7.0340     8.5920    20.0520   -35.6830     2.1380 
   81.6250    58.1230     8.3740     6.6900     8.0300    20.3670   -35.3600     2.1250 
   81.7500    57.3190     8.2150     6.4320     7.6910    20.7400   -34.9870     2.1190 
   81.8750    55.9060     8.2400     6.3180     7.4370    21.0430   -34.5820     2.1180 
   82.0000    56.4320     8.4050     6.3440     7.4160    21.4240   -34.1930     2.1160 
   82.1250    59.8370     8.6160     6.4630     7.4540    21.6530   -33.8660     2.1150 
   82.2500    62.2020     8.7640     6.5790     7.6580    21.7140   -33.6160     2.1160 
   82.3750    62.2350     8.7810     6.6320     7.9310    21.7250   -33.4480     2.1190 
   82.5000    61.8290     8.6400     6.5990     8.2880    21.7230   -33.3440     2.1240 
   82.6250    61.7030     8.3640     6.4840     8.5220    21.6610   -33.2990     2.1260 
   82.7500    60.5740     8.0750     6.3430     8.6380    21.4020   -33.3340     2.1250 
   82.8750    58.8980     7.8900     6.2250     8.6280    21.1230   -33.4380     2.1240 
   83.0000    59.8370     7.9090     6.1900     8.6610    21.1000   -33.5440     2.1310 
   83.1250    64.2000     8.2150     6.3080     8.9840    21.0950   -33.5760     2.1550 
   83.2500    67.7930     8.7100     6.5610     9.6870    21.0550   -33.5340     2.1940 
   83.3750    69.2980     9.2570     6.8990    10.8450    20.9880   -33.3970     2.2350 
   83.5000    69.1980     9.6590     7.2170    12.5390    20.9920   -33.1890     2.2630 
   83.6250    66.7430     9.6420     7.3230    13.5180    21.1580   -32.9230     2.2630 
   83.7500    65.6450     9.2220     7.1520    12.0620    21.2350   -32.5840     2.2440 
   83.8750    69.6020     8.5580     6.7500     9.8200    21.2060   -32.1630     2.2250 
   84.0000    74.6860     7.8710     6.2460     8.7650    21.1710   -31.7170     2.2190 
   84.1250    73.6720     7.3750     5.8100     8.2430    21.1410   -31.3120     2.2290 
   84.2500    71.2950     7.1390     5.5440     7.4670    21.3950   -30.9320     2.2390 
   84.3750    73.5730     7.1820     5.4810     7.1300    21.4650   -30.5840     2.2380 
   84.5000    76.5620     7.4750     5.6160     7.4650    20.6210   -30.2270     2.2210 
   84.6250    74.4730     7.9740     5.9430     8.1120    20.5660   -29.7950     2.1900 
   84.7500    70.7330     8.5120     6.3660     8.5840    20.7080   -29.2650     2.1610 
   84.8750    66.9310     8.9090     6.7660     8.8020    21.0740   -28.6480     2.1440 
   85.0000    62.7030     8.9820     6.9910     8.9030    21.3640   -27.9370     2.1440 
   85.1250    63.7040     8.6020     6.8840     8.8430    21.4670   -27.1680     2.1670 
   85.2500    71.8700     7.9540     6.5190     8.4510    21.6650   -26.3590     2.2010 
   85.3750    81.2660     7.2470     6.0190     7.5240    22.1900   -25.4900     2.2350 
   85.5000    86.0040     6.6770     5.5310     6.5960    23.0900   -24.6580     2.2560 
   85.6250    87.0670     6.4000     5.2020     6.2030    23.3710   -23.9440     2.2540 
   85.7500    88.7990     6.3770     5.0550     6.0230    23.4410   -23.3090     2.2370 
   85.8750    93.0560     6.5410     5.0730     5.9990    23.5150   -22.7560     2.2120 
   86.0000    97.6230     6.7830     5.1990     6.2900    23.5950   -22.2590     2.1890 
   86.1250    97.1690     6.9530     5.3370     6.9120    23.7230   -21.6790     2.1790 
   86.2500    93.4360     6.9770     5.4060     7.0770    23.9760   -21.1230     2.1800 
   86.3750    91.3660     6.8720     5.3850     6.7540    24.0600   -20.6770     2.1890 
   86.5000    90.6700     6.7100     5.3000     6.3080    24.0840   -20.2860     2.2010 
   86.6250    89.1020     6.5780     5.1980     6.1360    24.0730   -19.9440     2.2110 
   86.7500    87.7340     6.5230     5.1250     6.0950    24.0770   -19.6750     2.2200 
   86.8750    86.2580     6.5670     5.1100     6.1280    24.0720   -19.4750     2.2250 
   87.0000    84.9380     6.7170     5.1760     6.1900    24.0470   -19.3700     2.2230 
   87.1250    85.5340     6.9790     5.3490     6.2570    23.9570   -19.4520     2.2050 
   87.2500    86.4040     7.3170     5.6060     6.4290    23.7240   -19.6070     2.1750 
   87.3750    84.9730     7.7090     5.9300     6.8960    23.1030   -19.7860     2.1380 
   87.5000    80.8700     8.1420     6.3070     7.5230    21.9650   -19.9610     2.1060 
   87.6250    77.3540     8.6100     6.7230     7.9720    20.8520   -19.9880     2.0860 
   87.7500    74.7750     9.0920     7.1510     8.2600    20.0330   -19.8200     2.0750 
   87.8750    75.5920     9.5520     7.5610     8.5110    20.1340   -19.5790     2.0680 
   88.0000    78.7270     9.9280     7.9120     8.7960    20.5150   -19.3430     2.0620 
   88.1250    77.6470    10.0870     8.1060     9.1420    20.6440   -19.0930     2.0630 
   88.2500    74.7430     9.9670     8.0820     9.3540    20.6150   -18.7840     2.0820 
   88.3750    74.5870     9.5520     7.8020     9.3410    20.7120   -18.4350     2.1210 
   88.5000    77.9550     8.9100     7.2960     9.1370    21.0400   -18.0670     2.1740 
   88.6250    80.8840     8.1810     6.6670     8.4370    21.7020   -17.8160     2.2240 
