~V
VERS. 2.00: Ver 2.00
~W
STRT.M 50.0000:
STOP.M 209.0000:
STEP.M 0.1250:
NULL. -999.2500:
UWI. F11109:
~C
DEPT.M :
GR.API :
RML.OHMM :
RI. :
RXO.OHMM :
CALI.CM :
SP.MV :
DEN.GM/CC :
~A
# ...
  106.2500    68.9930    11.2290     9.3800    11.4600    24.3200   -24.5300     2.2690 
  106.3750    70.6810    11.8360     9.8390    12.6450    25.0070   -24.0970     2.2290 
  106.5000    72.1360    12.8500    10.5830    18.2960    25.3680   -23.6250     2.1910 
  106.6250    70.0990    14.2790    11.6710    21.7310    25.5670   -23.1320     2.1650 
  106.7500    67.9860    15.8080    12.9310    21.4990    25.5950   -22.6680     2.1450 
  106.8750    66.4020    17.0550    14.0870    21.6880    25.6130   -22.2630     2.1240 
  107.0000    64.0870    17.7000    14.8370    22.7810    25.6090   -21.9140     2.1020 
  107.1250    62.1750    17.6540    15.0110    24.7020    25.5880   -21.6760     2.0940 
  107.2500    63.2710    17.4060    14.9350    23.2890    25.5420   -21.5500     2.1150 
  107.3750    66.0780    17.3970    14.9430    18.7920    25.4870   -21.5240     2.1640 
  107.5000    66.0990    17.9600    15.3130    17.1860    25.4680   -21.5630     2.2160 
  107.6250    62.6360    19.3000    16.2730    22.9210    25.5060   -21.6530     2.2350 
  107.7500    60.3450    21.0600    17.6570    30.7100    25.5410   -21.7570     2.2230 
  107.8750    60.5500    22.7820    19.1780    30.4880    25.5480   -21.8430     2.2030 
  108.0000    62.1940    23.9660    20.4220    27.8310    25.5280   -21.9050     2.2000 
  108.1250    63.8100    24.1830    20.9130    26.8020    25.4600   -21.8830     2.2240 
  108.2500    65.0470    23.7390    20.7590    25.4450    25.3430   -21.7610     2.2530 
  108.3750    65.2230    23.0180    20.2390    23.5230    25.2150   -21.5820     2.2710 
  108.5000    64.0100    22.3200    19.6310    22.5380    25.1610   -21.3740     2.2860 
  108.6250    61.9710    21.7850    19.1000    21.1260    25.2400   -21.1490     2.3130 
  108.7500    60.9200    21.3940    18.6790    18.9440    25.3130   -20.9520     2.3520 
  108.8750    60.9610    21.1330    18.3710    17.5080    25.4080   -20.8110     2.3880 
  109.0000    60.3120    20.9920    18.1720    17.3370    25.4610   -20.7540     2.4050 
  109.1250    57.4890    21.0520    18.1380    15.6740    25.4030   -20.8220     2.3930 
  109.2500    56.0930    21.4310    18.3490    14.0480    25.2810   -21.0080     2.3670 
  109.3750    57.2370    22.3000    18.9320    14.3460    25.2400   -21.3090     2.3440 
  109.5000    57.9960    23.7120    19.9610    15.7090    25.3460   -21.7410     2.3340 
  109.6250    55.8880    25.4560    21.3590    18.3530    25.3770   -22.3250     2.3380 
  109.7500    54.2030    26.8820    22.6630    20.7700    25.3100   -23.0290     2.3350 
  109.8750    55.1060    27.3750    23.3670    24.6420    25.1440   -23.8250     2.3130 
  110.0000    57.1530    26.5850    23.0950    27.4170    24.8840   -24.6710     2.2690 
  110.1250    58.4270    24.6090    21.7740    25.1860    24.4500   -25.5290     2.2140 
  110.2500    58.8150    22.3830    20.0900    19.7370    23.9960   -26.3530     2.1660 
  110.3750    58.8650    20.5230    18.5460    17.9070    23.7250   -27.0800     2.1340 
  110.5000    59.6910    19.3140    17.4180    18.7530    23.6020   -27.6620     2.1210 
  110.6250    61.4260    18.7880    16.8120    19.2540    23.4900   -28.0540     2.1240 
  110.7500    62.0080    18.5790    16.5090    18.9110    23.4170   -28.2490     2.1300 
  110.8750    61.0490    18.4300    16.3270    18.1400    23.4010   -28.2230     2.1320 
  111.0000    59.7000    18.1820    16.1210    17.4520    23.4190   -27.9770     2.1290 
  111.1250    59.4090    17.7830    15.8170    17.2300    23.4450   -27.4780     2.1270 
  111.2500    58.3310    17.3010    15.4420    17.5220    23.4580   -26.7730     2.1360 
  111.3750    56.4750    16.8020    15.0410    17.5240    23.4530   -25.9120     2.1580 
  111.5000    56.2520    16.3900    14.6960    16.8190    23.4810   -24.9230     2.1920 
  111.6250    60.0090    16.2300    14.5410    15.3390    23.6830   -23.8280     2.2370 
  111.7500    64.4370    16.3310    14.5910    13.9900    24.0660   -22.7520     2.2820 
  111.8750    66.2940    16.5860    14.7750    13.9480    24.5140   -21.7700     2.3160 
  112.0000    65.0270    16.7590    14.9210    15.9850    24.8100   -20.9500     2.3320 
  112.1250    62.5650    16.4740    14.7280    17.6280    24.8790   -20.3820     2.3280 
  112.2500    61.1060    15.6460    14.0990    15.9940    24.7600   -20.0520     2.3200 
  112.3750    62.3000    14.3910    13.1020    12.9970    24.5450   -19.9440     2.3180 
  112.5000    66.5740    12.9910    11.9430    11.1530    24.4170   -20.0240     2.3240 
  112.6250    69.1560    11.7940    10.8920    10.1050    24.4110   -20.2540     2.3260 
  112.7500    68.9280    10.9390    10.0900     9.5650    24.4420   -20.4990     2.3150 
  112.8750    71.1600    10.4300     9.5730     8.9420    24.4910   -20.7080     2.2960 
  113.0000    76.9080    10.2160     9.3160     8.1210    24.5650   -20.8610     2.2780 
  113.1250    79.9570    10.2650     9.3040     7.9640    24.6380   -20.9300     2.2720 
  113.2500    77.2630    10.4720     9.4390     8.0800    24.6710   -20.9140     2.2790 
  113.3750    72.3390    10.7590     9.6490     8.5590    24.7310   -20.8180     2.2940 
  113.5000    69.1610    11.0310     9.8440     9.2600    24.8250   -20.6640     2.3070 
  113.6250    68.8060    11.1470     9.9050     9.6770    24.9580   -20.4460     2.3100 
  113.7500    69.9340    11.0610     9.8000    10.2010    24.8810   -20.1810     2.3080 
  113.8750    70.0370    10.8040     9.5690    10.3810    24.8540   -19.8770     2.3100 
  114.0000    68.9550    10.4840     9.3060     9.6620    24.7480   -19.5300     2.3260 
  114.1250    69.4880    10.2230     9.1130     9.3270    24.6960   -19.1190     2.3640 
  114.2500    71.4460    10.0750     9.0140     9.5080    24.7220   -18.6590     2.4090 
  114.3750    72.5220    10.0810     9.0140    10.2660    24.8270   -18.1640     2.4470 
  114.5000    69.5950    10.3000     9.1370    11.0990    25.0060   -17.6380     2.4720 
  114.6250    64.2580    10.8710     9.4780    10.7100    25.1640   -17.1400     2.4860 
  114.7500    62.1840    11.8010    10.0640     9.2100    25.3250   -16.7090     2.4970 
  114.8750    63.3060    13.0110    10.8790     9.4830    25.3530   -16.3590     2.4970 
  115.0000    64.3970    14.1840    11.7400    13.1270    25.2820   -16.0920     2.4750 
  115.1250    64.1970    14.5600    12.1090    18.0470    25.2390   -15.9620     2.4290 
  115.2500    66.1420    13.7380    11.6080    18.1750    25.2360   -15.9400     2.3770 
  115.3750    70.5830    11.8940    10.2980    13.4200    25.2160   -15.9830     2.3370 
  115.5000    75.9820     9.7770     8.6930     9.1010    25.1700   -16.0670     2.3270 
  115.6250    81.5550     8.3700     7.5000     6.8100    25.1290   -16.1840     2.3580 
  115.7500    83.9740     8.0810     7.0560     5.7300    25.2470   -16.3150     2.4180 
  115.8750    80.4950     9.1130     7.5440     6.4530    25.4060   -16.4610     2.4940 
  116.0000    71.7990    11.5670     9.1010     9.6110    25.3720   -16.6360     2.5640 
  116.1250    61.6950    15.4360    11.9410    16.1900    25.3910   -16.8500     2.6010 
  116.2500    54.5640    19.5330    15.3780    20.7670    25.4050   -17.0780     2.6030 
  116.3750    50.7390    22.2010    18.1000    22.6120    25.3770   -17.3000     2.5780 
  116.5000    47.9190    21.9880    18.5790    20.9510    25.3350   -17.4900     2.5360 
  116.6250    46.3270    18.7860    16.3670    17.9190    25.3350   -17.6140     2.4790 
  116.7500    49.3290    14.8810    13.3610    15.1730    25.3530   -17.6600     2.4170 
  116.8750    56.1870    11.5870    10.6710    10.8270    25.3570   -17.6410     2.3630 
  117.0000    62.0000     9.3650     8.7120     7.4360    25.3420   -17.5480     2.3280 
  117.1250    63.5980     8.3220     7.6240     6.5050    25.3170   -17.3930     2.3260 
  117.2500    63.1910     8.1390     7.2090     6.6130    25.3100   -17.2120     2.3490 
  117.3750    61.4460     8.7690     7.4420     7.2050    25.3210   -17.0290     2.3850 
