~V
VERS. 2.00: Ver 2.00
~W
STRT.M 50.0000:
STOP.M 245.0000:
STEP.M 0.1250:
NULL. -999.2500:
UWI. F11135:
~C
DEPT.M :
GR.API :
RML.OHMM :
RI. :
RXO.OHMM :
CALI.CM :
SP.MV :
DEN.GM/CC :
~A
# ...
  151.2500    57.0230    16.4720    14.0830    15.2130    28.4330   -22.7740     2.1950 
  151.3750    52.7010    16.5600    13.9530    16.1690    28.7520   -22.5970     2.1830 
  151.5000    49.8960    16.0300    13.4810    16.3870    28.9850   -22.4350     2.1710 
  151.6250    51.2710    14.7620    12.5590    13.7840    28.3180   -22.2560     2.1690 
  151.7500    54.4010    13.3020    11.4830    11.0790    26.9200   -22.1450     2.1800 
  151.8750    55.8100    12.1310    10.5420     9.7540    26.1860   -22.0370     2.2040 
  152.0000    55.7280    11.5290     9.9300     9.6200    26.3280   -21.9700     2.2350 
  152.1250    56.7360    11.6140     9.7570    10.1560    26.6930   -21.9120     2.2570 
  152.2500    59.5330    12.0910     9.8690    10.3150    26.9410   -21.9050     2.2620 
  152.3750    62.0730    12.6820    10.1200    10.2380    26.8330   -21.9400     2.2550 
  152.5000    63.6900    13.1240    10.3470    10.1300    26.2990   -22.0110     2.2460 
  152.6250    65.6280    13.2360    10.4060    10.3130    25.6100   -22.1240     2.2420 
  152.7500    68.5480    13.1360    10.3140    10.6820    25.4790   -22.2280     2.2400 
  152.8750    70.6130    12.9790    10.1470    10.7700    25.4500   -22.3720     2.2360 
  153.0000    68.8830    12.9210    10.0160    10.4600    25.4540   -22.5110     2.2260 
  153.1250    65.5060    13.2020    10.1080    10.2510    25.4550   -22.6610     2.2120 
  153.2500    66.0570    13.9860    10.5530    10.9520    25.4550   -22.7760     2.2010 
  153.3750    69.0640    15.4130    11.4400    12.6470    25.4540   -22.8810     2.1950 
  153.5000    68.4840    17.4620    12.7590    15.0710    25.4480   -22.9550     2.1940 
  153.6250    61.9960    19.7770    14.3530    17.8800    25.4490   -23.0170     2.2010 
  153.7500    55.8450    21.6200    15.8090    20.2850    25.4120   -23.0700     2.2120 
  153.8750    54.2790    22.5090    16.7610    21.0210    25.2090   -23.0690     2.2240 
  154.0000    56.1340    22.4780    17.0480    18.5430    25.0230   -23.0580     2.2330 
  154.1250    57.8200    22.0370    16.7700    16.0520    24.9900   -23.0050     2.2310 
  154.2500    58.5320    21.6790    16.3090    15.9880    24.9760   -22.9650     2.2190 
  154.3750    60.3380    21.3570    15.8220    16.5630    24.9690   -22.9070     2.2020 
  154.5000    63.1350    20.7810    15.3340    16.5050    24.9160   -22.8550     2.1860 
  154.6250    63.2750    19.6070    14.7710    15.9740    24.8380   -22.7710     2.1780 
  154.7500    60.8810    18.0310    14.0920    15.1760    24.7780   -22.7140     2.1770 
  154.8750    57.9610    16.4170    13.3480    13.3620    24.7100   -22.6660     2.1800 
  155.0000    56.3180    15.1450    12.6680    12.0450    24.6850   -22.6340     2.1850 
  155.1250    56.9310    14.5400    12.2080    11.8540    24.6790   -22.6290     2.1910 
  155.2500    58.8920    14.5460    11.9770    12.2340    24.6690   -22.6330     2.1980 
  155.3750    60.4280    15.0500    11.9490    12.2510    24.6270   -22.6420     2.2040 
  155.5000    61.3110    15.7910    12.0520    11.9860    24.6080   -22.6510     2.2110 
  155.6250    63.6050    16.3850    12.1900    12.1480    24.6050   -22.7220     2.2160 
  155.7500    65.7610    16.6790    12.2990    12.4700    24.6050   -22.7570     2.2210 
  155.8750    65.6290    16.8070    12.4300    12.7560    24.6050   -22.8200     2.2220 
  156.0000    63.8860    17.0770    12.7080    13.0360    24.6050   -22.8630     2.2210 
  156.1250    64.6340    17.8080    13.3300    13.3850    24.6050   -22.9130     2.2150 
  156.2500    66.8150    18.8470    14.2620    14.0830    24.6050   -22.9510     2.2080 
  156.3750    65.6190    19.7380    15.2700    15.3930    24.6050   -22.9980     2.1990 
  156.5000    61.5740    19.8270    15.8580    17.4700    24.6050   -23.0330     2.1900 
  156.6250    58.9590    18.3940    15.2650    18.3760    24.5940   -23.0340     2.1800 
  156.7500    58.7750    15.8620    13.6270    15.3780    24.5260   -23.0360     2.1750 
  156.8750    59.5390    12.9430    11.4950    10.8150    24.2750   -22.9960     2.1800 
  157.0000    59.9120    10.3450     9.4920     7.5010    24.1130   -22.9340     2.1970 
  157.1250    60.3170     8.5800     8.0540     6.3290    24.0550   -22.8290     2.2250 
  157.2500    60.1550     7.5170     7.1070     6.0930    24.0540   -22.7020     2.2560 
  157.3750    61.8230     6.9570     6.5230     5.9730    24.0800   -22.5470     2.2820 
  157.5000    66.9860     6.6560     6.1610     5.5340    24.1280   -22.3840     2.3020 
  157.6250    71.6210     6.4320     5.9270     4.9940    24.1390   -22.2160     2.3120 
  157.7500    72.3940     6.2190     5.7490     4.5870    24.1130   -22.0410     2.3150 
  157.8750    70.8390     6.0690     5.6210     4.3750    24.0150   -21.8990     2.3090 
  158.0000    71.4390     6.0350     5.5380     4.4350    23.9670   -21.7900     2.2970 
  158.1250    73.4930     6.0680     5.4610     4.4900    24.0340   -21.7570     2.2850 
  158.2500    73.3610     6.0470     5.3330     4.4940    24.0640   -21.7810     2.2770 
  158.3750    71.7830     5.9380     5.1290     4.5590    24.1140   -21.8690     2.2740 
  158.5000    72.2950     5.8040     4.8740     4.7520    24.1140   -22.0210     2.2760 
  158.6250    78.3880     5.7490     4.6520     4.5110    23.9630   -22.2270     2.2830 
  158.7500    85.5980     5.8090     4.5530     4.2420    23.7150   -22.5060     2.2930 
  158.8750    88.2430     6.0290     4.6520     4.3010    23.6070   -22.8260     2.3030 
  159.0000    85.2600     6.4980     5.0160     4.8110    23.5780   -23.1670     2.3100 
  159.1250    79.2080     7.4960     5.8200     6.1030    23.5050   -23.5180     2.3100 
  159.2500    74.3800     9.2200     7.1660     8.1890    23.3580   -23.8410     2.3010 
  159.3750    71.0280    11.7950     9.1820    10.7960    23.2930   -24.1320     2.2860 
  159.5000    66.3060    15.0170    11.8690    13.7290    23.2970   -24.3810     2.2690 
  159.6250    58.6380    18.0120    14.8080    18.4820    23.3790   -24.5800     2.2510 
  159.7500    54.0450    19.5810    16.9230    23.1870    23.6300   -24.7070     2.2310 
  159.8750    56.6160    19.0510    17.3120    23.4310    23.6570   -24.7740     2.2090 
  160.0000    63.4360    16.8400    15.9670    18.5150    23.6300   -24.8070     2.1890 
  160.1250    68.0520    14.3050    13.8220    12.7290    23.4930   -24.8030     2.1780 
  160.2500    70.2360    12.5220    11.9660    10.3940    23.4030   -24.8030     2.1760 
  160.3750    70.3120    11.6450    10.7220     9.5710    23.3470   -24.8170     2.1810 
  160.5000    70.9810    11.4490    10.0990     9.5260    23.2710   -24.8600     2.1890 
  160.6250    74.2680    11.6160    10.0150     9.6820    23.1430   -24.9170     2.1960 
  160.7500    76.6560    11.7930    10.1750    10.0080    23.0620   -25.0150     2.2000 
  160.8750    74.8710    11.8630    10.3980    10.1190    23.0680   -25.1650     2.2030 
  161.0000    71.1990    11.8660    10.5690    10.1690    23.1920   -25.3600     2.2080 
  161.1250    71.9190    11.9750    10.6850    10.2920    23.4270   -25.6200     2.2140 
  161.2500    74.4420    12.3590    10.8730    10.6230    23.2850   -25.9450     2.2180 
  161.3750    75.4720    13.1100    11.2590    10.8130    23.0040   -26.3160     2.2210 
  161.5000    74.6870    14.1710    11.8780    11.3030    22.8300   -26.7320     2.2210 
  161.6250    73.4530    15.3310    12.6300    12.6280    22.7920   -27.2350     2.2190 
  161.7500    71.2730    16.3380    13.3140    15.1200    23.0550   -27.7960     2.2120 
  161.8750    67.0880    17.1900    13.8960    17.6700    23.6790   -28.4030     2.2030 
  162.0000    62.9830    18.2590    14.5870    17.6710    24.4230   -29.0560     2.1930 
  162.1250    63.0860    20.8150    16.1710    16.0210    24.7810   -29.7420     2.1890 
  162.2500    65.4760    26.0760    19.6180    18.3690    24.9650   -30.4350     2.1940 
  162.3750    65.1830    35.4210    26.2770    31.1090    25.1070   -31.1180     2.2060 
