~V
VERS. 2.00: Ver 2.00
~W
STRT.M 20.0000:
STOP.M 279.0000:
STEP.M 0.1250:
NULL. -999.2500:
UWI. F11153:
~C
DEPT.M :
DEN.GM/CC :
GR.API :
RML.OHMM :
RI. :
RXO.OHMM :
CALI.CM :
SP.MV :
~A
# ...
  121.2500     2.4970    65.6040    10.2440     8.0950    11.9420    23.5330   -24.5200 
  121.3750     2.4560    69.5720     9.1770     7.4730     9.4610    23.6320   -25.8510 
  121.5000     2.3820    69.1450     8.0690     6.6650     6.8570    23.6540   -27.2560 
  121.6250     2.3080    66.6150     7.4560     6.1080     5.9630    23.6760   -28.6130 
  121.7500     2.2590    64.6200     7.3510     5.9180     6.2590    23.7790   -29.8480 
  121.8750     2.2290    62.8840     7.6330     6.0640     7.3490    24.0490   -30.8820 
  122.0000     2.2070    61.6540     8.1060     6.4350     8.5970    24.4770   -31.6590 
  122.1250     2.1810    62.7070     8.5420     6.8730     9.4070    24.7980   -32.1380 
  122.2500     2.1550    64.1170     8.8030     7.2180    10.0590    24.8060   -32.3600 
  122.3750     2.1390    64.6020     8.8780     7.4160    10.9200    24.5680   -32.3300 
  122.5000     2.1400    64.0920     8.8310     7.4910    12.0830    24.2040   -32.1380 
  122.6250     2.1540    62.8660     8.7280     7.5000    12.0980    24.2000   -31.8220 
  122.7500     2.1560    61.5100     8.6160     7.5020    10.8900    24.5620   -31.3860 
  122.8750     2.1400    62.8840     8.5110     7.5030     9.9920    24.9550   -30.8730 
  123.0000     2.1220    68.9710     8.4190     7.4880     9.5080    24.7000   -30.3770 
  123.1250     2.1350    73.3420     8.3390     7.4260     9.1010    23.9780   -29.9100 
  123.2500     2.1730    69.0680     8.2690     7.3220     8.8310    23.5640   -29.4180 
  123.3750     2.2130    61.8880     8.2230     7.1970     8.5010    23.4340   -28.8890 
  123.5000     2.2300    61.8670     8.2140     7.0800     8.4100    23.4120   -28.3600 
  123.6250     2.2290    68.0170     8.2390     6.9970     8.5160    23.4020   -27.8360 
  123.7500     2.2290    68.5860     8.2480     6.9350     8.7570    23.3780   -27.2970 
  123.8750     2.2330    66.3310     8.1860     6.8670     9.1380    23.3540   -26.7710 
  124.0000     2.2360    69.6760     8.0210     6.7690     9.3740    23.3430   -26.1780 
  124.1250     2.2410    75.0940     7.7960     6.6450     9.5000    23.3440   -25.4630 
  124.2500     2.2530    72.7680     7.6740     6.5640     9.2760    23.3490   -24.6630 
  124.3750     2.2720    65.9970     7.8650     6.6420     8.9170    23.3770   -23.7760 
  124.5000     2.2980    62.7210     8.6080     7.0380     9.0660    23.4440   -22.7940 
  124.6250     2.3370    64.1910    10.2500     8.0350    10.4180    23.5320   -21.7480 
  124.7500     2.3880    65.2340    12.7180     9.7050    12.7380    23.6020   -20.7230 
  124.8750     2.4440    64.1680    15.8000    12.0380    15.7680    23.6420   -19.6940 
  125.0000     2.4970    59.0080    18.9010    14.7280    19.7330    23.6540   -18.7440 
  125.1250     2.5360    50.5090    20.8000    16.8960    22.3470    23.6540   -17.9500 
  125.2500     2.5570    46.5500    21.0190    17.8500    21.8000    23.6540   -17.2780 
  125.3750     2.5630    48.0860    19.9910    17.6190    18.8160    23.6540   -16.6930 
  125.5000     2.5580    49.8210    18.6820    16.8120    15.8500    23.6580   -16.1900 
  125.6250     2.5500    48.0720    18.0260    16.1780    14.1190    23.6720   -15.8470 
  125.7500     2.5450    45.1120    18.2380    16.0940    14.1430    23.6930   -15.6360 
  125.8750     2.5460    43.8260    19.2530    16.6480    15.7700    23.6920   -15.5160 
  126.0000     2.5560    45.1080    20.8490    17.7710    16.6520    23.6500   -15.4120 
  126.1250     2.5700    49.2860    22.7220    19.3090    16.9060    23.5260   -15.3650 
  126.2500     2.5820    51.3480    24.4690    20.8980    17.7160    23.3530   -15.3950 
  126.3750     2.5930    47.6620    25.8150    22.2580    18.9260    23.1740   -15.4890 
  126.5000     2.6020    42.9660    26.5860    23.1820    19.0450    23.0480   -15.6100 
  126.6250     2.6060    43.4050    26.6420    23.5080    19.3340    22.9510   -15.7250 
  126.7500     2.6060    46.5920    26.2010    23.3760    19.2270    22.9040   -15.8470 
  126.8750     2.5950    48.0320    25.5160    22.9540    18.2290    22.9180   -15.9860 
  127.0000     2.5690    46.5010    24.9020    22.4780    16.7580    22.9730   -16.1260 
  127.1250     2.5340    45.6090    24.6080    22.1840    16.4440    23.0090   -16.2290 
  127.2500     2.5040    47.9770    24.5400    22.0870    17.0330    23.0100   -16.3140 
  127.3750     2.4870    52.7540    24.5190    22.0950    18.0940    22.9830   -16.3890 
  127.5000     2.4850    56.5570    24.3530    22.0700    19.2580    22.9590   -16.4460 
  127.6250     2.4910    56.0860    23.9010    21.8520    18.8230    22.9500   -16.4810 
  127.7500     2.4890    53.5620    23.2920    21.4700    17.0710    22.9870   -16.4810 
  127.8750     2.4790    52.4500    22.6850    21.0250    15.7920    23.0460   -16.4320 
  128.0000     2.4770    54.1020    22.1800    20.6240    15.4110    23.0800   -16.3580 
  128.1250     2.4950    55.2870    21.7890    20.3170    16.1610    23.0670   -16.2880 
  128.2500     2.5180    53.7820    21.4330    20.0530    16.6380    23.0590   -16.2100 
  128.3750     2.5330    52.0610    21.0680    19.7780    16.2370    23.1530   -16.1220 
  128.5000     2.5400    51.0920    20.6940    19.4760    15.6200    23.3570   -16.0250 
  128.6250     2.5460    49.9620    20.3430    19.1760    15.1660    23.5980   -15.9070 
  128.7500     2.5540    49.4870    20.0150    18.9160    15.0410    23.7800   -15.7760 
  128.8750     2.5570    50.3080    19.6870    18.6930    15.4100    23.8710   -15.7010 
  129.0000     2.5510    50.9920    19.3550    18.4800    15.2580    23.8960   -15.7050 
  129.1250     2.5320    50.3770    19.0870    18.2620    14.5840    23.8820   -15.7160 
  129.2500     2.5130    49.3480    18.9540    18.0860    13.8510    23.8380   -15.7090 
  129.3750     2.5030    48.7100    18.9720    18.0040    13.6370    23.7540   -15.7390 
  129.5000     2.5050    48.7230    19.0640    18.0070    13.8970    23.6360   -15.8240 
  129.6250     2.5150    49.7520    19.0520    17.9960    14.4580    23.5460   -15.8900 
  129.7500     2.5220    50.4170    18.8370    17.8470    14.7210    23.4900   -15.9470 
  129.8750     2.5240    49.9890    18.4490    17.5200    14.6940    23.4710   -15.9950 
  130.0000     2.5210    49.3070    18.0180    17.0840    13.8820    23.4760   -16.0100 
  130.1250     2.5130    49.5150    17.7420    16.7150    12.5580    23.5150   -15.9940 
  130.2500     2.5040    50.4130    17.7020    16.5460    11.9250    23.6190   -15.9750 
  130.3750     2.4970    51.0610    17.5550    16.5090    12.2350    23.6890   -15.9510 
  130.5000     2.4960    49.6390    17.8890    16.7770    13.1990    23.6910   -15.9030 
  130.6250     2.4980    46.5960    18.4060    17.2180    13.9360    23.6790   -15.8350 
  130.7500     2.5000    45.1250    18.7480    17.5870    14.2460    23.6930   -15.7610 
  130.8750     2.5000    46.7560    18.8040    17.7450    15.1190    23.8060   -15.6690 
  131.0000     2.5030    48.7320    18.6020    17.6600    15.9440    24.0750   -15.5830 
  131.1250     2.5010    48.2470    18.2810    17.4050    15.7140    24.4300   -15.5190 
  131.2500     2.4870    47.9690    18.0130    17.1410    14.8550    24.7370   -15.4290 
  131.3750     2.4700    49.8760    17.8340    16.9260    14.7470    24.8840   -15.3150 
  131.5000     2.4690    51.5910    17.7060    16.7470    15.6800    24.8900   -15.2380 
  131.6250     2.4940    49.1240    17.5870    16.5810    17.3260    24.9530   -15.1970 
  131.7500     2.5230    45.3300    17.5090    16.4510    18.1720    25.1870   -15.1290 
  131.8750     2.5340    44.8420    17.5510    16.4220    17.1880    25.4940   -15.0250 
  132.0000     2.5230    47.5490    17.8010    16.5700    15.3100    25.7370   -14.9110 
  132.1250     2.5040    48.0400    18.3350    16.9830    16.1880    25.6930   -14.8330 
  132.2500     2.4960    45.1850    19.0140    17.5780    18.0910    25.4950   -14.8180 
  132.3750     2.5090    42.1450    19.6300    18.1990    19.3160    25.2620   -14.8040 
