~V
VERS. 2.00: Ver 2.00
~W
STRT.M 49.0000:
STOP.M 247.0000:
STEP.M 0.1250:
NULL. -999.2500:
UWI. F11144:
~C
DEPT.M :
DEN.GM/CC :
SP.MV :
GR.API :
RML.OHMM :
RI. :
RXO.OHMM :
CALI.CM :
~A
# ...
  105.2500     2.1340   -33.9450    67.2580    10.9100     9.6960    12.1720    24.0910 
  105.3750     2.1300   -33.3980    60.1490    11.0480     9.7770    12.5040    24.1880 
  105.5000     2.1270   -32.7790    55.4430    11.2940     9.9610    12.7820    24.2410 
  105.6250     2.1230   -32.0560    56.2010    11.5400    10.1810    13.0460    24.2880 
  105.7500     2.1180   -31.2960    61.8550    11.5720    10.2630    13.2740    24.2810 
  105.8750     2.1260   -30.5140    67.4180    11.2560    10.0690    13.3210    24.0550 
  106.0000     2.1570   -29.7840    70.1150    10.5810     9.5560    12.9100    23.6100 
  106.1250     2.2070   -29.2110    72.2410     9.7170     8.8300    11.7170    23.2990 
  106.2500     2.2480   -28.9020    75.2370     9.0040     8.1370    10.1690    23.3130 
  106.3750     2.2520   -28.9000    77.2480     8.6740     7.6930     8.9810    23.4680 
  106.5000     2.2260   -29.2420    77.2570     8.8000     7.5890     8.4520    23.6190 
  106.6250     2.1860   -29.9190    74.9830     9.3260     7.8350     9.1200    23.7230 
  106.7500     2.1430   -30.8680    72.2980    10.0830     8.3750    11.1310    23.8280 
  106.8750     2.1010   -31.9550    69.4900    10.7550     8.9790    13.2020    23.9280 
  107.0000     2.0680   -33.0500    67.3200    11.1300     9.4450    13.5530    23.9770 
  107.1250     2.0550   -33.9960    65.6480    11.1460     9.6440    13.1990    23.9630 
  107.2500     2.0680   -34.7470    65.4280    10.8980     9.5560    12.9270    23.8580 
  107.3750     2.0890   -35.2140    66.4010    10.6220     9.3510    12.8800    23.6540 
  107.5000     2.1080   -35.3650    68.8430    10.4360     9.1400    12.9390    23.3790 
  107.6250     2.1230   -35.2290    71.4430    10.3630     8.9870    13.2250    23.2140 
  107.7500     2.1360   -34.8280    71.3600    10.3720     8.9040    13.8150    23.1820 
  107.8750     2.1480   -34.3200    69.2680    10.4020     8.8540    13.9170    23.1630 
  108.0000     2.1610   -33.7520    68.0650    10.4340     8.8190    13.3130    23.0900 
  108.1250     2.1710   -33.1850    67.9270    10.4590     8.7880    12.6780    23.0450 
  108.2500     2.1730   -32.5760    68.3820    10.4520     8.7410    12.4300    23.1200 
  108.3750     2.1720   -32.0220    70.0820    10.3970     8.6610    12.2450    23.2470 
  108.5000     2.1800   -31.6240    72.5350    10.2900     8.5420    11.9700    23.2400 
  108.6250     2.2080   -31.4210    74.0930    10.1450     8.3890    11.3290    23.1030 
  108.7500     2.2490   -31.5750    73.5570    10.0130     8.2340    10.5340    22.9690 
  108.8750     2.2760   -31.9760    72.2480     9.9660     8.1310    10.3920    22.9740 
  109.0000     2.2690   -32.5610    71.7260    10.0570     8.1260    10.7050    23.1000 
  109.1250     2.2290   -33.3130    72.7790    10.3020     8.2500    10.9860    23.3220 
  109.2500     2.1780   -34.1510    73.0880    10.6790     8.5070    11.4610    23.6070 
  109.3750     2.1420   -34.9580    69.5630    11.0870     8.8230    12.7660    23.7640 
  109.5000     2.1280   -35.6600    64.0930    11.4550     9.1400    13.9460    23.7780 
  109.6250     2.1300   -36.1880    61.0180    11.7350     9.4170    14.3560    23.7050 
  109.7500     2.1320   -36.3770    60.8250    11.8860     9.6170    14.1050    23.6580 
  109.8750     2.1240   -36.2730    63.8700    11.9260     9.7380    13.8600    23.6620 
  110.0000     2.1030   -35.9400    69.1980    11.8630     9.7730    14.1450    23.6920 
  110.1250     2.0780   -35.3330    71.9310    11.6960     9.7180    14.9210    23.7090 
  110.2500     2.0600   -34.4240    67.0960    11.3970     9.5490    14.7080    23.6980 
  110.3750     2.0540   -33.2550    60.3530    10.9780     9.2780    13.0230    23.6350 
  110.5000     2.0570   -31.7750    57.8130    10.4590     8.9120    12.1920    23.5580 
  110.6250     2.0670   -29.9930    59.6590     9.8860     8.4790    12.0510    23.5190 
  110.7500     2.0860   -27.9280    66.2520     9.3110     8.0190    11.8500    23.3800 
  110.8750     2.1230   -25.7140    75.1310     8.7510     7.5600    10.9040    22.9950 
  111.0000     2.1870   -23.4180    80.6560     8.1960     7.0990     9.2390    22.4560 
  111.1250     2.2590   -21.1300    82.8240     7.6530     6.6380     7.8360    22.1940 
  111.2500     2.2960   -18.9160    89.4730     7.1520     6.1970     7.1730    22.5660 
  111.3750     2.2900   -16.8790    98.6410     6.7080     5.7890     6.4190    23.0990 
  111.5000     2.2660   -15.1350   102.6460     6.3220     5.4250     5.6350    23.5410 
  111.6250     2.2440   -13.6840   100.0420     5.9940     5.1120     5.2920    23.8460 
  111.7500     2.2340   -12.6220    98.6030     5.7420     4.8670     5.3270    24.1120 
  111.8750     2.2360   -11.8260   101.3080     5.5660     4.6870     5.3400    24.2530 
  112.0000     2.2490   -11.1940   104.2500     5.4620     4.5700     5.2200    24.2990 
  112.1250     2.2710   -10.7600   103.4760     5.4070     4.4960     5.1360    24.3010 
  112.2500     2.2910   -10.5410   100.4570     5.3810     4.4450     5.2150    24.3340 
  112.3750     2.2990   -10.4220   102.3540     5.3750     4.4170     5.3320    24.4130 
  112.5000     2.2910   -10.3940   106.8290     5.4130     4.4310     5.3810    24.4520 
  112.6250     2.2790   -10.4060   108.0320     5.5300     4.5120     5.2880    24.3450 
  112.7500     2.2790   -10.4230   103.2290     5.7970     4.7080     5.3050    24.1330 
  112.8750     2.2870   -10.4430    99.0340     6.2110     5.0220     5.5950    24.0280 
  113.0000     2.2930   -10.4490    98.8640     6.7230     5.4340     6.1520    24.0040 
  113.1250     2.3010   -10.4190   101.4730     7.2150     5.8730     6.7060    24.0600 
  113.2500     2.3180   -10.3670   102.0160     7.4820     6.1880     7.6060    24.1690 
  113.3750     2.3410   -10.3450   101.4790     7.4260     6.2610     8.6190    24.2250 
  113.5000     2.3560   -10.2970   100.9630     7.0600     6.0620     8.2750    24.1850 
  113.6250     2.3510   -10.2660    99.3660     6.5170     5.6680     6.7120    24.0460 
  113.7500     2.3340   -10.2170    94.9550     5.9930     5.2230     5.7620    23.8440 
  113.8750     2.3230   -10.1410    94.0730     5.5970     4.8480     5.4910    23.8830 
  114.0000     2.3220   -10.1060    98.8370     5.3470     4.5840     5.3180    24.3230 
  114.1250     2.3270   -10.0590   103.8180     5.2140     4.4260     5.0910    25.0020 
  114.2500     2.3360   -10.0450   102.9150     5.1500     4.3470     5.0730    24.9940 
  114.3750     2.3450   -10.0190   100.7510     5.1120     4.3030     5.1220    24.5870 
  114.5000     2.3490    -9.9700   101.4110     5.1140     4.2940     5.2030    24.2980 
  114.6250     2.3480    -9.9300   104.9670     5.1820     4.3380     5.2810    24.2450 
  114.7500     2.3420    -9.9040   107.4020     5.3340     4.4550     5.3820    24.3010 
  114.8750     2.3320    -9.8850   107.8260     5.5240     4.6170     5.4600    24.3490 
  115.0000     2.3290    -9.8370   105.6250     5.6960     4.7860     5.6750    24.3400 
  115.1250     2.3410    -9.8270   102.0460     5.7910     4.9130     5.9830    24.2780 
  115.2500     2.3550    -9.7980   101.0470     5.7610     4.9450     5.9050    24.2580 
  115.3750     2.3590    -9.7560   102.0380     5.6420     4.8970     5.7580    24.2990 
  115.5000     2.3580    -9.7290   104.5460     5.4790     4.8010     5.6720    24.2830 
  115.6250     2.3610    -9.6920   107.8100     5.3120     4.6960     5.5710    24.1780 
  115.7500     2.3640    -9.6530   108.9170     5.1750     4.6150     5.4250    24.1090 
  115.8750     2.3600    -9.6250   105.7640     5.0710     4.5600     5.3940    24.1240 
  116.0000     2.3540    -9.6480   101.8550     4.9910     4.5200     5.4100    24.1420 
  116.1250     2.3490    -9.6560   103.7870     4.9300     4.4850     5.3280    24.1470 
  116.2500     2.3450    -9.6690   111.3580     4.8840     4.4500     5.2560    24.1370 
  116.3750     2.3430    -9.6980   118.3250     4.8530     4.4180     5.2330    24.1110 
