~V
VERS. 2.00: Ver 2.00
~W
STRT.M 50.0000:
STOP.M 253.0000:
STEP.M 0.1250:
NULL. -999.2500:
UWI. F11132:
~C
DEPT.M :
DEN.GM/CC :
GR.API :
RML.OHMM :
RI. :
RXO.OHMM :
CALI.CM :
SP.MV :
~A
# ...
  241.2500     2.2850    40.8700     8.3220     6.8560     6.2480    26.3700   -20.5600 
  241.3750     2.3440    42.7520     8.2780     6.8550     6.2550    26.5470   -20.2010 
  241.5000     2.3710    45.4650     8.2390     6.8550     6.2070    26.5210   -19.7450 
  241.6250     2.3660    45.2370     8.2160     6.8590     6.1430    26.2000   -19.2440 
  241.7500     2.3490    42.5940     8.2130     6.8730     6.2140    26.0320   -18.7650 
  241.8750     2.3390    41.4190     8.2340     6.9010     6.5960    26.1740   -18.3230 
  242.0000     2.3380    43.3140     8.2800     6.9480     7.2650    26.5490   -17.9260 
  242.1250     2.3400    45.3320     8.3500     7.0170     7.7180    27.0760   -17.5900 
  242.2500     2.3370    46.0640     8.4330     7.1000     7.7230    27.6460   -17.3340 
  242.3750     2.3210    45.3650     8.5260     7.1920     7.2430    27.9290   -17.1550 
  242.5000     2.3020    42.5380     8.6210     7.2880     6.6750    28.0370   -17.0900 
  242.6250     2.3000    40.0520     8.7090     7.3780     6.4340    28.3200   -17.0900 
  242.7500     2.3190    41.2820     8.7820     7.4580     6.4580    28.7740   -17.0870 
  242.8750     2.3340    42.5350     8.8380     7.5220     6.5150    29.0810   -17.0880 
  243.0000     2.3170    42.5350     8.8760     7.5670     6.4850    28.7640   -17.0780 
  243.1250     2.2590    42.5350     8.8940     7.5900     6.3450    28.4500   -17.0620 
  243.2500     2.1800    42.5350     8.9010     7.6020     6.2220    28.5560   -17.0470 
  243.3750     2.1250    42.5350     8.9060     7.6130     6.2600    29.0400   -17.0180 
  243.5000     2.1150    42.5350     8.9240     7.6350     6.3790    29.3930   -16.9680 
  243.6250     2.1410    42.5350     8.9740     7.6760     6.5150    29.3780   -16.9280 
  243.7500     2.1820    42.5350     9.0560     7.7340     6.7140    28.9610   -16.8820 
  243.8750     2.2330    42.5350     9.1610     7.8070     7.3790    28.1540   -16.8370 
  244.0000     2.2950    42.5350     9.2800     7.8960     9.0920    26.9680   -16.7850 
  244.1250     2.3670    42.5350     9.4140     8.0120    10.7770    26.1570   -16.7240 
  244.2500     2.4480    42.5350     9.5660     8.1580    11.6860    25.8350   -16.6720 
  244.3750     2.5260    42.5350     9.7430     8.3330    12.0560    25.7780   -16.6660 
  244.5000     2.5740    42.5350     9.9430     8.5280    12.1520    25.7680   -16.6810 
  244.6250     2.5810    42.5350    10.1570     8.7320    11.8410    25.6750   -16.7010 
  244.7500     2.5600    42.5350    10.3720     8.9340    11.6470    25.5160   -16.7390 
  244.8750     2.5410    42.5350    10.5720     9.1260    11.9990    25.3890   -16.7820 
  245.0000     2.5350    42.5350    10.7290     9.2870    12.1990    25.3990   -16.8330 
  245.1250     2.5360    42.5350    10.8030     9.3690    11.3650    25.4740   -16.8810 
  245.2500     2.5300    42.5350    10.8100     9.3500    11.1690    25.5910   -16.9280 
  245.3750     2.5100    42.5350    10.7630     9.2400    10.9320    25.6960   -16.9520 
  245.5000     2.4790    42.5350    10.6680     9.0790    10.6780    25.7530   -17.0040 
  245.6250     2.4450    42.5350    10.3360     8.9340    11.5910    25.7710   -17.0520 
  245.7500     2.4210    42.5350    10.3360     8.8420    12.2690    25.7700   -17.0840 
  245.8750     2.4300    42.5350    10.3360     8.8040    12.6190    25.7440   -17.1250 
  246.0000     2.4680    42.5350    10.3360     8.7970    12.5810    25.7480   -17.1570 
  246.1250     2.5110    42.5350    10.3360     8.7990    12.6790    25.7570   -17.2070 
  246.2500     2.5310    42.5350    10.3360     8.8000    12.9680    25.6980   -17.2420 
  246.3750     2.5280    42.5350    10.3360     8.8000    13.2000    25.5070   -17.2770 
  246.5000     2.5290    42.5350    10.3360     8.8000    13.0560    25.2320   -17.2790 
  246.6250     2.5380    42.5350    10.3360     8.8010    13.6590    25.0950   -17.2500 
  246.7500     2.5430    42.5350    10.3360     8.8020    15.3210    25.0370   -17.2120 
  246.8750     2.5410    42.5350    10.3360     8.8040    17.1750    25.0250   -17.1510 
  247.0000     2.5450    42.5350    10.3360     8.8040    15.3840    25.0230   -17.1080 
  247.1250     2.5530    42.5350    10.3360     8.8000    14.0200    25.0240   -17.0520 
  247.2500     2.5530    42.5350    10.3360     8.7940    13.3730    25.0300   -16.9710 
  247.3750     2.5450    42.5350    10.3360     8.7920    13.4230    25.0430   -16.8620 
  247.5000     2.5420    42.5350    10.3360     8.7940    13.8000    25.0580   -16.7790 
  247.6250     2.5450    42.5350    10.3360     8.8000    13.5950    25.0430   -16.7210 
  247.7500     2.5470    42.5350    10.3360     8.8070    13.6670    25.0380   -16.6840 
  247.8750     2.5390    42.5350    10.3360     8.8090    14.0840    25.0450   -16.6560 
  248.0000     2.5280    42.5350    10.3360     8.8040    14.4430    25.0730   -16.6260 
  248.1250     2.5190    42.5350    10.3360     8.7780    13.7220    25.0990   -16.6170 
  248.2500     2.5180    42.5350    10.3360     8.7330    13.6130    25.1250   -16.6440 
  248.3750     2.5240    42.5350    10.3360     8.6830    13.6450    25.1360   -16.6810 
  248.5000     2.5340    42.5350    10.3360     8.6530    13.5990    25.1120   -16.6870 
  248.6250     2.5430    42.5350    10.3360     8.6700    13.8510    25.0960   -16.7080 
  248.7500     2.5450    42.5350    10.3360     8.6960    14.3220    25.0770   -16.7140 
  248.8750     2.5340    42.5350    10.3360     8.6960    13.9770    25.0380   -16.7110 
  249.0000     2.5230    42.5350    10.3360     8.6960    13.2610    24.9540   -16.7170 
  249.1250     2.5230    42.5350    10.3360     8.6960    12.9640    24.8720   -16.6850 
  249.2500     2.5350    42.5350    10.3360     8.6960    12.9710    24.7540   -16.6200 
  249.3750     2.5560    42.5350    10.3360     8.6960    12.9750    24.7420   -16.5820 
  249.5000     2.5780    42.5350    10.3360     8.6960    12.6170    24.8630   -16.5710 
  249.6250     2.5850    42.5350    10.3360     8.6960    12.1620    24.9540   -16.5280 
  249.7500     2.5610    42.5350    10.3360     8.6960    12.3470    24.9940   -16.5100 
  249.8750     2.5040    42.5350    10.3360     8.6960    13.1820    25.0140   -16.4870 
  250.0000     2.4350    42.5350    10.3360     8.6960    14.6040    25.0230   -16.4370 
  250.1250     2.3520    42.5350    10.3360     8.6960    20.4540    25.0230   -16.4150 
  250.2500     2.2530    42.5350    10.3360     8.6960    27.3670    25.0230   -16.3880 
  250.3750     2.1480    42.5350    10.3360     8.6960    27.6800    25.0230   -16.3280 
  250.5000     2.0670    42.5350    10.3360     8.6960    15.2470    25.0230   -16.2410 
  250.6250     2.0270    42.5350    10.3360     8.6960    10.3560    25.0230   -16.1500 
  250.7500     2.0230    42.5350    10.3360     8.6960     8.1470    25.0230   -16.1500 
  250.8750     2.0370    42.5350    10.3360     8.6960     7.8740    25.0230   -16.1500 
  251.0000     2.0520    42.5350    10.3360     8.6960     7.7930    25.0230  -999.2500 
  251.1250     2.0620    42.5350    10.3360     8.6960     7.7920    25.0230  -999.2500 
  251.2500     2.0640    42.5350    10.3360     8.6960     7.8020    25.0230  -999.2500 
  251.3750     2.0630    42.5350    10.3360     8.6960     7.8040    25.0230  -999.2500 
  251.5000     2.0650    42.5350    10.3360     8.6960     7.8040    25.0230  -999.2500 
  251.6250     2.0620    42.5350    10.3360     8.6960     7.8040    25.0230  -999.2500 
  251.7500     2.0510    42.5350    10.3360     8.6960     7.8050    25.0230  -999.2500 
  251.8750     2.0390    42.5350    10.3360     8.6960     7.8050    25.0230  -999.2500 
  252.0000  -999.2500    42.5350    10.3360     8.6960     7.8050    25.0230  -999.2500 
  252.1250  -999.2500    42.5350    10.3360     8.6960     7.8050    25.0230  -999.2500 
  252.2500  -999.2500    42.5350    10.3360     8.6960     7.8050    25.0230  -999.2500 
  252.3750  -999.2500    42.5350    10.3360     8.6960     7.8050    25.0230  -999.2500 
