~V
VERS. 2.00: Ver 2.00
~W
STRT.M 45.0000:
STOP.M 264.0000:
STEP.M 0.1250:
NULL. -999.2500:
UWI. F11189:
~C
DEPT.M :
SP.MV :
GR.API :
RI. :
RML.OHMM :
RXO.OHMM :
DEN.GM/CC :
~A
# ...
  251.0000     7.5850    64.8260    71.8250    70.8520   193.0760     2.4090 
  251.1250     7.5850    65.0760    76.6760    75.5430   225.4860     2.4470 
  251.2500     7.5850    64.5980    70.6390    69.2900   173.8510     2.4920 
  251.3750     7.5850    64.2710    55.5300    54.0560   133.2740     2.5280 
  251.5000     7.5850    64.0040    36.2430    34.9310   103.3340     2.5530 
  251.6250     7.5850    64.2190    22.1880    21.3330    42.6290     2.5500 
  251.7500     7.5850    64.4660    16.2390    15.7010     8.1000     2.4890 
  251.8750     7.5850    64.4940    15.4750    15.0510     8.5360     2.3860 
  252.0000     7.5850    63.5550    15.4690    15.0560     9.1500     2.3050 
  252.1250     7.5850    62.1750    15.4720    15.0580     7.1800     2.2690 
  252.2500     7.5850    62.5130    15.4710    15.0560     5.3890     2.2570 
  252.3750     7.5850    64.3670    15.4680    15.0510     5.3690     2.2570 
  252.5000     7.5850    65.6250    15.4690    15.0540     5.6940     2.2650 
  252.6250     7.5850    64.6770    15.4690    15.0550     5.6900     2.2730 
  252.7500     7.5850    63.4530    15.4740    15.0590     5.4230     2.2770 
  252.8750     7.5850    62.8870    15.4720    15.0570     5.3350     2.2830 
  253.0000     7.5850    62.1570    15.4690    15.0540     5.5690     2.2910 
  253.1250     7.5850    61.5740    15.4700    15.0620     6.1020     2.2890 
  253.2500     7.5850    61.8060    15.4650    15.0580     6.2860     2.2800 
  253.3750     7.5850    62.4100    15.4680    15.0720     5.8050     2.2730 
  253.5000     7.5850    63.0580    15.4910    15.0440     5.4840     2.2770 
  253.6250     7.5850    63.9490    15.4930    15.0130     5.6300     2.2890 
  253.7500     7.5850    64.7420    15.4750    15.0140     5.9070     2.2950 
  253.8750     7.5850    64.6960    15.4680    15.0330     6.2990     2.2900 
  254.0000     7.5850    64.2240    15.4720    15.0800     8.1420     2.2890 
  254.1250     7.5850    64.1760    15.4840    15.1180    11.4320     2.3010 
  254.2500     7.5850    64.1900    15.4840    15.1280    12.0180     2.3120 
  254.3750     7.5850    64.1700    15.4850    15.1110     8.9230     2.3010 
  254.5000     7.5850    64.1730    15.4980    15.0730     6.2670     2.2710 
  254.6250     7.5850    64.1730    15.4810    15.0450     5.5180     2.2520 
  254.7500     7.5850    64.1730    15.4820    14.9850     5.5870     2.2540 
  254.8750     7.5850    64.1730    15.4790    15.0070     5.7630     2.2630 
  255.0000     7.5850    64.1730    15.4620    15.0330     5.8880     2.2610 
  255.1250     7.5850    64.1730    15.5050    15.0320     5.8660     2.2640 
  255.2500     7.5850    64.1730    15.5350    14.9700     5.9350     2.2870 
  255.3750     7.5850    64.1730    15.5560    14.9850     6.1130     2.3210 
  255.5000     7.5850    64.1730    15.5690    15.0080     5.9050     2.3400 
  255.6250     7.5850    64.1730    15.5840    15.0620     6.0110     2.3290 
  255.7500     7.5850    64.1730    15.5450    15.0990     6.2320     2.3150 
  255.8750     7.5850    64.1730    15.5220    15.0330     5.8880     2.3180 
  256.0000     7.5850    64.1730    15.5090    14.9860     6.0370     2.3200 
  256.1250     7.5850    64.1730    15.5000    14.9560     6.9210     2.3070 
  256.2500     7.5850    64.1730    15.5300    14.9660     7.1590     2.2930 
  256.3750     7.5850    64.1730    15.5680    15.0260     6.4000     2.2760 
  256.5000     7.5850    64.1730    15.5810    15.0710     5.8870     2.2430 
  256.6250     7.5850    64.1730    15.5950    15.1210     5.8820     2.2190 
  256.7500     7.5850    64.1730    15.5960    15.1610     5.7130     2.2330 
  256.8750     7.5850    64.1730    15.5960    15.1610     4.9900     2.2640 
  257.0000     7.5850    64.1730    15.5960    15.1610     4.0530     2.2770 
  257.1250     7.5850    64.1730    15.5960    15.1610     3.4930     2.2820 
  257.2500     7.5850    64.1730    15.5960    15.1610     3.3020     2.2990 
  257.3750     7.5850    64.1730    15.5960    15.1610     3.3610     2.3250 
  257.5000     7.5850    64.1730    15.5960    15.1610     3.4220     2.3340 
  257.6250     7.5850    64.1730    15.5960    15.1610     3.3540     2.3100 
  257.7500     7.5850    64.1730    15.5960    15.1610     3.3500     2.2770 
  257.8750     7.5850    64.1730    15.5960    15.1610     3.5860     2.2710 
  258.0000     7.5850    64.1730    15.5960    15.1610     3.8010     2.2910 
  258.1250     7.5850    64.1730    15.5960    15.1610     3.8700     2.2970 
  258.2500     7.5850    64.1730    15.5960    15.1610     3.9440     2.2680 
  258.3750     7.5850    64.1730    15.5960    15.1610     3.8680     2.2200 
  258.5000     7.5850    64.1730    15.5960    15.1610     3.7870     2.1750 
  258.6250     7.5850    64.1730    15.5960    15.1610     3.9230     2.1450 
  258.7500     7.5850    64.1730    15.5960    15.1610     3.9040     2.1270 
  258.8750     7.5850    64.1730    15.5960    15.1610     3.5920     2.1180 
  259.0000     7.5850    64.1730    15.5960    15.1610     3.2670     2.1150 
  259.1250     7.5850    64.1730    15.5960    15.1610     3.0480     2.1160 
  259.2500     7.5850    64.1730    15.5960    15.1610     2.9680     2.1180 
  259.3750     7.5850    64.1730    15.5960    15.1610     2.9760     2.1170 
  259.5000     7.5850    64.1730    15.5960    15.1610     2.9780     2.1120 
  259.6250     7.5850    64.1730    15.5960    15.1610     2.9770     2.1080 
  259.7500     7.5850    64.1730    15.5960    15.1610     2.9770     2.1110 
  259.8750     7.5850    64.1730    15.5960    15.1610     2.9760     2.1140 
  260.0000     7.5850    64.1730    15.5960    15.1610     2.9740     2.1150 
  260.1250     7.5850    64.1730    15.5960    15.1610     2.9730     2.1140 
  260.2500     7.5850    64.1730    15.5960    15.1610     2.9710     2.1110 
  260.3750     7.5850    64.1730    15.5960    15.1610     2.9700     2.1070 
  260.5000     7.5850    64.1730    15.5960    15.1610     2.9670     2.1010 
  260.6250     7.5850    64.1730    15.5960    15.1610     2.9640     2.0970 
  260.7500     7.5850    64.1730    15.5960    15.1610     2.9610     2.0980 
  260.8750     7.5850    64.1730    15.5960    15.1610     2.9550     2.1090 
  261.0000     7.5850    64.1730    15.5960    15.1610     2.9570     2.1190 
  261.1250     7.5850    64.1730    15.5960    15.1610     2.9670     2.1170 
  261.2500     7.5850    64.1730    15.5960    15.1610     2.9760     2.1070 
  261.3750     7.5850    64.1730    15.5960    15.1610     2.9840     2.1020 
  261.5000     7.5850    64.1730    15.5960    15.1610     2.9790     2.1070 
  261.6250     7.5850    64.1730    15.5960    15.1610     3.0000     2.1150 
  261.7500     7.5850    64.1730    15.5960    15.1610     3.0080     2.1210 
  261.8750     7.5850    64.1730    15.5960    15.1610     2.9550     2.1200 
  262.0000     7.5850    64.1730    15.5960    15.1610     2.9280     2.1130 
  262.1250     7.5850    64.1730    15.5960    15.1610     2.9310     2.1070 
  262.2500     7.5850    64.1730    15.5960    15.1610     2.9490     2.1060 
  262.3750     7.5850    64.1730    15.5960    15.1610     2.9360     2.1080 
  262.5000     7.5850    64.1730    15.5960    15.1610     2.8650     2.1120 
  262.6250     7.5850    64.1730    15.5960    15.1610     2.9180     2.1190 
  262.7500     7.5850    64.1730    15.5960    15.1610     3.0170     2.1180 
  262.8750     7.5850    64.1730    15.5960    15.1610     3.0210     2.1080 
  263.0000     7.5850    64.1730    15.5960    15.1610     3.0130     2.0980 
  263.1250     7.5850    64.1730    15.5960    15.1610     3.0170     2.0940 
  263.2500     7.5850    64.1730    15.5960    15.1610     3.0010     2.0940 
  263.3750     7.5850    64.1730    15.5960    15.1610     2.9420     2.0940 
  263.5000     7.5850    64.1730    15.5960    15.1610     2.9910     2.0940 
  263.6250     7.5850    64.1730    15.5960    15.1610     3.1140     2.0940 
  263.7500     7.5850    64.1730    15.5960    15.1610     3.1690     2.0940 
