~V
VERS. 2.00: Ver 2.00
~W
STRT.M 54.0000:
STOP.M 273.0000:
STEP.M 0.1250:
NULL. -999.2500:
UWI. F11158:
~C
DEPT.M :
SP.MV :
DEN.GM/CC :
GR.API :
RML.OHMM :
RI. :
RXO.OHMM :
CALI.CM :
~A
# ...
  245.2500   -10.7010     2.2390    71.6850    17.4800    15.7050    18.2890    24.3480 
  245.3750   -10.7830     2.2400    71.3620    15.5620    14.1130    15.0180    24.2870 
  245.5000   -10.8900     2.2540    71.9850    13.6350    12.4460    10.5990    24.1400 
  245.6250   -11.0160     2.2730    70.6250    12.4970    11.3220     8.4510    24.0020 
  245.7500   -11.1740     2.2890    67.6430    12.8370    11.2120     8.5670    23.8870 
  245.8750   -11.3420     2.2970    67.2900    14.8040    12.2530    10.2360    23.7250 
  246.0000   -11.5110     2.3020    67.8660    18.4660    14.6560    13.4500    23.4960 
  246.1250   -11.6840     2.3140    64.5650    23.5180    18.5260    19.1590    23.3040 
  246.2500   -11.8450     2.3500    58.7080    28.8430    23.3970    27.2590    23.3860 
  246.3750   -11.9690     2.4000    56.0340    32.3880    27.4120    35.6950    23.6730 
  246.5000   -12.0630     2.4370    56.7060    32.5430    28.6130    40.0500    23.8960 
  246.6250   -12.1360     2.4270    58.8110    29.3000    26.4950    33.3320    23.9170 
  246.7500   -12.1790     2.3640    61.8820    24.5560    22.6550    22.1730    23.8610 
  246.8750   -12.1910     2.2970    65.2110    20.6980    19.3130    14.5740    23.8530 
  247.0000   -12.1780     2.2580    67.3600    18.6160    17.2470    12.6920    23.9210 
  247.1250   -12.1470     2.2490    67.6380    18.5080    16.6710    13.6470    24.0190 
  247.2500   -12.1020     2.2520    66.0690    20.3110    17.6750    15.8240    24.0760 
  247.3750   -12.0560     2.2560    63.2730    23.3790    19.9370    19.0670    24.1070 
  247.5000   -12.0100     2.2650    59.9520    27.1290    23.1350    23.5210    24.1370 
  247.6250   -11.9660     2.2820    56.8330    30.7560    26.6230    27.7310    24.1720 
  247.7500   -11.9390     2.2960    55.1150    33.3740    29.4710    30.4150    24.1980 
  247.8750   -11.9380     2.2910    54.8780    34.7130    31.1440    31.3050    24.2110 
  248.0000   -11.9640     2.2720    55.3890    34.9540    31.6670    30.9400    24.2010 
  248.1250   -12.0100     2.2530    56.2390    34.5680    31.4410    29.9370    24.1740 
  248.2500   -12.0720     2.2460    57.6300    34.0630    30.9420    29.3910    24.1500 
  248.3750   -12.1570     2.2460    59.9590    33.8220    30.5550    29.1490    24.1280 
  248.5000   -12.2580     2.2560    62.8010    34.0570    30.4800    29.0170    24.1390 
  248.6250   -12.3770     2.2800    64.9080    34.9510    30.9030    28.3610    24.1900 
  248.7500   -12.5000     2.3240    65.3220    36.6620    32.0280    27.9980    24.2250 
  248.8750   -12.6060     2.3770    65.7460    39.0150    33.8280    29.9130    24.1640 
  249.0000   -12.7020     2.4190    68.8430    41.7540    36.2040    34.0890    24.0520 
  249.1250   -12.8090     2.4380    73.0580    44.5050    38.8870    38.8680    23.9870 
  249.2500   -12.9200     2.4400    73.5980    46.8930    41.5010    41.2800    24.0100 
  249.3750   -12.9960     2.4370    69.7270    48.8610    43.7890    40.8100    24.0440 
  249.5000   -13.0420     2.4340    65.4890    50.5970    45.7660    38.3100    24.0450 
  249.6250   -13.0830     2.4360    64.2710    52.2110    47.5190    37.1670    24.0450 
  249.7500   -13.1380     2.4470    64.6600    53.0720    48.6340    38.6340    24.0200 
  249.8750   -13.1870     2.4700    64.3940    51.7400    47.8930    41.4420    23.8170 
  250.0000   -13.2110     2.4980    64.0700    46.9410    43.9890    46.8540    23.5010 
  250.1250   -13.2170     2.5220    64.9510    38.9550    37.0010    49.3290    23.3370 
  250.2500   -13.2030     2.5260    68.3640    29.9800    28.9090    35.4080    23.3100 
  250.3750   -13.1640     2.5120    75.4610    22.4770    22.0140    20.9700    23.2570 
  250.5000   -13.1350     2.4910    83.1040    17.2050    17.0080    12.4090    23.1660 
  250.6250   -13.0930     2.4700    85.9580    13.9990    13.7780    10.6140    23.1070 
  250.7500   -13.0230     2.4500    82.6240    12.3860    11.9780    11.4140    23.1910 
  250.8750   -12.9880     2.4230    77.1200    11.6110    11.0130    10.8880    23.5650 
  251.0000   -12.9570     2.3890    72.0600    11.3060    10.6000     8.8340    24.2080 
  251.1250   -12.9000     2.3570    68.2360    11.2060    10.5030     7.9690    24.7800 
  251.2500   -12.8340     2.3420    66.6750    11.1750    10.5620     8.1480    24.9480 
  251.3750   -12.7720     2.3410    66.5760    11.1870    10.6860     8.4820    24.8410 
  251.5000   -12.7070     2.3470    66.7320    11.2600    10.8620     8.7000    24.6510 
  251.6250   -12.6410     2.3530    65.4870    11.3690    11.0560     8.7710    24.5070 
  251.7500   -12.5550     2.3560    62.6080    11.4510    11.1930     8.9250    24.4530 
  251.8750   -12.4470     2.3590    59.9190    11.4680    11.2270     9.1030    24.4380 
  252.0000   -12.3740     2.3660    57.7460    11.4080    11.1550     9.2020    24.4310 
  252.1250   -12.3110     2.3740    56.2940    11.2860    11.0020     9.2590    24.4270 
  252.2500   -12.2660     2.3780    57.1440    11.1440    10.8050     9.1440    24.4150 
  252.3750   -12.2530     2.3740    59.5550    11.0360    10.6160     9.0520    24.3900 
  252.5000   -12.2490     2.3660    60.3670    10.9930    10.4630     8.9550    24.3700 
  252.6250   -12.2540     2.3620    59.5420    11.0200    10.3600     8.9890    24.3870 
  252.7500   -12.2640     2.3690    60.7380    11.0860    10.3030     9.4120    24.3920 
  252.8750   -12.2970     2.3810    63.9240    11.1450    10.2700    10.0530    24.3630 
  253.0000   -12.3160     2.3910    66.9300    11.1800    10.2440    10.2770    24.3270 
  253.1250   -12.3540     2.3930    67.8980    11.1890    10.2130     9.9910    24.3150 
  253.2500   -12.3890     2.3890    65.4510    11.1840    10.1730     9.6010    24.2740 
  253.3750   -12.4240     2.3820    60.8030    11.1690    10.1240     9.3430    24.2140 
  253.5000   -12.4970     2.3750    57.7580    11.1440    10.0700     9.2540    24.1480 
  253.6250   -12.5850     2.3740    59.3930    11.1060    10.0140     9.3180    24.1070 
  253.7500   -12.7200     2.3800    62.3890    11.0630     9.9590     9.4080    24.0820 
  253.8750   -12.8760     2.3870    61.5720    11.0340     9.9160     9.3370    24.0910 
  254.0000   -13.0210     2.3920    57.8160    11.0410     9.9010     9.3640    24.1100 
  254.1250   -13.1500     2.3950    55.6150    11.0960     9.9270     9.6250    24.0700 
  254.2500   -13.2560     2.3980    58.1750    11.2020    10.0020    10.1680    23.8730 
  254.3750   -13.3100     2.4010    61.9670    11.3360    10.1070    10.8900    23.6760 
  254.5000   -13.3030     2.4020    63.3020    11.4680    10.2170    11.2950    23.6110 
  254.6250   -13.2610     2.3970    62.0590    11.5620    10.3010    11.0330    23.6420 
  254.7500   -13.1520     2.3890    61.1920    11.5900    10.3310    10.6630    23.6990 
  254.8750   -12.9920     2.3830    61.5990    11.5630    10.3100    10.5210    23.7740 
  255.0000   -12.8450     2.3800    61.2960    11.5130    10.2570    10.2700    23.9740 
  255.1250   -12.6810     2.3730    59.1380    11.4860    10.2100     9.6650    24.1720 
  255.2500   -12.5400     2.3670    57.1540    11.5360    10.2140     9.2820    24.2270 
  255.3750   -12.4650     2.3690    58.1380    11.6730    10.2880     9.5980    24.1060 
  255.5000   -12.3940     2.3860    61.6070    11.8760    10.4250    10.4010    24.0110 
  255.6250   -12.3490     2.4080    64.7430    12.1070    10.6030    11.2540    24.0030 
  255.7500   -12.3370     2.4210    66.1990    12.3250    10.7890    11.7170    24.0770 
  255.8750   -12.3340     2.4160    67.2860    12.5160    10.9610    12.8190    24.1680 
  256.0000   -12.3430     2.4000    68.4340    12.6960    11.1240    15.8670    24.2830 
  256.1250   -12.3720     2.3830    67.9860    12.8910    11.2940    19.4420    24.3460 
  256.2500   -12.4050     2.3720    64.4370    13.1090    11.4830    16.9060    24.2720 
  256.3750   -12.4280     2.3730    60.0930    13.3190    11.6730    13.9130    24.2100 
