~V
VERS. 2.00: Ver 2.00
~W
STRT.M 53.0000:
STOP.M 212.0000:
STEP.M 0.1250:
NULL. -999.2500:
UWI. F11124:
~C
DEPT.M :
SP.MV :
DEN.GM/CC :
GR.API :
RML.OHMM :
RI. :
RXO.OHMM :
CALI.CM :
~A
# ...
  188.0000   -19.8530     2.4030    44.3510    11.3730    10.8060    12.1740    23.9160 
  188.1250   -19.8730     2.4080    41.3560    11.1010    10.6710    12.3260    23.7070 
  188.2500   -19.9270     2.4070    42.8000    10.8200    10.4460    11.8640    23.5950 
  188.3750   -20.0220     2.3950    48.3600    10.7430    10.3230    11.1900    23.7740 
  188.5000   -20.1660     2.3770    52.8260    11.0090    10.4610    10.8630    24.0970 
  188.6250   -20.3940     2.3700    50.3250    11.6730    10.9640    11.7230    24.2440 
  188.7500   -20.6500     2.3740    44.7920    12.4980    11.6620    13.6470    24.3390 
  188.8750   -20.9100     2.3820    40.7480    13.2120    12.3110    16.1100    24.4790 
  189.0000   -21.1510     2.3910    39.9280    13.5190    12.6130    18.1450    24.6490 
  189.1250   -21.3410     2.3970    40.8740    13.1460    12.2700    18.9100    24.7450 
  189.2500   -21.4850     2.3930    42.4210    12.2980    11.4480    18.4080    24.8040 
  189.3750   -21.6150     2.3740    45.8630    11.2530    10.4000    16.1160    24.8740 
  189.5000   -21.7640     2.3510    49.5230    10.2820     9.3800    12.6640    24.9230 
  189.6250   -21.9100     2.3360    48.7190     9.5910     8.5830    10.0440    24.7660 
  189.7500   -22.0090     2.3260    45.2660     9.1720     8.0280     8.8510    24.4830 
  189.8750   -22.0630     2.3160    43.5810     8.9880     7.7030     8.2830    24.3030 
  190.0000   -22.0840     2.3130    44.6910     8.9920     7.5750     7.9460    24.3000 
  190.1250   -22.0830     2.3240    46.1170     9.1740     7.6390     8.1330    24.3440 
  190.2500   -22.0580     2.3440    46.3200     9.5060     7.8520     8.6540    24.3540 
  190.3750   -21.9770     2.3590    45.3610    10.0000     8.2140     9.2370    24.3630 
  190.5000   -21.8480     2.3620    44.1070    10.6590     8.7270     9.6910    24.3810 
  190.6250   -21.6750     2.3640    44.8500    11.4700     9.3870    10.1470    24.5010 
  190.7500   -21.5080     2.3690    48.4670    12.3060    10.1000    10.9820    24.7380 
  190.8750   -21.3180     2.3760    51.2080    13.0140    10.7440    12.2120    24.9740 
  191.0000   -21.0690     2.3830    49.6180    13.4240    11.1700    13.3920    25.1540 
  191.1250   -20.7940     2.3840    46.0710    13.3510    11.1920    13.7290    25.2910 
  191.2500   -20.5150     2.3810    45.2660    12.9080    10.8630    13.0970    25.2940 
  191.3750   -20.2550     2.3750    46.2480    12.2630    10.3020    12.0110    25.1740 
  191.5000   -20.0100     2.3740    46.9980    11.6180     9.6750    11.1550    25.0340 
  191.6250   -19.7430     2.3810    50.5790    11.1500     9.1480    10.5420    24.8690 
  191.7500   -19.4430     2.3900    59.2850    10.8800     8.7730     9.8770    24.6660 
  191.8750   -19.1620     2.3950    71.0680    10.7930     8.5610     9.3970    24.4740 
  192.0000   -18.9440     2.3950    81.7740    10.8690     8.5010     9.3290    24.3260 
  192.1250   -18.7910     2.3950    88.0530    11.1300     8.6080     9.5040    24.2360 
  192.2500   -18.6710     2.3990    89.4150    11.5520     8.8560     9.9070    24.2140 
  192.3750   -18.5740     2.4060    87.4580    12.1230     9.2320    10.5410    24.2230 
  192.5000   -18.4830     2.4130    86.8470    12.7930     9.6980    11.3180    24.2020 
  192.6250   -18.3920     2.4190    89.4600    13.4620    10.1870    11.9760    24.1520 
  192.7500   -18.3010     2.4220    92.5160    13.9980    10.5990    12.3850    24.0810 
  192.8750   -18.2100     2.4220    94.1940    14.2640    10.8370    12.5090    24.0210 
  193.0000   -18.1130     2.4200    96.2300    14.1480    10.8100    12.3930    23.9850 
  193.1250   -18.0040     2.4160    96.8370    13.5920    10.4420    12.1030    23.9580 
  193.2500   -17.8790     2.4150    94.8680    12.8780     9.9040    11.5100    23.9360 
  193.3750   -17.7360     2.4190    94.4700    12.3660     9.4260    10.7300    23.9250 
  193.5000   -17.5660     2.4330    98.2800    12.4320     9.2630    10.4700    23.9230 
  193.6250   -17.4430     2.4620   100.6100    13.5100     9.7310    12.0230    23.9270 
  193.7500   -17.3870     2.5060    95.5640    15.4880    10.8470    15.7980    23.9530 
  193.8750   -17.3590     2.5520    85.0990    18.0530    12.5350    20.9120    24.0020 
  194.0000   -17.3490     2.5720    75.9210    20.4520    14.4090    25.2070    24.0480 
  194.1250   -17.3660     2.5450    71.4390    21.1790    15.4430    24.5420    23.9540 
  194.2500   -17.4320     2.4970    72.1660    19.7630    14.9970    18.8370    23.8810 
  194.3750   -17.5400     2.4510    76.9060    16.8790    13.3040    13.5100    23.8470 
  194.5000   -17.6990     2.4200    81.3780    13.8450    11.2100    10.5070    23.8400 
  194.6250   -17.8170     2.4050    82.4470     9.9660     9.5380     9.3140    23.8760 
  194.7500   -17.9110     2.3890    80.4090     8.9820     8.4530     8.9260    23.9440 
  194.8750   -17.9770     2.3590    76.2240     8.5460     7.8700     8.8420    24.0500 
  195.0000   -18.0190     2.3180    70.8530     8.3960     7.6230     8.6520    24.1640 
  195.1250   -18.0130     2.2850    68.5820     8.3250     7.5530     8.1280    24.2130 
  195.2500   -17.9530     2.2700    70.1100     8.2130     7.5060     7.5430    24.2000 
  195.3750   -17.7920     2.2720    69.6500     8.0480     7.4330     7.2310    24.1430 
  195.5000   -17.5570     2.2800    63.6190     7.8510     7.3280     7.2730    24.0310 
  195.6250   -17.2710     2.2880    55.1860     7.6370     7.2010     7.4200    23.8870 
  195.7500   -16.8780     2.2940    50.0340     7.4020     7.0540     7.3370    23.7600 
  195.8750   -16.4350     2.3000    50.1640     7.1390     6.8810     6.9220    23.6480 
  196.0000   -15.9730     2.3110    53.9260     6.8610     6.6810     6.3680    23.5720 
  196.1250   -15.4840     2.3240    59.3890     6.6110     6.4720     5.9180    23.4770 
  196.2500   -14.9670     2.3390    62.9310     6.4240     6.2920     5.6050    23.3600 
  196.3750   -14.4820     2.3570    65.3810     6.3110     6.1660     5.4160    23.3010 
  196.5000   -13.9860     2.3740    69.4500     6.2580     6.0970     5.3310    23.3690 
  196.6250   -13.5250     2.3860    74.2020     6.2400     6.0720     5.3490    23.5130 
  196.7500   -13.1320     2.3900    76.5330     6.2210     6.0580     5.4170    23.6360 
  196.8750   -12.7850     2.3890    76.9820     6.1840     6.0320     5.4770    23.7260 
  197.0000   -12.4500     2.3840    78.7870     6.1230     5.9780     5.4730    23.7670 
  197.1250   -12.1250     2.3850    81.2510     6.0450     5.8930     5.4230    23.7890 
  197.2500   -11.8250     2.3900    81.7080     5.9700     5.8000     5.4170    23.8270 
  197.3750   -11.5850     2.3950    81.0800     5.9090     5.7130     5.4950    23.9500 
  197.5000   -11.4090     2.3920    80.4640     5.8650     5.6410     5.6390    24.2080 
  197.6250   -11.2750     2.3800    79.6390     5.8350     5.5830     5.7610    24.4790 
  197.7500   -11.2450     2.3630    79.0360     5.8160     5.5330     5.8210    24.7000 
  197.8750   -11.3110     2.3370    78.6180     5.8180     5.4990     5.8230    24.8380 
  198.0000   -11.5030     2.3060    78.7310     5.8610     5.4980     5.8190    24.9240 
  198.1250   -11.8340     2.2880    79.1910     5.9940     5.5700     5.9380    24.9030 
  198.2500   -12.2700     2.2870    79.4690     6.2490     5.7400     6.3030    24.7390 
  198.3750   -12.8060     2.2890    78.8670     6.6810     6.0530     6.9380    24.6190 
  198.5000   -13.4460     2.2680    77.5820     7.3570     6.5640     7.8050    24.8040 
  198.6250   -14.1640     2.2230    78.4050     8.4080     7.3950     9.0410    25.2330 
  198.7500   -14.9300     2.1920    81.8920     9.8030     8.5410    10.7630    25.3510 
  198.8750   -15.7150     2.1920    83.7880    11.4580     9.9700    12.8230    24.8560 
  199.0000   -16.4880     2.2130    81.1910    13.1780    11.5480    14.7270    24.0720 
  199.1250   -17.2730     2.2310    76.6180    14.6060    12.9920    15.5520    23.7620 
