~V
VERS. 2.00: Ver 2.00
~W
STRT.M 50.0000:
STOP.M 206.0000:
STEP.M 0.1250:
NULL. -999.2500:
UWI. F11107:
~C
DEPT.M :
DEN.GM/CC :
GR.API :
RML.OHMM :
RI. :
RXO.OHMM :
CALI.CM :
SP.MV :
~A
# ...
   72.5000     2.0860    77.2460     6.4360     6.2470     6.7080    22.9970   -29.6470 
   72.6250     2.0990    77.3900     6.2480     6.0870     7.0870    23.3030   -28.8410 
   72.7500     2.1290    81.8210     5.9340     5.7990     7.6270    23.5240   -27.8560 
   72.8750     2.1710    87.1730     5.5500     5.4250     6.7720    23.5730   -26.8150 
   73.0000     2.2090    92.0630     5.1870     5.0450     6.0110    23.6490   -25.8380 
   73.1250     2.2260    97.3320     4.9690     4.7690     5.5040    23.8740   -24.9610 
   73.2500     2.2220   100.5250     4.9390     4.6450     5.6340    23.8940   -24.2090 
   73.3750     2.2040    97.8080     5.0990     4.6890     5.9110    23.5160   -23.6620 
   73.5000     2.1810    89.9180     5.3980     4.8810     6.3750    23.1560   -23.3110 
   73.6250     2.1610    83.0840     5.7300     5.1650     6.4810    23.1870   -23.1390 
   73.7500     2.1510    81.4050     5.9700     5.4360     6.5480    23.4320   -22.9910 
   73.8750     2.1500    83.5060     6.0490     5.6210     6.6060    23.5960   -22.7470 
   74.0000     2.1540    86.7560     5.9670     5.6810     6.7960    23.4410   -22.3290 
   74.1250     2.1550    89.9790     5.7840     5.6170     6.9310    23.3370   -21.6600 
   74.2500     2.1490    93.4400     5.6030     5.4970     6.5270    23.6000   -20.7170 
   74.3750     2.1430    98.9010     5.4680     5.3600     5.7590    24.0190   -19.5180 
   74.5000     2.1490   105.0770     5.3720     5.2120     5.5660    24.0150   -18.2330 
   74.6250     2.1820   109.7190     5.2520     5.0250     6.2720    23.8970   -16.9300 
   74.7500     2.2340   113.0350     5.0440     4.7740     6.2600    24.0040   -15.6520 
   74.8750     2.2920   115.8350     4.7220     4.4510     5.1520    24.3610   -14.4320 
   75.0000     2.3390   118.4350     4.3130     4.0780     4.1680    24.8990   -13.3260 
   75.1250     2.3570   118.7210     3.9050     3.7110     3.8200    25.3010   -12.4590 
   75.2500     2.3460   118.5300     3.6280     3.4320     3.6820    25.5320   -11.8430 
   75.3750     2.3170   117.5260     3.6140     3.3250     3.5920    25.6800   -11.4460 
   75.5000     2.2890   114.3910     4.0070     3.4890     3.6410    25.5290   -11.2080 
   75.6250     2.2940   111.8310     5.0630     4.1210     4.1520    25.0350   -11.2570 
   75.7500     2.3440   108.8940     6.7500     5.2760     5.9400    24.5280   -11.6020 
   75.8750     2.4310   102.7070     8.8780     6.9480    10.5060    24.1990   -12.2440 
   76.0000     2.5250    93.0410    10.9320     8.8740    17.5790    24.2380   -13.1130 
   76.1250     2.5730    85.4250    11.9930    10.3440    21.4370    24.3510   -14.1960 
   76.2500     2.5550    82.9940    11.7820    10.8300    18.6960    24.2520   -15.4930 
   76.3750     2.4790    83.0330    10.5680    10.2910    13.8130    23.7270   -16.9090 
   76.5000     2.3750    83.2110     9.0070     9.1530     9.3200    22.8180   -18.3310 
   76.6250     2.2880    82.4210     7.7980     8.0190     7.6430    22.2440   -19.7060 
   76.7500     2.2320    81.7900     7.1130     7.2150     7.3200    22.0400   -21.0260 
   76.8750     2.2020    81.7790     6.8460     6.7580     7.6520    22.0040   -22.2360 
   77.0000     2.1810    81.4430     6.8160     6.5560     8.1000    21.9440   -23.3300 
   77.1250     2.1600    79.0600     6.8730     6.5040     7.8070    21.7660   -24.2470 
   77.2500     2.1400    75.1420     6.9170     6.4850     7.6120    21.7310   -24.9990 
   77.3750     2.1270    73.2420     6.9340     6.4640     7.6250    21.9860   -25.6460 
   77.5000     2.1240    76.2650     6.9370     6.4360     7.7080    22.2320   -26.2410 
   77.6250     2.1300    78.2190     6.9480     6.4190     7.7800    22.2300   -26.6990 
   77.7500     2.1350    74.3200     6.9730     6.4180     7.7730    22.1110   -27.0410 
   77.8750     2.1350    67.7310     7.0070     6.4260     7.8180    21.9820   -27.3370 
   78.0000     2.1320    64.2610     7.0410     6.4330     7.6060    21.8760   -27.6210 
   78.1250     2.1300    65.6340     7.0560     6.4240     7.4300    21.7810   -27.8080 
   78.2500     2.1320    66.0930     7.0480     6.3920     7.3680    21.7280   -27.8560 
   78.3750     2.1390    64.7000     7.0170     6.3350     7.4530    21.8590   -27.8110 
   78.5000     2.1500    64.7160     6.9770     6.2550     7.5280    22.1110   -27.6750 
   78.6250     2.1600    68.5390     6.9470     6.1560     7.6510    22.2400   -27.4470 
   78.7500     2.1650    73.1110     6.9380     6.0580     7.8300    22.2310   -27.1750 
   78.8750     2.1670    74.6640     6.9480     5.9780     7.9000    22.1190   -26.8900 
   79.0000     2.1690    73.9440     6.9750     5.9380     7.9840    22.0200   -26.6380 
   79.1250     2.1770    73.9500     7.0170     5.9620     8.5090    22.0790   -26.4380 
   79.2500     2.1870    73.6530     7.0680     6.0360     9.1100    22.2770   -26.2780 
   79.3750     2.1930    72.9100     7.1210     6.1350     8.9890    22.4970   -26.1770 
   79.5000     2.1930    71.4850     7.1650     6.2200     8.5800    22.6920   -26.1430 
   79.6250     2.1860    69.5010     7.1800     6.2550     8.2520    22.8470   -26.1630 
   79.7500     2.1790    67.9200     7.1660     6.2370     8.3040    22.8880   -26.2050 
   79.8750     2.1760    67.2100     7.1250     6.1790     8.2660    22.7060   -26.2500 
   80.0000     2.1760    67.6360     7.0670     6.0990     8.0750    22.3830   -26.2900 
   80.1250     2.1720    67.8870     7.0040     6.0140     8.0010    22.2140   -26.3250 
   80.2500     2.1620    68.9400     6.9490     5.9360     7.8080    22.2750   -26.3240 
   80.3750     2.1460    71.1840     6.9080     5.8720     7.5860    22.4850   -26.2530 
   80.5000     2.1320    73.5300     6.8800     5.8250     7.4530    22.6810   -26.1800 
   80.6250     2.1270    74.3570     6.8590     5.7960     7.4450    22.6390   -26.1430 
   80.7500     2.1310    73.5170     6.8370     5.7740     7.3700    22.3810   -26.0670 
   80.8750     2.1420    72.7180     6.8150     5.7570     7.3130    22.2640   -25.9360 
   81.0000     2.1580    72.8200     6.8080     5.7460     7.3760    22.3050   -25.7350 
   81.1250     2.1730    74.1530     6.8400     5.7520     7.5580    22.3760   -25.4890 
   81.2500     2.1780    75.7990     6.9120     5.7890     7.7500    22.4480   -25.1640 
   81.3750     2.1700    76.4460     7.0090     5.8650     7.7350    22.5770   -24.6970 
   81.5000     2.1490    76.5470     7.1020     5.9780     7.3060    22.6570   -24.0680 
   81.6250     2.1270    76.7090     7.1660     6.1090     6.8130    22.6270   -23.2920 
   81.7500     2.1190    77.6200     7.2040     6.2270     6.5980    22.5750   -22.4140 
   81.8750     2.1330    79.5130     7.2210     6.3100     6.8280    22.6730   -21.3950 
   82.0000     2.1650    81.8070     7.2040     6.3300     7.6440    22.9810   -20.2660 
   82.1250     2.2060    85.2350     7.0860     6.2340     8.4490    23.2910   -19.0590 
   82.2500     2.2400    88.4340     6.8160     6.0090     8.7320    23.4530   -17.8490 
   82.3750     2.2610    90.9810     6.3740     5.6600     7.8860    23.4700   -16.6070 
   82.5000     2.2640    94.0980     5.8070     5.2310     6.6480    23.7110   -15.2980 
   82.6250     2.2470   102.1930     5.2390     4.8050     5.3960    24.5520   -14.0040 
   82.7500     2.2220   112.9670     4.8050     4.4580     4.4840    25.7870   -12.7890 
   82.8750     2.2000   118.7220     4.5680     4.2260     4.0280    26.6480   -11.6980 
   83.0000     2.1920   115.6130     4.5300     4.1120     3.9120    26.6820   -10.7690 
   83.1250     2.2080   110.7770     4.6560     4.1020     4.1740    26.1800   -10.0460 
   83.2500     2.2370   110.7370     4.8460     4.1400     4.5290    25.9110    -9.4840 
   83.3750     2.2690   111.9800     5.0450     4.2040     4.9370    25.8390    -9.1470 
   83.5000     2.2900   109.9790     5.2280     4.3020     5.1570    25.8470    -9.0350 
   83.6250     2.2940   106.7020     5.4060     4.4740     5.4400    25.8550    -9.0810 
