~V
VERS. 2.00: Ver 2.00
~W
STRT.M 47.0000:
STOP.M 248.0000:
STEP.M 0.1250:
NULL. -999.2500:
UWI. F11134:
~C
DEPT.M :
GR.API :
RML.OHMM :
RI. :
RXO.OHMM :
CALI.CM :
SP.MV :
DEN.GM/CC :
~A
   47.0000    39.1660     0.8850     1.5500     0.3750    25.5420    36.5050     2.0300 
   47.1250    36.1750     0.8690     1.5580     0.3880    25.5420    52.6930     1.9930 
   47.2500    35.6550     0.8300     1.5530     0.3960    25.5420    69.5100     1.9510 
   47.3750    36.6320     0.7740     1.5300     0.3830    25.5420    74.3650     1.9190 
   47.5000    36.7090     0.7170     1.4890     0.3470    25.5420    75.8020     1.9080 
   47.6250    34.5140     0.6800     1.4440     0.3000    25.5420    77.3140     1.9120 
   47.7500    31.9800     0.6710     1.4070     0.2650    25.5420    78.8780     1.9210 
   47.8750    32.6900     0.6850     1.3880     0.2550    25.5420    80.4080     1.9220 
   48.0000    35.9610     0.7080     1.3880     0.2600    25.5420    81.8760     1.9170 
   48.1250    38.0920     0.7300     1.4020     0.2680    25.5420    83.2900     1.9160 
   48.2500    37.8930     0.7470     1.4250     0.2790    25.5420    84.6290     1.9210 
   48.3750    37.5250     0.7600     1.4540     0.2930    25.5420    85.9250     1.9290 
   48.5000    38.0130     0.7720     1.4800     0.3130    25.5420    87.2000     1.9370 
   48.6250    38.5890     0.7840     1.4950     0.3350    25.5420    88.4210     1.9470 
   48.7500    38.7150     0.7960     1.4940     0.3470    25.5420    89.5470     1.9590 
   48.8750    37.9780     0.8010     1.4780     0.3360    25.5420    90.5150     1.9670 
   49.0000    37.1680     0.7920     1.4560     0.3020    25.5420    91.2340     1.9700 
   49.1250    37.1220     0.7650     1.4340     0.2630    25.5420    91.6130     1.9690 
   49.2500    37.5280     0.7210     1.4130     0.2320    25.5420    91.6480     1.9680 
   49.3750    37.2420     0.6680     1.3950     0.2040    25.5420    91.3340     1.9650 
   49.5000    35.8510     0.6210     1.3810     0.1830    25.5420    90.7200     1.9610 
   49.6250    33.7600     0.5880     1.3690     0.1660    25.5420    89.9120     1.9580 
   49.7500    31.3420     0.5690     1.3580     0.1520    25.5420    88.9760     1.9600 
   49.8750    29.7510     0.5690     1.3470     0.1460    25.5420    87.9920     1.9700 
   50.0000    29.8150     0.5880     1.3360     0.1450    25.5420    87.0680     1.9960 
   50.1250    31.5300     0.6130     1.3270     0.1380    25.5420    86.2820     2.0420 
   50.2500    33.9090     0.6310     1.3250     0.1220    25.5420    85.6260     2.1040 
   50.3750    35.6720     0.6380     1.3330     0.1000    25.5260    85.0370     2.1650 
   50.5000    37.1290     0.6460     1.3520     0.0820    25.4440    84.4260     2.2130 
   50.6250    38.8200     0.6640     1.3790     0.0780    25.2640    83.6670     2.2490 
   50.7500    39.6840     0.6990     1.4050     0.0830    25.0750    82.6860     2.2760 
   50.8750    38.2980     0.7410     1.4180     0.0950    24.9790    81.3970     2.2960 
   51.0000    36.2070     0.7750     1.4080     0.1180    24.9580    79.7070     2.3060 
   51.1250    35.7120     0.7900     1.3750     0.1630    24.9580    77.5460     2.3040 
   51.2500    36.7060     0.7920     1.3290     0.2690    24.9770    74.9200     2.2920 
   51.3750    37.7930     0.7980     1.2850     0.5660    25.0610    71.8570     2.2740 
   51.5000    38.2740     0.8210     1.2570     0.9130    25.1960    68.4920     2.2560 
   51.6250    38.0160     0.8620     1.2480     1.0380    25.2390    65.0250     2.2410 
   51.7500    37.2770     0.9130     1.2490     0.9820    25.0770    61.6060     2.2290 
   51.8750    36.7450     0.9490     1.2470     0.9240    24.8390    58.4480     2.2180 
   52.0000    36.4620     0.9520     1.2320     0.9110    24.6790    55.7660     2.2120 
   52.1250    36.2520     0.9220     1.2050     0.9100    24.6150    53.7040     2.2140 
   52.2500    36.4620     0.8670     1.1770     0.9080    24.6050    52.3670     2.2220 
   52.3750    37.0440     0.8060     1.1610     0.9050    24.6320    51.9320     2.2330 
   52.5000    37.0110     0.7590     1.1680     0.9040    24.6930    52.3860     2.2450 
   52.6250    36.4380     0.7380     1.1950     0.9050    24.7590    53.6220     2.2490 
   52.7500    36.3380     0.7400     1.2340     0.9130    24.7980    55.5710     2.2380 
   52.8750    36.8680     0.7520     1.2650     0.9320    24.8140    58.1810     2.2110 
   53.0000    36.7410     0.7560     1.2740     0.9490    24.8520    61.2920     2.1780 
   53.1250    35.9690     0.7470     1.2580     0.9600    24.9780    64.7350     2.1450 
   53.2500    36.0960     0.7290     1.2270     0.9850    25.2050    68.3670     2.1110 
   53.3750    37.9510     0.7130     1.2010     0.7970    25.4850    72.0100     2.0820 
   53.5000    39.5280     0.7040     1.1950     0.3920    25.6770    75.5260     2.0610 
   53.6250    38.1410     0.6980     1.2090     0.0960    25.7460    78.8300     2.0460 
   53.7500    34.1750     0.6820     1.2360     0.0120    25.7600    81.8670     2.0300 
   53.8750    31.0210     0.6480     1.2650     0.0130    25.7600    84.6140     2.0100 
   54.0000    30.6590     0.6010     1.2900     0.0210    25.7600    87.0750     1.9880 
   54.1250    32.5170     0.5680     1.3110     0.0250    25.7600    89.2600     1.9700 
   54.2500    34.7170     0.5630     1.3300     0.0240    25.7600    91.2130     1.9570 
   54.3750    35.1970     0.5780     1.3410     0.0230    25.7600    92.9760     1.9520 
   54.5000    33.7330     0.5840     1.3370     0.0250    25.7600    94.5690     1.9580 
   54.6250    32.0970     0.5700     1.3180     0.0290    25.7600    96.0250     1.9760 
   54.7500    31.8360     0.5470     1.2910     0.0330    25.7600    97.3680     2.0020 
   54.8750    32.4970     0.5360     1.2720     0.0310    25.7600    98.5510     2.0270 
   55.0000    32.6190     0.5500     1.2670     0.0300    25.7600    99.5300     2.0460 
   55.1250    32.8090     0.5780     1.2750     0.0370    25.7600   100.2770     2.0600 
   55.2500    34.3840     0.6050     1.2840     0.0510    25.7600   100.6800     2.0670 
   55.3750    36.4620     0.6210     1.2730     0.0610    25.7600   100.5250     2.0710 
   55.5000    36.9250     0.6290     1.2130     0.0660    25.7600    99.6900     2.0850 
   55.6250    35.5180     0.6320     1.0840     0.0750    25.7600    98.0640     2.1150 
   55.7500    33.6620     0.6270     0.8900     0.0980    25.7600    95.4400     2.1640 
   55.8750    31.8540     0.6190     0.6830     0.1600    25.7600    91.3740     2.2360 
   56.0000    30.6380     0.6220     0.5180     0.3080    25.7570    85.5920     2.3310 
   56.1250    31.3350     0.6490     0.4200     0.6830    25.7390    77.9420     2.4280 
   56.2500    33.2680     0.7100     0.3950     1.4750    25.6370    68.3620     2.4820 
   56.3750    34.4100     0.8220     0.4840     2.8300    25.3480    57.0970     2.4470 
   56.5000    34.9090     1.0160     0.7630     4.5610    24.9900    44.9680     2.3340 
   56.6250    36.1930     1.3640     1.3340     6.1340    24.9980    32.7720     2.1900 
   56.7500    37.9220     1.9720     2.2840     6.8160    25.6490    21.0700     2.0570 
   56.8750    37.9190     2.8640     3.5380     6.4800    26.8750    10.5580     1.9770 
   57.0000    37.6070     3.7310     4.6910     6.2220    28.2560     1.7240     1.9580 
   57.1250    40.8750     4.2130     5.3570     6.2870    28.9800    -5.1280     1.9870 
   57.2500    48.7930     4.2960     5.4980     5.9350    28.3370    -9.8090     2.0490 
   57.3750    58.7610     4.1970     5.3310     5.4010    26.8650   -12.3880     2.1340 
   57.5000    68.2400     4.0920     5.0930     5.0820    25.5030   -13.5820     2.2200 
   57.6250    76.8030     4.0410     4.9050     4.9520    24.7280   -14.1210     2.2760 
   57.7500    83.7450     4.0620     4.8200     4.9440    24.4900   -14.3960     2.2880 
   57.8750    86.8210     4.1830     4.8880     5.0750    24.4830   -14.6990     2.2760 
   58.0000    85.6220     4.4150     5.1140     5.4980    24.4880   -15.2150     2.2660 
   58.1250    80.6570     4.7480     5.4680     6.0540    24.4390   -15.9990     2.2620 
