~V
VERS. 2.00: Ver 2.00
~W
STRT.M 50.0000:
STOP.M 265.0000:
STEP.M 0.1250:
NULL. -999.2500:
UWI. F11185:
~C
DEPT.M :
SP.MV :
GR.API :
RI. :
RML.OHMM :
RXO.OHMM :
DEN.GM/CC :
~A
# ...
  243.1250  -116.8470    59.9070     7.2240     7.8130     8.1320     2.2620 
  243.2500  -117.1460    60.2940     7.4010     7.9970     9.2410     2.2790 
  243.3750  -117.3970    61.5990     7.3720     7.9670     8.5600     2.2680 
  243.5000  -117.6210    61.7950     7.2400     7.8290     7.1540     2.2340 
  243.6250  -117.8210    61.0060     7.2020     7.7900     6.4750     2.2000 
  243.7500  -118.0090    60.8510     7.3790     7.9740     6.5140     2.1830 
  243.8750  -118.1200    62.0050     7.7270     8.3360     6.8400     2.1850 
  244.0000  -118.1350    64.6740     8.0440     8.6660     7.1100     2.1950 
  244.1250  -118.0370    66.5940     8.0110     8.6310     7.0590     2.2010 
  244.2500  -117.8560    66.8170     7.5970     8.2010     6.6630     2.2030 
  244.3750  -117.6020    66.4780     6.8990     7.4750     6.0760     2.2040 
  244.5000  -117.4170    66.6380     6.1590     6.7050     5.5880     2.2030 
  244.6250  -117.3460    68.4180     5.6050     6.1300     5.3800     2.2040 
  244.7500  -117.2940    71.5320     5.3340     5.8470     5.3420     2.2070 
  244.8750  -117.1570    74.1030     5.3730     5.8880     5.4310     2.2100 
  245.0000  -116.9870    75.2140     5.6380     6.1640     5.7200     2.2020 
  245.1250  -116.8610    74.4820     6.0230     6.5640     6.1610     2.1850 
  245.2500  -116.7340    72.3730     6.3900     6.9450     6.4830     2.1740 
  245.3750  -116.6260    68.9530     6.6580     7.2240     6.5210     2.1770 
  245.5000  -116.5630    65.8240     6.8280     7.4010     6.4580     2.1870 
  245.6250  -116.5380    62.9990     6.8620     7.4370     6.5010     2.2040 
  245.7500  -116.5200    61.3370     6.7900     7.3620     6.7250     2.2290 
  245.8750  -116.5100    60.4650     6.5920     7.1560     6.9940     2.2420 
  246.0000  -116.4660    60.4520     6.3000     6.8520     6.8430     2.2290 
  246.1250  -116.4080    61.9080     5.9650     6.5040     6.1960     2.2040 
  246.2500  -116.4380    64.4660     5.6750     6.2020     5.6660     2.1920 
  246.3750  -116.6070    66.9150     5.5570     6.0800     5.5930     2.2010 
  246.5000  -116.8030    68.8440     5.6180     6.1430     5.7780     2.2090 
  246.6250  -116.8820    69.6300     5.9260     6.4630     6.0070     2.2050 
  246.7500  -116.8150    67.7360     6.3360     6.8900     6.2070     2.1910 
  246.8750  -116.6510    64.2120     6.8000     7.3720     6.4440     2.1750 
  247.0000  -116.5200    61.3400     7.2250     7.8140     6.7580     2.1730 
  247.1250  -116.4730    58.4550     7.5310     8.1320     7.0220     2.1780 
  247.2500  -116.3710    55.0660     7.7170     8.3260     7.1620     2.1850 
  247.3750  -116.2270    53.1680     7.6620     8.2680     7.2850     2.1950 
  247.5000  -116.0680    53.2260     7.4290     8.0260     7.4430     2.2000 
  247.6250  -115.9450    52.9580     6.9860     7.5650     7.5470     2.1950 
  247.7500  -115.8530    53.0500     6.4770     7.0360     7.4370     2.1910 
  247.8750  -115.7640    55.4760     5.9900     6.5290     7.0490     2.2000 
  248.0000  -115.6380    58.6950     5.5860     6.1100     6.6550     2.2080 
  248.1250  -115.4890    59.4630     5.2870     5.7990     6.5100     2.2070 
  248.2500  -115.3600    58.3300     5.0390     5.5400     6.5120     2.2120 
  248.3750  -115.2020    59.4200     4.9240     5.4210     6.4500     2.2230 
  248.5000  -115.0120    63.6080     4.9250     5.4220     6.3700     2.2330 
  248.6250  -114.9670    67.8700     5.0910     5.5950     6.6420     2.2340 
  248.7500  -115.0910    68.9120     5.3530     5.8670     7.4770     2.2240 
  248.8750  -115.2590    66.4640     5.7210     6.2500     8.4780     2.2070 
  249.0000  -115.3930    63.2670     6.0760     6.6190     8.7050     2.1980 
  249.1250  -115.4740    60.6580     6.3150     6.8670     7.9870     2.2050 
  249.2500  -115.5380    59.8110     6.4180     6.9750     7.3670     2.2180 
  249.3750  -115.6110    60.9800     6.3650     6.9200     7.2490     2.2220 
  249.5000  -115.6660    63.1250     6.2710     6.8220     7.2500     2.2180 
  249.6250  -115.7040    64.0400     6.1780     6.7250     7.1600     2.2110 
  249.7500  -115.6710    63.7710     6.1380     6.6840     6.9050     2.2090 
  249.8750  -115.6100    65.3400     6.1790     6.7260     6.6550     2.2260 
  250.0000  -115.5870    68.1600     6.3020     6.8540     6.6750     2.2640 
  250.1250  -115.5800    69.1160     6.5640     7.1270     6.9590     2.2970 
  250.2500  -115.6060    68.1430     6.9520     7.5310     7.5690     2.3010 
  250.3750  -115.6050    68.5190     7.4300     8.0270     8.7640     2.2750 
  250.5000  -115.5760    70.7830     8.1020     8.7260     9.9740     2.2460 
  250.6250  -115.5320    70.6030     9.1860     9.8540    10.7330     2.2480 
  250.7500  -115.5150    67.8790    11.0270    11.7680    14.3650     2.3050 
  250.8750  -115.5210    66.9160    14.1940    15.0610    27.8680     2.4250 
  251.0000  -115.5220    67.7920    18.7960    19.8480    49.9420     2.5560 
  251.1250  -115.5190    67.6150    23.0330    24.2540    67.5160     2.6230 
  251.2500  -115.5870    65.6100    25.0740    26.3770    66.9150     2.5890 
  251.3750  -115.6240    64.2670    24.1390    25.4040    48.2800     2.4850 
  251.5000  -115.6260    63.3620    20.6640    21.7910    29.4270     2.3950 
  251.6250  -115.6260    62.1350    17.3590    18.3530    22.0170     2.3630 
  251.7500  -115.6260    62.2080    15.7200    16.6490    21.0280     2.3740 
  251.8750  -115.6260    64.6740    16.5630    17.5260    23.6400     2.4180 
  252.0000  -115.6260    67.2480    19.0890    20.1530    38.3150     2.4930 
  252.1250  -115.6260    67.1830    22.5650    23.7680    64.4710     2.5670 
  252.2500  -115.6260    64.5250    24.2520    25.5220    77.3560     2.5940 
  252.3750  -115.6260    60.0760    21.3980    22.5540    62.6410     2.5640 
  252.5000  -115.6260    54.4120    15.9280    16.8650    38.2860     2.4960 
  252.6250  -115.6260    48.2290     9.2550     9.9250    20.8250     2.4050 
  252.7500  -115.6260    43.2090     4.4810     4.9600    10.6500     2.3250 
  252.8750  -115.6260    42.3430     2.6350     3.0410     5.0350     2.2870 
  253.0000  -115.6260    46.6360     1.8060     2.1780     2.7180     2.2820 
  253.1250  -115.6260    51.4560     1.4970     1.8570     2.3940     2.2820 
  253.2500  -115.6260    52.4530     1.3830     1.7380     2.4360     2.2830 
  253.3750  -115.6260    50.6770     1.3900     1.7450     2.4380     2.2840 
  253.5000  -115.6260    49.9720     1.4240     1.7810     2.4080     2.2840 
  253.6250  -115.6260    51.1800     1.4570     1.8160     2.3760     2.2910 
  253.7500  -115.6260    52.9800     1.4880     1.8470     2.3520     2.3120 
  253.8750  -115.6260    53.9950     1.5130     1.8740     2.3150     2.3380 
  254.0000  -115.6260    52.7990     1.5260     1.8870     2.2260     2.3470 
  254.1250  -115.6260    50.3810     1.5160     1.8760     2.0860     2.3290 
  254.2500  -115.6260    51.4990     1.4930     1.8530     1.9450     2.2950 
  254.3750  -115.6260    54.8850     1.4520     1.8100     1.8170     2.2610 
  254.5000  -115.6260    56.5110     1.4070     1.7630     1.7100     2.2440 
  254.6250  -115.6260    54.4570     1.3490     1.7030     1.6590     2.2470 
  254.7500  -115.6260    52.8430     1.2930     1.6450     1.6450     2.2510 
  254.8750  -115.6260    53.5350     1.2490     1.5990     1.6370     2.2390 
  255.0000  -115.6260    54.5150     1.2310     1.5800     1.6560     2.2170 
  255.1250  -115.6260    55.1000     1.2470     1.5970     1.7670     2.1920 
  255.2500  -115.6260    55.4500     1.2900     1.6410     1.9450     2.1660 
  255.3750  -115.6260    54.9070     1.3450     1.6990     2.0590     2.1530 
  255.5000  -115.6260    52.7450     1.3840     1.7390     2.0300     2.1700 
  255.6250  -115.6260    51.0570     1.3940     1.7500     1.8950     2.2030 
  255.7500  -115.6260    51.2720     1.3740     1.7290     1.7600     2.2200 
  255.8750  -115.6260    52.8360     1.3390     1.6930     1.6820     2.2140 
