~V
VERS. 2.00: Ver 2.00
~W
STRT.M 62.0000:
STOP.M 219.0000:
STEP.M 0.1250:
NULL. -999.2500:
UWI. F11127:
~C
DEPT.M :
SP.MV :
DEN.GM/CC :
GR.API :
RML.OHMM :
RI. :
RXO.OHMM :
CALI.CM :
~A
# ...
   95.7500   -22.5250     2.1480    71.4110     7.4420     6.0170     9.0830    24.0650 
   95.8750   -22.5100     2.1520    73.7500     7.2650     5.9100     9.0710    23.8660 
   96.0000   -22.4430     2.1640    76.8390     7.1200     5.8020     9.2380    23.7190 
   96.1250   -22.4400     2.1750    79.6620     7.0590     5.7300     9.3380    23.5660 
   96.2500   -22.4360     2.1790    81.4350     7.1250     5.7360     9.2560    23.5970 
   96.3750   -22.3140     2.1760    81.0780     7.2860     5.8170     9.1570    23.7810 
   96.5000   -22.1080     2.1650    78.5280     7.4950     5.9520     9.1040    23.9520 
   96.6250   -21.8630     2.1440    75.1020     7.6920     6.1050     9.0280    24.1330 
   96.7500   -21.6120     2.1240    72.1130     7.8180     6.2340     9.0140    24.2930 
   96.8750   -21.3990     2.1160    69.9740     7.8680     6.3180     9.1880    24.3880 
   97.0000   -21.2290     2.1210    69.1270     7.8580     6.3570     9.5570    24.3580 
   97.1250   -21.0330     2.1320    69.5420     7.8190     6.3600     9.8920    24.2150 
   97.2500   -20.8040     2.1310    70.5380     7.7840     6.3450    10.0140    24.1200 
   97.3750   -20.6660     2.1210    71.1930     7.7660     6.3270     9.9970    24.1680 
   97.5000   -20.6160     2.1130    71.4340     7.7630     6.3120     9.9070    24.2560 
   97.6250   -20.5630     2.1160    71.3130     7.7680     6.3010     9.8060    24.2700 
   97.7500   -20.5920     2.1300    71.7730     7.7840     6.3010     9.7030    24.2510 
   97.8750   -20.6910     2.1430    73.2380     7.8250     6.3220     9.6490    24.2230 
   98.0000   -20.7290     2.1580    73.6030     7.9150     6.3780     9.7190    24.1910 
   98.1250   -20.7640     2.1800    71.5820     8.0750     6.4830     9.9960    24.1730 
   98.2500   -20.8720     2.2080    69.9300     8.3340     6.6650    10.4280    24.2260 
   98.3750   -20.9840     2.2390    69.5020     8.6710     6.9170    10.8260    24.3300 
   98.5000   -21.1550     2.2650    68.3840     9.0580     7.2310    11.1310    24.5190 
   98.6250   -21.3530     2.2700    65.9430     9.4470     7.5780    11.5210    24.6980 
   98.7500   -21.5060     2.2420    64.8150     9.7490     7.8890    12.5600    24.5790 
   98.8750   -21.6610     2.1940    64.9170     9.8990     8.0920    14.7360    24.2360 
   99.0000   -21.8870     2.1380    63.9300     9.8530     8.1360    17.3830    24.0150 
   99.1250   -22.0610     2.0880    61.7760     9.6080     8.0060    19.5060    24.0300 
   99.2500   -22.1660     2.0650    60.9540     9.1960     7.7200    18.7080    24.0500 
   99.3750   -22.3140     2.0700    62.9570     8.7360     7.3750    14.1060    23.9410 
   99.5000   -22.4530     2.0900    65.3130     8.3140     7.0430    11.0210    23.8610 
   99.6250   -22.5520     2.1070    65.3520     7.9880     6.7740    10.0540    23.8980 
   99.7500   -22.5920     2.1180    64.9020     7.8000     6.6020    10.0560    23.9760 
   99.8750   -22.5710     2.1270    67.1710     7.7150     6.5080    10.1470    24.0160 
  100.0000   -22.4820     2.1320    70.5560     7.7030     6.4750    10.2180    24.0910 
  100.1250   -22.3660     2.1320    71.5060     7.7320     6.4830    10.2540    24.1380 
  100.2500   -22.2050     2.1310    69.4340     7.7720     6.5120    10.2840    24.1370 
  100.3750   -21.9730     2.1320    67.0630     7.7980     6.5460    10.3580    24.1150 
  100.5000   -21.7240     2.1350    65.7640     7.7990     6.5710    10.4670    24.1060 
  100.6250   -21.4930     2.1380    66.4670     7.7730     6.5790    10.5580    24.1140 
  100.7500   -21.2910     2.1390    68.7380     7.7250     6.5630    10.5210    24.1890 
  100.8750   -21.0940     2.1400    69.8070     7.6740     6.5320    10.4250    24.2760 
  101.0000   -20.8880     2.1450    68.7180     7.6340     6.4960    10.3070    24.2650 
  101.1250   -20.7490     2.1560    66.5480     7.6140     6.4690    10.1520    24.1420 
  101.2500   -20.7060     2.1690    64.8880     7.6230     6.4630    10.0680    24.0410 
  101.3750   -20.6850     2.1790    64.1120     7.6470     6.4770    10.0800    23.9480 
  101.5000   -20.5960     2.1850    64.1340     7.6690     6.5010    10.1120    23.8630 
  101.6250   -20.5200     2.1860    64.2210     7.6780     6.5250    10.1130    23.7480 
  101.7500   -20.5170     2.1770    64.5130     7.6700     6.5440    10.1020    23.4780 
  101.8750   -20.5020     2.1610    65.0200     7.6640     6.5660    10.0480    23.0350 
  102.0000   -20.4410     2.1500    64.1150     7.6790     6.5980     9.9430    22.6480 
  102.1250   -20.3830     2.1510    62.1630     7.7250     6.6460     9.8660    22.4790 
  102.2500   -20.3200     2.1590    60.8060     7.8000     6.7080     9.8920    22.5840 
  102.3750   -20.2330     2.1640    61.1540     7.8770     6.7720    10.2050    22.8910 
  102.5000   -20.0550     2.1620    62.5990     7.9350     6.8270    11.0120    23.3260 
  102.6250   -19.7050     2.1540    65.2880     7.9550     6.8610    11.9380    23.6590 
  102.7500   -19.1630     2.1430    67.9420     7.9170     6.8610    13.0530    23.7320 
  102.8750   -18.5000     2.1340    68.9530     7.8150     6.8150    13.3830    23.6400 
  103.0000   -17.7870     2.1310    69.4970     7.6390     6.7090    12.3060    23.5770 
  103.1250   -17.0040     2.1370    70.4290     7.3870     6.5340    11.4400    23.7140 
  103.2500   -16.1760     2.1630    72.0620     7.0740     6.2940    11.4000    24.0350 
  103.3750   -15.4170     2.1990    74.3920     6.7590     6.0290    10.8640    24.0970 
  103.5000   -14.8480     2.2230    76.7560     6.4970     5.7810     9.0400    23.8140 
  103.6250   -14.4650     2.2220    77.3360     6.3360     5.5920     7.7620    23.4040 
  103.7500   -14.2380     2.2110    74.6080     6.3200     5.5090     7.5190    23.3060 
  103.8750   -14.1970     2.2060    72.0170     6.4200     5.5230     7.3760    23.4280 
  104.0000   -14.3720     2.2000    72.0700     6.6040     5.6220     7.3930    23.5700 
  104.1250   -14.6640     2.1870    74.4280     6.8280     5.7810     7.7830    23.6950 
  104.2500   -15.0050     2.1680    75.3720     7.0430     5.9720     8.3410    23.7660 
  104.3750   -15.3440     2.1570    73.5610     7.2300     6.1650     8.7120    23.8040 
  104.5000   -15.7390     2.1560    71.6520     7.3960     6.3540     8.8670    23.7860 
  104.6250   -16.2140     2.1640    72.0450     7.5660     6.5440     8.9370    23.6990 
  104.7500   -16.7340     2.1710    74.7460     7.7630     6.7430     8.9640    23.6770 
  104.8750   -17.2180     2.1690    76.1110     7.9790     6.9450     9.2640    23.7950 
  105.0000   -17.6600     2.1630    74.9330     8.1850     7.1310     9.7510    23.9600 
  105.1250   -18.1520     2.1600    73.5000     8.3470     7.2730    10.3260    24.0600 
  105.2500   -18.6570     2.1610    73.9620     8.4350     7.3410    10.4910    24.0030 
  105.3750   -19.1470     2.1610    74.4820     8.4710     7.3490    10.3540    23.9280 
  105.5000   -19.6120     2.1570    73.3660     8.4910     7.3240    10.0930    23.9180 
  105.6250   -19.9680     2.1520    71.8270     8.5290     7.3000     9.8660    23.9110 
  105.7500   -20.2000     2.1500    70.6630     8.6010     7.3160     9.8210    23.9620 
  105.8750   -20.3800     2.1540    69.4800     8.6860     7.3730     9.9620    24.0350 
  106.0000   -20.5210     2.1630    70.5760     8.7580     7.4580    10.1180    24.0370 
  106.1250   -20.6050     2.1750    74.2290     8.8010     7.5480    10.2140    23.9480 
  106.2500   -20.6710     2.1820    77.4790     8.8170     7.6170    10.2580    23.9440 
  106.3750   -20.6790     2.1780    77.1200     8.8330     7.6570    10.2970    24.0430 
  106.5000   -20.5760     2.1650    73.9050     8.8680     7.6770    10.3390    24.2060 
  106.6250   -20.5320     2.1520    70.7750     8.9200     7.6870    10.4310    24.3580 
  106.7500   -20.5790     2.1510    69.2800     8.9490     7.6830    10.8490    24.3510 
  106.8750   -20.6120     2.1640    68.8000     8.9050     7.6410    11.6010    24.2690 
