~V
VERS. 2.00: Ver 2.00
~W
STRT.M 56.0000:
STOP.M 252.0000:
STEP.M 0.1250:
NULL. -999.2500:
UWI. F11142:
~C
DEPT.M :
SP.MV :
DEN.GM/CC :
GR.API :
RML.OHMM :
RI. :
RXO.OHMM :
CALI.CM :
~A
# ...
  213.5000   -13.3510     2.1840    65.6330    33.2000    29.3900    34.1850    24.8110 
  213.6250   -13.7940     2.1980    66.5890    35.0090    31.3590    35.4990    24.8010 
  213.7500   -14.1490     2.2360    65.9360    36.2210    32.7990    36.6220    24.7330 
  213.8750   -14.3980     2.2870    62.9990    36.8620    33.6760    37.8810    24.6120 
  214.0000   -14.5580     2.3160    60.3100    37.0360    34.0210    38.3370    24.5690 
  214.1250   -14.6850     2.3060    60.5260    37.0730    34.1320    36.5520    24.5700 
  214.2500   -14.7890     2.2690    62.7910    37.2080    34.2380    33.8260    24.5870 
  214.3750   -14.8800     2.2220    63.7060    37.6120    34.5370    31.7060    24.5590 
  214.5000   -14.9950     2.1810    62.1730    38.3940    35.1890    31.7470    24.4980 
  214.6250   -15.1280     2.1580    61.1100    39.4010    36.1040    33.9580    24.4450 
  214.7500   -15.3430     2.1550    61.5690    40.4960    37.1590    37.4570    24.4880 
  214.8750   -15.7040     2.1730    62.6560    41.6170    38.2610    41.0160    24.5840 
  215.0000   -16.1150     2.2110    63.7090    42.9590    39.5140    42.9670    24.6190 
  215.1250   -16.4730     2.2440    64.8110    44.8900    41.2220    43.6850    24.6260 
  215.2500   -16.8500     2.2400    65.3130    47.8190    43.7820    45.8810    24.6570 
  215.3750   -17.3090     2.2030    65.3150    52.4900    47.5080    52.0490    24.7610 
  215.5000   -17.8660     2.1730    67.2770    58.7450    52.5930    62.4110    24.8160 
  215.6250   -18.5030     2.1640    71.1900    66.0040    58.3610    73.1560    24.8350 
  215.7500   -19.1250     2.1650    74.0750    73.6430    64.0370    81.6030    24.8350 
  215.8750   -19.6650     2.1660    72.7870    78.5620    68.7420    85.6420    24.8350 
  216.0000   -20.1900     2.1680    69.3590    80.5180    71.4300    84.3770    24.8350 
  216.1250   -20.7430     2.1720    69.0960    80.2440    72.1550    81.1580    24.8350 
  216.2500   -21.2680     2.1770    72.5010    78.1430    71.1540    78.8360    24.8350 
  216.3750   -21.6800     2.1790    76.2130    74.7410    68.8440    78.1850    24.8350 
  216.5000   -21.9480     2.1790    76.3850    70.4100    65.5350    75.9940    24.8460 
  216.6250   -22.0890     2.1810    73.9640    65.7020    61.7580    71.6550    24.9030 
  216.7500   -22.1330     2.1870    71.5810    60.9720    57.8370    65.5920    25.0320 
  216.8750   -22.1010     2.1950    70.5940    56.5400    54.0760    59.3050    25.1670 
  217.0000   -21.9910     2.2020    71.1170    52.6710    50.7430    52.9530    25.2540 
  217.1250   -21.8170     2.2070    71.6170    49.2490    47.7880    48.3180    25.2600 
  217.2500   -21.5610     2.2130    70.6230    46.1220    45.0850    46.2440    25.2350 
  217.3750   -21.2710     2.2170    69.5730    43.1530    42.4890    44.7460    25.2000 
  217.5000   -20.9760     2.2210    70.4380    40.3580    39.9640    42.3030    25.1550 
  217.6250   -20.7000     2.2240    72.0220    37.8600    37.6030    38.2770    25.1160 
  217.7500   -20.4600     2.2250    73.5400    35.8440    35.5680    34.6590    25.1310 
  217.8750   -20.2580     2.2210    74.7810    34.4470    34.0010    32.6300    25.1960 
  218.0000   -20.1230     2.2190    76.0330    33.7890    33.0410    32.1180    25.1120 
  218.1250   -20.0470     2.2260    77.1940    33.6330    32.5270    32.3600    24.9550 
  218.2500   -20.0120     2.2380    78.2820    33.8190    32.3320    32.6090    24.8450 
  218.3750   -19.9340     2.2510    79.0560    34.2580    32.3590    32.8590    24.7890 
  218.5000   -19.8420     2.2580    78.5190    35.1370    32.7270    33.3270    24.7710 
  218.6250   -19.7880     2.2620    77.5280    36.7870    33.7160    33.8090    24.7720 
  218.7500   -19.7330     2.2660    75.7860    39.7100    35.8120    34.5210    24.7990 
  218.8750   -19.6900     2.2690    72.4840    44.3660    39.5280    36.5400    24.8250 
  219.0000   -19.6700     2.2620    68.6380    51.2030    45.4620    43.1210    24.8270 
  219.1250   -19.6500     2.2390    66.1030    59.2760    52.8810    53.8350    24.8080 
  219.2500   -19.6210     2.2080    65.3010    67.1710    60.5650    67.9640    24.7770 
  219.3750   -19.6530     2.1860    66.0860    72.9120    66.6700    81.1900    24.7610 
  219.5000   -19.7110     2.1810    67.7040    73.7740    68.5510    82.7820    24.8110 
  219.6250   -19.7170     2.2000    68.9670    69.9070    66.0050    74.0270    24.8460 
  219.7500   -19.6780     2.2380    70.8950    62.7980    60.0560    63.5140    24.7510 
  219.8750   -19.5740     2.2780    73.5780    54.8880    52.7620    55.7800    24.5540 
  220.0000   -19.3360     2.3200    75.4380    48.3580    46.2520    53.1810    24.4190 
  220.1250   -19.0220     2.3910    76.5130    43.5040    41.2050    50.2440    24.3070 
  220.2500   -18.6750     2.4880    76.8110    39.9390    37.4420    47.3220    24.1570 
  220.3750   -18.2980     2.5610    76.4070    37.0590    34.4550    45.5050    24.1410 
  220.5000   -17.8390     2.5620    73.7280    34.2080    31.6380    45.8150    24.2210 
  220.6250   -17.3740     2.5320    68.9350    30.9260    28.4870    43.7420    24.3150 
  220.7500   -16.9400     2.5070    64.4980    27.0940    24.8390    40.9090    24.4080 
  220.8750   -16.5530     2.4910    62.0770    22.8750    20.8120    39.6920    24.4390 
  221.0000   -16.2480     2.4760    62.6310    18.6210    16.8690    36.8800    24.4380 
  221.1250   -15.9910     2.4500    64.9180    14.9280    13.4930    27.9230    24.4210 
  221.2500   -15.7760     2.4090    66.7810    12.0160    10.9140    16.4810    24.4400 
  221.3750   -15.5820     2.3640    66.3780     9.7640     9.1460     9.6660    24.4330 
  221.5000   -15.4590     2.3390    63.2890     8.8950     8.1650     7.8180    24.3700 
  221.6250   -15.4750     2.3340    59.9800     8.4840     7.6720     7.4420    24.3270 
  221.7500   -15.5930     2.3430    57.0390     8.3500     7.5050     7.4860    24.3740 
  221.8750   -15.7170     2.3540    53.4260     8.3450     7.5190     7.4940    24.4950 
  222.0000   -15.8370     2.3610    50.6510     8.3550     7.5910     7.6970    24.6150 
  222.1250   -15.9850     2.3630    50.1880     8.3170     7.6260     7.8370    24.6810 
  222.2500   -16.1280     2.3620    51.1810     8.2180     7.5930     7.8870    24.6940 
  222.3750   -16.2480     2.3640    51.8520     8.0720     7.4950     7.8280    24.6710 
  222.5000   -16.3590     2.3650    50.7120     7.9020     7.3410     7.6790    24.6100 
  222.6250   -16.3450     2.3620    49.0000     7.7300     7.1590     7.5050    24.5660 
  222.7500   -16.2030     2.3550    49.3220     7.5610     6.9570     7.4500    24.5720 
  222.8750   -16.0030     2.3490    52.7070     7.3900     6.7350     7.3970    24.6100 
  223.0000   -15.7150     2.3460    57.3740     7.2190     6.4960     7.1600    24.5740 
  223.1250   -15.3470     2.3430    59.7770     7.0660     6.2630     6.8460    24.4040 
  223.2500   -14.9430     2.3400    58.5330     6.9560     6.0670     6.5340    24.1480 
  223.3750   -14.5320     2.3400    56.4790     6.9080     5.9330     6.2140    23.9150 
  223.5000   -14.0880     2.3470    57.5050     6.9240     5.8700     6.2280    23.8010 
  223.6250   -13.6350     2.3550    60.8390     6.9540     5.8380     6.4340    23.8790 
  223.7500   -13.1910     2.3560    64.4110     6.9520     5.7930     6.7200    24.0760 
  223.8750   -12.7620     2.3500    66.4560     6.8850     5.7030     6.7910    24.2490 
  224.0000   -12.4740     2.3420    66.7870     6.7590     5.5600     6.5340    24.3430 
  224.1250   -12.3350     2.3370    66.9950     6.6450     5.4150     6.1800    24.4080 
  224.2500   -12.3110     2.3370    68.7640     6.6180     5.3320     5.9720    24.4670 
  224.3750   -12.3720     2.3430    73.3620     6.7310     5.3660     6.0480    24.5210 
  224.5000   -12.5010     2.3510    80.8500     7.0130     5.5660     6.4130    24.7000 
  224.6250   -12.7260     2.3550    89.6900     7.3820     5.8800     7.0920    24.7350 
