~V
VERS. 2.00: Ver 2.00
~W
STRT.M 58.0000:
STOP.M 206.0000:
STEP.M 0.1250:
NULL. -999.2500:
UWI. F11128:
~C
DEPT.M :
GR.API :
RML.OHMM :
RI. :
RXO.OHMM :
CALI.CM :
SP.MV :
DEN.GM/CC :
~A
# ...
   80.5000    91.5660     5.9730     4.9440     6.4630    25.0490   -13.6900     2.2590 
   80.6250    94.0790     5.4710     4.5000     5.6410    25.0490   -11.6370     2.2880 
   80.7500    97.9870     5.1390     4.1650     4.9080    25.1740    -9.9350     2.3110 
   80.8750   102.5510     5.0330     3.9860     4.6670    25.3210    -8.5700     2.3250 
   81.0000   105.0980     5.2700     4.0570     4.7900    25.4300    -7.5240     2.3280 
   81.1250   105.0350     5.8590     4.3990     5.1320    25.5710    -6.7110     2.3280 
   81.2500   102.4980     6.7970     5.0440     6.1570    25.7090    -6.2000     2.3330 
   81.3750    96.8860     7.9850     5.9610     8.3030    25.8200    -6.0730     2.3400 
   81.5000    87.8030     9.1660     7.0160    11.6970    25.8330    -6.2180     2.3570 
   81.6250    79.1740    10.0060     7.9290    15.4110    25.7230    -6.4270     2.3910 
   81.7500    74.4640    10.2740     8.4560    17.8610    25.5290    -6.8010     2.4340 
   81.8750    73.6060     9.9300     8.4600    17.2700    25.2990    -7.4040     2.4620 
   82.0000    74.3010     9.1540     7.9670    14.3890    25.1500    -8.2160     2.4390 
   82.1250    73.9560     8.3750     7.3280    11.4890    25.1090    -9.1560     2.3720 
   82.2500    72.4500     7.8050     6.7570    10.0560    25.0720   -10.1050     2.2890 
   82.3750    70.7480     7.4940     6.3510     9.7980    25.0380   -11.0170     2.2220 
   82.5000    71.0410     7.4120     6.1320     9.8750    25.0220   -11.8840     2.1970 
   82.6250    72.3790     7.4590     6.0350     9.6720    24.9860   -12.6130     2.2060 
   82.7500    72.9070     7.6220     6.0480     9.3190    24.9290   -13.1460     2.2370 
   82.8750    72.7120     7.9090     6.1730     9.1640    24.8990   -13.5500     2.2810 
   83.0000    73.2750     8.3080     6.4150     9.8870    24.9610   -14.0340     2.3230 
   83.1250    73.5730     8.7150     6.7090    11.7880    25.0540   -14.7460     2.3570 
   83.2500    71.6170     9.0120     6.9760    14.1720    25.0930   -15.6970     2.3830 
   83.3750    67.9850     9.1010     7.1380    15.6160    25.0270   -16.7240     2.3890 
   83.5000    65.5450     8.9310     7.1240    13.5710    24.9380   -17.8670     2.3470 
   83.6250    64.5710     8.6370     6.9910    11.7960    24.9030   -19.1590     2.2790 
   83.7500    64.0510     8.3440     6.8140    11.3190    24.9330   -20.5160     2.2220 
   83.8750    63.9190     8.1430     6.6650    11.5070    25.0360   -21.8140     2.1990 
   84.0000    63.6480     8.0750     6.5970    11.7840    25.1940   -22.8980     2.2000 
   84.1250    62.3940     8.0690     6.5850    12.0050    25.4160   -23.7370     2.2060 
   84.2500    61.0760     8.0640     6.5920    12.1450    25.6010   -24.2970     2.2090 
   84.3750    60.6430     8.0240     6.5870    12.2430    25.7280   -24.5970     2.2110 
   84.5000    59.5370     7.9410     6.5510    12.2570    25.7790   -24.7300     2.2110 
   84.6250    56.2580     7.8340     6.4890    12.1450    25.8620   -24.8320     2.2060 
   84.7500    52.5840     7.7130     6.4060    11.8970    25.9940   -24.8700     2.1970 
   84.8750    51.9830     7.5800     6.3010    11.4930    26.2170   -24.7990     2.1870 
   85.0000    54.4380     7.4240     6.1710    10.9120    26.5450   -24.5100     2.1730 
   85.1250    56.7490     7.2500     6.0260    10.3740    26.9850   -24.0020     2.1500 
   85.2500    58.7700     7.0720     5.8790    10.0690    27.4010   -23.3020     2.1190 
   85.3750    61.2910     6.9100     5.7510    10.0000    27.4250   -22.5340     2.0910 
   85.5000    63.7390     6.8000     5.6720     9.9170    26.8000   -21.7360     2.0880 
   85.6250    66.0160     6.7520     5.6510     9.8120    26.0800   -20.8860     2.1060 
   85.7500    69.0540     6.7750     5.6940     9.8630    25.7440   -20.0460     2.1300 
   85.8750    71.6490     6.8750     5.8010    10.0530    25.6750   -19.2320     2.1460 
   86.0000    71.2480     7.0480     5.9680    10.2190    25.6780   -18.4890     2.1510 
   86.1250    69.7300     7.2460     6.1570    10.1790    25.6680   -17.8740     2.1530 
   86.2500    69.7650     7.4060     6.3160    10.1400    25.6410   -17.3780     2.1580 
   86.3750    70.5980     7.4480     6.3790    10.2350    25.6040   -16.8700     2.1660 
   86.5000    69.6930     7.2630     6.2480    10.1220    25.5530   -16.0600     2.1740 
   86.6250    69.3010     6.8630     5.9220     9.4250    25.5290   -14.8870     2.1850 
   86.7500    73.6880     6.3010     5.4350     8.0730    25.5320   -13.4390     2.2030 
   86.8750    83.1630     5.6800     4.8710     6.3520    25.5310   -11.8590     2.2310 
   87.0000    92.2920     5.1650     4.3560     4.9140    25.5040   -10.3140     2.2620 
   87.1250    96.9190     4.9030     4.0000     4.3430    25.4730    -8.8080     2.2820 
   87.2500    97.6170     5.0520     3.9090     4.2850    25.4620    -7.3520     2.2880 
   87.3750    95.4780     5.7970     4.2040     4.7810    25.4580    -6.0980     2.2900 
   87.5000    91.8000     7.4810     5.1480     6.7620    25.4530    -5.2630     2.3040 
   87.6250    87.1980    10.0520     6.8090    11.3080    25.4310    -4.8430     2.3320 
   87.7500    80.6550    13.2780     9.1740    18.7170    25.3740    -4.7260     2.3790 
   87.8750    73.1060    16.5490    11.9440    27.5020    25.2940    -4.8830     2.4490 
   88.0000    68.3340    18.6800    14.3390    35.4110    25.2400    -5.3180     2.5280 
   88.1250    67.1750    18.9570    15.5310    36.4570    25.2020    -5.8690     2.5750 
   88.2500    68.4660    17.3080    15.0830    30.9400    25.1650    -6.6120     2.5640 
   88.3750    70.3510    14.5330    13.3220    23.4820    25.1150    -7.5380     2.4950 
   88.5000    72.2510    11.9030    11.1890    17.3770    25.0280    -8.5590     2.3910 
   88.6250    75.3610    10.0430     9.4360    13.5590    24.9410    -9.5740     2.2920 
   88.7500    79.0350     8.9350     8.2030    11.7690    24.8710   -10.6300     2.2200 
   88.8750    80.2530     8.3760     7.4260    11.0820    24.8310   -11.6460     2.1800 
   89.0000    77.2280     8.2100     7.0430    10.8200    24.8380   -12.4700     2.1690 
   89.1250    74.4400     8.2340     6.8910    10.6260    24.8420   -13.2480     2.1670 
   89.2500    73.3860     8.3680     6.8980    10.5500    24.8050   -13.9350     2.1640 
   89.3750    72.8160     8.5580     7.0060    10.6600    24.7500   -14.4780     2.1600 
   89.5000    72.4390     8.7680     7.1720    10.9790    24.7230   -14.8990     2.1610 
   89.6250    71.6720     8.9700     7.3510    11.3140    24.7070   -15.2710     2.1640 
   89.7500    69.0670     9.1470     7.5200    11.6480    24.6880   -15.5250     2.1700 
   89.8750    65.4340     9.2860     7.6570    12.1160    24.6570   -15.7050     2.1800 
   90.0000    64.2260     9.3550     7.7340    12.8810    24.6320   -15.8800     2.1950 
   90.1250    65.4630     9.3470     7.7410    13.6350    24.6030   -15.9640     2.2050 
   90.2500    68.0750     9.2620     7.6740    14.0320    24.5680   -15.9840     2.2080 
   90.3750    70.1080     9.1360     7.5530    13.5410    24.5280   -15.9980     2.2030 
   90.5000    70.5260     9.0730     7.4400    11.7890    24.5160   -16.0460     2.1920 
   90.6250    70.1460     9.1750     7.4250    11.0210    24.5350   -16.1260     2.1780 
   90.7500    69.4330     9.4920     7.5670    11.2380    24.6040   -16.2690     2.1720 
   90.8750    68.2700     9.9710     7.8630    12.5870    24.7030   -16.4610     2.1810 
   91.0000    66.0530    10.4240     8.2170    15.0070    24.8180   -16.6860     2.2060 
   91.1250    64.1440    10.6380     8.4590    17.5430    24.9370   -16.9310     2.2440 
   91.2500    63.4370    10.4990     8.4730    19.3170    25.0370   -17.2040     2.2910 
   91.3750    63.9780    10.0370     8.2270    18.1970    25.1250   -17.4810     2.3210 
   91.5000    66.3060     9.4280     7.7950    13.5600    25.1930   -17.7580     2.2930 
   91.6250    68.8290     8.9180     7.3680    11.6070    25.2500   -18.0570     2.2310 
