~V
VERS. 2.00: Ver 2.00
~W
STRT.M 47.0000:
STOP.M 248.0000:
STEP.M 0.1250:
NULL. -999.2500:
UWI. F11134:
~C
DEPT.M :
GR.API :
RML.OHMM :
RI. :
RXO.OHMM :
CALI.CM :
SP.MV :
DEN.GM/CC :
~A
# ...
  182.0000    46.9730   169.3060   136.7830   134.6970    25.2450   -21.4160     2.2280 
  182.1250    47.7010   163.7240   133.7020   131.9850    25.2390   -21.3240     2.2310 
  182.2500    50.6420   157.8720   130.4070   129.1470    25.2540   -21.2840     2.2320 
  182.3750    52.2110   151.9030   127.0590   125.5200    25.2580   -21.2450     2.2330 
  182.5000    51.8430   145.6080   123.5460   121.6770    25.2420   -21.1750     2.2340 
  182.6250    52.3510   138.7200   119.6380   118.3680    25.2270   -21.1020     2.2360 
  182.7500    53.7080   131.0850   115.1220   114.1990    25.2210   -21.0570     2.2380 
  182.8750    53.6100   122.4120   109.5780   106.9640    25.2210   -21.0400     2.2370 
  183.0000    52.9120   112.5160   102.6420    97.5500    25.2190   -21.0310     2.2360 
  183.1250    53.6360   101.6520    94.3420    91.1920    25.2130   -21.0380     2.2370 
  183.2500    54.9740    90.6370    85.2900    89.6610    25.2020   -21.0710     2.2410 
  183.3750    55.9190    80.8170    76.7030    85.0010    25.2040   -21.1180     2.2480 
  183.5000    57.4560    73.0950    69.5970    73.8870    25.2150   -21.1570     2.2550 
  183.6250    59.7700    67.7380    64.4400    62.9730    25.2200   -21.1890     2.2600 
  183.7500    61.0730    64.5840    61.2550    60.2480    25.2230   -21.2360     2.2580 
  183.8750    60.5960    63.0660    59.6620    63.0200    25.2220   -21.3200     2.2490 
  184.0000    59.1680    62.1960    58.7940    63.0440    25.2210   -21.4300     2.2430 
  184.1250    57.4240    61.2930    57.9560    60.6570    25.2210   -21.5130     2.2500 
  184.2500    55.6180    60.4120    57.0920    60.3690    25.2190   -21.5460     2.2620 
  184.3750    54.9820    60.4700    56.8960    59.4100    25.2070   -21.5800     2.2720 
  184.5000    56.0420    62.6900    58.4260    52.8840    25.1850   -21.6580     2.2790 
  184.6250    56.9690    68.1480    62.7490    48.7710    25.1730   -21.7820     2.2800 
  184.7500    55.9200    77.5380    70.6810    60.5670    25.1880   -21.9370     2.2750 
  184.8750    53.5830    91.1050    82.6190    90.7470    25.2090   -22.0850     2.2620 
  185.0000    51.6700   107.2970    97.1590   118.4110    25.2250   -22.1990     2.2480 
  185.1250    51.2510   123.0980   111.4880   128.6150    25.2450   -22.2970     2.2390 
  185.2500    52.8520   135.1140   122.5080   130.5640    25.2680   -22.4150     2.2320 
  185.3750    55.2050   140.4710   127.5500   132.9160    25.2800   -22.5490     2.2260 
  185.5000    55.6690   139.9240   127.1490   134.6170    25.2720   -22.6830     2.2190 
  185.6250    53.8220   135.9710   123.4810   132.5150    25.2500   -22.8010     2.2140 
  185.7500    52.3620   130.3750   118.1630   124.4250    25.2300   -22.9000     2.2130 
  185.8750    53.6850   124.3340   112.3180   110.8540    25.2210   -22.9840     2.2140 
  186.0000    56.1440   118.6550   106.7360   100.9410    25.2180   -23.0730     2.2130 
  186.1250    56.6600   113.7180   101.8420    98.3390    25.2170   -23.1820     2.2090 
  186.2500    54.4750   109.6530    97.8050    98.4080    25.2180   -23.3070     2.2070 
  186.3750    52.0550   106.7920    94.9240    95.1320    25.2150   -23.4460     2.2120 
  186.5000    52.3940   105.5240    93.5120    88.5670    25.2020   -23.6000     2.2200 
  186.6250    54.6300   106.2890    93.9310    84.5460    25.1780   -23.7640     2.2270 
  186.7500    55.2700   109.5180    96.5860    87.5580    25.1600   -23.9170     2.2310 
  186.8750    52.5240   115.5710   101.8920    96.6520    25.1640   -24.0570     2.2320 
  187.0000    49.1450   123.8190   109.3870   107.9460    25.1860   -24.1980     2.2300 
  187.1250    47.8860   132.9020   117.9150   119.0390    25.2100   -24.3610     2.2260 
  187.2500    48.6070   141.2610   126.1000   130.0390    25.2310   -24.5410     2.2210 
  187.3750    50.2790   147.2170   132.3840   138.7850    25.2590   -24.6970     2.2180 
  187.5000    51.9300   150.4130   136.2460   141.6210    25.2800   -24.7960     2.2180 
  187.6250    52.7710   151.7190   138.2380   138.4400    25.2880   -24.8350     2.2190 
  187.7500    52.6590   152.3210   139.3180   133.9230    25.2940   -24.8370     2.2220 
  187.8750    51.7480   153.1740   140.4030   130.4730    25.3160   -24.8160     2.2250 
  188.0000    49.8970   154.3050   141.7060   128.8690    25.3620   -24.7770     2.2280 
  188.1250    47.4410   154.8690   142.6460   132.0830    25.4100   -24.7050     2.2280 
  188.2500    45.8280   153.7230   142.2730   142.8070    25.4420   -24.5780     2.2220 
  188.3750    45.8370   149.8110   139.5830   150.7540    25.4450   -24.4120     2.2150 
  188.5000    46.9490   143.5160   134.7130   146.4170    25.4370   -24.2390     2.2100 
  188.6250    48.3770   136.3910   128.8410   131.6350    25.4310   -24.0780     2.2090 
  188.7500    49.3200   130.2590   123.5370   117.3990    25.4180   -23.9470     2.2120 
  188.8750    48.9770   126.9360   120.5780   111.6080    25.3920   -23.8800     2.2210 
  189.0000    48.9130   126.7890   120.5670   110.7910    25.3710   -23.8730     2.2330 
  189.1250    50.2230   128.9520   122.9300   113.8810    25.3700   -23.8970     2.2450 
  189.2500    50.8130   131.9540   126.4460   126.8840    25.4020   -23.9670     2.2530 
  189.3750    49.1220   133.3850   129.0130   142.2550    25.4620   -24.0990     2.2570 
  189.5000    46.8640   131.2590   128.6790   143.6260    25.5110   -24.2750     2.2580 
  189.6250    45.9690   125.1320   124.6730   124.9210    25.5320   -24.4790     2.2620 
  189.7500    46.7800   116.1580   117.6470   104.8200    25.5500   -24.7090     2.2660 
  189.8750    49.4730   106.6120   109.4200    96.4200    25.5450   -24.9690     2.2660 
  190.0000    52.9170    98.4790   101.9750    87.9150    25.5040   -25.2440     2.2680 
  190.1250    53.9540    92.5350    96.3660    74.4930    25.4570   -25.5130     2.2740 
  190.2500    51.1180    88.5710    92.6080    68.9170    25.4650   -25.7640     2.2810 
  190.3750    48.8120    86.0670    90.2450    75.9320    25.4920   -26.0060     2.2790 
  190.5000    51.1090    84.5340    88.7570    85.3700    25.4410   -26.2760     2.2700 
  190.6250    56.2830    83.8760    88.0180    84.7010    25.3260   -26.6000     2.2590 
  190.7500    59.5740    84.3700    88.2770    77.5690    25.2320   -26.9480     2.2470 
  190.8750    58.3980    86.5620    90.0640    74.6460    25.1950   -27.2470     2.2390 
  191.0000    55.3430    90.5520    93.5220    80.5680    25.2150   -27.5000     2.2360 
  191.1250    52.4660    95.9000    98.2830    93.6380    25.2740   -27.7590     2.2370 
  191.2500    49.3430   101.9140   103.6780   105.9410    25.3290   -28.0510     2.2430 
  191.3750    46.7110   108.0080   109.0680   114.1520    25.3590   -28.3850     2.2540 
  191.5000    46.0250   114.4580   114.6060   120.8120    25.3830   -28.7280     2.2590 
  191.6250    46.9730   122.6470   121.5580   125.5770    25.4200   -29.0450     2.2530 
  191.7500    46.9550   134.7450   132.0770   133.9180    25.4610   -29.3320     2.2390 
  191.8750    45.0750   154.2410   149.7190   150.9360    25.4750   -29.6060     2.2220 
  192.0000    43.3150   183.6900   177.0410   182.6590    25.4560   -29.8610     2.2080 
  192.1250    41.7670   224.6490   215.3420   221.2930    25.4220   -30.0920     2.1950 
  192.2500    39.4790   276.6070   263.7010   271.1850    25.3880   -30.3170     2.1810 
  192.3750    37.9270   329.2060   312.8170   336.9470    25.3670   -30.5180     2.1680 
  192.5000    38.5620   359.9190   344.0660   401.2320    25.3580   -30.6770     2.1610 
  192.6250    39.6890   351.6460   342.1290   431.0030    25.3470   -30.8090     2.1610 
  192.7500    39.4480   311.2650   308.9910   402.3910    25.3220   -30.9320     2.1670 
  192.8750    39.7970   264.0610   263.8100   305.5120    25.3010   -31.0600     2.1770 
  193.0000    42.2120   229.5670   226.7520   200.1860    25.2920   -31.1900     2.1900 
  193.1250    44.6250   213.5400   207.1150   144.8010    25.2890   -31.2900     2.2000 
