~V
VERS. 2.00: Ver 2.00
~W
STRT.M 53.0000:
STOP.M 202.0000:
STEP.M 0.1250:
NULL. -999.2500:
UWI. F11113:
~C
DEPT.M :
DEN.GM/CC :
SP.MV :
GR.API :
RML.OHMM :
RI. :
RXO.OHMM :
CALI.CM :
~A
# ...
  143.0000     2.2890    -7.7860    65.4400    15.5000    12.6350    13.3680    25.4950 
  143.1250     2.2910    -7.7980    68.4510    15.4770    12.5150    13.6250    25.4990 
  143.2500     2.2920    -7.8550    69.8940    15.4760    12.4570    13.8490    25.5230 
  143.3750     2.2950    -7.9080    70.4210    15.4640    12.4240    14.0680    25.5870 
  143.5000     2.2970    -7.9360    71.0480    15.4380    12.4020    14.3780    25.6350 
  143.6250     2.2940    -7.9790    70.4820    15.4340    12.4290    14.6720    25.6550 
  143.7500     2.2840    -8.0900    69.9200    15.5120    12.5450    15.2740    25.6780 
  143.8750     2.2700    -8.2280    69.8450    15.7050    12.7710    15.6680    25.7280 
  144.0000     2.2580    -8.3540    69.1370    16.0080    13.0860    15.4620    25.7310 
  144.1250     2.2520    -8.4010    67.7960    16.3420    13.4330    15.5520    25.5600 
  144.2500     2.2500    -8.3740    68.1350    16.5350    13.7010    16.8800    25.2630 
  144.3750     2.2490    -8.3290    71.1480    16.4340    13.7820    16.9330    24.9640 
  144.5000     2.2470    -8.3020    73.4880    15.9700    13.6050    15.0160    24.7730 
  144.6250     2.2420    -8.2880    72.2330    15.1540    13.1320    13.4760    24.7230 
  144.7500     2.2380    -8.2210    70.7080    14.1680    12.4770    12.7050    24.7420 
  144.8750     2.2390    -8.1000    71.8490    13.1330    11.7270    11.9070    24.8770 
  145.0000     2.2500    -7.9390    73.8210    12.1300    10.9560    11.1240    25.0650 
  145.1250     2.2650    -7.7860    73.8940    11.2110    10.2080    10.6020    25.2350 
  145.2500     2.2770    -7.6690    73.7220    10.3640     9.4790     9.8840    25.3260 
  145.3750     2.2860    -7.5800    73.6840     9.5590     8.7640     9.0200    25.3420 
  145.5000     2.2930    -7.4660    72.5060     8.7640     8.0550     8.1940    25.2690 
  145.6250     2.2930    -7.2870    74.6920     7.9920     7.3580     7.3450    25.1860 
  145.7500     2.2870    -7.0860    80.8790     7.2750     6.6870     6.6110    25.1190 
  145.8750     2.2740    -6.8950    84.0150     6.6380     6.0600     5.9170    25.1150 
  146.0000     2.2600    -6.7490    80.5710     6.0840     5.4970     5.3560    25.2150 
  146.1250     2.2470    -6.6830    80.0040     5.6510     5.0440     5.0760    25.3120 
  146.2500     2.2350    -6.6590    86.8330     5.3960     4.7390     4.9550    25.4410 
  146.3750     2.2270    -6.6490    93.0960     5.4260     4.6550     4.8970    25.6090 
  146.5000     2.2300    -6.6550    92.8000     5.8550     4.8670     4.9530    25.7460 
  146.6250     2.2410    -6.7330    85.5190     6.8350     5.5110     5.6570    25.5490 
  146.7500     2.2480    -6.9160    76.7490     8.2610     6.5610     7.3630    25.3110 
  146.8750     2.2440    -7.1800    71.0770     9.9820     7.9760    10.1910    25.1940 
  147.0000     2.2300    -7.4330    68.1660    11.7070     9.5820    12.7050    25.1810 
  147.1250     2.2160    -7.6080    68.4780    12.9060    10.9380    13.9510    25.2430 
  147.2500     2.2080    -7.7400    71.0810    13.2930    11.6220    14.2340    25.2800 
  147.3750     2.2090    -7.8720    74.8280    12.8360    11.4480    13.7890    25.3030 
  147.5000     2.2190    -8.0280    75.8050    11.7480    10.5610    12.5140    25.3350 
  147.6250     2.2390    -8.1340    74.0050    10.3410     9.3270    10.7040    25.3540 
  147.7500     2.2630    -8.1490    75.7590     9.0180     8.1900     9.1450    25.3970 
  147.8750     2.2850    -8.1040    80.1600     8.0750     7.3700     7.8830    25.4070 
  148.0000     2.2960    -8.0430    82.1350     7.7380     6.9780     7.0230    25.3840 
  148.1250     2.2870    -7.9940    78.6520     8.1920     7.1140     7.1450    25.3640 
  148.2500     2.2670    -7.9630    75.8440     9.1880     7.6380     8.4260    25.3450 
  148.3750     2.2470    -7.9310    76.6940    10.4400     8.4040    10.3300    25.3470 
  148.5000     2.2330    -7.8820    78.7600    11.5630     9.1920    11.8950    25.2960 
  148.6250     2.2290    -7.8580    77.2130    12.0830     9.6960    11.7630    25.1800 
  148.7500     2.2310    -7.8590    73.5630    12.0080     9.8270    10.6170    25.0220 
  148.8750     2.2330    -7.8500    71.5300    11.5890     9.6690     9.4540    24.9550 
  149.0000     2.2300    -7.8420    72.4280    11.1900     9.4240     9.0720    25.0600 
  149.1250     2.2180    -7.8540    74.3940    11.2210     9.3530    10.2050    25.2380 
  149.2500     2.2050    -7.8800    74.0210    11.8180     9.6000    11.1460    25.4210 
  149.3750     2.1920    -7.9120    71.6040    13.0470    10.2780    11.3610    25.5250 
  149.5000     2.1770    -7.9370    71.1570    14.9670    11.4930    11.9220    25.5130 
  149.6250     2.1620    -7.9590    72.6160    17.7750    13.4600    15.5170    25.4630 
  149.7500     2.1570    -8.0270    72.2810    21.3040    16.0990    19.9330    25.4580 
  149.8750     2.1600    -8.1630    69.8800    25.2680    19.2690    25.4370    25.5810 
  150.0000     2.1680    -8.3550    68.3200    29.0620    22.5770    31.3740    25.7900 
  150.1250     2.1760    -8.5740    68.3790    31.6580    25.2230    32.8830    25.9530 
  150.2500     2.1870    -8.7620    66.3330    32.7910    26.7760    32.2350    26.0470 
  150.3750     2.2040    -8.9140    63.1070    32.7260    27.2440    31.3260    26.0680 
  150.5000     2.2240    -9.0660    61.0750    31.9860    26.9320    30.4110    26.0190 
  150.6250     2.2390    -9.2360    62.2330    31.0090    26.1780    29.0240    25.9270 
  150.7500     2.2510    -9.3970    64.9560    30.1050    25.3700    28.3780    25.9230 
  150.8750     2.2590    -9.4900    67.0800    29.4150    24.7160    27.9680    25.9700 
  151.0000     2.2580    -9.5090    68.2870    29.0450    24.3560    27.1900    26.0130 
  151.1250     2.2430    -9.4880    67.6990    29.1280    24.4440    26.7110    26.0610 
  151.2500     2.2210    -9.4830    65.9000    29.5400    24.9060    28.3320    26.0000 
  151.3750     2.2050    -9.4910    64.9590    30.0490    25.5840    30.6820    25.9160 
  151.5000     2.1990    -9.4810    65.7550    30.2860    26.1760    31.5780    25.8970 
  151.6250     2.2000    -9.3860    66.1340    29.7070    26.1830    30.5300    26.0480 
  151.7500     2.2020    -9.1900    64.7280    28.2010    25.3850    29.9570    26.1420 
  151.8750     2.2060    -8.9760    64.3100    25.8970    23.7980    28.7190    26.1890 
  152.0000     2.2160    -8.7890    66.3620    23.2140    21.7280    24.7300    26.2020 
  152.1250     2.2310    -8.6050    68.9060    20.7870    19.6850    20.3480    26.2140 
  152.2500     2.2440    -8.4240    72.6440    19.0120    18.0580    17.8230    26.2710 
  152.3750     2.2550    -8.2800    76.7580    18.0320    17.0150    16.6550    26.4050 
  152.5000     2.2690    -8.1690    78.8940    17.8040    16.6020    15.6930    26.5590 
  152.6250     2.2890    -8.0780    75.3280    18.1850    16.8400    17.2020    26.5320 
  152.7500     2.3020    -8.0360    69.6050    18.7820    17.4670    18.1910    26.3900 
  152.8750     2.2960    -8.0450    67.0580    19.3850    18.2980    18.1260    26.2290 
  153.0000     2.2790    -8.0870    68.1520    19.8710    19.1490    17.6560    26.0680 
  153.1250     2.2660    -8.1300    70.1670    20.0970    19.7600    17.6260    26.0030 
  153.2500     2.2630    -8.1460    72.0370    19.9660    19.9280    17.9370    26.0450 
  153.3750     2.2640    -8.1350    73.8940    19.3850    19.5230    18.2030    26.2240 
  153.5000     2.2640    -8.1390    74.0420    18.3940    18.5830    18.3620    26.3540 
  153.6250     2.2590    -8.1990    72.0410    17.2420    17.3490    17.8500    26.4450 
  153.7500     2.2520    -8.2840    71.9070    16.3560    16.2500    15.7450    26.5590 
  153.8750     2.2430    -8.3550    72.0810    16.0270    15.5670    13.3880    26.6810 
  154.0000     2.2310    -8.4040    70.1140    16.3740    15.4500    13.1060    26.7170 
  154.1250     2.2170    -8.4850    67.9950    17.4730    16.0350    14.4920    26.5310 
