~V
VERS. 2.00: Ver 2.00
~W
STRT.M 50.0000:
STOP.M 264.0000:
STEP.M 0.1250:
NULL. -999.2500:
UWI. F11182:
~C
DEPT.M :
SP.MV :
GR.API :
RI. :
RML.OHMM :
RXO.OHMM :
DEN.GM/CC :
~A
# ...
  191.6250    -5.3420    61.5930    41.3330    43.7000    40.6940     2.1350 
  191.7500    -5.2180    60.6690    41.9850    44.3840    40.8610     2.1410 
  191.8750    -5.0460    61.0810    41.8100    44.2000    40.0070     2.1530 
  192.0000    -4.9380    62.0850    40.9640    43.3120    39.1410     2.1550 
  192.1250    -4.7790    64.2810    38.9050    41.1500    37.4490     2.1500 
  192.2500    -4.6730    64.6370    37.2850    39.4490    37.2000     2.1480 
  192.3750    -4.5070    62.3950    34.8500    36.8930    38.4900     2.1550 
  192.5000    -4.3870    60.4770    33.1420    35.0990    38.2520     2.1580 
  192.6250    -4.1900    59.4710    31.2190    33.0800    33.0570     2.1590 
  192.7500    -4.0440    58.9220    30.5270    32.3530    27.8420     2.1600 
  192.8750    -3.8050    59.3990    30.6470    32.4790    25.4720     2.1640 
  193.0000    -3.6350    60.9180    31.4900    33.3640    28.3300     2.1600 
  193.1250    -3.3670    63.5380    33.2920    35.2560    33.1170     2.1490 
  193.2500    -3.1860    62.0160    34.6510    36.6840    35.9930     2.1470 
  193.3750    -2.9150    59.6230    36.4370    38.5590    37.5730     2.1530 
  193.5000    -2.7380    60.6090    37.1390    39.2960    36.2060     2.1520 
  193.6250    -2.4810    63.6000    37.6220    39.8030    35.6340     2.1430 
  193.7500    -2.3160    63.9720    37.6160    39.7970    36.3750     2.1370 
  193.8750    -2.0800    62.5280    37.0610    39.2140    36.7240     2.1260 
  194.0000    -1.9290    62.8650    35.9320    38.0290    36.5540     2.1190 
  194.1250    -1.7030    65.8770    32.9100    34.8550    35.8410     2.1240 
  194.2500    -1.5490    66.9740    30.1830    31.9920    33.8410     2.1460 
  194.3750    -1.3130    63.1880    25.6710    27.2540    31.5130     2.1800 
  194.5000    -1.1570    59.6110    23.0650    24.5190    29.3810     2.1910 
  194.6250    -0.9410    60.2070    19.7630    21.0510    25.4600     2.1920 
  194.7500    -0.8140    63.8610    17.9910    19.1900    22.6520     2.1910 
  194.8750    -0.6470    66.8510    16.0530    17.1560    18.6430     2.2040 
  195.0000    -0.5450    65.8210    15.1710    16.2290    16.5500     2.2190 
  195.1250    -0.3840    63.4840    14.5270    15.5530    15.0300     2.2390 
  195.2500    -0.2600    63.5580    14.6060    15.6360    14.7300     2.2410 
  195.3750    -0.0360    66.6980    15.8010    16.8910    15.6580     2.2220 
  195.5000     0.1410    69.2730    17.0210    18.1730    17.3640     2.1980 
  195.6250     0.4430    69.7160    18.6890    19.9240    20.5340     2.1610 
  195.7500     0.6630    67.8330    19.2040    20.4640    24.5000     2.1500 
  195.8750     1.0110    61.7900    17.9660    19.1640    23.8910     2.1680 
  196.0000     1.2560    57.6120    16.2830    17.3980    21.1080     2.2000 
  196.1250     1.6490    56.6710    13.5180    14.4940    16.4450     2.2410 
  196.2500     1.9380    60.1970    12.0460    12.9480    14.5490     2.2450 
  196.3750     2.4290    66.1500    11.3540    12.2220    14.4860     2.2220 
  196.5000     2.7990    66.0520    11.8790    12.7730    16.5600     2.2260 
  196.6250     3.4220    62.4370    13.5770    14.5550    18.1650     2.3140 
  196.7500     3.8720    59.6970    14.1680    15.1760    19.0260     2.4050 
  196.8750     4.5740    58.2870    12.7760    13.7150    27.0920     2.5200 
  197.0000     5.0360    58.8010    10.7330    11.5700    33.8350     2.5520 
  197.1250     5.6780    59.6560     6.7410     7.3780    31.5120     2.5150 
  197.2500     6.0460    59.5630     4.9430     5.4900    20.4680     2.4590 
  197.3750     6.4780    58.9320     3.4100     3.8800     6.8630     2.3790 
  197.5000     6.6760    58.5480     2.8640     3.3080     4.6070     2.3510 
  197.6250     6.8440    57.6460     2.5470     2.9750     4.4560     2.3420 
  197.7500     6.8820    57.0750     2.5600     2.9880     4.4490     2.3470 
  197.8750     6.8610    57.0960     2.7030     3.1380     4.7710     2.3500 
  198.0000     6.8140    58.0640     2.7890     3.2280     5.1610     2.3420 
  198.1250     6.7300    60.0390     2.8670     3.3100     5.8160     2.3250 
  198.2500     6.6820    60.2850     2.8830     3.3270     5.8580     2.3250 
  198.3750     6.6440    57.5200     2.9060     3.3510     4.7890     2.3510 
  198.5000     6.6450    56.1520     2.9740     3.4230     4.1150     2.3720 
  198.6250     6.6810    56.4760     3.1790     3.6380     3.9820     2.3860 
  198.7500     6.7170    56.7810     3.3710     3.8400     4.6420     2.3880 
  198.8750     6.7700    55.2780     3.6660     4.1500     6.5670     2.4160 
  199.0000     6.7930    55.1440     3.7850     4.2750     7.5020     2.4530 
  199.1250     6.7970    57.4030     3.7700     4.2580     7.7430     2.4830 
  199.2500     6.7710    58.5380     3.6310     4.1120     7.2690     2.4620 
  199.3750     6.6820    58.5830     3.3420     3.8090     6.3740     2.4150 
  199.5000     6.5920    58.0240     3.1520     3.6090     6.0030     2.4060 
  199.6250     6.4290    56.6540     2.9480     3.3950     5.7720     2.4050 
  199.7500     6.3160    55.7950     2.8620     3.3050     5.6330     2.3890 
  199.8750     6.1680    54.3780     2.7670     3.2060     5.2120     2.3680 
  200.0000     6.0950    52.9620     2.6930     3.1280     5.1960     2.3710 
  200.1250     6.0330    52.1420     2.5320     2.9580     5.4810     2.3800 
  200.2500     6.0210    53.2460     2.4000     2.8200     5.5170     2.3770 
  200.3750     6.0320    56.2340     2.2580     2.6710     5.0520     2.3730 
  200.5000     6.0410    56.7720     2.2240     2.6350     4.2280     2.3810 
  200.6250     6.0320    55.9940     2.2980     2.7130     3.3550     2.4050 
  200.7500     6.0060    55.6970     2.4150     2.8360     3.7340     2.4240 
  200.8750     5.9570    53.1270     2.6990     3.1340     5.2720     2.4410 
  201.0000     5.9390    50.8100     2.9010     3.3460     5.8580     2.4430 
  201.1250     5.9700    49.3270     3.0690     3.5220     4.9160     2.4400 
  201.2500     6.0400    50.7690     3.0140     3.4650     4.2150     2.4400 
  201.3750     6.2050    54.3150     2.6990     3.1330     4.2840     2.4280 
  201.5000     6.3300    55.9750     2.4140     2.8350     4.0250     2.4020 
  201.6250     6.4710    57.1010     2.0900     2.4940     2.8880     2.3580 
  201.7500     6.4970    59.7850     1.9740     2.3730     2.6580     2.3460 
  201.8750     6.3920    68.0290     1.9810     2.3800     3.0520     2.3530 
  202.0000     6.2340    75.5660     2.1040     2.5090     3.5100     2.3590 
  202.1250     5.9210    84.9210     2.3810     2.8000     4.5770     2.3600 
  202.2500     5.7060    88.2640     2.5650     2.9940     4.9010     2.3530 
  202.3750     5.4350    88.1590     2.6920     3.1270     4.7780     2.3330 
  202.5000     5.3030    86.4500     2.6710     3.1040     4.9460     2.3250 
  202.6250     5.1660    85.7840     2.5320     2.9580     5.1550     2.3270 
  202.7500     5.0930    87.3860     2.4190     2.8400     4.9640     2.3280 
  202.8750     4.9650    87.8680     2.3070     2.7220     4.5280     2.3250 
  203.0000     4.8410    87.3780     2.2630     2.6760     4.2400     2.3310 
  203.1250     4.5720    87.0950     2.2630     2.6760     4.0040     2.3560 
  203.2500     4.3410    87.9480     2.3310     2.7480     4.1930     2.3610 
  203.3750     3.9480    88.7420     2.5250     2.9520     4.9250     2.3350 
  203.5000     3.6840    87.8520     2.6660     3.1000     5.2320     2.3090 
  203.6250     3.3380    85.8030     2.8410     3.2830     5.6170     2.2760 
  203.7500     3.1590    84.3410     2.8920     3.3360     5.9470     2.2610 
  203.8750     2.9820    83.5930     2.9220     3.3690     5.9700     2.2600 
  204.0000     2.9250    84.4480     2.9480     3.3960     5.8900     2.2790 
  204.1250     2.9240    84.3440     3.0470     3.4990     5.5890     2.3090 
  204.2500     2.9750    83.3200     3.2010     3.6610     5.2980     2.3090 
  204.3750     3.1230    79.2220     3.5960     4.0760     5.3460     2.2870 
