~V
VERS. 2.00: Ver 2.00
~W
STRT.M 63.0000:
STOP.M 246.0000:
STEP.M 0.1250:
NULL. -999.2500:
UWI. F11137:
~C
DEPT.M :
DEN.GM/CC :
GR.API :
RML.OHMM :
RI. :
RXO.OHMM :
CALI.CM :
SP.MV :
~A
# ...
  119.2500     2.5700    69.1130    16.6510    14.0910    17.2550    24.3950    -0.8060 
  119.3750     2.6310    58.6900    20.6110    17.7610    23.2800    24.3350    -0.2600 
  119.5000     2.6480    50.6590    24.5490    22.1430    32.9170    24.2780     0.1650 
  119.6250     2.6300    51.2890    26.4150    25.3870    35.9830    24.2290     0.3950 
  119.7500     2.6000    54.2960    25.3460    25.4960    33.8540    24.1360     0.5190 
  119.8750     2.5690    56.8530    21.8510    22.3260    32.0470    24.0720     0.5090 
  120.0000     2.5400    61.6400    17.4730    17.7640    23.9960    24.0210     0.4760 
  120.1250     2.5140    68.8450    13.9880    14.0160    14.9810    23.9090     0.4150 
  120.2500     2.4920    73.2200    12.0500    11.6710    10.4660    23.8300     0.4060 
  120.3750     2.4810    72.2120    11.6750    10.6690    10.0200    23.8020     0.4290 
  120.5000     2.4790    67.6830    12.7020    10.8970    12.5420    23.8780     0.4510 
  120.6250     2.4860    62.6700    15.1520    12.5550    18.1960    23.8660     0.5000 
  120.7500     2.5000    58.1410    18.5580    15.4440    21.7730    23.7580     0.5640 
  120.8750     2.5200    54.3570    22.4910    19.3570    21.5310    23.6560     0.6420 
  121.0000     2.5490    51.5170    26.2840    23.7120    24.6910    23.6400     0.7020 
  121.1250     2.5820    50.2550    28.8790    27.2790    29.5320    23.7370     0.7750 
  121.2500     2.6100    48.9960    29.8290    29.1290    34.0490    23.8630     0.8300 
  121.3750     2.6220    46.4270    29.1710    29.0340    32.8160    23.9230     0.8940 
  121.5000     2.6180    45.0920    27.4990    27.5170    28.3230    23.8990     0.9890 
  121.6250     2.6020    48.2090    25.8310    25.5750    24.3010    23.8480     1.1660 
  121.7500     2.5900    52.3440    25.0420    24.2450    21.8800    23.8360     1.3940 
  121.8750     2.5930    53.3570    25.4890    24.0340    23.3960    23.8480     1.6550 
  122.0000     2.6170    51.7950    27.0870    25.0570    26.7160    23.8600     1.9220 
  122.1250     2.6540    50.5800    29.3130    27.1040    31.5900    23.8360     2.1620 
  122.2500     2.6830    49.9210    31.1510    29.2120    35.3670    23.8300     2.3220 
  122.3750     2.6880    50.1540    31.8720    30.4730    34.8110    23.8990     2.4050 
  122.5000     2.6630    50.9450    31.1930    30.2980    29.7450    24.1410     2.4350 
  122.6250     2.6160    51.0000    29.3760    28.7070    25.1660    24.5900     2.3970 
  122.7500     2.5710    49.2380    27.4290    26.7550    23.8770    25.0460     2.3100 
  122.8750     2.5440    46.1530    26.0020    25.1510    22.9980    25.2490     2.1630 
  123.0000     2.5430    44.1160    25.4060    24.2840    21.8060    25.0990     1.9710 
  123.1250     2.5660    44.8270    25.7180    24.3740    21.3630    24.7600     1.7880 
  123.2500     2.5950    46.9580    26.4830    25.0880    23.1220    24.4530     1.6600 
  123.3750     2.6120    49.8440    27.3130    26.0730    27.4990    24.2900     1.6100 
  123.5000     2.6040    52.4890    27.8600    26.9030    31.1950    24.2350     1.5990 
  123.6250     2.5710    52.6160    27.8630    27.1690    28.2080    24.1950     1.5870 
  123.7500     2.5360    50.0900    27.4930    26.9730    24.2650    24.1220     1.5560 
  123.8750     2.5210    47.4690    26.9800    26.5660    22.5190    24.1320     1.5440 
  124.0000     2.5370    47.5080    26.5110    26.1920    23.6290    24.2700     1.5680 
  124.1250     2.5700    49.1570    26.1100    25.9550    25.0300    24.4940     1.6060 
  124.2500     2.5940    50.5150    25.5930    25.6770    28.2120    24.7090     1.6570 
  124.3750     2.5930    52.3250    24.7930    25.0950    32.2810    24.8870     1.7030 
  124.5000     2.5700    55.0120    23.6790    24.0720    35.1070    25.0540     1.6970 
  124.6250     2.5440    56.2650    22.4230    22.7470    31.7260    25.1310     1.6770 
  124.7500     2.5340    54.7650    21.3270    21.5060    24.2990    25.1020     1.7000 
  124.8750     2.5450    52.4560    20.5660    20.5750    20.2040    25.0400     1.7870 
  125.0000     2.5660    51.4290    20.1850    20.0430    18.2560    24.9640     1.8740 
  125.1250     2.5810    50.3240    20.1430    19.9110    18.7720    24.9000     1.9130 
  125.2500     2.5800    48.6600    20.2560    19.9710    19.9590    24.8430     1.8830 
  125.3750     2.5660    48.1340    20.4320    20.1080    20.2790    24.8480     1.8340 
  125.5000     2.5490    48.7990    20.6370    20.2740    20.4120    24.8150     1.8490 
  125.6250     2.5400    49.5860    20.9150    20.4870    20.5240    24.7710     1.9510 
  125.7500     2.5470    49.6590    21.3240    20.8020    20.7660    24.6330     1.9890 
  125.8750     2.5670    48.8500    21.9000    21.2900    21.8190    24.4530     1.9090 
  126.0000     2.5990    47.6590    22.6130    21.9680    23.8390    24.3320     1.7390 
  126.1250     2.6340    47.3440    23.3410    22.7330    23.6470    24.2650     1.5290 
  126.2500     2.6630    49.5910    23.9140    23.3800    23.6660    24.2570     1.3640 
  126.3750     2.6780    53.4230    24.2160    23.7630    24.5410    24.2450     1.2170 
  126.5000     2.6790    54.9370    24.1980    23.7960    24.6850    24.2310     1.0620 
  126.6250     2.6690    53.7160    23.8560    23.4380    22.5470    24.2000     0.8680 
  126.7500     2.6600    52.6200    23.3490    22.8670    20.3590    24.1800     0.7440 
  126.8750     2.6560    52.5110    22.7910    22.2160    20.6700    24.1290     0.6940 
  127.0000     2.6570    53.0000    22.2910    21.5820    22.5470    24.1110     0.7200 
  127.1250     2.6560    54.5550    22.0100    21.0920    23.0400    24.0980     0.7600 
  127.2500     2.6520    56.3940    22.0540    20.8880    21.8850    24.0590     0.7840 
  127.3750     2.6470    56.2270    22.5140    21.1140    21.3970    24.0720     0.8450 
  127.5000     2.6480    54.9940    23.3880    21.8310    21.6820    24.0940     0.9580 
  127.6250     2.6640    54.0990    24.5190    23.0060    22.2050    24.1220     1.1380 
  127.7500     2.6900    53.7190    25.4850    24.2430    24.7400    24.1110     1.2970 
  127.8750     2.7160    54.8070    25.9000    25.0480    28.3020    24.0970     1.4190 
  128.0000     2.7300    58.1250    25.5300    24.9910    28.4620    24.0870     1.5260 
  128.1250     2.7230    60.7310    24.3630    23.9520    23.3630    24.0430     1.7350 
  128.2500     2.6980    61.7990    22.8960    22.5320    20.8080    24.0630     2.0170 
  128.3750     2.6640    63.2200    21.4800    21.1530    19.7200    24.1590     2.2670 
  128.5000     2.6270    64.1660    20.3110    20.0410    19.1280    24.2650     2.4350 
  128.6250     2.5910    62.8290    19.4410    19.2500    18.8020    24.3600     2.4750 
  128.7500     2.5610    61.8670    18.7420    18.6080    18.4400    24.4920     2.4590 
  128.8750     2.5360    62.6430    18.1680    18.0340    18.8200    24.7200     2.4400 
  129.0000     2.5180    64.0150    17.7270    17.5500    19.2720    25.0020     2.3980 
  129.1250     2.5090    63.2670    17.4670    17.2520    18.8170    25.1580     2.3370 
  129.2500     2.5080    60.9640    17.3310    17.1080    16.8400    25.0400     2.2370 
  129.3750     2.5140    57.4930    17.2430    17.0370    15.9620    24.7780     2.1180 
  129.5000     2.5250    53.5070    17.1290    16.9380    17.1000    24.7370     1.9830 
  129.6250     2.5330    52.8380    16.9550    16.7430    18.1080    25.1060     1.7990 
  129.7500     2.5300    54.5870    16.7820    16.5040    18.0970    25.5440     1.5930 
  129.8750     2.5140    56.0900    16.6920    16.3180    17.6680    25.8120     1.3460 
  130.0000     2.4950    55.5180    16.7480    16.2910    16.8950    25.8740     1.0800 
  130.1250     2.4870    54.1470    16.9810    16.5050    16.6900    25.8790     0.7180 
  130.2500     2.4900    53.1710    17.3000    16.8670    17.5100    25.8810     0.3080 
  130.3750     2.4940    52.2490    17.6260    17.2740    18.6210    25.8730    -0.1120 
