~V
VERS. 2.00: Ver 2.00
~W
STRT.M 50.0000:
STOP.M 221.0000:
STEP.M 0.1250:
NULL. -999.2500:
UWI. F11120:
~C
DEPT.M :
DEN.GM/CC :
GR.API :
RML.OHMM :
RI. :
RXO.OHMM :
CALI.CM :
SP.MV :
~A
# ...
  106.2500     2.1510    62.5330     9.3010     7.9890    10.8610    25.7420   -27.4040 
  106.3750     2.1540    63.3740     9.3070     7.9400    11.0230    25.7300   -27.1080 
  106.5000     2.1550    63.5070     9.3240     7.9340    11.2360    25.7030   -26.7890 
  106.6250     2.1550    62.2560     9.3250     7.9650    11.3560    25.6820   -26.4490 
  106.7500     2.1580    61.4650     9.3140     8.0040    11.3090    25.6740   -26.0840 
  106.8750     2.1600    62.2400     9.3090     8.0350    11.1800    25.6800   -25.6820 
  107.0000     2.1610    63.3790     9.3330     8.0540    11.0300    25.6990   -25.2290 
  107.1250     2.1550    62.6860     9.4050     8.0790    10.6590    25.7280   -24.7020 
  107.2500     2.1400    62.2620     9.5280     8.1350    10.3760    25.7400   -24.1170 
  107.3750     2.1230    64.6510     9.7080     8.2360    10.2040    25.7430   -23.4800 
  107.5000     2.1150    68.5230     9.9410     8.3770    10.3180    25.7430   -22.7860 
  107.6250     2.1200    68.5990    10.1740     8.5250    10.5530    25.7430   -22.0030 
  107.7500     2.1320    65.0490    10.2850     8.6050    10.6240    25.7450   -21.1320 
  107.8750     2.1450    63.0160    10.1250     8.5250    10.6440    25.7630   -20.1690 
  108.0000     2.1590    66.2940     9.5930     8.2150    10.5690    25.8430   -19.1230 
  108.1250     2.1790    72.7440     8.7080     7.6690    10.0950    26.0720   -18.0120 
  108.2500     2.2050    78.5770     7.7920     7.0740     8.9120    26.4060   -16.8690 
  108.3750     2.2340    83.6500     7.1250     6.6080     7.3290    26.7250   -15.7160 
  108.5000     2.2600    87.5540     6.8840     6.4010     6.2600    26.9280   -14.5910 
  108.6250     2.2800    87.8750     7.1460     6.5280     6.6810    26.9630   -13.5710 
  108.7500     2.3050    83.8190     7.6570     6.8430     8.7770    26.9390   -12.7080 
  108.8750     2.3430    79.3820     8.1220     7.1550    11.9650    26.9460   -12.0350 
  109.0000     2.3800    79.8950     8.2110     7.2400    13.3750    26.9960   -11.5630 
  109.1250     2.3740    86.8430     7.6890     6.9200     9.2980    27.0390   -11.3110 
  109.2500     2.3320    94.6180     6.8490     6.3680     6.6710    27.0520   -11.2340 
  109.3750     2.2920    99.9660     6.0140     5.7850     5.5230    27.0460   -11.3320 
  109.5000     2.2810   103.0440     5.4170     5.3230     5.0620    27.0240   -11.6090 
  109.6250     2.2960   101.8880     5.2350     5.1060     4.8720    26.9920   -12.0820 
  109.7500     2.3110    95.9670     5.4380     5.1400     4.8940    26.9790   -12.7000 
  109.8750     2.3170    89.9790     6.0360     5.4530     5.2030    26.9850   -13.4540 
  110.0000     2.3230    88.6060     7.0420     6.0700     6.2070    27.0110   -14.3450 
  110.1250     2.3430    91.0680     8.4750     7.0290     9.2520    27.0170   -15.3960 
  110.2500     2.3650    90.3170    10.0470     8.1550    14.0390    26.8980   -16.5800 
  110.3750     2.3600    83.3560    11.3560     9.1910    16.3040    26.6690   -17.8770 
  110.5000     2.3150    71.9950    11.9680     9.8190    14.2920    26.5010   -19.2480 
  110.6250     2.2500    64.0640    11.6070     9.7690    12.5210    26.4000   -20.6410 
  110.7500     2.2010    64.5930    10.7450     9.2850    11.5050    26.3130   -22.0010 
  110.8750     2.1730    70.1160     9.8300     8.6540    10.4170    26.2640   -23.2940 
  111.0000     2.1600    73.5420     9.1890     8.1180     9.2950    26.2420   -24.4990 
  111.1250     2.1540    71.2130     9.0100     7.8430     9.3540    26.1710   -25.5940 
  111.2500     2.1520    67.8880     9.1660     7.7930    10.0050    26.1030   -26.5900 
  111.3750     2.1500    67.0660     9.5270     7.9070    10.6820    26.0480   -27.4810 
  111.5000     2.1450    68.5170     9.9360     8.1120    10.8830    26.0030   -28.2650 
  111.6250     2.1390    68.8760    10.2210     8.3250    11.2770    25.9700   -28.9290 
  111.7500     2.1350    65.0490    10.3410     8.4860    11.6040    25.9580   -29.5120 
  111.8750     2.1340    60.3950    10.3390     8.5770    11.7690    25.9560   -30.0330 
  112.0000     2.1330    58.8700    10.2910     8.6030    11.8660    25.9560   -30.5060 
  112.1250     2.1300    62.0360    10.2540     8.5780    11.7790    25.9560   -30.9180 
  112.2500     2.1260    64.6310    10.2440     8.5300    11.7280    25.9560   -31.2620 
  112.3750     2.1250    62.6990    10.2640     8.4790    11.7530    25.9560   -31.5300 
  112.5000     2.1270    57.7680    10.3160     8.4380    11.7730    25.9560   -31.7240 
  112.6250     2.1300    54.8480    10.3820     8.4100    11.7430    25.9560   -31.8510 
  112.7500     2.1320    57.4100    10.4230     8.3860    11.8050    25.9560   -31.9240 
  112.8750     2.1310    62.6580    10.4090     8.3590    11.9020    25.9590   -31.9380 
  113.0000     2.1290    65.3460    10.3300     8.3180    11.9490    25.9840   -31.8820 
  113.1250     2.1220    63.9150    10.1970     8.2550    11.9240    26.0930   -31.7440 
  113.2500     2.1100    61.3330    10.0530     8.1810    11.8570    26.2520   -31.5450 
  113.3750     2.0960    60.9930     9.9270     8.1140    11.8900    26.3150   -31.2940 
  113.5000     2.0850    62.8970     9.8390     8.0750    11.8880    26.2190   -30.9900 
  113.6250     2.0820    64.8250     9.8180     8.0980    11.7980    26.0920   -30.6040 
  113.7500     2.0870    65.2270     9.9040     8.1960    11.8410    26.0400   -30.1360 
  113.8750     2.1000    63.5070    10.1480     8.3920    12.1640    26.0310   -29.5890 
  114.0000     2.1180    61.7050    10.5590     8.6890    12.4870    26.0310   -28.9700 
  114.1250     2.1380    63.1190    11.0500     9.0190    12.8300    26.0460   -28.2650 
  114.2500     2.1580    64.8070    11.3610     9.2110    13.2640    26.0970   -27.4710 
  114.3750     2.1730    64.2230    11.2160     9.0820    13.7200    26.2230   -26.5670 
  114.5000     2.1770    63.8970    10.4560     8.5410    13.7620    26.4760   -25.5480 
  114.6250     2.1740    69.3010     9.1880     7.6650    11.8350    26.8670   -24.4400 
  114.7500     2.1750    76.4240     7.9510     6.8010     8.8120    27.1900   -23.3240 
  114.8750     2.1820    79.6130     7.1640     6.2030     6.7250    27.3120   -22.2660 
  115.0000     2.1840    79.4960     7.0980     6.0400     6.1930    27.2420   -21.3190 
  115.1250     2.1790    79.5290     7.9690     6.4880     7.1850    26.9790   -20.5440 
  115.2500     2.1820    77.7070     9.4600     7.4190     9.3530    26.6670   -19.9290 
  115.3750     2.2020    72.2110    11.1280     8.6060    12.0560    26.4340   -19.4650 
  115.5000     2.2400    64.8830    12.2860     9.5970    14.5150    26.4270   -19.1310 
  115.6250     2.2900    63.4460    12.0550     9.7080    15.4550    26.6440   -18.8900 
  115.7500     2.3260    69.5070    10.6890     8.9880    13.1410    26.9010   -18.6730 
  115.8750     2.3230    78.6050     8.8850     7.8590     8.8000    27.0870   -18.4400 
  116.0000     2.2880    86.3920     7.3450     6.7890     6.3490    27.1630   -18.1750 
  116.1250     2.2520    90.4860     6.5390     6.1020     5.7180    27.1420   -17.8760 
  116.2500     2.2330    92.5300     6.3540     5.7910     5.8840    27.0740   -17.5790 
  116.3750     2.2250    91.4220     6.6210     5.8020     6.2910    26.9870   -17.3220 
  116.5000     2.2170    86.8840     7.1280     6.0370     6.7520    26.8890   -17.1370 
  116.6250     2.2040    81.5640     7.6510     6.3790     7.0730    26.7940   -17.0620 
  116.7500     2.1920    77.7740     8.0340     6.6870     7.4120    26.7310   -17.0700 
  116.8750     2.1870    75.6780     8.2170     6.8850     7.1770    26.7320   -17.1300 
  117.0000     2.1930    73.7260     8.1910     6.9380     6.7660    26.7610   -17.2130 
  117.1250     2.2110    70.8640     7.9600     6.8420     6.7190    26.7930   -17.2920 
  117.2500     2.2320    68.9140     7.6220     6.6660     6.8180    26.8160   -17.3570 
  117.3750     2.2440    68.8750     7.2640     6.4680     6.4130    26.8230   -17.4060 
