~V
VERS. 2.00: Ver 2.00
~W
STRT.M 52.0000:
STOP.M 216.0000:
STEP.M 0.1250:
NULL. -999.2500:
UWI. F11106:
~C
DEPT.M :
DEN.GM/CC :
GR.API :
RML.OHMM :
RI. :
RXO.OHMM :
CALI.CM :
SP.MV :
~A
# ...
  187.0000     2.4250    70.4470     9.4900     8.6270    10.2870    23.5260    -5.7960 
  187.1250     2.4200    70.5120     9.5950     8.7230     8.9220    23.6610    -5.6650 
  187.2500     2.4080    73.6710     9.4840     8.6210     7.9650    23.6620    -5.4970 
  187.3750     2.3950    76.8740     9.2300     8.3910     7.4600    23.7800    -5.3420 
  187.5000     2.3840    74.3920     8.9300     8.1180     7.5220    23.8890    -5.2340 
  187.6250     2.3790    67.4660     8.6800     7.8910     8.0980    23.7760    -5.1130 
  187.7500     2.3790    63.8760     8.4960     7.7230     8.2520    23.6620    -5.0250 
  187.8750     2.3820    63.7170     8.3390     7.5810     8.0390    23.7480    -4.9790 
  188.0000     2.3830    64.7370     8.1860     7.4420     7.4710    23.9960    -4.9640 
  188.1250     2.3830    66.0570     8.0430     7.3120     6.7510    23.9050    -4.9640 
  188.2500     2.3810    67.3350     7.9210     7.2010     6.4080    23.8900    -5.0090 
  188.3750     2.3800    66.6840     7.8210     7.1100     6.1950    23.8940    -5.0360 
  188.5000     2.3810    62.9700     7.7400     7.0360     6.0640    23.7250    -5.0730 
  188.6250     2.3840    58.5380     7.6800     6.9820     6.3280    23.6530    -5.1360 
  188.7500     2.3880    57.0970     7.6300     6.9360     7.0720    23.4870    -5.2030 
  188.8750     2.3910    58.9790     7.5970     6.9060     7.2780    23.3180    -5.2880 
  189.0000     2.3920    61.0800     7.5830     6.8940     6.6220    23.2860    -5.3400 
  189.1250     2.3880    63.4820     7.5940     6.9040     5.8090    23.5070    -5.3630 
  189.2500     2.3820    66.6830     7.6350     6.9410     5.5870    23.8390    -5.4070 
  189.3750     2.3750    68.8580     7.6930     6.9930     6.1000    24.2760    -5.4690 
  189.5000     2.3670    68.8600     7.7330     7.0300     6.4920    24.4600    -5.5100 
  189.6250     2.3600    66.3270     7.7010     7.0010     5.9810    24.4250    -5.5090 
  189.7500     2.3540    62.3640     7.5910     6.9010     5.4830    24.0100    -5.4940 
  189.8750     2.3500    59.1210     7.4270     6.7520     5.3610    23.4830    -5.4970 
  190.0000     2.3490    59.4780     7.2460     6.5870     5.5250    23.5570    -5.5090 
  190.1250     2.3530    62.5540     7.1210     6.4740     5.6840    23.6180    -5.5110 
  190.2500     2.3600    62.7250     7.0800     6.4370     5.9520    23.5820    -5.5080 
  190.3750     2.3670    60.0050     7.1320     6.4840     6.2150    23.6960    -5.5050 
  190.5000     2.3700    57.9440     7.2780     6.6170     6.1770    23.7870    -5.5200 
  190.6250     2.3670    58.6520     7.5160     6.8330     5.9030    23.9040    -5.5790 
  190.7500     2.3590    59.9970     7.7920     7.0840     6.2550    24.0190    -5.6350 
  190.8750     2.3500    61.4660     8.0440     7.3130     6.9980    24.3980    -5.6820 
  191.0000     2.3430    63.3560     8.2020     7.4560     7.1360    24.9510    -5.7570 
  191.1250     2.3420    65.7950     8.1900     7.4450     6.2850    25.2280    -5.8170 
  191.2500     2.3420    66.3420     8.0550     7.3230     5.3980    24.7970    -5.8660 
  191.3750     2.3400    64.2220     7.8910     7.1730     4.4660    24.4140    -5.9190 
  191.5000     2.3300    60.8390     7.7920     7.0840     4.1390    25.5650    -5.9320 
  191.6250     2.3040    58.1310     7.8550     7.1410     4.5460    27.0480    -5.9640 
  191.7500     2.2700    58.5960     8.0620     7.3290     5.4820    27.3560    -5.9990 
  191.8750     2.2350    63.2250     8.3630     7.6030     6.6910    26.5050    -5.9930 
  192.0000     2.2050    67.7030     8.6920     7.9020     7.6640    25.3790    -5.9740 
  192.1250     2.1880    67.6580     8.9990     8.1810     8.5820    25.3060    -5.9690 
  192.2500     2.1850    66.0930     9.2670     8.4250     9.5340    26.4130    -5.9520 
  192.3750     2.2000    65.9350     9.4640     8.6040    10.1240    26.2740    -5.9300 
  192.5000     2.2350    65.9120     9.5450     8.6780    10.2730    25.0950    -5.9180 
  192.6250     2.2820    63.7090     9.4320     8.5740    10.3850    24.5370    -5.8630 
  192.7500     2.3270    61.8790     9.1320     8.3020     9.1640    24.3830    -5.8260 
  192.8750     2.3570    62.4880     8.7040     7.9130     7.3260    24.2790    -5.7840 
  193.0000     2.3660    65.4610     8.2380     7.4890     6.1140    23.8460    -5.7210 
  193.1250     2.3570    67.1950     7.8230     7.1110     5.7570    23.8250    -5.7100 
  193.2500     2.3410    65.6490     7.5000     6.8180     5.4780    23.7990    -5.6840 
  193.3750     2.3240    62.1630     7.3120     6.6470     5.5070    23.6320    -5.6580 
  193.5000     2.3100    61.3280     7.2930     6.6300     6.0170    23.9050    -5.6840 
  193.6250     2.3010    62.8720     7.4550     6.7770     7.1070    24.0820    -5.7080 
  193.7500     2.3010    62.0090     7.6910     6.9920     8.7400    23.9780    -5.7320 
  193.8750     2.3110    59.9710     7.8750     7.1590     8.4570    23.5200    -5.7970 
  194.0000     2.3300    60.6220     7.8920     7.1740     6.8900    22.9620    -5.8660 
  194.1250     2.3540    62.5320     7.7060     7.0060     6.1540    22.7360    -5.9020 
  194.2500     2.3780    61.2460     7.4490     6.7720     5.9560    22.8280    -5.9930 
  194.3750     2.3940    57.6590     7.2160     6.5600     6.1280    23.0220    -6.0840 
  194.5000     2.4010    55.1060     7.0560     6.4150     6.1600    23.3380    -6.1450 
  194.6250     2.3950    54.5740     6.9850     6.3500     5.7420    23.5610    -6.2380 
  194.7500     2.3810    54.9620     6.9610     6.3280     5.7930    23.5730    -6.3060 
  194.8750     2.3630    55.5290     6.9630     6.3300     6.3980    23.6700    -6.3840 
  195.0000     2.3450    55.6040     6.9890     6.3540     6.8830    23.8320    -6.5100 
  195.1250     2.3310    55.1440     7.0070     6.3700     6.2280    23.9600    -6.6080 
  195.2500     2.3230    53.2240     6.9960     6.3600     5.4680    24.1530    -6.6870 
  195.3750     2.3240    51.1740     6.9760     6.3410     5.2350    24.1440    -6.7660 
  195.5000     2.3350    51.4570     6.9920     6.3560     5.7860    24.1550    -6.8140 
  195.6250     2.3550    53.5270     7.1040     6.4580     5.8690    23.9490    -6.8540 
  195.7500     2.3780    55.2110     7.3150     6.6500     5.7840    23.9640    -6.8690 
  195.8750     2.3970    55.9110     7.6040     6.9130     5.9290    24.0310    -6.8470 
  196.0000     2.4080    55.3970     7.9040     7.1860     6.6670    24.0970    -6.7830 
  196.1250     2.4090    53.9150     8.1240     7.3850     7.6800    24.2000    -6.7120 
  196.2500     2.4010    54.1940     8.2260     7.4780     8.2570    24.2420    -6.6420 
  196.3750     2.3870    57.1510     8.1890     7.4440     8.3600    24.0580    -6.5670 
  196.5000     2.3700    58.8730     8.0320     7.3020     8.3210    23.9160    -6.4950 
  196.6250     2.3550    57.0370     7.8130     7.1020     7.9440    23.8740    -6.4380 
  196.7500     2.3460    54.8910     7.6100     6.9190     7.4620    24.0550    -6.4210 
  196.8750     2.3430    53.9720     7.4520     6.7740     6.8350    24.2420    -6.4080 
  197.0000     2.3440    53.8880     7.3380     6.6710     6.3670    24.4590    -6.4260 
  197.1250     2.3440    55.6980     7.2710     6.6100     6.3690    24.7430    -6.4980 
  197.2500     2.3380    58.2120     7.2230     6.5660     6.7860    24.9600    -6.5260 
  197.3750     2.3230    58.9380     7.1940     6.5400     7.4790    25.0380    -6.5780 
  197.5000     2.3000    57.3670     7.1930     6.5390     7.6940    24.8470    -6.6510 
  197.6250     2.2710    56.3150     7.2170     6.5610     7.6630    24.7560    -6.7100 
  197.7500     2.2450    56.3770     7.2350     6.5770     7.5700    24.9620    -6.7630 
  197.8750     2.2270    55.6520     7.2120     6.5570     7.6660    25.5430    -6.7980 
  198.0000     2.2220    52.9020     7.1170     6.4700     7.4960    25.3100    -6.8330 
  198.1250     2.2300    48.6840     6.9270     6.2970     6.5330    24.9640    -6.8140 
