~V
VERS. 2.00: Ver 2.00
~W
STRT.M 53.0000:
STOP.M 202.0000:
STEP.M 0.1250:
NULL. -999.2500:
UWI. F11113:
~C
DEPT.M :
DEN.GM/CC :
SP.MV :
GR.API :
RML.OHMM :
RI. :
RXO.OHMM :
CALI.CM :
~A
# ...
   64.2500     2.1370   -37.2370    59.0770     7.6670     9.3230    12.3040    25.0160 
   64.3750     2.1290   -37.7090    62.7500     6.9730     9.2250    13.4910    25.2200 
   64.5000     2.1360   -38.1110    66.4520     6.1860     8.8620    13.4420    25.2830 
   64.6250     2.1550   -38.4310    67.0920     5.7070     8.3500    11.2920    25.1680 
   64.7500     2.1730   -38.6810    67.3180     5.6140     7.8470     9.9830    25.1120 
   64.8750     2.1820   -38.8660    68.5640     5.7540     7.4290     9.4460    25.1410 
   65.0000     2.1850   -39.0420    70.0950     5.8620     7.1210     9.1380    25.2240 
   65.1250     2.1820   -39.1410    69.9440     5.7470     6.9080     8.9100    25.3090 
   65.2500     2.1770   -39.2330    67.1480     5.4990     6.7300     8.8370    25.4340 
   65.3750     2.1760   -39.2840    65.0270     5.2540     6.5620     8.7440    25.6310 
   65.5000     2.1740   -39.3080    66.7160     5.1030     6.4140     8.3630    25.8530 
   65.6250     2.1640   -39.3850    71.6380     5.0630     6.3450     7.6850    25.9210 
   65.7500     2.1510   -39.5140    74.8290     5.0890     6.3760     7.5360    25.7830 
   65.8750     2.1470   -39.6570    74.6740     5.1590     6.4890     8.1110    25.5480 
   66.0000     2.1530   -39.7630    72.8080     5.2700     6.6360     8.7080    25.3080 
   66.1250     2.1580   -39.8460    71.2470     5.4130     6.7590     8.9270    25.1860 
   66.2500     2.1590   -39.8890    70.5880     5.5280     6.8310     8.8460    25.1440 
   66.3750     2.1610   -39.9470    69.0160     5.5790     6.8510     8.7840    25.1520 
   66.5000     2.1650   -40.0160    65.8150     5.5440     6.8380     8.8870    25.2060 
   66.6250     2.1700   -40.0260    63.9300     5.4060     6.8130     8.9500    25.3240 
   66.7500     2.1720   -39.9540    63.4940     5.1890     6.7870     8.6850    25.5170 
   66.8750     2.1740   -39.8120    62.8360     4.9430     6.7580     8.3340    25.7270 
   67.0000     2.1770   -39.6350    62.2790     4.7730     6.7240     8.2420    25.7860 
   67.1250     2.1810   -39.4600    64.4720     4.8720     6.6720     8.6860    25.6360 
   67.2500     2.1830   -39.2610    67.8650     5.3470     6.6070     9.0910    25.4650 
   67.3750     2.1830   -38.9660    70.7640     6.0710     6.5660     9.3310    25.5120 
   67.5000     2.1820   -38.5510    71.7670     6.7760     6.6070     9.4710    25.7780 
   67.6250     2.1700   -38.0440    70.0450     7.3870     6.8000     9.6900    26.2680 
   67.7500     2.1510   -37.5240    67.8790     7.9860     7.1130    11.2170    26.8680 
   67.8750     2.1440   -37.0190    64.8330     8.5100     7.4710    16.6970    27.2790 
   68.0000     2.1600   -36.4790    60.8900     8.7990     7.7490    28.1490    27.1680 
   68.1250     2.1860   -35.8190    60.3530     8.7340     7.7840    26.2360    26.3990 
   68.2500     2.1940   -35.0500    62.6660     8.5150     7.6130    16.3640    25.6500 
   68.3750     2.1870   -34.2070    65.2630     8.3730     7.3850    12.3790    25.4240 
   68.5000     2.1840   -33.3210    66.8870     8.5060     7.2990    12.1770    25.6010 
   68.6250     2.2080   -32.3390    69.0220     9.0460     7.5340    12.5100    25.9490 
   68.7500     2.2640   -31.2230    70.8540     9.7890     8.0070    13.3720    26.3130 
   68.8750     2.3400   -29.9740    71.8170    10.4120     8.5220    19.2950    26.6300 
   69.0000     2.3890   -28.6790    73.7610    10.5080     8.7710    32.6620    26.8370 
   69.1250     2.3650   -27.4620    75.1640     9.7270     8.4000    27.5210    26.9490 
   69.2500     2.3120   -26.3640    75.2380     8.5030     7.5800    14.0190    27.0310 
   69.3750     2.2770   -25.3990    75.0750     7.3150     6.6220     7.4000    27.0940 
   69.5000     2.2690   -24.5440    76.8060     6.4680     5.8170     5.7170    27.1330 
   69.6250     2.2720   -23.8400    82.2800     6.0990     5.3650     5.5100    27.0990 
   69.7500     2.2710   -23.3100    88.7070     6.0480     5.2090     5.4340    27.0010 
   69.8750     2.2690   -22.9670    90.2640     6.1620     5.2460     5.6250    26.8880 
   70.0000     2.2730   -22.7650    84.4770     6.2830     5.3410     5.8700    26.8070 
   70.1250     2.2890   -22.6730    80.1580     6.2750     5.3610     6.1090    26.7690 
   70.2500     2.3170   -22.6690    83.9290     6.1160     5.2600     6.1360    26.7420 
   70.3750     2.3530   -22.7890    92.5960     5.8370     5.0460     5.7370    26.7300 
   70.5000     2.3860   -23.0790    98.9550     5.5210     4.7660     5.1250    26.7170 
   70.6250     2.4000   -23.5790    99.1100     5.3060     4.5180     4.8520    26.6910 
   70.7500     2.3930   -24.2350    98.3120     5.2760     4.3860     4.7550    26.6530 
   70.8750     2.3670   -25.0680    98.6280     5.4770     4.4200     4.8270    26.5360 
   71.0000     2.3270   -26.1160    95.6300     5.9160     4.6480     5.2840    26.1830 
   71.1250     2.2850   -27.3620    86.2020     6.5970     5.0990     6.5910    25.5970 
   71.2500     2.2510   -28.6720    77.0780     7.4120     5.7010     8.1260    25.1310 
   71.3750     2.2290   -29.9500    72.2100     8.2660     6.3870     9.4390    25.0160 
   71.5000     2.2090   -31.1610    69.8640     9.0310     7.0570    11.7230    25.1350 
   71.6250     2.1800   -32.2780    66.7890     9.5280     7.5600    17.7630    25.3410 
   71.7500     2.1410   -33.3050    62.3200     9.7180     7.8310    26.4250    25.5540 
   71.8750     2.1030   -34.1700    58.2330     9.6230     7.8580    25.6590    25.6300 
   72.0000     2.0790   -34.8260    58.3210     9.3230     7.6770    16.5720    25.6040 
   72.1250     2.0830   -35.2400    62.5460     8.9250     7.3420    12.5650    25.4930 
   72.2500     2.1020   -35.4990    64.5470     8.5490     6.9740    11.2940    25.1870 
   72.3750     2.1220   -35.6520    63.7380     8.2480     6.6460    10.4780    24.8090 
   72.5000     2.1350   -35.7260    63.4980     8.0460     6.4000     9.8530    24.5130 
   72.6250     2.1450   -35.6930    63.7540     7.9680     6.2600     9.6250    24.3830 
   72.7500     2.1540   -35.5600    64.6190     7.9770     6.1900     9.6370    24.3560 
   72.8750     2.1590   -35.3530    67.7080     8.0360     6.1590     9.6730    24.3990 
   73.0000     2.1580   -35.0950    70.9200     8.1030     6.1440     9.6460    24.4640 
   73.1250     2.1500   -34.7980    69.6100     8.1280     6.1280     9.5340    24.5220 
   73.2500     2.1450   -34.5220    67.2600     8.1000     6.1050     9.4810    24.5040 
   73.3750     2.1490   -34.3110    69.0580     8.0350     6.0760     9.5200    24.3640 
   73.5000     2.1610   -34.1520    73.5460     7.9630     6.0460     9.4790    24.1960 
   73.6250     2.1710   -34.0460    75.1160     7.9160     6.0220     9.3710    24.1770 
   73.7500     2.1770   -33.9880    74.0040     7.8940     6.0060     9.4130    24.1910 
   73.8750     2.1800   -33.9860    72.1750     7.8850     5.9920     9.5430    24.2070 
   74.0000     2.1820   -34.0390    69.3720     7.8670     5.9740     9.6030    24.2320 
   74.1250     2.1790   -34.1690    66.4540     7.8100     5.9430     9.5220    24.3240 
   74.2500     2.1700   -34.3330    66.6630     7.7150     5.8980     9.2520    24.5000 
   74.3750     2.1580   -34.4930    68.4050     7.6000     5.8410     8.7390    24.7120 
   74.5000     2.1430   -34.5910    67.7990     7.4920     5.7800     8.3010    24.8760 
   74.6250     2.1320   -34.5860    65.1390     7.4100     5.7270     8.2180    25.0360 
   74.7500     2.1300   -34.5070    64.5830     7.3560     5.6910     8.1510    25.1460 
   74.8750     2.1370   -34.3920    66.5640     7.3320     5.6760     8.0710    25.1240 
   75.0000     2.1490   -34.2590    67.8810     7.3430     5.6870     7.9910    25.0050 
   75.1250     2.1570   -34.0810    65.8010     7.4030     5.7290     7.9880    24.8600 
   75.2500     2.1590   -33.8270    63.3100     7.4930     5.7940     8.0890    24.7350 
   75.3750     2.1590   -33.4900    62.9680     7.5910     5.8690     8.2820    24.6650 
