~V
VERS. 2.00: Ver 2.00
~W
STRT.M 20.0000:
STOP.M 279.0000:
STEP.M 0.1250:
NULL. -999.2500:
UWI. F11153:
~C
DEPT.M :
DEN.GM/CC :
GR.API :
RML.OHMM :
RI. :
RXO.OHMM :
CALI.CM :
SP.MV :
~A
# ...
  177.5000     2.2900    65.2300    47.6130    46.2130    35.5840    24.9960   -31.4790 
  177.6250     2.2890    64.0610    47.3700    46.0370    34.5800    24.8240   -31.4710 
  177.7500     2.2870    59.8760    47.8050    46.4190    33.9730    24.7870   -31.4900 
  177.8750     2.2820    57.9720    49.1020    47.5750    34.8400    24.8140   -31.5050 
  178.0000     2.2740    61.1020    51.2450    49.5700    37.4970    24.8220   -31.4950 
  178.1250     2.2600    64.6630    53.9780    52.2740    41.4600    24.7220   -31.4760 
  178.2500     2.2470    63.7540    56.6030    55.0440    43.5320    24.5390   -31.4720 
  178.3750     2.2380    60.6160    58.5150    57.2750    43.9710    24.3550   -31.4960 
  178.5000     2.2360    59.4010    59.2550    58.4460    43.7420    24.2340   -31.5710 
  178.6250     2.2400    59.5550    58.5280    58.1360    43.4390    24.1240   -31.6980 
  178.7500     2.2490    58.3070    56.9620    56.8440    44.1710    23.9920   -31.8590 
  178.8750     2.2590    57.6520    55.1980    55.1370    44.1570    23.8420   -32.0710 
  179.0000     2.2690    60.7750    53.8900    53.6510    43.2810    23.6930   -32.3190 
  179.1250     2.2740    67.1060    53.7700    53.1220    42.8060    23.6070   -32.6120 
  179.2500     2.2760    72.5280    54.9890    53.8080    43.0510    23.5760   -32.9860 
  179.3750     2.2790    74.9860    57.6550    55.8850    45.0070    23.5500   -33.4680 
  179.5000     2.2830    72.9830    61.7850    59.4450    48.4170    23.5160   -34.0060 
  179.6250     2.2820    67.9470    67.4370    64.6720    51.7430    23.6220   -34.5050 
  179.7500     2.2750    63.2980    73.8130    70.8640    55.6120    24.1060   -34.9660 
  179.8750     2.2600    60.8930    79.8250    77.0140    60.7590    24.8540   -35.4000 
  180.0000     2.2400    60.9640    83.9980    81.6280    69.6750    25.4900   -35.8470 
  180.1250     2.2230    64.7820    84.7910    82.8650    76.8280    25.7430   -36.3100 
  180.2500     2.2170    70.9570    83.5490    81.5560    70.7730    25.8060   -36.7270 
  180.3750     2.2210    74.3030    82.5780    79.6760    54.9860    25.8360   -37.0250 
  180.5000     2.2280    72.5960    84.4130    79.7150    43.8140    25.8580   -37.2290 
  180.6250     2.2270    67.4390    92.1930    84.9880    42.6430    25.8920   -37.3850 
  180.7500     2.2190    64.0700   106.7400    96.8170    55.1690    25.9510   -37.5110 
  180.8750     2.2060    64.8260   129.0290   116.3010   100.6750    25.9990   -37.5870 
  181.0000     2.1960    65.7030   159.2360   143.3790   185.2910    26.0160   -37.5860 
  181.1250     2.1970    62.4380   196.2960   176.6790   187.3330    25.9840   -37.4910 
  181.2500     2.2030    56.6250   233.6340   210.5620   150.6060    25.9580   -37.3280 
  181.3750     2.2040    53.1180   262.8940   238.8010   157.2340    25.9700   -37.1060 
  181.5000     2.1950    52.7290   273.7950   253.5590   193.5820    26.0220   -36.8200 
  181.6250     2.1870    52.2150   254.5570   243.4290   218.0800    26.0140   -36.4590 
  181.7500     2.1870    51.1080   215.8820   212.8060   204.0060    25.9750   -36.0430 
  181.8750     2.1960    50.7240   173.5880   172.9670   156.5550    25.8670   -35.6090 
  182.0000     2.2090    52.5280   140.2960   137.2100    93.2900    25.6950   -35.1870 
  182.1250     2.2240    56.2900   122.4970   115.4090    58.2120    25.5760   -34.7700 
  182.2500     2.2410    60.0090   116.6680   106.3550    49.7350    25.5230   -34.3220 
  182.3750     2.2550    61.2830   120.3940   107.9100    63.6140    25.5250   -33.8880 
  182.5000     2.2620    59.3710   130.6910   116.9390    86.0500    25.5890   -33.4810 
  182.6250     2.2590    58.6090   142.3390   128.6560   107.0830    25.7630   -33.1190 
  182.7500     2.2540    61.7790   147.8040   135.9800   120.6170    25.9690   -32.8150 
  182.8750     2.2480    64.8490   143.0360   134.5110   121.2380    26.1450   -32.5470 
  183.0000     2.2430    65.2370   130.2310   124.6980   103.9700    26.2400   -32.2940 
  183.1250     2.2400    64.4610   115.7060   111.3010    77.1750    26.2650   -32.0230 
  183.2500     2.2420    63.5910   103.6170    99.2240    61.2010    26.1610   -31.7770 
  183.3750     2.2490    61.2130    94.3910    89.5500    54.0740    26.0220   -31.5440 
  183.5000     2.2580    58.6150    87.6290    82.1220    56.0380    25.9200   -31.3150 
  183.6250     2.2660    58.9120    83.4630    77.0140    58.2910    25.8510   -31.1020 
  183.7500     2.2720    60.6980    81.5880    73.9360    50.4870    25.8320   -30.8890 
  183.8750     2.2730    62.4230    81.8780    72.8760    41.9170    25.8870   -30.6720 
  184.0000     2.2670    63.5390    83.5680    73.3080    42.1640    25.9790   -30.4210 
  184.1250     2.2480    62.7210    84.7520    73.7850    58.6920    26.0250   -30.1650 
  184.2500     2.2210    62.9780    83.4440    72.6160    76.6660    25.9790   -29.9220 
  184.3750     2.1950    67.3810    78.9090    69.1280    81.2760    25.8310   -29.6920 
  184.5000     2.1860    74.8390    72.0390    63.8460    72.6830    25.5740   -29.4900 
  184.6250     2.2120    76.8610    65.0150    58.2860    51.0090    25.2990   -29.3240 
  184.7500     2.2570    73.0710    59.6920    53.9680    36.1290    25.2250   -29.1560 
  184.8750     2.2960    70.0410    56.6630    51.5430    34.1130    25.2940   -28.9640 
  185.0000     2.3100    72.3730    55.7550    51.0690    38.3060    25.4290   -28.7790 
  185.1250     2.3050    76.3690    56.4370    52.3290    40.6650    25.4810   -28.6420 
  185.2500     2.3070    76.2630    57.3170    54.1640    39.7220    25.4440   -28.5450 
  185.3750     2.3230    72.4300    56.8690    55.1710    41.3390    25.3340   -28.4670 
  185.5000     2.3500    69.2680    53.3100    53.3990    46.1460    25.1700   -28.4030 
  185.6250     2.3870    67.7040    45.1280    46.6520    45.6580    24.8920   -28.3200 
  185.7500     2.4280    65.3510    34.6560    36.8350    39.1940    24.6260   -28.2610 
  185.8750     2.4560    65.5620    26.3760    26.8710    29.4620    24.4430   -28.2850 
  186.0000     2.4590    74.8530    18.8240    19.0260    20.0500    24.4160   -28.4060 
  186.1250     2.4440    88.4940    14.0820    14.3110    13.1040    24.5470   -28.6130 
  186.2500     2.4320    94.4120    11.6180    11.6830     9.6890    24.7530   -28.8660 
  186.3750     2.4290    93.2850    10.6210    10.4640     8.2990    25.0390   -29.1730 
  186.5000     2.4290    92.5750    10.4940    10.1520     8.5630    25.3360   -29.5320 
  186.6250     2.4280    92.3220    10.8600    10.4430     9.1700    25.5270   -29.9510 
  186.7500     2.4260    89.7290    11.3680    10.9440     9.4350    25.6050   -30.3950 
  186.8750     2.4250    86.2510    11.9790    11.5240     9.4190    25.6240   -30.8380 
  187.0000     2.4240    82.8460    12.8830    12.2520     9.3820    25.6260   -31.2750 
  187.1250     2.4150    81.1580    14.5770    13.4970     9.5730    25.6460   -31.7080 
  187.2500     2.3990    81.1160    17.1990    15.5050    10.9500    25.7340   -32.1160 
  187.3750     2.3770    80.6090    20.5860    18.3170    14.9700    25.9170   -32.4600 
  187.5000     2.3530    78.8560    24.0590    21.4810    23.1930    26.0950   -32.7190 
  187.6250     2.3310    79.6360    26.1740    23.6100    30.7000    26.1790   -32.9250 
  187.7500     2.3180    83.4330    26.3210    23.7820    31.6220    26.2050   -33.0920 
  187.8750     2.3190    84.6720    25.0820    22.3410    25.5700    26.2510   -33.2370 
  188.0000     2.3270    80.6670    23.9330    20.5790    18.3710    26.3070   -33.3620 
  188.1250     2.3350    76.5640    24.7010    20.0010    16.9640    26.2410   -33.4530 
  188.2500     2.3380    75.5010    27.9820    21.1890    19.9010    26.1220   -33.5470 
  188.3750     2.3350    75.2650    34.1270    24.5400    26.1840    26.0330   -33.6780 
  188.5000     2.3240    71.6120    43.2440    30.3500    33.6330    25.9950   -33.8540 
  188.6250     2.3080    65.0500    50.1640    38.8440    39.4950    26.0170   -34.0420 
