~V
VERS. 2.00: Ver 2.00
~W
STRT.M 50.0000:
STOP.M 201.0000:
STEP.M 0.1250:
NULL. -999.2500:
UWI. F11102:
~C
DEPT.M :
GR.API :
RML.OHMM :
RI. :
RXO.OHMM :
CALI.CM :
SP.MV :
DEN.GM/CC :
~A
# ...
  185.0000    58.1350     5.2270     4.9590     5.0670    23.0790   -11.1910     2.3870 
  185.1250    62.5210     5.4100     5.0660     5.2670    22.7350   -11.3880     2.3870 
  185.2500    63.6800     5.5710     5.1770     5.4180    22.4470   -11.6010     2.3780 
  185.3750    64.0650     5.6810     5.2700     5.5100    22.6060   -11.7900     2.3670 
  185.5000    65.3270     5.7340     5.3340     5.6290    22.7940   -11.9250     2.3590 
  185.6250    65.8390     5.7510     5.3730     5.7480    22.7870   -11.9450     2.3580 
  185.7500    68.4800     5.7970     5.4250     5.8440    22.7480   -11.9110     2.3640 
  185.8750    76.1070     5.9540     5.5440     6.0020    22.7770   -11.8580     2.3760 
  186.0000    85.9230     6.3100     5.8020     6.3400    22.9860   -11.7800     2.3960 
  186.1250    91.2890     6.9690     6.3070     6.6870    23.0690   -11.6710     2.4250 
  186.2500    88.9560     7.8500     7.0380     7.2230    23.1250   -11.5430     2.4610 
  186.3750    80.7470     8.7800     7.8950     8.3010    23.1940   -11.4380     2.4950 
  186.5000    71.1400     9.4660     8.6500    10.5470    23.1520   -11.3790     2.5190 
  186.6250    67.6030     9.5100     8.9220    12.7080    23.1340   -11.3460     2.5200 
  186.7500    73.3740     8.9540     8.6430    13.0530    23.1390   -11.3340     2.5010 
  186.8750    81.7480     8.0320     7.9460    11.2230    23.1330   -11.3450     2.4700 
  187.0000    84.1390     7.0720     7.0950     8.2430    23.1050   -11.3500     2.4390 
  187.1250    80.1810     6.3630     6.3650     7.6420    23.1390   -11.3540     2.4160 
  187.2500    78.4390     5.9400     5.8540     7.9060    23.1050   -11.3540     2.4040 
  187.3750    81.5820     5.7700     5.5710     7.4130    23.0310   -11.3230     2.4000 
  187.5000    84.9980     5.7980     5.4840     6.3500    22.9860   -11.2910     2.3990 
  187.6250    84.4980     5.9770     5.5620     6.2470    23.0250   -11.3340     2.3960 
  187.7500    81.4460     6.2130     5.7260     7.0040    23.0600   -11.3750     2.3900 
  187.8750    80.0100     6.4450     5.9280     7.8600    23.0720   -11.3690     2.3790 
  188.0000    82.0780     6.6160     6.1120     7.6730    23.0710   -11.3660     2.3670 
  188.1250    84.5070     6.6840     6.2140     7.3160    23.0830   -11.3420     2.3570 
  188.2500    82.8810     6.7150     6.2550     7.1900    23.0700   -11.2820     2.3500 
  188.3750    80.4390     6.8180     6.3170     7.4860    23.0180   -11.2620     2.3460 
  188.5000    79.7940     7.1120     6.5060     7.7550    22.9610   -11.2760     2.3430 
  188.6250    80.4020     7.7280     6.9560     7.0230    22.7290   -11.2600     2.3390 
  188.7500    80.0850     8.5900     7.6470     7.4960    22.3840   -11.2770     2.3330 
  188.8750    79.0660     9.5440     8.4900     9.1460    22.1770   -11.3180     2.3270 
  189.0000    79.3640    10.3710     9.3110    11.5250    22.0980   -11.3640     2.3240 
  189.1250    82.7050    10.8420     9.8810    12.9260    22.2830   -11.4800     2.3270 
  189.2500    86.6100    11.0530    10.1950    13.4330    22.4820   -11.6670     2.3340 
  189.3750    88.1340    11.2110    10.3810    12.8520    22.8620   -11.8530     2.3420 
  189.5000    87.0480    11.5130    10.6150    11.7370    23.1290   -12.0370     2.3490 
  189.6250    86.8880    11.9940    10.9870    12.1170    23.1530   -12.2450     2.3530 
  189.7500    86.7610    12.3720    11.3260    13.7120    23.1570   -12.4070     2.3530 
  189.8750    87.3080    12.3250    11.3700    14.2140    23.1280   -12.5600     2.3500 
  190.0000    86.6720    11.6670    10.9280    13.6120    22.9380   -12.6980     2.3440 
  190.1250    83.4390    10.4850     9.9890    13.6420    22.9170   -12.7420     2.3350 
  190.2500    80.6510     9.2630     8.9230    13.2740    22.8500   -12.7210     2.3260 
  190.3750    80.8700     8.2920     7.9870    10.7620    22.7030   -12.6330     2.3170 
  190.5000    81.7790     7.6730     7.3160     8.0970    22.5300   -12.4810     2.3110 
  190.6250    80.5380     7.4060     6.9670     7.0630    22.4940   -12.3290     2.3060 
  190.7500    80.3330     7.3400     6.8330     6.9780    22.1790   -12.1980     2.3030 
  190.8750    81.6760     7.3870     6.8410     7.1280    23.1590   -12.0590     2.3000 
  191.0000    83.4870     7.4740     6.9140     6.8740    23.7220   -11.9580     2.2980 
  191.1250    83.4870     7.5240     6.9830     6.5820    23.5940   -11.8790     2.2990 
  191.2500    83.4870     7.4970     7.0030     6.5000    23.2170   -11.8090     2.3160 
  191.3750    83.4870     7.3870     6.9590     6.7340    23.3860   -11.8190     2.3330 
  191.5000    83.4870     7.2320     6.8620     7.0580    24.1150   -11.8620     2.3480 
  191.6250    83.4870     7.0930     6.7390     6.6230    24.3450   -11.9230     2.3560 
  191.7500    83.4870     7.0020     6.6210     5.9090    24.0560   -12.0060     2.3570 
  191.8750    83.4870     6.9550     6.5190     5.6570    23.9720   -12.1120     2.3530 
  192.0000    83.4870     6.9220     6.4310     5.8040    24.2340   -12.2080     2.3480 
  192.1250    83.4870     6.8690     6.3470     5.9930    24.8400   -12.3420     2.3430 
  192.2500    83.4870     6.7970     6.2690     5.9330    25.2350   -12.4900     2.3370 
  192.3750    83.4870     6.7360     6.2120     5.8190    24.9940   -12.6200     2.3320 
  192.5000    83.4870     6.7140     6.1950     5.8840    24.8400   -12.7260     2.3290 
  192.6250    83.4870     6.7330     6.2290     6.2160    24.8850   -12.7720     2.3270 
  192.7500    83.4870     6.7570     6.2850     6.4940    25.1250   -12.7790     2.3270 
  192.8750    83.4870     6.7560     6.3310     6.3580    25.0340   -12.7430     2.3250 
  193.0000    83.4870     6.7100     6.3360     6.0310    24.8520   -12.6580     2.3210 
  193.1250    83.4870     6.6230     6.2770     5.7590    24.9210   -12.5270     2.3150 
  193.2500    83.4870     6.5300     6.1810     5.5760    24.9470   -12.3780     2.3070 
  193.3750    83.4870     6.4610     6.0810     5.4260    24.8120   -12.2090     2.3000 
  193.5000    83.4870     6.4350     6.0090     5.3310    24.5540   -12.0430     2.2940 
  193.6250    83.4870     6.4620     5.9950     5.3820    24.5160   -11.9140     2.2900 
  193.7500    83.4870     6.5130     6.0240     5.4910    24.4960   -11.7750     2.2890 
  193.8750    83.4870     6.5650     6.0780     5.5700    24.5300   -11.6510     2.2900 
  194.0000    83.4870     6.5960     6.1260     5.8020    24.6020   -11.5260     2.2940 
  194.1250    83.4870     6.5960     6.1410     6.1070    24.8100   -11.3600     2.2990 
  194.2500    83.4870     6.5770     6.1290     6.3760    24.6700   -11.1610     2.3050 
  194.3750    83.4870     6.5360     6.0840     6.8240    24.3140   -10.9440     2.3110 
  194.5000    83.4870     6.4900     6.0280     7.1080    24.0070   -10.6880     2.3170 
  194.6250    83.4870     6.4500     5.9790     7.3670    23.9870   -10.3960     2.3220 
  194.7500    83.4870     6.4250     5.9450     7.1730    23.9930   -10.1370     2.3270 
  194.8750    83.4870     6.4190     5.9240     7.0270    23.9730    -9.9130     2.3320 
  195.0000    83.4870     6.4250     5.9090     7.0250    24.0170    -9.7230     2.3370 
  195.1250    83.4870     6.4360     5.8970     7.2640    23.9980    -9.5920     2.3420 
  195.2500    83.4870     6.4430     5.8930     7.5120    23.8600    -9.5040     2.3460 
  195.3750    83.4870     6.4370     5.9000     7.5870    23.7560    -9.4850     2.3450 
  195.5000    83.4870     6.4220     5.9130     7.3810    23.6890    -9.5140     2.3410 
  195.6250    83.4870     6.4070     5.9280     7.4440    23.6720    -9.5800     2.3360 
  195.7500    83.4870     6.4010     5.9400     7.5230    23.6920    -9.6460     2.3300 
  195.8750    83.4870     6.4120     5.9400     7.4980    23.6560    -9.7050     2.3270 
  196.0000    83.4870     6.4360     5.9320     7.4780    23.6560    -9.7720     2.3290 
  196.1250    83.4870     6.4630     5.9220     7.3730    23.5810    -9.8440     2.3360 
