~V
VERS. 2.00: Ver 2.00
~W
STRT.M 50.0000:
STOP.M 221.0000:
STEP.M 0.1250:
NULL. -999.2500:
UWI. F11120:
~C
DEPT.M :
DEN.GM/CC :
GR.API :
RML.OHMM :
RI. :
RXO.OHMM :
CALI.CM :
SP.MV :
~A
# ...
  196.2500     2.3950    65.6560     7.3100     6.2990     5.7910    25.0940   -32.3140 
  196.3750     2.4040    71.3980     7.4500     6.4860     5.7520    25.0320   -32.1540 
  196.5000     2.4120    75.4810     7.6030     6.6870     6.0380    25.0200   -32.1970 
  196.6250     2.4090    77.5390     7.7560     6.8690     6.5540    24.9720   -32.4460 
  196.7500     2.3910    78.9930     7.8630     6.9910     6.9800    24.8710   -32.8380 
  196.8750     2.3550    81.0290     7.8590     7.0070     7.1450    24.8380   -33.3350 
  197.0000     2.2980    81.5760     7.7030     6.8810     6.8210    24.9320   -33.8950 
  197.1250     2.1940    76.6620     7.3820     6.6030     6.1390    25.3500   -34.4570 
  197.2500     2.0390    69.5010     6.9930     6.2590     5.4700    26.3900   -34.9480 
  197.3750     1.8880    64.3300     6.6230     5.9200     4.9360    27.6950   -35.3080 
  197.5000     1.8240    61.2000     6.3550     5.6500     4.4360    27.8390   -35.5000 
  197.6250     1.8960    58.7420     6.2640     5.5050     4.4100    26.4660   -35.4790 
  197.7500     2.0460    59.6710     6.3300     5.4810     4.7780    25.5210   -35.2960 
  197.8750     2.2050    66.6470     6.5450     5.5790     5.3150    25.2210   -34.9930 
  198.0000     2.3000    76.6380     6.9260     5.8130     5.9820    25.1960   -34.6280 
  198.1250     2.3160    83.7190     7.5670     6.2490     6.8860    25.1870   -34.2630 
  198.2500     2.3130    86.1120     8.5050     6.9040     7.5570    25.1490   -33.9420 
  198.3750     2.3060    85.6280     9.7450     7.7930     8.2610    25.0780   -33.6930 
  198.5000     2.2950    83.8330    11.1740     8.8620     9.9720    25.0160   -33.5270 
  198.6250     2.2810    82.0800    12.4960     9.9410    12.9980    25.0250   -33.4290 
  198.7500     2.2750    80.2920    13.4530    10.8240    15.0690    25.0910   -33.3730 
  198.8750     2.2790    78.9740    14.0290    11.4390    15.0170    25.1900   -33.3630 
  199.0000     2.2860    79.5610    14.4720    11.9030    13.7270    25.3200   -33.3750 
  199.1250     2.2880    81.6260    15.2710    12.5090    14.1450    25.4710   -33.3690 
  199.2500     2.2880    80.7450    16.6560    13.4760    16.2360    25.5560   -33.3280 
  199.3750     2.2850    76.4230    18.5230    14.8240    19.1330    25.5470   -33.2530 
  199.5000     2.2810    72.2900    20.3820    16.3050    21.9430    25.5080   -33.1640 
  199.6250     2.2820    72.0430    21.2100    17.2280    23.2720    25.4920   -33.1160 
  199.7500     2.2890    72.5470    20.5990    17.1460    22.1750    25.4480   -33.1220 
  199.8750     2.2980    73.0790    18.9040    16.1650    19.1240    25.3800   -33.1590 
  200.0000     2.3010    75.5620    17.0100    14.8600    16.0510    25.3420   -33.2130 
  200.1250     2.2800    79.1630    15.8320    13.9070    14.8890    25.4070   -33.2750 
  200.2500     2.2400    79.6670    15.5510    13.5620    15.5250    25.4610   -33.3370 
  200.3750     2.1940    76.9800    16.0740    13.8540    18.7990    25.5460   -33.3980 
  200.5000     2.1560    74.2950    17.1190    14.6690    24.5740    25.6720   -33.4560 
  200.6250     2.1360    72.8510    18.2550    15.7540    25.7510    25.7010   -33.5040 
  200.7500     2.1330    71.9030    19.1210    16.7490    23.5690    25.5450   -33.5420 
  200.8750     2.1500    70.9860    19.5920    17.4570    23.5670    25.3200   -33.5680 
  201.0000     2.1870    68.3830    19.6240    17.7630    25.3960    25.1330   -33.5800 
  201.1250     2.2360    64.3950    19.0920    17.5030    21.3470    25.0400   -33.5780 
  201.2500     2.2700    62.1840    18.0670    16.7490    20.2820    25.0120   -33.5620 
  201.3750     2.2730    63.2010    16.6430    15.6010    20.0380    25.0580   -33.5280 
  201.5000     2.2550    66.3740    15.0390    14.2540    17.8690    25.1410   -33.4800 
  201.6250     2.2340    69.7440    13.6110    13.0000    13.7920    25.1880   -33.4290 
  201.7500     2.2240    72.3170    12.5420    12.0110    13.7170    25.2060   -33.3850 
  201.8750     2.2280    72.9310    11.8230    11.3120    15.1290    25.1960   -33.3390 
  202.0000     2.2410    73.6490    11.3510    10.8570    16.3980    25.1800   -33.2760 
  202.1250     2.2580    74.8680    11.0420    10.6110    14.3680    25.2110   -33.1850 
  202.2500     2.2780    73.7140    10.8350    10.5090    12.4400    25.2480   -33.0700 
  202.3750     2.3030    71.3460    10.7410    10.5500    11.4910    25.2640   -32.9330 
  202.5000     2.3270    71.2410    10.7740    10.7270    11.6110    25.2580   -32.7660 
  202.6250     2.3480    74.9530    10.8880    10.9950    13.1340    25.2350   -32.5370 
  202.7500     2.3670    78.9090    10.9240    11.1950    13.5420    25.2030   -32.2400 
  202.8750     2.3840    80.8700    10.7370    11.1640    12.4160    25.1850   -31.8780 
  203.0000     2.3940    82.2320    10.2680    10.8030    10.5040    25.1730   -31.4680 
  203.1250     2.3880    82.7910     9.5830    10.1340     9.1830    25.1680   -31.0240 
  203.2500     2.3680    82.3740     8.9060     9.3980     8.4830    25.1560   -30.5670 
  203.3750     2.3480    81.5430     8.3810     8.7520     7.8000    25.1570   -30.1090 
  203.5000     2.3350    81.7450     8.0610     8.2750     6.9200    25.1430   -29.6630 
  203.6250     2.3310    83.1750     7.9120     7.9740     6.8810    25.0970   -29.2510 
  203.7500     2.3310    82.7660     7.7910     7.7450     7.3870    25.0570   -28.8820 
  203.8750     2.3360    81.4290     7.6510     7.5480     7.6840    25.0430   -28.5610 
  204.0000     2.3480    81.2560     7.5690     7.4320     7.2250    25.0360   -28.2890 
  204.1250     2.3610    79.2720     7.8300     7.6000     7.0520    25.0260   -28.0810 
  204.2500     2.3620    74.7030     8.6950     8.2270     7.5720    25.0200   -27.9300 
  204.3750     2.3510    69.0420    10.4070     9.5170    10.3950    25.0260   -27.8380 
  204.5000     2.3320    64.5620    13.0720    11.6330    17.7240    25.0360   -27.8010 
  204.6250     2.3020    61.5630    16.4920    14.6180    25.8180    25.0560   -27.8210 
  204.7500     2.2590    59.3500    19.6430    17.7000    28.1860    25.0900   -27.8790 
  204.8750     2.2120    58.9650    21.5140    19.9030    27.7740    25.0470   -27.9770 
  205.0000     2.1810    59.2410    21.7160    20.6290    24.8490    24.9630   -28.1090 
  205.1250     2.1760    60.6540    20.8890    20.1850    19.9320    24.9470   -28.2640 
  205.2500     2.1880    62.6770    20.3950    19.7470    17.8900    24.9770   -28.4160 
  205.3750     2.2090    63.4890    20.9350    19.9780    18.7990    25.0280   -28.5470 
  205.5000     2.2300    62.5350    22.7930    21.2200    22.9610    25.0900   -28.6560 
  205.6250     2.2440    60.3950    26.1030    23.7580    30.6440    25.1820   -28.7460 
  205.7500     2.2550    59.2930    30.1430    27.1460    38.0860    25.2280   -28.8300 
  205.8750     2.2720    59.8780    33.9490    30.6620    41.2130    25.2220   -28.9080 
  206.0000     2.2840    60.9900    36.3560    33.2620    42.0350    25.2080   -28.9780 
  206.1250     2.2670    60.2130    36.3890    33.8980    41.5100    25.1980   -29.0370 
  206.2500     2.2250    58.9420    34.9540    33.1120    39.5620    25.1990   -29.0910 
  206.3750     2.1790    58.2210    33.0780    31.7170    35.5820    25.1970   -29.1440 
  206.5000     2.1510    58.2940    31.5860    30.4590    30.7050    25.2040   -29.1980 
  206.6250     2.1410    58.4280    31.0170    29.8820    32.2310    25.2650   -29.2470 
  206.7500     2.1380    59.3630    31.1970    29.9380    35.7470    25.2780   -29.2860 
  206.8750     2.1410    62.3960    31.8670    30.4590    35.5430    25.2640   -29.3120 
  207.0000     2.1480    65.0980    32.6780    31.1830    33.0660    25.2530   -29.3220 
  207.1250     2.1510    63.2290    33.0930    31.6720    31.4210    25.2580   -29.3200 
  207.2500     2.1450    59.1930    32.7120    31.5150    31.2720    25.2020   -29.3140 
  207.3750     2.1330    58.2740    31.3830    30.4970    33.1080    25.1730   -29.3040 
