~V
VERS. 2.00: Ver 2.00
~W
STRT.M 55.0000:
STOP.M 211.0000:
STEP.M 0.1250:
NULL. -999.2500:
UWI. F11125:
~C
DEPT.M :
DEN.GM/CC :
GR.API :
RML.OHMM :
RI. :
RXO.OHMM :
CALI.CM :
SP.MV :
~A
# ...
  190.0000     2.3970    48.6450     8.7850     7.6830     7.9020    24.2830   -12.5850 
  190.1250     2.4080    48.9500     8.8140     7.6310     8.4890    24.2440   -12.5290 
  190.2500     2.4170    50.0370     8.9340     7.6640     9.0960    24.2300   -12.5270 
  190.3750     2.4220    53.9370     9.1450     7.7720     9.2920    24.2500   -12.5530 
  190.5000     2.4220    59.9320     9.4220     7.9310     9.4420    24.2910   -12.6280 
  190.6250     2.4200    65.1420     9.7140     8.0990     9.5160    24.3030   -12.7670 
  190.7500     2.4200    69.6360     9.9680     8.2360     9.5620    24.2830   -12.9550 
  190.8750     2.4220    72.5030    10.1690     8.3330     9.6380    24.2610   -13.1560 
  191.0000     2.4240    72.8460    10.3440     8.4050    10.1100    24.2510   -13.3480 
  191.1250     2.4270    75.2460    10.5490     8.4940    10.4940    24.2370   -13.5210 
  191.2500     2.4320    81.3190    10.7930     8.6190    10.6050    24.2100   -13.6750 
  191.3750     2.4380    86.1560    11.0400     8.7690    10.7780    24.1760   -13.7920 
  191.5000     2.4390    87.6050    11.2420     8.9100    11.1760    24.1070   -13.8920 
  191.6250     2.4310    87.1830    11.3760     9.0140    11.0260    23.9220   -14.0370 
  191.7500     2.4190    84.8540    11.5420     9.1160    10.3100    23.6520   -14.1480 
  191.8750     2.4050    83.4200    11.8820     9.2940     9.6430    23.3610   -14.1590 
  192.0000     2.3970    86.4420    12.5100     9.6450     9.6790    23.1220   -14.1300 
  192.1250     2.4030    92.1220    13.4760    10.2650    10.8800    23.0340   -14.0950 
  192.2500     2.4210    94.1370    14.5690    11.0610    13.0810    23.0470   -13.9920 
  192.3750     2.4400    91.6790    15.5040    11.8510    15.8420    23.1320   -13.8950 
  192.5000     2.4490    89.6850    15.9540    12.3740    17.5320    23.3440   -13.8180 
  192.6250     2.4460    89.8600    15.5900    12.3090    16.8380    23.6690   -13.6470 
  192.7500     2.4420    90.5470    14.6260    11.7340    15.9160    23.9630   -13.4730 
  192.8750     2.4360    88.6730    13.3340    10.8190    14.3780    24.1230   -13.3180 
  193.0000     2.4240    82.3640    11.9910     9.7760    12.0590    24.1600   -13.1900 
  193.1250     2.4020    73.6950    10.4120     8.8070    10.1990    24.1450   -13.0600 
  193.2500     2.3820    63.8650     8.2940     8.0130     9.4700    24.1380   -13.0160 
  193.3750     2.3720    56.0710     7.8040     7.4410     8.8980    24.1340   -13.0720 
  193.5000     2.3750    54.1110     7.5670     7.0990     8.3080    24.1120   -13.1470 
  193.6250     2.3840    57.3120     7.6030     7.0070     8.1300    24.1240   -13.3220 
  193.7500     2.3900    60.0760     7.8240     7.0950     8.3980    24.1440   -13.5070 
  193.8750     2.3860    58.6700     8.1720     7.3220     8.8680    24.1710   -13.7420 
  194.0000     2.3740    54.1070     8.5730     7.6440     9.3660    24.1870   -13.9530 
  194.1250     2.3600    50.4730     8.9130     7.9940     9.8030    24.1850   -14.1740 
  194.2500     2.3510    49.2550     9.1130     8.2900    10.1340    24.1700   -14.3490 
  194.3750     2.3450    50.3660     9.1450     8.4720    10.3140    24.1640   -14.4420 
  194.5000     2.3400    51.9250     9.0320     8.5120    10.2650    24.1970   -14.5020 
  194.6250     2.3340    50.5350     8.8300     8.4020     9.7230    24.2360   -14.4930 
  194.7500     2.3310    47.0270     8.6360     8.2260     9.5750    24.2520   -14.4650 
  194.8750     2.3350    44.8380     8.5050     8.0640     9.2910    24.2320   -14.4060 
  195.0000     2.3410    45.9930     8.4600     7.9730     8.9940    24.2370   -14.3310 
  195.1250     2.3470    48.9890     8.5000     7.9850     9.0200    24.2540   -14.1950 
  195.2500     2.3520    52.6360     8.5640     8.0460     9.4740    24.2610   -14.0320 
  195.3750     2.3580    56.9410     8.5900     8.0950     9.7150    24.2610   -13.8180 
  195.5000     2.3650    59.6750     8.5220     8.0710     8.6580    24.2600   -13.5680 
  195.6250     2.3740    58.8200     8.3100     7.9230     7.3280    24.2530   -13.2690 
  195.7500     2.3830    57.4290     7.9920     7.6800     7.2830    24.2180   -12.9360 
  195.8750     2.3850    57.6470     7.6130     7.3810     8.1910    24.1320   -12.5990 
  196.0000     2.3790    58.9000     7.2290     7.0630     8.8310    24.0260   -12.2560 
  196.1250     2.3630    61.0340     6.9080     6.7670     8.3240    23.9210   -11.9250 
  196.2500     2.3440    64.7260     6.6740     6.5140     7.5150    23.9030   -11.6150 
  196.3750     2.3300    68.8510     6.5340     6.3240     6.9990    24.0050   -11.3510 
  196.5000     2.3320    72.2990     6.4810     6.2100     7.1950    24.1100   -11.1450 
  196.6250     2.3520    74.2270     6.4990     6.1870     7.6230    24.0680   -11.0080 
  196.7500     2.3730    75.1510     6.5300     6.2130     7.9660    24.0090   -10.9530 
  196.8750     2.3830    76.3750     6.5300     6.2440     8.2600    24.0360   -10.9390 
  197.0000     2.3860    77.6530     6.4730     6.2360     8.6780    24.1000   -10.9620 
  197.1250     2.3910    76.8560     6.3760     6.1670     8.3020    24.1420   -11.0240 
  197.2500     2.3980    74.6640     6.2970     6.0760     8.0060    24.1640   -11.1180 
  197.3750     2.4030    73.5780     6.2780     6.0070     7.8740    24.1680   -11.2610 
  197.5000     2.4040    75.0590     6.3390     6.0000     7.8060    24.1570   -11.4200 
  197.6250     2.4050    78.1570     6.4840     6.0890     7.9450    24.1390   -11.6130 
  197.7500     2.4030    80.3710     6.6730     6.2530     8.3450    24.1500   -11.7680 
  197.8750     2.4000    79.6140     6.8760     6.4680     8.8070    24.1750   -11.9220 
  198.0000     2.3980    77.3220     7.0640     6.6940     9.2330    24.2080   -12.1030 
  198.1250     2.4000    78.8120     7.1980     6.8800     9.6330    24.2710   -12.2340 
  198.2500     2.4030    80.7170     7.2670     6.9940     9.7570    24.3640   -12.3720 
  198.3750     2.4020    78.2070     7.2630     7.0290     9.4890    24.4520   -12.4950 
  198.5000     2.3930    74.7940     7.1930     6.9970     9.2220    24.5010   -12.5790 
  198.6250     2.3800    77.5580     7.0740     6.9210     9.3140    24.5030   -12.5730 
  198.7500     2.3630    82.6670     6.9560     6.8370     9.3880    24.4790   -12.5490 
  198.8750     2.3480    82.9070     6.8890     6.7750     9.3770    24.4520   -12.5200 
  199.0000     2.3460    78.5460     6.9280     6.7750     9.2320    24.4230   -12.4880 
  199.1250     2.3610    76.4050     7.1510     6.9150     9.2760    24.4480   -12.4940 
  199.2500     2.3780    78.4670     7.5440     7.2170     9.5390    24.5410   -12.4820 
  199.3750     2.3780    80.9100     8.0550     7.6620     9.9310    24.6730   -12.4470 
  199.5000     2.3610    79.8920     8.5590     8.1520    10.4650    24.7810   -12.4330 
  199.6250     2.3440    79.4080     8.8280     8.4830    11.0830    24.7710   -12.4660 
  199.7500     2.3340    82.7230     8.7590     8.5210    11.0000    24.6740   -12.5150 
  199.8750     2.3260    84.4360     8.3870     8.2570     9.9330    24.5110   -12.5590 
  200.0000     2.3140    81.3860     7.8820     7.8130     8.3120    24.3810   -12.5790 
  200.1250     2.3050    79.4820     7.5200     7.4070     8.0870    24.4370   -12.6390 
  200.2500     2.3100    81.3910     7.4830     7.2230     8.6560    24.4390   -12.7900 
  200.3750     2.3280    81.8940     7.8800     7.3790    10.0660    24.4060   -13.0550 
  200.5000     2.3530    79.1600     8.7590     7.9520    11.8480    24.3870   -13.4030 
  200.6250     2.3700    78.8460    10.1670     9.0430    13.9300    24.4380   -13.7730 
  200.7500     2.3740    81.1390    11.8650    10.5060    16.3170    24.4560   -14.1660 
  200.8750     2.3660    81.7000    13.5810    12.1600    19.0270    24.3900   -14.5830 
  201.0000     2.3540    81.6370    14.9780    13.7090    20.8880    24.2280   -14.9720 
  201.1250     2.3540    81.6370    15.6280    14.6950    20.0520    24.1810   -15.2660 
