~V
VERS. 2.00: Ver 2.00
~W
STRT.M 50.0000:
STOP.M 209.0000:
STEP.M 0.1250:
NULL. -999.2500:
UWI. F11109:
~C
DEPT.M :
GR.API :
RML.OHMM :
RI. :
RXO.OHMM :
CALI.CM :
SP.MV :
DEN.GM/CC :
~A
# ...
  162.5000    59.2990    88.5270    80.3390    46.3210    25.8300   -29.1330     2.3580 
  162.6250    57.8910   117.9340   108.8990    85.2110    25.8590   -29.1490     2.2990 
  162.7500    58.7490   154.0460   145.1790   133.8400    25.8640   -29.1850     2.2410 
  162.8750    58.8610   186.9730   178.7250   156.7380    25.8600   -29.2160     2.1930 
  163.0000    57.2640   203.8210   195.9140   151.6820    25.8500   -29.2040     2.1590 
  163.1250    56.7610   198.0550   189.1850   144.2990    25.8270   -29.1270     2.1500 
  163.2500    58.4170   184.2300   172.8730   170.4000    25.7970   -28.9970     2.1630 
  163.3750    60.7080   172.9320   158.1750   195.4900    25.7680   -28.8380     2.1920 
  163.5000    62.0600   168.6670   150.4100   168.4370    25.7450   -28.6660     2.2230 
  163.6250    62.6440   172.5360   151.1660   164.3780    25.7350   -28.4870     2.2450 
  163.7500    63.7180   181.4700   157.6190   190.7820    25.7310   -28.2860     2.2550 
  163.8750    63.5100   193.1870   167.8650   241.2620    25.7310   -28.0590     2.2600 
  164.0000    61.7320   205.4210   179.9070   265.2440    25.7310   -27.8110     2.2600 
  164.1250    59.0390   216.4150   192.0820   237.8190    25.7290   -27.5360     2.2550 
  164.2500    56.0340   226.2290   203.8970   215.1680    25.7210   -27.2180     2.2430 
  164.3750    54.7270   235.3290   215.6880   226.7410    25.7000   -26.8760     2.2270 
  164.5000    57.2040   243.0470   227.1110   241.8790    25.6620   -26.5260     2.2150 
  164.6250    63.0470   242.4910   232.4260   258.9610    25.6090   -26.1810     2.2150 
  164.7500    65.0320   223.4690   220.9920   267.9010    25.5540   -25.8720     2.2240 
  164.8750    62.2290   181.2140   185.1110   260.7860    25.5090   -25.6160     2.2410 
  165.0000    60.9780   126.5580   132.4900   221.8210    25.4840   -25.4300     2.2680 
  165.1250    63.8560    80.3250    84.8380   146.9110    25.4870   -25.3130     2.3110 
  165.2500    68.1870    49.5740    52.6550    73.1520    25.5070   -25.2450     2.3660 
  165.3750    73.9840    32.0960    34.4530    28.7910    25.5370   -25.2060     2.4200 
  165.5000    79.7830    23.6630    25.7330    13.5700    25.5660   -25.1990     2.4560 
  165.6250    80.8160    21.3700    23.2450    13.3430    25.5850   -25.2470     2.4580 
  165.7500    77.8300    22.0900    23.8190    18.3080    25.5940   -25.3510     2.4420 
  165.8750    75.7180    24.6090    26.4640    24.9670    25.5930   -25.5040     2.4210 
  166.0000    75.5210    27.7250    30.1560    27.1210    25.5830   -25.6840     2.4030 
  166.1250    75.6440    29.8510    33.1240    27.9720    25.5590   -25.8680     2.3910 
  166.2500    76.5890    30.2900    34.1140    26.6870    25.5240   -26.0520     2.3820 
  166.3750    77.8500    29.3470    33.2040    24.8630    25.4870   -26.2310     2.3780 
  166.5000    77.6870    27.9690    31.4230    21.5970    25.4610   -26.4110     2.3780 
  166.6250    74.8860    27.3500    30.0840    21.5400    25.4620   -26.5750     2.3840 
  166.7500    71.7430    28.2380    30.0010    23.2010    25.4880   -26.7240     2.3880 
  166.8750    69.8010    31.4650    31.8680    25.9150    25.5240   -26.8670     2.3840 
  167.0000    68.3750    38.2440    36.6970    29.1690    25.5520   -27.0200     2.3680 
  167.1250    66.2820    51.3780    47.1480    39.5380    25.5380   -27.1970     2.3400 
  167.2500    63.4880    72.0220    64.7760    64.7170    25.4770   -27.3840     2.3090 
  167.3750    59.3730   101.4120    91.1870   115.3890    25.3800   -27.5780     2.2810 
  167.5000    54.8160   138.8920   125.9320   182.8690    25.2800   -27.7600     2.2610 
  167.6250    53.5890   179.5040   164.1680   172.3750    25.2200   -27.9050     2.2480 
  167.7500    55.0050   213.7360   196.7120   151.3780    25.2120   -28.0030     2.2390 
  167.8750    56.8670   235.8530   218.2170   180.0910    25.2430   -28.0640     2.2310 
  168.0000    58.0480   245.3310   227.9880   245.2630    25.2910   -28.1070     2.2230 
  168.1250    58.5180   242.8910   226.3380   330.2880    25.3410   -28.1480     2.2190 
  168.2500    59.0210   232.3030   216.7180   344.8690    25.3930   -28.1980     2.2190 
  168.3750    60.0830   215.4180   200.8110   296.1820    25.4520   -28.2690     2.2240 
  168.5000    61.6370   195.0970   181.2710   219.8350    25.5120   -28.3830     2.2310 
  168.6250    61.5270   175.6960   162.2800   183.8240    25.5580   -28.5490     2.2400 
  168.7500    60.9400   160.6060   147.3900   183.5390    25.5850   -28.7470     2.2500 
  168.8750    62.0490   151.2140   138.1440   190.6070    25.5950   -28.9320     2.2570 
  169.0000    63.9310   147.5790   134.7330   145.4610    25.5970   -29.0660     2.2580 
  169.1250    63.0660   149.0540   136.7750   116.7960    25.5970   -29.1260     2.2500 
  169.2500    60.0010   151.6870   140.4850   146.1860    25.5940   -29.1360     2.2420 
  169.3750    58.0040   151.2990   141.7220   226.0830    25.5820   -29.1150     2.2460 
  169.5000    59.0590   144.3280   136.7440   254.9290    25.5510   -29.0660     2.2670 
  169.6250    61.4530   129.5950   123.8500   190.6220    25.5000   -28.9730     2.3040 
  169.7500    63.4450   112.3820   107.8210   136.7890    25.4400   -28.8430     2.3390 
  169.8750    65.6680    97.1960    93.0520    92.2440    25.3870   -28.7050     2.3590 
  170.0000    68.3010    86.7580    82.4890    65.0090    25.3500   -28.5900     2.3580 
  170.1250    69.0100    82.2140    77.6170    61.5800    25.3350   -28.5130     2.3410 
  170.2500    67.8600    81.3570    76.4750    67.7460    25.3310   -28.4390     2.3240 
  170.3750    66.2110    82.5930    77.5480    73.0110    25.3310   -28.3510     2.3140 
  170.5000    64.7010    84.5240    79.4700    75.2260    25.3310   -28.2450     2.3130 
  170.6250    63.3880    86.1500    81.1920    67.9050    25.3310   -28.1380     2.3120 
  170.7500    61.4960    87.3330    82.4220    58.3830    25.3310   -28.0310     2.3080 
  170.8750    58.7670    88.3970    83.3820    50.4940    25.3310   -27.9200     2.3050 
  171.0000    58.3940    89.6640    84.3830    48.1170    25.3310   -27.8120     2.3070 
  171.1250    63.3880    91.0620    85.4130    53.3570    25.3330   -27.7430     2.3160 
  171.2500    69.1390    92.0540    86.0400    57.1350    25.3430   -27.7350     2.3270 
  171.3750    71.7360    92.1830    85.8560    56.1950    25.3700   -27.7890     2.3330 
  171.5000    71.6960    91.3090    84.7430    52.0940    25.4120   -27.8890     2.3340 
  171.6250    71.8690    89.7150    82.9510    52.1130    25.4570   -28.0320     2.3330 
  171.7500    70.8950    88.2580    81.2580    53.6280    25.4890   -28.1780     2.3310 
  171.8750    67.5180    87.6400    80.3070    54.9260    25.4990   -28.3060     2.3270 
  172.0000    64.3080    88.3810    80.5960    58.0830    25.4900   -28.4000     2.3200 
  172.1250    64.5500    91.0470    82.6870    63.5630    25.4760   -28.4800     2.3130 
  172.2500    66.9040    95.3360    86.3690    72.5700    25.4670   -28.5660     2.3090 
  172.3750    68.5740   100.7940    91.3230    81.8470    25.4640   -28.6560     2.3080 
  172.5000    69.1680   106.3800    96.6890    93.6460    25.4640   -28.7420     2.3080 
  172.6250    69.0700   109.8720   100.5170   104.0370    25.4650   -28.7940     2.3090 
  172.7500    68.2510   109.5920   101.0980   110.7390    25.4700   -28.8320     2.3120 
  172.8750    65.6720   104.9470    97.6300   113.9800    25.4960   -28.8760     2.3200 
  173.0000    62.4400    97.1810    90.9580   105.8270    25.5560   -28.9090     2.3310 
  173.1250    62.6080    89.2320    83.5750    85.8700    25.6590   -28.9160     2.3400 
  173.2500    66.0860    83.8180    78.1610    70.6980    25.7750   -28.8820     2.3420 
  173.3750    67.9370    82.1930    76.0450    62.0700    25.8690   -28.8270     2.3340 
  173.5000    65.6850    84.6890    77.7300    62.0540    25.9070   -28.7710     2.3200 
  173.6250    63.2140    91.2950    83.4860    82.8060    25.8650   -28.7380     2.3050 
