~V
VERS. 2.00: Ver 2.00
~W
STRT.M 55.0000:
STOP.M 211.0000:
STEP.M 0.1250:
NULL. -999.2500:
UWI. F11125:
~C
DEPT.M :
DEN.GM/CC :
GR.API :
RML.OHMM :
RI. :
RXO.OHMM :
CALI.CM :
SP.MV :
~A
# ...
  156.2500     2.2800    78.9870     9.0090     9.0340     8.5250    23.5230    -7.4160 
  156.3750     2.2770    78.8310     9.0120     8.7860     9.0730    23.2560    -7.3640 
  156.5000     2.2740    80.0760     9.4100     8.9810     9.7440    23.2000    -7.3120 
  156.6250     2.2690    81.1130    10.0240     9.5120    10.1840    23.4890    -7.2560 
  156.7500     2.2620    78.7350    10.5960    10.1270    10.6230    23.8510    -7.1780 
  156.8750     2.2530    74.7800    10.9390    10.6330    11.6040    24.1040    -7.0820 
  157.0000     2.2450    74.9270    10.9120    10.8700    12.4030    24.1970    -6.9700 
  157.1250     2.2440    78.1830    10.4050    10.6700    11.7070    24.1850    -6.8240 
  157.2500     2.2530    78.0030     9.6050    10.1290    10.1990    24.1560    -6.7200 
  157.3750     2.2670    73.6880     8.7260     9.3970     9.1500    24.1370    -6.6440 
  157.5000     2.2790    72.1420     7.9920     8.6670     8.4500    24.1320    -6.6220 
  157.6250     2.2860    75.7160     7.6240     8.1500     7.8240    24.1400    -6.6500 
  157.7500     2.2900    77.0320     7.6100     7.9170     7.5730    24.1470    -6.7200 
  157.8750     2.2900    75.3550     7.8700     7.9620     7.8240    24.1530    -6.8500 
  158.0000     2.2870    74.7520     8.2600     8.2060     8.4270    24.1650    -7.0190 
  158.1250     2.2840    79.3350     8.6090     8.5120     9.4750    24.1550    -7.2400 
  158.2500     2.2840    82.8900     8.8510     8.7570     9.9050    24.1300    -7.4580 
  158.3750     2.2880    81.4530     9.0540     8.9410     9.4800    24.0650    -7.6950 
  158.5000     2.2940    78.9880     9.3640     9.1570     8.5930    23.9750    -7.9220 
  158.6250     2.2970    79.0160     9.9970     9.5860     9.1660    23.9260    -8.1620 
  158.7500     2.2950    78.6740    11.0310    10.3350    11.3400    23.9080    -8.4140 
  158.8750     2.2860    74.7760    12.5210    11.4910    14.6160    23.8840    -8.6650 
  159.0000     2.2760    69.6860    14.5040    13.1220    16.6940    23.8290    -8.8990 
  159.1250     2.2710    67.0190    17.1670    15.4130    17.6890    23.8160    -9.1570 
  159.2500     2.2690    65.9850    20.4970    18.3980    19.6940    23.8700    -9.4180 
  159.3750     2.2640    64.6110    24.3210    22.0700    26.2410    23.9730    -9.7110 
  159.5000     2.2560    62.9050    27.9750    25.9960    37.1250    24.0270    -9.9910 
  159.6250     2.2550    63.1270    29.8380    28.7200    42.9490    24.0290   -10.2740 
  159.7500     2.2570    66.5630    29.0700    29.0000    41.5160    24.0030   -10.5530 
  159.8750     2.2610    72.8000    26.0700    26.7820    35.7860    23.9090   -10.8500 
  160.0000     2.2680    77.0470    22.4210    23.3860    26.6470    23.7480   -11.1880 
  160.1250     2.2770    74.8750    20.0710    20.6660    19.2040    23.6420   -11.5400 
  160.2500     2.2810    71.7640    19.7040    19.4970    17.7340    23.6820   -11.9350 
  160.3750     2.2760    73.8090    21.6040    20.2170    20.7190    23.8040   -12.3350 
  160.5000     2.2650    77.5850    26.1000    23.2130    25.6830    23.9860   -12.8170 
  160.6250     2.2530    74.2850    34.3460    29.8570    31.9510    24.2530   -13.3480 
  160.7500     2.2390    67.6890    51.6680    40.7400    46.4620    24.5690   -13.9220 
  160.8750     2.2230    64.0670    75.0880    56.3720    81.6270    24.7900   -14.5280 
  161.0000     2.2120    65.8190    98.1960    75.9260   123.4420    24.8140   -15.1670 
  161.1250     2.2130    68.3860   121.7720    96.4850   133.9300    24.6480   -15.8140 
  161.2500     2.2160    68.1880   141.3920   114.0340   130.3700    24.4760   -16.4640 
  161.3750     2.2170    65.3790   155.1340   126.6730   134.6910    24.4220   -17.1140 
  161.5000     2.2160    60.9900   164.2860   135.0590   141.9300    24.4700   -17.7180 
  161.6250     2.2170    57.8740   171.6810   141.3890   155.9090    24.5180   -18.2780 
  161.7500     2.2160    57.8420   179.0490   147.6820   159.5910    24.5380   -18.8020 
  161.8750     2.2080    59.7510   185.8180   153.9610   155.9330    24.5570   -19.2840 
  162.0000     2.1940    61.5850   190.7020   159.4120   161.1480    24.5890   -19.7200 
  162.1250     2.1790    63.2140   191.5190   162.2900   172.2660    24.6290   -20.1100 
  162.2500     2.1720    66.7560   187.7040   161.6630   180.6790    24.6580   -20.4380 
  162.3750     2.1760    68.2870   179.3680   157.1560   174.9420    24.6590   -20.7110 
  162.5000     2.1860    65.1040   167.8830   149.4700   161.4700    24.6560   -20.9470 
  162.6250     2.1940    64.0760   155.6050   140.2140   140.8750    24.6020   -21.1320 
  162.7500     2.1990    67.3910   144.9190   131.6330   129.4890    24.5770   -21.2680 
  162.8750     2.2040    70.4500   137.0250   125.0010   122.7140    24.5620   -21.3440 
  163.0000     2.2100    68.8740   132.3590   120.9490   117.9000    24.5590   -21.3740 
  163.1250     2.2140    64.5130   131.2740   120.0130   114.2930    24.5670   -21.3610 
  163.2500     2.2180    62.5150   132.7330   121.4250   112.0990    24.5680   -21.3070 
  163.3750     2.2200    63.8660   136.0870   124.6650   112.7280    24.5620   -21.2130 
  163.5000     2.2200    67.6380   140.5000   129.0420   114.2930    24.5520   -21.1000 
  163.6250     2.2170    68.3890   144.7220   133.5200   121.9710    24.5550   -20.9560 
  163.7500     2.2100    64.7610   147.5560   136.8990   131.9830    24.5840   -20.8370 
  163.8750     2.2050    61.3590   148.5330   138.4830   140.5420    24.6430   -20.7270 
  164.0000     2.2060    61.8100   148.2310   138.4000   142.5820    24.6770   -20.6420 
  164.1250     2.2150    65.2190   148.5750   137.9700   140.0970    24.6150   -20.5890 
  164.2500     2.2250    66.3880   151.6600   139.3340   131.4580    24.5590   -20.5750 
  164.3750     2.2280    65.1140   158.9760   144.2560   123.7670    24.5410   -20.6250 
  164.5000     2.2230    64.4430   171.2180   153.8140   118.9260    24.5460   -20.6970 
  164.6250     2.2090    64.6050   188.4370   168.4190   130.2080    24.5600   -20.8530 
  164.7500     2.1950    63.8760   207.2820   185.0560   162.7810    24.5900   -21.0170 
  164.8750     2.1890    61.8790   223.8590   200.1870   210.9300    24.6030   -21.2050 
  165.0000     2.1930    60.6140   234.6560   210.4110   251.4800    24.5990   -21.4230 
  165.1250     2.2070    60.8440   238.7860   214.1820   244.2640    24.5850   -21.6350 
  165.2500     2.2230    61.4070   241.5800   215.8220   211.4170    24.6410   -21.8630 
  165.3750     2.2420    62.0010   247.1730   219.2540   177.5550    24.7420   -22.0810 
  165.5000     2.2600    61.9340   256.9810   226.4320   150.9010    24.8090   -22.2960 
  165.6250     2.2610    60.0820   267.8960   235.8510   144.4940    24.7820   -22.4530 
  165.7500     2.2390    57.6920   272.2630   241.5920   147.6420    24.7460   -22.5920 
  165.8750     2.2020    56.4450   263.8140   238.0530   133.2920    24.7350   -22.6990 
  166.0000     2.1640    56.3900   242.2310   223.2400   110.1610    24.7430   -22.7600 
  166.1250     2.1340    58.5260   214.5270   200.7650    88.8060    24.5780   -22.7480 
  166.2500     2.1150    63.5210   190.0740   179.2040    89.7170    24.2660   -22.6810 
  166.3750     2.1100    67.8630   171.3700   162.3040    92.0110    23.8780   -22.5590 
  166.5000     2.1220    66.4900   156.6160   149.7760    93.4410    23.6140   -22.3630 
  166.6250     2.1440    58.8710   143.2260   138.4360    92.9920    23.6760   -22.1450 
  166.7500     2.1670    53.3000   130.2050   125.2430    91.1890    23.8960   -21.8410 
  166.8750     2.1870    53.5430   112.1290   110.3770    88.2230    24.1830   -21.5100 
  167.0000     2.2080    56.8050    96.0140    95.9110    83.3740    24.2740   -21.0940 
  167.1250     2.2320    58.9380    84.4450    84.5750    64.4330    24.0630   -20.7440 
  167.2500     2.2540    60.6390    76.9260    76.7650    58.9780    23.8420   -20.3920 
  167.3750     2.2660    63.9260    72.6220    72.0810    54.3560    23.8110   -20.0760 
