~V
VERS. 2.00: Ver 2.00
~W
STRT.M 53.0000:
STOP.M 252.0000:
STEP.M 0.1250:
NULL. -999.2500:
UWI. F11141:
~C
DEPT.M :
SP.MV :
DEN.GM/CC :
GR.API :
RML.OHMM :
RI. :
RXO.OHMM :
CALI.CM :
~A
# ...
  165.5000   -20.6180     2.2380    74.3030    75.5050    65.8880    64.8770    23.5050 
  165.6250   -21.9650     2.2290    71.6350    95.0280    85.4810    62.7500    23.4580 
  165.7500   -23.2850     2.2220    70.7310   112.4920   103.6010    64.3110    23.4350 
  165.8750   -24.4670     2.2130    69.9400   129.5220   121.2060    70.0770    23.4460 
  166.0000   -25.5610     2.2040    69.7750   148.8270   140.3550    79.4850    23.4540 
  166.1250   -26.5530     2.1950    70.1870   170.8720   161.2550    92.8620    23.4350 
  166.2500   -27.3770     2.1880    68.7440   189.7600   179.0830   108.0330    23.4240 
  166.3750   -27.9630     2.1860    65.7840   197.8190   187.5660   116.0820    23.4480 
  166.5000   -28.3570     2.1890    64.0310   192.1930   183.8050   116.7020    23.4870 
  166.6250   -28.5930     2.1950    65.3780   178.8340   171.4870   115.5080    23.5260 
  166.7500   -28.7540     2.1990    66.8470   168.5070   160.4460   101.3970    23.5550 
  166.8750   -28.8680     2.2000    66.5760   166.5900   156.7240    85.1450    23.6320 
  167.0000   -28.9370     2.1940    65.1750   175.6470   163.7310    80.5000    23.8010 
  167.1250   -28.9790     2.1820    64.5910   197.7590   183.6280   136.9200    24.0190 
  167.2500   -29.0160     2.1690    64.3310   228.1290   211.2360   203.6910    24.1780 
  167.3750   -29.0940     2.1610    62.8670   260.1560   240.3490   225.0410    24.2510 
  167.5000   -29.2360     2.1590    61.2820   284.6080   263.2590   192.4870    24.2740 
  167.6250   -29.4450     2.1640    62.7060   293.8610   273.5090   170.2980    24.2700 
  167.7500   -29.6510     2.1690    65.7050   294.7570   276.0310   173.3890    24.2730 
  167.8750   -29.7970     2.1730    66.2210   293.7470   276.1370   173.4080    24.2450 
  168.0000   -29.8950     2.1760    64.7460   291.9900   275.4380   157.6600    24.2000 
  168.1250   -30.0920     2.1790    64.0000   284.8430   270.3220   134.7580    24.1540 
  168.2500   -30.3740     2.1830    64.1110   271.2620   259.3040   140.9020    24.1520 
  168.3750   -30.5970     2.1910    64.9320   254.3370   244.3970   160.8170    24.2050 
  168.5000   -30.6820     2.2000    65.9920   239.1120   230.0360   153.7140    24.2880 
  168.6250   -30.7800     2.2050    65.2620   230.4040   221.3090   129.9770    24.3640 
  168.7500   -30.9870     2.2030    63.0560   227.4080   218.3630   118.1580    24.4240 
  168.8750   -31.2220     2.1920    63.1070   227.2230   218.8720   138.4250    24.4510 
  169.0000   -31.3660     2.1780    65.4000   225.6790   218.9580   182.7890    24.4210 
  169.1250   -31.3950     2.1710    66.3450   221.6380   214.6760   190.3250    24.3220 
  169.2500   -31.5310     2.1740    66.2420   219.1460   206.7110   173.0550    24.1400 
  169.3750   -31.7630     2.1840    67.0700   207.9730   197.5840   119.1830    23.8830 
  169.5000   -31.9700     2.1940    67.3700   199.5900   190.1750    90.5700    23.6500 
  169.6250   -32.1000     2.1970    65.8970   195.7080   186.4040    90.5480    23.5050 
  169.7500   -32.2810     2.1950    67.9440   193.2340   184.0260    94.9620    23.4320 
  169.8750   -32.4580     2.1930    72.5080   188.0110   179.5360    96.3160    23.4030 
  170.0000   -32.6290     2.1920    75.8660   177.0480   170.0590    88.7900    23.3860 
  170.1250   -32.8670     2.1950    75.6400   161.2910   155.5720    78.7080    23.3590 
  170.2500   -33.0080     2.1990    76.8210   146.8810   141.2530    70.4650    23.3380 
  170.3750   -33.0380     2.2030    79.8960   138.5520   131.7560    57.1600    23.2960 
  170.5000   -33.0140     2.2060    78.5050   139.5210   130.7130    49.6080    23.2150 
  170.6250   -32.9990     2.2050    70.7800   154.0260   142.6340    51.0920    23.1580 
  170.7500   -32.9380     2.2010    64.2090   181.8410   167.1800    59.9680    23.1490 
  170.8750   -32.8810     2.1900    62.5950   223.0550   203.7830    75.4350    23.1920 
  171.0000   -32.8120     2.1740    63.1430   273.1770   247.7020    89.3020    23.2940 
  171.1250   -32.6280     2.1570    62.7700   315.1330   284.6340    86.6730    23.5320 
  171.2500   -32.5040     2.1450    62.8340   330.6840   300.2530    78.1220    23.9290 
  171.3750   -32.4680     2.1450    63.7430   317.2930   291.2720    80.4640    24.3440 
  171.5000   -32.4890     2.1550    64.0990   287.3250   266.1000    93.3870    24.5810 
  171.6250   -32.5000     2.1710    62.9970   255.0770   236.6130   100.4320    24.6130 
  171.7500   -32.5100     2.1840    62.2630   227.5830   210.5490   108.7870    24.5900 
  171.8750   -32.5900     2.1900    62.1510   205.8720   189.5870   123.8810    24.5890 
  172.0000   -32.7570     2.1930    62.2790   189.3650   173.5340   135.0240    24.6280 
  172.1250   -32.8340     2.1980    61.8180   177.6780   162.1840   142.4070    24.7240 
  172.2500   -32.7570     2.2080    61.5620   169.5210   154.2540   143.1060    24.8060 
  172.3750   -32.7640     2.2180    62.3920   164.9970   149.7370   144.4870    24.8310 
  172.5000   -32.8310     2.2260    63.0910   164.5470   148.9620   151.4160    24.8010 
  172.6250   -32.7510     2.2250    63.6470   169.2300   152.8720   154.8010    24.7770 
  172.7500   -32.6140     2.2180    65.3560   177.7280   160.3420   156.0920    24.7770 
  172.8750   -32.5500     2.2080    67.2400   188.0010   169.7020   173.8880    24.7980 
  173.0000   -32.4830     2.2000    67.7500   196.4990   177.9720   201.0560    24.8370 
  173.1250   -32.3530     2.1940    65.2740   198.1860   180.7690   198.5730    24.8840 
  173.2500   -32.2970     2.1920    63.2420   192.9810   177.5350   181.6030    24.9230 
  173.3750   -32.1850     2.1940    63.3290   183.1380   169.7890   156.2160    24.9290 
  173.5000   -31.9640     2.1990    64.6620   171.8270   160.1360   134.6690    24.8290 
  173.6250   -31.7500     2.2060    65.2720   161.4270   150.8360   119.1470    24.6810 
  173.7500   -31.4760     2.2140    65.4380   152.1370   142.4800   110.3320    24.5930 
  173.8750   -31.1230     2.2200    65.4610   143.4790   134.7750   100.0470    24.5680 
  174.0000   -30.7250     2.2230    64.9510   135.3440   127.5690    88.6190    24.5460 
  174.1250   -30.3560     2.2240    65.4350   128.5480   121.4630    83.2330    24.4540 
  174.2500   -29.9680     2.2220    67.9430   123.5970   116.8790    79.0400    24.3130 
  174.3750   -29.6450     2.2180    70.2110   120.6200   113.9780    74.7230    24.2230 
  174.5000   -29.4740     2.2120    68.3760   119.2740   112.5520    72.2970    24.1300 
  174.6250   -29.3520     2.2060    64.4560   118.9100   112.1450    78.6860    23.9560 
  174.7500   -29.2360     2.2030    63.9070   118.5460   111.8520    88.4870    23.8420 
  174.8750   -29.1470     2.2050    66.2610   117.7440   111.1740    93.9320    23.9460 
  175.0000   -29.1320     2.2120    67.4170   116.5900   110.0760    92.5970    24.1720 
  175.1250   -29.1670     2.2220    66.0270   115.9300   109.2200    93.6500    24.3080 
  175.2500   -29.1380     2.2290    64.3970   116.5890   109.4150    97.0740    24.3900 
  175.3750   -29.1370     2.2300    62.9220   118.9190   111.0730    94.6460    24.4520 
  175.5000   -29.3030     2.2230    62.8190   122.6640   114.0740    89.7570    24.4790 
  175.6250   -29.5520     2.2070    64.6030   126.8870   117.7410    94.5520    24.4900 
  175.7500   -29.7850     2.1890    65.9090   130.1220   120.8300   112.6230    24.4870 
  175.8750   -30.0370     2.1720    64.9990   131.3260   122.3760   122.5950    24.4020 
  176.0000   -30.3950     2.1630    63.8500   130.1660   121.9010   105.1690    24.1900 
  176.1250   -30.8790     2.1650    64.3750   127.1600   119.5570    91.6470    23.8330 
  176.2500   -31.3600     2.1750    64.5350   124.1220   116.8640    91.3310    23.5440 
  176.3750   -31.7490     2.1880    64.0740   122.3800   115.0870   104.8700    23.3820 
  176.5000   -31.9640     2.1980    63.7880   122.5650   114.9720   118.3170    23.4300 
  176.6250   -32.1120     2.2000    63.8580   124.4340   116.4940   112.6160    23.4170 
