~V
VERS. 2.00: Ver 2.00
~W
STRT.M 50.0000:
STOP.M 265.0000:
STEP.M 0.1250:
NULL. -999.2500:
UWI. F11185:
~C
DEPT.M :
SP.MV :
GR.API :
RI. :
RML.OHMM :
RXO.OHMM :
DEN.GM/CC :
~A
# ...
  114.3750  -116.3380    59.2810     5.5770     6.1000     5.8950     2.1250 
  114.5000  -116.3640    60.4770     5.5620     6.0850     5.8850     2.1240 
  114.6250  -116.3690    57.5960     5.5350     6.0560     5.8430     2.1180 
  114.7500  -116.3500    55.4460     5.4620     5.9810     5.7740     2.1120 
  114.8750  -116.3560    57.0050     5.3670     5.8820     5.6680     2.1150 
  115.0000  -116.4100    60.0690     5.2780     5.7890     5.4800     2.1260 
  115.1250  -116.4770    62.7100     5.2220     5.7310     5.3270     2.1360 
  115.2500  -116.4610    64.6750     5.1620     5.6680     5.4200     2.1420 
  115.3750  -116.3300    64.7430     5.0730     5.5760     5.6740     2.1350 
  115.5000  -116.1660    63.4770     4.9920     5.4920     5.7370     2.1230 
  115.6250  -116.1040    62.0220     4.9620     5.4610     5.4050     2.1230 
  115.7500  -116.0940    62.0070     5.0070     5.5070     5.0140     2.1340 
  115.8750  -116.0430    63.6460     5.1520     5.6580     5.1550     2.1290 
  116.0000  -116.0240    65.1360     5.4010     5.9170     5.8750     2.1010 
  116.1250  -116.2190    64.0580     5.6820     6.2100     6.7770     2.0710 
  116.2500  -116.5970    59.6640     5.9130     6.4500     7.1090     2.0570 
  116.3750  -117.0500    55.7960     6.0130     6.5530     6.5160     2.0590 
  116.5000  -117.3780    55.4050     5.9900     6.5300     5.9020     2.0740 
  116.6250  -117.4810    56.8770     5.9380     6.4750     5.8080     2.1020 
  116.7500  -117.4370    58.0480     5.8920     6.4280     5.8680     2.1280 
  116.8750  -117.3350    58.5000     5.8470     6.3810     5.9120     2.1370 
  117.0000  -117.2100    56.6700     5.7970     6.3290     5.9530     2.1350 
  117.1250  -117.0860    53.9350     5.7380     6.2670     6.0140     2.1290 
  117.2500  -116.9680    54.1000     5.6890     6.2160     6.0430     2.1280 
  117.3750  -116.8140    57.0170     5.6620     6.1890     5.9180     2.1260 
  117.5000  -116.6680    57.6870     5.6560     6.1820     5.7580     2.1240 
  117.6250  -116.6130    55.5070     5.6520     6.1790     5.6950     2.1250 
  117.7500  -116.6150    53.0040     5.6050     6.1290     5.6600     2.1290 
  117.8750  -116.5640    51.1000     5.4600     5.9790     5.5740     2.1310 
  118.0000  -116.4720    50.6580     5.2470     5.7570     5.3910     2.1300 
  118.1250  -116.3740    52.3410     5.0350     5.5370     5.0880     2.1390 
  118.2500  -116.2750    56.6000     4.8950     5.3910     4.8500     2.1520 
  118.3750  -116.1320    62.7520     4.8810     5.3770     4.9270     2.1520 
  118.5000  -116.0210    67.2390     4.9670     5.4650     5.1350     2.1400 
  118.6250  -116.0230    65.3880     5.1010     5.6050     5.1710     2.1280 
  118.7500  -116.2000    59.9830     5.2170     5.7260     5.1210     2.1230 
  118.8750  -116.4940    56.3150     5.2760     5.7870     5.2620     2.1260 
  119.0000  -116.7710    56.5100     5.2690     5.7800     5.5860     2.1300 
  119.1250  -116.9040    58.3470     5.2490     5.7590     5.7980     2.1300 
  119.2500  -116.9120    59.6640     5.2640     5.7740     5.8080     2.1270 
  119.3750  -116.9130    59.4410     5.3070     5.8190     5.7990     2.1250 
  119.5000  -116.9360    58.8810     5.3440     5.8580     5.8190     2.1260 
  119.6250  -116.9630    58.7380     5.3530     5.8670     5.7560     2.1270 
  119.7500  -116.9410    59.0100     5.3160     5.8280     5.6140     2.1190 
  119.8750  -116.8700    59.6340     5.2410     5.7510     5.4930     2.1080 
  120.0000  -116.7970    61.4410     5.1460     5.6520     5.4180     2.1120 
  120.1250  -116.7580    65.5610     5.0520     5.5540     5.3070     2.1400 
  120.2500  -116.6800    69.8580     4.9730     5.4720     5.1350     2.1700 
  120.3750  -116.4980    70.7080     4.9340     5.4310     5.0460     2.1750 
  120.5000  -116.2290    66.9450     4.9440     5.4420     5.0900     2.1540 
  120.6250  -115.9190    62.2540     4.9960     5.4950     5.1240     2.1260 
  120.7500  -115.6960    61.0630     5.0900     5.5940     5.1980     2.1150 
  120.8750  -115.5710    62.4600     5.1840     5.6910     5.4150     2.1270 
  121.0000  -115.4240    63.5360     5.2010     5.7090     5.5610     2.1370 
  121.1250  -115.2080    62.1950     5.0790     5.5820     5.5370     2.1340 
  121.2500  -114.8930    59.0450     4.8730     5.3680     5.4090     2.1310 
  121.3750  -114.4530    57.3090     4.6160     5.1000     5.0310     2.1450 
  121.5000  -113.8760    60.7150     4.3780     4.8530     4.4900     2.1620 
  121.6250  -113.0640    69.1920     4.1710     4.6370     4.1910     2.1640 
  121.7500  -112.0500    78.7820     3.9780     4.4370     4.1450     2.1580 
  121.8750  -111.0000    86.3420     3.7980     4.2500     3.9730     2.1690 
  122.0000  -110.0800    91.5850     3.5720     4.0150     3.6320     2.1990 
  122.1250  -109.2540    93.6190     3.3480     3.7820     3.3770     2.2270 
  122.2500  -108.3840    92.8810     3.1920     3.6200     3.1930     2.2390 
  122.3750  -107.5970    91.7590     3.1790     3.6060     2.9840     2.2380 
  122.5000  -107.0830    91.1580     3.3110     3.7430     2.9070     2.2310 
  122.6250  -106.8760    91.5620     3.5280     3.9690     3.1300     2.2120 
  122.7500  -106.9000    91.6900     3.7240     4.1730     3.4770     2.1930 
  122.8750  -107.0630    88.4480     3.7910     4.2430     3.6690     2.1950 
  123.0000  -107.3080    82.8660     3.6950     4.1430     3.7090     2.2080 
  123.1250  -107.5070    79.0040     3.5090     3.9490     3.6310     2.2210 
  123.2500  -107.5230    80.9630     3.3650     3.7990     3.3400     2.2390 
  123.3750  -107.3800    86.5310     3.3460     3.7800     3.2600     2.2810 
  123.5000  -107.2490    91.7870     3.4230     3.8600     3.7960     2.3330 
  123.6250  -107.1780    94.5980     3.5430     3.9850     4.4470     2.3530 
  123.7500  -107.2200    94.6790     3.6280     4.0730     4.4140     2.3230 
  123.8750  -107.4250    92.7410     3.6600     4.1060     3.9110     2.2650 
  124.0000  -107.7650    90.4160     3.6610     4.1080     3.7100     2.2210 
  124.1250  -108.1850    89.2160     3.6560     4.1030     3.8580     2.2040 
  124.2500  -108.6420    89.5590     3.7070     4.1550     3.9600     2.2010 
  124.3750  -109.1180    90.0430     3.7970     4.2490     3.9440     2.2000 
  124.5000  -109.5740    89.7070     3.8980     4.3530     3.9800     2.1940 
  124.6250  -109.8980    86.2220     3.9790     4.4380     4.0040     2.1830 
  124.7500  -110.1160    81.8270     3.9960     4.4560     3.9470     2.1700 
  124.8750  -110.2730    78.9230     3.9210     4.3780     3.9490     2.1600 
  125.0000  -110.3420    78.7790     3.7460     4.1960     3.9340     2.1600 
  125.1250  -110.2980    80.1840     3.5140     3.9550     3.7170     2.1670 
  125.2500  -110.1230    82.9050     3.4160     3.8520     3.4270     2.1750 
  125.3750  -109.6840    88.3970     3.5940     4.0380     3.3760     2.2010 
  125.5000  -109.0660    93.7290     3.9890     4.4490     4.0780     2.2630 
  125.6250  -108.4490    91.8710     4.4380     4.9150     6.2600     2.3550 
  125.7500  -108.0090    84.4660     4.6740     5.1610     8.6550     2.4190 
  125.8750  -107.7460    78.8790     4.5520     5.0340     8.3330     2.3980 
  126.0000  -107.4880    80.1870     4.1190     4.5840     5.7150     2.3290 
  126.1250  -107.2190    85.1250     3.6430     4.0890     3.6790     2.2780 
  126.2500  -107.1260    90.9910     3.3490     3.7830     3.0330     2.2560 
  126.3750  -107.2900    97.5410     3.3420     3.7750     3.1280     2.2340 
  126.5000  -107.6120   101.3520     3.5630     4.0050     3.5480     2.2030 
  126.6250  -108.0950    96.7690     3.7790     4.2300     3.8950     2.1810 
  126.7500  -108.7050    86.7340     3.8160     4.2690     3.8460     2.1780 
  126.8750  -109.2740    80.0990     3.6710     4.1180     3.5370     2.1960 
  127.0000  -109.6640    81.0400     3.4290     3.8660     3.2720     2.2270 
  127.1250  -109.8440    86.6110     3.2360     3.6660     3.1120     2.2590 
