~V
VERS. 2.00: Ver 2.00
~W
STRT.M 50.0000:
STOP.M 243.0000:
STEP.M 0.1250:
NULL. -999.2500:
UWI. F11115:
~C
DEPT.M :
DEN.GM/CC :
GR.API :
RML.OHMM :
RI. :
RXO.OHMM :
CALI.CM :
SP.MV :
~A
# ...
  196.2500     2.3900    85.6460     6.9750     5.8450     7.6650    24.3810   -22.3430 
  196.3750     2.4050    84.3990     7.2580     6.0270     7.6310    24.3760   -22.8120 
  196.5000     2.4090    85.3070     7.4320     6.1620     7.5990    24.3720   -23.2460 
  196.6250     2.3960    85.8890     7.4400     6.2460     7.6030    24.3700   -23.6020 
  196.7500     2.3720    85.5580     7.3480     6.2980     7.6270    24.3750   -23.8630 
  196.8750     2.3460    84.1040     7.2340     6.3250     7.8240    24.3860   -24.0140 
  197.0000     2.3250    82.1700     7.1510     6.3270     8.0790    24.3730   -24.0400 
  197.1250     2.3180    82.6830     7.1080     6.2850     8.0940    24.2930   -23.9170 
  197.2500     2.3180    84.7650     7.0730     6.2120     7.8770    24.1610   -23.6840 
  197.3750     2.3190    86.2950     7.0420     6.1530     7.3930    24.0150   -23.3700 
  197.5000     2.3190    85.5690     7.0800     6.1720     6.6240    23.8940   -23.0100 
  197.6250     2.3150    83.8790     7.3160     6.3530     6.4760    23.8280   -22.6440 
  197.7500     2.3120    84.9810     7.7500     6.6760     7.2950    23.8030   -22.3160 
  197.8750     2.3170    88.1780     8.2880     7.0760     8.9410    23.7950   -22.0460 
  198.0000     2.3250    89.4480     8.7600     7.4490    10.1560    23.7920   -21.8330 
  198.1250     2.3140    86.7670     8.9540     7.6730     9.9630    23.7920   -21.6660 
  198.2500     2.2790    84.4070     8.8970     7.7590     8.7750    23.7840   -21.5130 
  198.3750     2.2390    83.4380     8.7650     7.7890     8.8690    23.7560   -21.3530 
  198.5000     2.2160    82.0130     8.8280     7.9080     9.6970    23.7140   -21.1720 
  198.6250     2.2270    81.2970     9.4250     8.3270    10.5680    23.6550   -20.9620 
  198.7500     2.2540    82.0320    10.6380     9.1290    11.3140    23.5930   -20.7250 
  198.8750     2.2730    80.3230    12.4930    10.3710    12.9520    23.5400   -20.4880 
  199.0000     2.2660    73.3380    14.8760    12.0200    17.1690    23.5410   -20.2670 
  199.1250     2.2400    66.6600    17.4000    13.8770    21.0480    23.7180   -20.0750 
  199.2500     2.2250    64.8040    19.3950    15.4890    23.4530    24.0400   -19.8940 
  199.3750     2.2260    65.7930    20.3760    16.4820    24.7840    24.3590   -19.7040 
  199.5000     2.2270    67.1620    20.2930    16.7430    25.0310    24.5270   -19.5020 
  199.6250     2.2130    68.9630    19.6230    16.4970    24.2800    24.5420   -19.2940 
  199.7500     2.1910    70.3530    19.1970    16.3040    23.3570    24.5350   -19.0840 
  199.8750     2.1720    68.3880    19.4450    16.4950    22.6590    24.5360   -18.8830 
  200.0000     2.1690    63.7840    20.5140    17.2350    22.8970    24.5360   -18.7070 
  200.1250     2.1820    61.0960    22.3940    18.5760    25.3550    24.5330   -18.5960 
  200.2500     2.1980    61.4110    24.5800    20.1910    30.1800    24.5260   -18.5500 
  200.3750     2.2050    63.1730    26.5410    21.7170    33.9090    24.5270   -18.5640 
  200.5000     2.1990    64.4520    27.7030    22.7400    34.2640    24.5450   -18.5940 
  200.6250     2.1820    64.6880    27.4300    22.7730    32.9260    24.5710   -18.5880 
  200.7500     2.1630    64.1370    25.9700    21.9130    30.0560    24.5860   -18.5460 
  200.8750     2.1510    63.8940    23.7560    20.4170    26.5600    24.5800   -18.4670 
  201.0000     2.1510    65.7340    21.3430    18.6660    24.7250    24.5640   -18.3590 
  201.1250     2.1670    69.6010    19.2990    17.0770    21.8040    24.5350   -18.2580 
  201.2500     2.1870    70.9930    17.8620    15.8830    18.1060    24.4410   -18.1960 
  201.3750     2.2010    69.1340    17.0770    15.1610    17.1270    24.2260   -18.1980 
  201.5000     2.2030    67.1060    16.8320    14.8710    18.0310    23.9330   -18.2640 
  201.6250     2.1990    67.1450    16.9770    14.9380    19.9020    23.7890   -18.3780 
  201.7500     2.1960    67.4730    17.2720    15.1750    21.5850    23.8760   -18.4990 
  201.8750     2.1940    66.4260    17.6140    15.4880    22.2570    24.0990   -18.6160 
  202.0000     2.1890    64.4590    17.9930    15.8520    21.0880    24.3160   -18.7270 
  202.1250     2.1810    62.6930    18.5180    16.3450    19.9380    24.4480   -18.8310 
  202.2500     2.1760    61.8930    19.2300    17.0010    21.8850    24.5150   -18.9220 
  202.3750     2.1800    62.0970    20.0400    17.7600    25.3550    24.5260   -19.0070 
  202.5000     2.1940    60.9900    20.7300    18.4530    27.6770    24.5160   -19.1040 
  202.6250     2.2110    57.8100    20.9740    18.8200    27.5430    24.5180   -19.2200 
  202.7500     2.2210    56.1040    20.7560    18.8260    25.7870    24.5260   -19.3210 
  202.8750     2.2210    57.9750    20.2540    18.5680    23.7660    24.5350   -19.3780 
  203.0000     2.2130    61.3170    19.7590    18.2400    23.0180    24.5380   -19.3870 
  203.1250     2.2000    62.7370    19.5370    18.0240    22.7420    24.5350   -19.3550 
  203.2500     2.1900    61.9550    19.5290    17.9230    22.6010    24.5310   -19.3120 
  203.3750     2.1870    60.8190    19.5500    17.8430    22.5760    24.5280   -19.2850 
  203.5000     2.1910    59.6900    19.3830    17.6590    23.1530    24.5250   -19.2790 
  203.6250     2.2020    59.9830    18.8810    17.2790    22.7320    24.5140   -19.2970 
  203.7500     2.2110    61.2310    18.2470    16.8280    20.8990    24.5060   -19.3430 
  203.8750     2.2160    62.1010    17.7430    16.4810    18.9360    24.5110   -19.4140 
  204.0000     2.2110    61.8830    17.5860    16.3930    17.6600    24.5230   -19.4810 
  204.1250     2.2010    61.4930    17.9040    16.6720    18.3790    24.5330   -19.5180 
  204.2500     2.1920    61.9110    18.4630    17.1640    21.4070    24.5520   -19.5260 
  204.3750     2.1870    62.2740    18.9800    17.6740    24.7850    24.6030   -19.5070 
  204.5000     2.1910    61.1170    19.2130    18.0010    25.2400    24.6730   -19.4810 
  204.6250     2.2140    60.0240    19.0730    18.0220    22.4490    24.7220   -19.4890 
  204.7500     2.2540    59.6130    18.8030    17.8730    20.5590    24.7390   -19.5470 
  204.8750     2.2970    60.4270    18.5950    17.6890    20.2690    24.7390   -19.6500 
  205.0000     2.3260    61.6760    18.5260    17.5560    21.5310    24.7220   -19.7850 
  205.1250     2.3220    63.6230    18.5030    17.4540    22.7870    24.6720   -19.9160 
  205.2500     2.2950    65.2070    18.3360    17.2780    22.5660    24.6140   -20.0320 
  205.3750     2.2650    65.4500    17.9590    16.9680    21.2600    24.5780   -20.1500 
  205.5000     2.2450    65.7990    17.4430    16.5430    19.9710    24.5690   -20.2860 
  205.6250     2.2410    64.9910    16.9550    16.0930    19.5890    24.5670   -20.4560 
  205.7500     2.2440    63.0220    16.6350    15.7250    19.3850    24.5780   -20.6610 
  205.8750     2.2480    61.6220    16.5480    15.5040    19.7510    24.5980   -20.9060 
  206.0000     2.2480    62.1870    16.7270    15.4900    20.4010    24.6090   -21.1940 
  206.1250     2.2410    64.0530    17.2950    15.8240    20.2120    24.6010   -21.5400 
  206.2500     2.2270    64.4680    18.3370    16.5810    20.3090    24.5910   -21.9200 
  206.3750     2.2060    63.2220    20.0090    17.8590    21.7880    24.5880   -22.3120 
  206.5000     2.1860    61.4030    22.3960    19.6930    25.0870    24.5850   -22.7000 
  206.6250     2.1890    61.9280    25.5050    22.0660    31.9530    24.5830   -23.0930 
  206.7500     2.2280    62.7930    28.8650    24.6290    39.9940    24.5730   -23.4810 
  206.8750     2.2930    62.3290    31.9790    27.0350    44.5080    24.5510   -23.8460 
  207.0000     2.3500    61.4870    34.4040    28.9560    45.1230    24.5290   -24.1680 
  207.1250     2.3530    61.0080    35.8030    30.0840    45.1190    24.5270   -24.4200 
  207.2500     2.3130    59.8440    36.4320    30.5400    44.8850    24.5370   -24.6310 
  207.3750     2.2570    57.8550    36.3910    30.4020    44.0480    24.5180   -24.8290 
