~V
VERS. 2.00: Ver 2.00
~W
STRT.M 50.0000:
STOP.M 248.0000:
STEP.M 0.1250:
NULL. -999.2500:
UWI. F11129:
~C
DEPT.M :
SP.MV :
DEN.GM/CC :
GR.API :
RML.OHMM :
RI. :
RXO.OHMM :
CALI.CM :
~A
# ...
  106.2500   -29.2060     2.1380    61.3610     7.5410     7.0870    12.4680    22.8240 
  106.3750   -28.4760     2.1330    64.2740     7.6770     7.3360    12.5980    22.8850 
  106.5000   -27.3950     2.1350    67.0230     7.4910     7.3420    12.4260    23.0250 
  106.6250   -25.9880     2.1450    69.7750     6.9480     7.0260    11.9830    23.2170 
  106.7500   -24.3130     2.1670    75.8500     6.1530     6.4130    10.8710    23.4420 
  106.8750   -22.5010     2.2010    86.0490     5.3410     5.6630     8.7780    23.6810 
  107.0000   -20.7390     2.2410    94.6950     4.7280     4.9900     6.3700    23.9010 
  107.1250   -19.1480     2.2770    98.3790     4.3950     4.5080     4.7560    24.0690 
  107.2500   -17.8140     2.2940   100.2130     4.3170     4.2540     4.2570    24.1420 
  107.3750   -16.8090     2.2920   103.6620     4.3760     4.1740     4.4160    24.0970 
  107.5000   -16.1500     2.2870   106.2440     4.3950     4.1370     4.7290    23.9600 
  107.6250   -15.8230     2.2920   104.5710     4.2590     4.0350     4.7670    23.7450 
  107.7500   -15.8180     2.3120   100.9950     3.9650     3.8150     4.3380    23.4220 
  107.8750   -16.1180     2.3380   100.6120     3.6690     3.5490     3.9190    22.9800 
  108.0000   -16.6630     2.3620   103.4750     3.5970     3.3980     3.9000    22.5730 
  108.1250   -17.4080     2.3770   105.8780     3.9150     3.5080     4.2610    22.4210 
  108.2500   -18.3530     2.3880   104.9740     4.7600     4.0270     5.2670    22.6180 
  108.3750   -19.5710     2.4000    99.8680     6.1640     5.0500     7.8320    23.0000 
  108.5000   -21.0610     2.4090    91.8570     7.9010     6.4880    12.0900    23.2270 
  108.6250   -22.7340     2.3980    83.2880     9.5300     8.0630    15.8480    23.1090 
  108.7500   -24.4850     2.3520    75.8690    10.3890     9.2160    16.0140    22.7130 
  108.8750   -26.2050     2.2860    69.5860    10.1970     9.5310    13.6790    22.3590 
  109.0000   -27.7680     2.2320    64.3160     9.4290     9.1950    12.3390    22.2910 
  109.1250   -29.0930     2.1990    60.5830     8.5920     8.5880    12.0660    22.4660 
  109.2500   -30.1180     2.1810    58.3050     7.9690     8.0130    12.2780    22.7090 
  109.3750   -30.7400     2.1690    58.0140     7.6040     7.5960    12.4840    22.9300 
  109.5000   -30.9280     2.1600    58.8600     7.4500     7.3530    12.4050    23.1190 
  109.6250   -30.6940     2.1570    57.8940     7.5360     7.3150    11.9920    23.1810 
  109.7500   -30.0660     2.1700    55.3890     7.9350     7.5530    11.5250    22.9850 
  109.8750   -29.0810     2.2070    56.4020     8.6380     8.0970    11.8350    22.5510 
  110.0000   -27.8200     2.2680    63.3210     9.4410     8.8200    13.8850    22.1200 
  110.1250   -26.3310     2.3380    71.3030    10.0080     9.4620    17.6590    21.8200 
  110.2500   -24.6790     2.3900    75.0640     9.9100     9.6130    20.1410    21.6200 
  110.3750   -22.9610     2.4020    74.3900     9.1690     9.0360    17.9100    21.4550 
  110.5000   -21.2890     2.3810    72.9720     8.2310     7.9630    12.7250    21.3380 
  110.6250   -19.7620     2.3490    75.3370     7.1340     6.7670     8.3350    21.2950 
  110.7500   -18.4710     2.3270    83.3840     6.1730     5.7820     6.2740    21.2880 
  110.8750   -17.4710     2.3170    92.5350     5.6750     5.1470     5.7590    21.2920 
  111.0000   -16.7780     2.3130    96.6100     5.4990     4.8100     5.6370    21.3130 
  111.1250   -16.4190     2.3130    97.2900     5.5260     4.7020     5.5300    21.3840 
  111.2500   -16.3930     2.3160   100.0610     5.6480     4.7390     5.4530    21.5230 
  111.3750   -16.6790     2.3180   104.4130     5.7800     4.8400     5.5230    21.6770 
  111.5000   -17.2470     2.3170   105.6110     5.8820     4.9440     5.6970    21.7460 
  111.6250   -18.0510     2.3120   103.7100     5.9630     5.0410     5.8950    21.6920 
  111.7500   -19.0030     2.3020   100.9910     6.0710     5.1550     5.9850    21.5460 
  111.8750   -20.0770     2.2870    98.2020     6.2710     5.3260     5.8860    21.3430 
  112.0000   -21.2770     2.2640    95.8710     6.6000     5.5840     5.8610    21.1310 
  112.1250   -22.5300     2.2350    95.5230     7.0530     5.9340     6.2630    20.9590 
  112.2500   -23.7320     2.2050    95.0970     7.5650     6.3430     7.0920    20.8920 
  112.3750   -24.8180     2.1810    90.7610     8.0260     6.7380     8.0000    20.9820 
  112.5000   -25.7250     2.1670    83.9880     8.3370     7.0360     8.6590    21.2020 
  112.6250   -26.4230     2.1610    79.9320     8.4600     7.1860     9.0980    21.4940 
  112.7500   -26.9260     2.1600    79.5290     8.4190     7.1780     9.2390    21.7420 
  112.8750   -27.2160     2.1630    79.0430     8.2870     7.0530     9.1300    21.8860 
  113.0000   -27.2680     2.1670    77.4120     8.1390     6.8810     9.1300    21.9980 
  113.1250   -27.1210     2.1690    76.6570     7.9950     6.7030     9.1820    22.1770 
  113.2500   -26.8560     2.1650    77.4220     7.8490     6.5370     9.0830    22.4450 
  113.3750   -26.5420     2.1580    78.0370     7.6900     6.3870     8.8910    22.7240 
  113.5000   -26.2450     2.1570    77.7720     7.5230     6.2430     8.7370    22.9150 
  113.6250   -25.9880     2.1620    77.2770     7.3660     6.1060     8.5350    22.9870 
  113.7500   -25.7840     2.1720    77.3140     7.2460     5.9820     8.2560    23.0260 
  113.8750   -25.6790     2.1850    78.3020     7.1830     5.8850     7.9800    23.0850 
  114.0000   -25.7340     2.1940    79.9200     7.1900     5.8290     7.8010    23.1030 
  114.1250   -25.9710     2.1920    80.2640     7.2750     5.8300     7.8470    22.9990 
  114.2500   -26.3490     2.1800    78.0040     7.4410     5.9020     8.0510    22.7760 
  114.3750   -26.8120     2.1680    76.0870     7.6720     6.0440     8.1870    22.4850 
  114.5000   -27.3420     2.1590    77.5660     7.9250     6.2340     8.3300    22.2270 
  114.6250   -27.9500     2.1540    80.2720     8.1640     6.4440     8.7380    22.1500 
  114.7500   -28.5870     2.1490    79.9680     8.3530     6.6370     9.4200    22.3010 
  114.8750   -29.1480     2.1450    77.6140     8.4700     6.7790    10.0200    22.5830 
  115.0000   -29.5970     2.1460    76.2310     8.5130     6.8590    10.3130    22.8500 
  115.1250   -29.9680     2.1510    74.6760     8.4890     6.8750    10.3910    23.0330 
  115.2500   -30.2680     2.1590    72.5680     8.4140     6.8400    10.2930    23.0140 
  115.3750   -30.4970     2.1640    71.3270     8.3200     6.7760     9.9720    22.6400 
  115.5000   -30.6880     2.1640    72.0750     8.2410     6.7160     9.5530    22.0220 
  115.6250   -30.8730     2.1580    75.6110     8.1970     6.6790     9.3200    21.4950 
  115.7500   -31.0700     2.1530    80.5410     8.1890     6.6770     9.4030    21.2710 
  115.8750   -31.2810     2.1520    82.2060     8.2060     6.7090     9.6570    21.2340 
  116.0000   -31.4860     2.1540    77.8630     8.2280     6.7580     9.9520    21.2290 
  116.1250   -31.6420     2.1550    71.6330     8.2460     6.8040    10.2370    21.2520 
  116.2500   -31.7180     2.1550    69.3460     8.2540     6.8320    10.4300    21.3180 
  116.3750   -31.7050     2.1560    71.3230     8.2540     6.8390    10.4730    21.3840 
  116.5000   -31.5880     2.1580    74.0400     8.2530     6.8370    10.3660    21.4040 
  116.6250   -31.3120     2.1590    74.7080     8.2650     6.8470    10.1130    21.3500 
  116.7500   -30.8610     2.1560    73.0880     8.3000     6.8820     9.7470    21.2230 
  116.8750   -30.2950     2.1500    71.7380     8.3520     6.9420     9.3730    21.0980 
  117.0000   -29.6550     2.1470    72.9410     8.3840     6.9950     9.0880    21.1010 
  117.1250   -28.9200     2.1500    76.0220     8.3620     7.0060     8.9290    21.2520 
  117.2500   -28.1000     2.1590    78.5310     8.2610     6.9430     8.8390    21.4860 
  117.3750   -27.2410     2.1720    79.1040     8.0910     6.8030     8.6510    21.7580 
