~V
VERS. 2.00: Ver 2.00
~W
STRT.M 62.0000:
STOP.M 277.0000:
STEP.M 0.1250:
NULL. -999.2500:
UWI. F11155:
~C
DEPT.M :
SP.MV :
DEN.GM/CC :
GR.API :
RML.OHMM :
RI. :
RXO.OHMM :
CALI.CM :
~A
# ...
  152.0000    -7.4980     2.3010    85.0100     4.4940     3.7310     4.4120    23.3360 
  152.1250    -7.6110     2.3070    80.8440     4.4700     3.7250     4.3300    23.1860 
  152.2500    -7.7060     2.3230    84.1550     4.4510     3.7180     4.2160    23.1200 
  152.3750    -7.8090     2.3330    88.7780     4.4600     3.7230     4.1220    23.0650 
  152.5000    -7.9040     2.3290    92.5390     4.4880     3.7400     4.1520    22.9500 
  152.6250    -7.9890     2.3150    94.1200     4.5130     3.7580     4.2590    22.8430 
  152.7500    -8.0510     2.2970    92.4720     4.5120     3.7590     4.3530    22.8340 
  152.8750    -8.0600     2.2800    90.9960     4.4890     3.7420     4.4610    22.9350 
  153.0000    -8.0230     2.2640    90.9460     4.4610     3.7150     4.5320    23.1690 
  153.1250    -7.9650     2.2530    92.1490     4.4480     3.6920     4.4230    23.5440 
  153.2500    -7.8700     2.2530    93.4980     4.4640     3.6860     4.5470    23.9380 
  153.3750    -7.7610     2.2610    94.6510     4.5060     3.6990     4.7570    24.2170 
  153.5000    -7.6510     2.2750    95.9770     4.5760     3.7370     4.7530    24.4170 
  153.6250    -7.5560     2.2890    97.4210     4.6840     3.8090     4.5270    24.6150 
  153.7500    -7.4780     2.3020    98.2290     4.8350     3.9220     4.4810    24.7380 
  153.8750    -7.4460     2.3130    96.9680     4.9910     4.0520     4.6500    24.7980 
  154.0000    -7.4690     2.3240    95.6170     5.1060     4.1660     4.8660    24.8220 
  154.1250    -7.5380     2.3360    96.4710     5.1340     4.2270     4.9140    24.8470 
  154.2500    -7.6580     2.3390    95.8860     5.0640     4.2140     4.7520    24.8770 
  154.3750    -7.8120     2.3240    92.6830     4.9790     4.1700     4.6890    24.8630 
  154.5000    -7.9800     2.2980    89.4710     4.9580     4.1510     4.6460    24.7920 
  154.6250    -8.1660     2.2810    88.6660     5.0610     4.2100     4.6490    24.7220 
  154.7500    -8.3820     2.2790    88.4450     5.3020     4.3850     4.8730    24.6380 
  154.8750    -8.6000     2.2800    87.9160     5.5930     4.6280     5.3170    24.4660 
  155.0000    -8.7950     2.2720    86.9470     5.8400     4.8730     5.7120    24.1120 
  155.1250    -8.9480     2.2580    83.5580     5.9520     5.0400     5.9420    23.6240 
  155.2500    -9.0580     2.2470    82.4120     5.8540     5.0490     6.1950    23.2160 
  155.3750    -9.1400     2.2450    85.0460     5.6160     4.9280     6.2550    22.9850 
  155.5000    -9.1950     2.2510    89.8040     5.3390     4.7400     6.0810    22.9380 
  155.6250    -9.2160     2.2600    94.9250     5.1560     4.5790     5.8020    22.9930 
  155.7500    -9.1890     2.2700    97.0840     5.2070     4.5710     5.4680    23.0930 
  155.8750    -9.1430     2.2750    95.2020     5.5000     4.7570     5.4620    23.2070 
  156.0000    -9.0970     2.2720    90.8630     5.9750     5.1270     5.7990    23.2220 
  156.1250    -9.0640     2.2620    86.9960     6.4810     5.5860     6.5320    23.2060 
  156.2500    -9.0410     2.2540    84.2610     6.7410     5.9180     7.2590    23.4450 
  156.3750    -9.0180     2.2560    84.6020     6.6190     5.9550     7.3810    23.9760 
  156.5000    -8.9810     2.2640    90.0940     6.1710     5.6770     6.6970    24.3980 
  156.6250    -8.9230     2.2750    95.4100     5.6160     5.2220     5.6380    24.5790 
  156.7500    -8.8820     2.2790    93.6310     5.2300     4.8100     4.8950    24.6340 
  156.8750    -8.8650     2.2730    91.6450     5.1170     4.5810     4.8160    24.6950 
  157.0000    -8.8710     2.2610    92.3700     5.2750     4.5770     5.2200    24.7300 
  157.1250    -8.8990     2.2500    91.2860     5.6530     4.7870     5.7610    24.7360 
  157.2500    -8.9360     2.2460    85.6730     6.2050     5.1960     6.3960    24.7400 
  157.3750    -8.9720     2.2460    81.5150     6.8700     5.7350     7.1130    24.7400 
  157.5000    -9.0500     2.2450    79.8880     7.6870     6.4110     7.7880    24.7350 
  157.6250    -9.1670     2.2410    77.3960     8.7500     7.2820     8.5710    24.7110 
  157.7500    -9.3090     2.2320    74.2490    10.2540     8.5120     9.3280    24.6950 
  157.8750    -9.4790     2.2190    73.2050    12.2210    10.1610    10.8970    24.7670 
  158.0000    -9.6710     2.2050    73.5380    14.5880    12.2590    14.1350    24.9400 
  158.1250    -9.8630     2.1900    73.1470    17.1430    14.7040    19.3800    25.1240 
  158.2500   -10.0590     2.1800    74.2010    19.4780    17.1950    24.4570    25.2290 
  158.3750   -10.2720     2.1780    77.1730    21.3280    19.3530    26.7370    25.2440 
  158.5000   -10.4770     2.1840    78.5500    22.6760    21.0110    26.1630    25.2120 
  158.6250   -10.6750     2.1910    76.6270    23.6330    22.2030    24.3480    25.1970 
  158.7500   -10.8430     2.1910    72.9410    24.0850    22.8770    23.7340    25.2180 
  158.8750   -10.9650     2.1820    69.5450    23.7180    22.8440    25.7110    25.2600 
  159.0000   -11.0320     2.1710    65.9170    22.2060    21.7880    27.7750    25.2590 
  159.1250   -11.0470     2.1670    64.3500    19.7460    19.7640    25.7620    25.1570 
  159.2500   -11.0350     2.1750    68.2750    17.1760    17.4020    19.3210    24.9630 
  159.3750   -10.9990     2.1890    74.5780    15.3250    15.4870    13.6400    24.8000 
  159.5000   -10.9530     2.2060    79.2920    14.4710    14.3430    10.9110    24.6930 
  159.6250   -10.9250     2.2210    80.1050    14.5640    14.0320    12.1460    24.6370 
  159.7500   -10.9560     2.2280    77.8830    15.5010    14.6010    17.4140    24.6330 
  159.8750   -11.0260     2.2270    74.8940    16.9520    15.8050    21.1500    24.6580 
  160.0000   -11.1330     2.2220    72.6250    18.8760    17.5770    20.9150    24.7260 
  160.1250   -11.2850     2.2170    70.3330    21.3910    19.9470    19.6890    24.8840 
  160.2500   -11.4810     2.2090    67.0420    25.8710    23.2100    22.8060    25.1530 
  160.3750   -11.6970     2.1930    63.4620    33.5590    27.4030    29.8730    25.3440 
  160.5000   -11.9190     2.1730    61.2150    39.1780    32.3850    39.4600    25.4360 
  160.6250   -12.1090     2.1560    62.3940    44.4760    37.4850    46.3440    25.4780 
  160.7500   -12.2500     2.1510    63.8750    47.7050    41.1520    47.5880    25.5270 
  160.8750   -12.3630     2.1520    62.3290    48.5220    42.6710    46.4900    25.5570 
  161.0000   -12.4480     2.1550    60.2260    47.7080    42.4000    44.4720    25.5660 
  161.1250   -12.5180     2.1520    61.2780    46.5320    41.3590    41.1990    25.5650 
  161.2500   -12.5790     2.1430    63.6420    46.0450    40.5870    40.0450    25.5660 
  161.3750   -12.6460     2.1360    63.2490    46.4110    40.4920    40.1710    25.5710 
  161.5000   -12.7180     2.1350    61.1740    47.4310    41.0530    41.6870    25.5810 
  161.6250   -12.7870     2.1390    59.8070    48.7240    42.0170    44.8880    25.5950 
  161.7500   -12.8630     2.1430    59.8050    49.8260    43.0110    47.6940    25.5640 
  161.8750   -12.9390     2.1470    60.8930    50.5680    43.7920    47.1940    25.4690 
  162.0000   -13.0250     2.1520    62.2340    51.0850    44.3760    45.9370    25.3220 
  162.1250   -13.1160     2.1560    62.3390    51.7270    44.9750    44.9190    25.2410 
  162.2500   -13.1910     2.1600    61.3410    53.0830    46.0490    45.1270    25.2960 
  162.3750   -13.2540     2.1660    58.9490    55.3060    47.8220    47.5720    25.4360 
  162.5000   -13.3030     2.1720    57.4210    58.2140    50.2450    51.1080    25.5110 
  162.6250   -13.3360     2.1760    59.2670    61.2910    52.9520    54.6930    25.4830 
  162.7500   -13.3060     2.1740    63.2260    63.6530    55.2470    60.9670    25.3890 
  162.8750   -13.2480     2.1680    64.6470    64.8670    56.6890    69.0570    25.2790 
  163.0000   -13.1850     2.1600    63.8060    64.9710    57.2450    68.0520    25.2110 
  163.1250   -13.1100     2.1540    63.6620    64.3370    57.2200    57.5400    25.1860 
