~V
VERS. 2.00: Ver 2.00
~W
STRT.M 50.0000:
STOP.M 206.0000:
STEP.M 0.1250:
NULL. -999.2500:
UWI. F11107:
~C
DEPT.M :
DEN.GM/CC :
GR.API :
RML.OHMM :
RI. :
RXO.OHMM :
CALI.CM :
SP.MV :
~A
# ...
  106.2500     2.3530    76.1510    14.2730    12.9430    14.9380    25.4580   -17.6170 
  106.3750     2.3770    71.9530    14.3390    12.9350    14.3420    25.4260   -17.1130 
  106.5000     2.3770    68.9930    14.5790    13.0840    14.7990    25.5300   -16.7690 
  106.6250     2.3470    70.8270    15.0120    13.4450    15.0470    25.6210   -16.7150 
  106.7500     2.2970    74.7010    15.5140    13.9380    15.0870    25.3740   -16.9360 
  106.8750     2.2420    77.0910    15.9290    14.4390    16.0940    24.7410   -17.4230 
  107.0000     2.1970    78.8000    16.0920    14.7780    17.8450    23.8230   -18.1300 
  107.1250     2.1730    78.6280    15.8210    14.7460    17.4680    23.1980   -19.0190 
  107.2500     2.1690    76.4020    15.1790    14.3400    15.7070    23.0250   -19.9940 
  107.3750     2.1770    75.4680    14.2590    13.6160    13.8660    23.0770   -20.9370 
  107.5000     2.1940    77.2110    13.2000    12.6910    13.6570    23.0560   -21.7980 
  107.6250     2.2140    79.2630    12.1710    11.7190    14.2010    22.8630   -22.5450 
  107.7500     2.2310    79.4820    11.3190    10.8560    12.7460    22.6820   -23.1410 
  107.8750     2.2410    79.1560    10.7610    10.2160    11.0340    22.5920   -23.5210 
  108.0000     2.2430    79.0250    10.5930     9.8960    10.2870    22.6010   -23.6650 
  108.1250     2.2370    77.4310    10.9220    10.0340    10.8510    22.7310   -23.6330 
  108.2500     2.2250    75.2010    11.5720    10.5350    11.2560    22.9530   -23.5070 
  108.3750     2.2060    73.5560    12.2920    11.2260    10.3820    23.1460   -23.2790 
  108.5000     2.1810    72.8460    12.7460    11.8070     9.6590    23.2720   -22.8720 
  108.6250     2.1590    74.0690    12.5580    11.8630    10.2360    23.3440   -22.2220 
  108.7500     2.1510    77.3980    11.8210    11.3660    10.8100    23.3670   -21.4650 
  108.8750     2.1590    80.1850    10.8000    10.4940     9.7650    23.3970   -20.7080 
  109.0000     2.1790    79.9680     9.8400     9.5510     8.1560    23.5110   -19.9790 
  109.1250     2.2010    78.4530     9.2820     8.8620     7.7650    23.5460   -19.2850 
  109.2500     2.2190    77.7900     9.1490     8.5240     8.7010    23.5040   -18.6030 
  109.3750     2.2340    77.0300     9.3760     8.5360     9.7940    23.4150   -17.9890 
  109.5000     2.2530    76.9140     9.8330     8.8270    10.1700    23.3080   -17.4950 
  109.6250     2.2800    79.0080    10.3730     9.2930     9.5120    23.2500   -17.1990 
  109.7500     2.3080    79.5470    10.8560     9.7700     9.6990    23.2260   -17.0800 
  109.8750     2.3290    76.1880    11.2260    10.1750    10.5370    23.2330   -17.1030 
  110.0000     2.3350    70.5980    11.4750    10.4710    11.2730    23.1970   -17.2320 
  110.1250     2.3300    67.2050    11.5960    10.6440    10.8860    23.1120   -17.4350 
  110.2500     2.3250    68.0500    11.6060    10.7110    10.5650    23.0880   -17.7540 
  110.3750     2.3290    72.3580    11.4740    10.6510    10.3560    23.1770   -18.1780 
  110.5000     2.3380    76.5430    11.1600    10.4250    10.7390    23.3080   -18.7160 
  110.6250     2.3360    76.4960    10.6160     9.9820    12.4900    23.3860   -19.3170 
  110.7500     2.3150    74.7180     9.9240     9.3830    12.2850    23.2990   -19.9030 
  110.8750     2.2770    75.7100     9.1800     8.7070     9.7930    23.1030   -20.4750 
  111.0000     2.2370    79.0940     8.4980     8.0490     8.0870    22.8840   -21.0650 
  111.1250     2.2110    82.6830     7.9860     7.5150     7.4930    22.8790   -21.6410 
  111.2500     2.2030    84.7820     7.6430     7.1220     7.4270    22.9090   -22.1430 
  111.3750     2.2100    86.3200     7.4420     6.8620     7.4340    22.9200   -22.5670 
  111.5000     2.2250    88.9160     7.3370     6.7090     7.4800    22.9100   -22.8900 
  111.6250     2.2420    89.8640     7.2930     6.6370     7.4210    22.9250   -23.1210 
  111.7500     2.2550    87.6680     7.2740     6.6130     7.2750    22.9940   -23.3150 
  111.8750     2.2640    84.8740     7.2690     6.6190     7.1620    23.1020   -23.4440 
  112.0000     2.2670    85.2790     7.2670     6.6410     7.2470    23.1730   -23.4580 
  112.1250     2.2680    87.5080     7.2550     6.6570     7.4090    23.2000   -23.3480 
  112.2500     2.2680    85.9230     7.2320     6.6540     7.4570    23.2140   -23.1770 
  112.3750     2.2640    83.1360     7.2090     6.6350     7.2810    23.2120   -22.9420 
  112.5000     2.2570    83.4080     7.2040     6.6120     7.0720    23.1980   -22.6830 
  112.6250     2.2470    85.6510     7.2370     6.6090     7.2730    23.1320   -22.4400 
  112.7500     2.2380    87.1220     7.3080     6.6350     7.4480    22.9870   -22.1550 
  112.8750     2.2320    87.9190     7.4060     6.6910     7.7080    22.8080   -21.8150 
  113.0000     2.2330    87.3370     7.5180     6.7680     7.8280    22.7210   -21.4560 
  113.1250     2.2400    83.3880     7.6360     6.8540     7.8200    22.7570   -21.1980 
  113.2500     2.2490    80.2130     7.7720     6.9510     7.8620    22.8630   -21.0320 
  113.3750     2.2580    80.5820     7.9540     7.0790     8.0720    22.9920   -20.9390 
  113.5000     2.2700    81.4670     8.2140     7.2690     8.3100    23.0950   -20.8460 
  113.6250     2.2940    82.2620     8.5750     7.5540     8.4620    23.1870   -20.7300 
  113.7500     2.3290    85.5970     8.9750     7.8970     8.7120    23.3030   -20.7050 
  113.8750     2.3710    90.0500     9.3180     8.2300     9.5140    23.5010   -20.7910 
  114.0000     2.4030    92.3160     9.4950     8.4570    10.4680    23.7110   -20.9370 
  114.1250     2.4030    91.2070     9.4110     8.4720    10.1740    23.7930   -21.0140 
  114.2500     2.3760    90.3700     9.1660     8.3230     9.0450    23.7100   -21.0070 
  114.3750     2.3350    90.1000     8.9070     8.1080     8.0310    23.5780   -20.9600 
  114.5000     2.3000    88.7920     8.7870     7.9580     7.5090    23.5540   -20.9130 
  114.6250     2.2860    84.4900     8.9300     8.0060     7.4870    23.7330   -20.7740 
  114.7500     2.2810    79.6790     9.2580     8.2410     7.9720    23.9280   -20.5040 
  114.8750     2.2740    78.2240     9.6480     8.5930     8.9930    23.9390   -20.1470 
  115.0000     2.2550    80.6940     9.9600     8.9490    10.6470    23.8380   -19.7170 
  115.1250     2.2290    83.8040    10.0550     9.1650    10.9190    23.7920   -19.2500 
  115.2500     2.2090    83.7510     9.9400     9.2000    10.0050    23.8190   -18.7550 
  115.3750     2.2050    82.8280     9.6510     9.0620     8.4530    23.8770   -18.1830 
  115.5000     2.2220    84.8810     9.2500     8.7870     8.1820    23.9600   -17.5310 
  115.6250     2.2570    89.3400     8.8050     8.4180     8.7280    23.9860   -16.7910 
  115.7500     2.2950    91.6380     8.3930     8.0270     8.7630    24.0540   -15.9540 
  115.8750     2.3250    90.6000     8.0710     7.6750     8.1760    24.3180   -15.0380 
  116.0000     2.3390    88.5450     7.8890     7.4190     7.3040    24.7150   -14.1440 
  116.1250     2.3330    85.3280     7.9140     7.3420     7.1530    25.0690   -13.2420 
  116.2500     2.3190    82.0940     8.1270     7.4480     8.5640    25.2930   -12.3100 
  116.3750     2.3080    83.5710     8.5120     7.7270    10.6490    25.3690   -11.4050 
  116.5000     2.3100    88.5070     9.0210     8.1390    11.5240    25.3480   -10.5310 
  116.6250     2.3280    87.1140     9.5890     8.6320    11.1350    25.2820    -9.7510 
  116.7500     2.3570    78.8420    10.1400     9.1350    10.7910    25.2170    -9.1060 
  116.8750     2.3920    71.0590    10.6430     9.6180    11.7600    25.1890    -8.5840 
  117.0000     2.4260    68.0850    11.0930    10.0720    13.6480    25.2610    -8.1200 
  117.1250     2.4540    67.7980    11.4880    10.4850    13.9390    25.3470    -7.7050 
  117.2500     2.4730    68.1320    11.8330    10.8460    12.2480    25.2920    -7.3840 
  117.3750     2.4850    68.0680    12.1270    11.1470    11.5140    25.1250    -7.1920 
