~V
VERS. 2.00: Ver 2.00
~W
STRT.M 55.0000:
STOP.M 201.0000:
STEP.M 0.1250:
NULL. -999.2500:
UWI. F11111:
~C
DEPT.M :
GR.API :
RML.OHMM :
RI. :
RXO.OHMM :
CALI.CM :
SP.MV :
DEN.GM/CC :
~A
# ...
  190.0000    56.5120    10.6270     8.3770     8.1800    26.5920   -16.6500     2.1410 
  190.1250    52.5200    11.0700     8.6980     8.4170    26.6310   -16.2860     2.1450 
  190.2500    50.5890    11.3410     8.9550     9.2750    25.6980   -16.0360     2.1640 
  190.3750    52.0490    11.2900     9.0090     8.5760    24.9370   -15.8360     2.1920 
  190.5000    54.2590    10.9070     8.8140     7.5350    24.5320   -15.6360     2.2200 
  190.6250    54.2590    10.3030     8.4110     7.5720    23.7830   -15.4250     2.2430 
  190.7500    54.2590     9.7120     7.9660     7.9200    23.6270   -15.2050     2.2600 
  190.8750    54.2590     9.2750     7.5900     7.7600    23.5530   -14.9890     2.2730 
  191.0000    54.2590     9.0490     7.3420     7.4240    23.4470   -14.7920     2.2830 
  191.1250    54.2590     9.0010     7.2260     7.1140    23.2980   -14.5860     2.2880 
  191.2500    54.2590     8.9750     7.1440     7.2430    23.4190   -14.3520     2.2920 
  191.3750    54.2590     8.8580     7.0140     7.5200    23.5080   -14.0870     2.2920 
  191.5000    54.2590     8.5800     6.7800     7.3760    23.4060   -13.7660     2.2860 
  191.6250    54.2590     8.1330     6.4290     6.2870    23.1130   -13.3580     2.2660 
  191.7500    54.2590     7.6400     6.0410     5.1770    23.4150   -12.9230     2.2310 
  191.8750    54.2590     7.2060     5.6850     4.5390    24.0380   -12.5020     2.1870 
  192.0000    54.2590     6.9090     5.4180     4.4080    25.1110   -12.1110     2.1380 
  192.1250    54.2590     6.7970     5.2850     4.4740    25.7830   -11.7550     2.0910 
  192.2500    54.2590     6.8100     5.2610     4.5810    27.1350   -11.4420     2.0520 
  192.3750    54.2590     6.8980     5.3160     4.7620    28.3040   -11.1930     2.0290 
  192.5000    54.2590     7.0220     5.4120     4.8850    28.4200   -11.0480     2.0310 
  192.6250    54.2590     7.1690     5.5270     4.9030    28.3450   -11.0190     2.0570 
  192.7500    54.2590     7.3430     5.6600     4.6890    28.5600   -11.0020     2.0820 
  192.8750    54.2590     7.5490     5.8220     4.2600    27.4790   -10.9710     2.0820 
  193.0000    54.2590     7.7730     6.0190     4.0510    26.5930   -10.9250     2.0430 
  193.1250    54.2590     7.9650     6.2210     4.1500    25.9820   -10.8600     1.9740 
  193.2500    54.2590     8.0790     6.3740     4.2810    25.5340   -10.7380     1.9010 
  193.3750    54.2590     8.0780     6.4370     4.3380    24.1670   -10.5560     1.8370 
  193.5000    54.2590     7.9480     6.3890     4.3450    24.5900   -10.3620     1.7840 
  193.6250    54.2590     7.7010     6.2230     4.2780    26.2510   -10.1730     1.7430 
  193.7500    54.2590     7.4080     5.9870     4.1600    29.6810   -10.0140     1.7140 
  193.8750    54.2590     7.1190     5.7200     4.0450    33.7430    -9.8730     1.7020 
  194.0000    54.2590     6.8720     5.4660     3.9780    35.4190    -9.7330     1.7100 
  194.1250    54.2590     6.7160     5.2780     3.8000    36.0610    -9.6260     1.7410 
  194.2500    54.2590     6.6600     5.1720     3.6560    36.7680    -9.5860     1.7850 
  194.3750    54.2590     6.6960     5.1440     3.6820    36.2060    -9.5960     1.8400 
  194.5000    54.2590     6.7900     5.1720     3.8600    34.8670    -9.6220     1.8990 
  194.6250    54.2590     6.8940     5.2220     4.5400    33.0540    -9.6600     1.9530 
  194.7500    54.2590     6.9670     5.2630     5.7090    31.3680    -9.7220     1.9940 
  194.8750    54.2590     7.0050     5.2860     6.1390    28.9570    -9.8070     2.0190 
  195.0000    54.2590     7.0220     5.2940     5.7080    28.5020    -9.8710     2.0270 
  195.1250    54.2590     7.0350     5.2910     5.8410    27.9340    -9.8710     2.0230 
  195.2500    54.2590     7.0480     5.2880     6.1640    27.7710    -9.7970     2.0170 
  195.3750    54.2590     7.0570     5.2870     5.6030    28.8000    -9.6690     2.0120 
  195.5000    54.2590     7.0550     5.2900     4.6020    28.7540    -9.5040     2.0060 
  195.6250    54.2590     7.0450     5.2950     4.0610    26.5330    -9.3420     2.0020 
  195.7500    54.2590     7.0320     5.2990     3.8860    26.9080    -9.1710     2.0000 
  195.8750    54.2590     7.0240     5.2990     4.0170    27.2470    -8.9770     2.0000 
  196.0000    54.2590     7.0220     5.2970     4.7750    26.9510    -8.8310     1.9960 
  196.1250    54.2590     7.0270     5.2960     5.5260    27.4610    -8.7910     1.9870 
  196.2500    54.2590     7.0350     5.3000     5.8460    27.7800    -8.8610     1.9710 
  196.3750    54.2590     7.0430     5.3060     5.7790    27.8590    -9.0500     1.9490 
  196.5000    54.2590     7.0440     5.3080     5.7140    26.3410    -9.3310     1.9480 
  196.6250    54.2590     7.0440     5.3080     5.4950    25.7720    -9.7410     1.9840 
  196.7500    54.2590     7.0440     5.3080     5.0660    25.6510   -10.2210     2.0620 
  196.8750    54.2590     7.0440     5.3080     5.1570    24.7050   -10.7020     2.1690 
  197.0000    54.2590     7.0440     5.3080     5.9830    24.0690   -11.1610     2.2650 
  197.1250    54.2590     7.0440     5.3080     6.4170    23.5520   -13.9590     2.3180 
  197.2500    54.2590     7.0440     5.3080     6.7440    23.3400   -14.8320     2.3210 
  197.3750    54.2590     7.0440     5.3080     6.8740    23.1260   -15.1960     2.2900 
  197.5000    54.2590     7.0440     5.3080     6.9210    23.1310   -15.2000     2.2610 
  197.6250    54.2590     7.0440     5.3080     7.1410    23.3160  -999.2500     2.2520 
  197.7500    54.2590     7.0440     5.3080     7.5380    23.2150  -999.2500     2.2710 
  197.8750    54.2590     7.0440     5.3080     7.8690    22.9210  -999.2500     2.3130 
  198.0000    54.2590     7.0440     5.3080     8.0720    22.8360  -999.2500     2.3560 
  198.1250    54.2590     7.0440     5.3080     7.8530    22.6540  -999.2500     2.3820 
  198.2500    54.2590     7.0440     5.3080     8.1500    22.2190  -999.2500     2.3840 
  198.3750    54.2590     7.0440     5.3080     8.4640    22.3940  -999.2500     2.3540 
  198.5000    54.2590     7.0440     5.3080     7.9610    22.8160  -999.2500     2.3010 
  198.6250    54.2590     7.0440     5.3080     7.5090    22.7670  -999.2500     2.2320 
  198.7500    54.2590     7.0440     5.3080     7.8480    23.3450  -999.2500     2.1570 
  198.8750    54.2590     7.0440     5.3080     8.9380    23.6020  -999.2500     2.0880 
  199.0000    54.2590     7.0440     5.3080     9.1180    22.7200  -999.2500     2.0320 
  199.1250    54.2590     7.0440     5.3080     7.1070    22.5740  -999.2500     1.9920 
  199.2500    54.2590     7.0440     5.3080     5.8630    23.5570  -999.2500     1.9670 
  199.3750    54.2590     7.0440     5.3080     5.6370    22.2930  -999.2500     1.9550 
  199.5000    54.2590     7.0440     5.3080     6.2230    18.5660  -999.2500     1.9510 
  199.6250    54.2590     7.0440     5.3080     6.6560    16.3380  -999.2500     1.9510 
  199.7500    54.2590     7.0440     5.3080     6.7930    15.9220  -999.2500     1.9520 
  199.8750    54.2590     7.0440     5.3080     6.7940    15.9110  -999.2500     1.9520 
  200.0000    54.2590     7.0440     5.3080     6.7920    15.9100  -999.2500     1.9510 
  200.1250    54.2590     7.0440     5.3080     6.7910    15.9130  -999.2500     1.9510 
  200.2500    54.2590     7.0440     5.3080     6.7910    15.9140  -999.2500     1.9510 
  200.3750    54.2590     7.0440     5.3080     6.7910    15.9130  -999.2500     1.9520 
  200.5000    54.2590     7.0440     5.3080     6.7900    15.9090  -999.2500     1.9530 
  200.6250    54.2590     7.0440     5.3080     6.7900    15.9040  -999.2500     1.9550 
  200.7500    54.2590     7.0440     5.3080     6.7880    15.8990  -999.2500  -999.2500 
  200.8750    54.2590     7.0440     5.3080     6.7820    15.8780  -999.2500  -999.2500 
  201.0000    54.2590     7.0440     5.3080     6.7760    15.8350  -999.2500  -999.2500 
