~V
VERS. 2.00: Ver 2.00
~W
STRT.M 53.0000:
STOP.M 252.0000:
STEP.M 0.1250:
NULL. -999.2500:
UWI. F11141:
~C
DEPT.M :
SP.MV :
DEN.GM/CC :
GR.API :
RML.OHMM :
RI. :
RXO.OHMM :
CALI.CM :
~A
# ...
  210.5000    -9.1250     2.2840    79.4290    12.6590    10.3930    12.1520    24.1880 
  210.6250    -9.0840     2.2770    79.5310    12.5190    10.4240    12.1840    24.1230 
  210.7500    -9.1920     2.2720    78.1840    12.3830    10.3830    11.4580    24.0130 
  210.8750    -9.3410     2.2720    77.5310    12.4800    10.4450    10.8360    23.9070 
  211.0000    -9.4850     2.2750    79.1860    12.9410    10.7330    11.0970    23.9300 
  211.1250    -9.7550     2.2820    81.0820    13.8200    11.3320    12.3750    23.9950 
  211.2500   -10.0100     2.2910    81.9620    14.8570    12.1040    13.4850    24.0220 
  211.3750   -10.1000     2.3030    81.8060    15.7170    12.8230    14.4220    23.9990 
  211.5000   -10.1870     2.3190    80.7070    16.0120    13.1810    15.1390    24.0120 
  211.6250   -10.3270     2.3340    80.0890    15.3790    12.8330    15.2180    24.0860 
  211.7500   -10.3390     2.3470    80.3070    14.1440    11.9710    14.1210    24.1440 
  211.8750   -10.2830     2.3510    80.5770    12.7650    10.9250    11.9270    24.1840 
  212.0000   -10.2600     2.3470    79.6120    11.7050    10.0440     9.7820    24.2040 
  212.1250   -10.1270     2.3340    78.8490    11.3780     9.6480     9.2670    24.2100 
  212.2500    -9.9180     2.3180    79.5960    11.7400     9.7590     9.8030    24.2110 
  212.3750    -9.8100     2.3030    81.4790    12.6960    10.3700    11.0940    24.2170 
  212.5000    -9.6740     2.2920    82.3810    14.0420    11.3970    13.2000    24.2360 
  212.6250    -9.4830     2.2830    80.5950    15.4360    12.6470    14.6660    24.2540 
  212.7500    -9.3810     2.2730    78.6930    16.5310    13.7920    15.2360    24.2300 
  212.8750    -9.2930     2.2630    78.2910    17.1740    14.6360    15.3500    24.1760 
  213.0000    -9.1190     2.2560    77.7720    17.4010    15.1280    15.5260    24.1290 
  213.1250    -8.9890     2.2560    74.8530    17.3810    15.3370    15.1580    24.0950 
  213.2500    -8.8930     2.2630    71.2200    17.3710    15.4680    14.9830    24.0940 
  213.3750    -8.7420     2.2710    69.4760    17.4660    15.6200    15.6530    24.1130 
  213.5000    -8.6970     2.2770    71.0260    17.6470    15.8050    16.6950    24.1250 
  213.6250    -8.6930     2.2760    75.7530    17.7930    15.9570    17.1630    24.1370 
  213.7500    -8.6150     2.2710    78.7900    17.7810    15.9980    17.0790    24.1740 
  213.8750    -8.6240     2.2670    77.1440    17.5770    15.9040    16.9420    24.2010 
  214.0000    -8.7590     2.2650    73.5940    17.2620    15.7270    16.5970    24.2100 
  214.1250    -8.8560     2.2620    73.1090    17.0670    15.6150    16.0590    24.2210 
  214.2500    -8.9480     2.2570    75.4000    17.1850    15.6980    15.4180    24.2450 
  214.3750    -9.0940     2.2510    79.8990    17.6800    16.0330    15.6330    24.2630 
  214.5000    -9.1610     2.2480    86.4190    18.4340    16.5730    16.3460    24.2590 
  214.6250    -9.2150     2.2500    88.6130    19.0990    17.1160    17.7770    24.2280 
  214.7500    -9.3840     2.2550    84.6800    19.3170    17.3830    18.4350    24.2140 
  214.8750    -9.5540     2.2610    79.3900    18.9470    17.2170    18.3220    24.2100 
  215.0000    -9.6800     2.2660    77.0280    18.1250    16.6670    17.3990    24.2100 
  215.1250    -9.9490     2.2670    78.7620    17.3180    16.0450    16.2610    24.2100 
  215.2500   -10.3210     2.2670    81.1330    17.0700    15.7790    15.3830    24.2100 
  215.3750   -10.7620     2.2650    82.4010    17.7470    16.1770    15.4830    24.2100 
  215.5000   -11.3770     2.2600    82.1500    19.5430    17.4560    16.7950    24.2100 
  215.6250   -11.9870     2.2490    79.5840    22.6520    19.9010    21.1720    24.2130 
  215.7500   -12.4940     2.2320    76.4600    26.5900    23.2480    28.9950    24.2250 
  215.8750   -13.0000     2.2120    73.9620    30.7610    27.0830    36.2500    24.2460 
  216.0000   -13.4770     2.1920    71.7770    34.3930    30.7290    37.7170    24.2690 
  216.1250   -13.8180     2.1780    68.3170    36.6580    33.3440    36.9040    24.2770 
  216.2500   -14.1050     2.1700    64.5450    37.7300    34.8680    37.6000    24.2790 
  216.3750   -14.2780     2.1680    62.7860    38.0390    35.5610    38.1410    24.2780 
  216.5000   -14.3310     2.1700    62.5330    38.0820    35.8270    38.0790    24.2800 
  216.6250   -14.4700     2.1740    61.7290    38.2470    36.0320    38.0580    24.2790 
  216.7500   -14.6330     2.1780    62.0900    38.6740    36.3850    38.5530    24.2790 
  216.8750   -14.8010     2.1820    64.1640    39.4420    36.9860    39.1080    24.2780 
  217.0000   -15.0390     2.1850    65.5130    40.6320    37.9350    39.3010    24.2800 
  217.1250   -15.3260     2.1820    64.0530    42.3000    39.3440    40.1250    24.2790 
  217.2500   -15.7230     2.1740    61.7040    44.1680    41.0360    42.1310    24.2770 
  217.3750   -16.2750     2.1610    60.3470    45.8900    42.7530    45.6290    24.2770 
  217.5000   -16.8330     2.1480    60.5130    47.1360    44.2020    49.5600    24.2810 
  217.6250   -17.3350     2.1450    62.6400    47.8660    45.2810    51.0480    24.3190 
  217.7500   -17.8680     2.1520    65.1300    48.7900    46.4970    50.9390    24.3850 
  217.8750   -18.3960     2.1630    66.2920    50.8560    48.6520    49.3390    24.4120 
  218.0000   -18.9570     2.1700    66.0670    55.1170    52.7250    47.1800    24.3760 
  218.1250   -19.6560     2.1640    65.1020    65.0850    60.2800    50.8190    24.3660 
  218.2500   -20.2970     2.1480    63.7420    82.8660    71.1130    69.8260    24.4050 
  218.3750   -20.8600     2.1310    61.5480    96.8950    83.5590    95.3280    24.4040 
  218.5000   -21.4110     2.1220    59.3500   107.1840    93.4480   116.8230    24.3410 
  218.6250   -21.8630     2.1290    58.7310   105.1150    93.8600   122.2220    24.3250 
  218.7500   -22.2780     2.1490    59.5100    92.6190    85.1420   116.3650    24.3430 
  218.8750   -22.6010     2.1780    62.1920    76.3940    71.7580    89.5560    24.3340 
  219.0000   -22.8330     2.2070    64.8020    62.4600    59.0380    57.8330    24.3210 
  219.1250   -22.9600     2.2270    67.0260    54.0480    50.7320    39.9720    24.2900 
  219.2500   -22.8910     2.2340    69.6980    50.0680    46.5140    38.9820    24.2790 
  219.3750   -22.7170     2.2320    70.7210    49.5560    45.6660    43.5660    24.2740 
  219.5000   -22.5950     2.2260    68.3430    51.4990    47.3970    48.6960    24.2740 
  219.6250   -22.4940     2.2200    63.6620    54.8560    50.9750    53.7290    24.2760 
  219.7500   -22.3600     2.2130    60.3570    58.1070    54.9150    58.5340    24.2770 
  219.8750   -22.2170     2.2070    59.9040    60.3840    58.2200    60.3250    24.2820 
  220.0000   -21.9670     2.2010    62.0750    61.3840    60.3360    61.0390    24.3250 
  220.1250   -21.7040     2.1960    65.6110    61.1010    60.9890    60.4600    24.3760 
  220.2500   -21.5850     2.1930    68.4560    59.9120    60.4570    60.1550    24.4330 
  220.3750   -21.5070     2.1930    70.0890    57.7260    58.6220    58.6390    24.4600 
  220.5000   -21.3870     2.1970    69.6460    54.2970    55.2310    55.6760    24.4570 
  220.6250   -21.2260     2.2060    68.4540    49.3380    50.0180    52.1850    24.4640 
  220.7500   -21.0970     2.2200    70.4530    43.5960    43.9080    47.0420    24.4800 
  220.8750   -21.0950     2.2370    72.9750    38.0100    37.9690    39.1400    24.4970 
  221.0000   -21.1730     2.2540    71.7610    33.5750    33.2250    30.6790    24.5200 
  221.1250   -21.2110     2.2630    69.2390    31.4720    30.7220    26.9600    24.5400 
  221.2500   -21.3100     2.2650    68.9610    31.9540    30.5870    26.2630    24.5010 
  221.3750   -21.4640     2.2620    69.5240    35.4810    33.2840    28.2810    24.3780 
  221.5000   -21.6800     2.2580    67.8870    42.5350    39.4790    34.0170    24.2100 
  221.6250   -22.0630     2.2530    65.1560    54.1900    50.5930    48.6540    24.2670 
