~V
VERS. 2.00: Ver 2.00
~W
STRT.M 53.0000:
STOP.M 202.0000:
STEP.M 0.1250:
NULL. -999.2500:
UWI. F11113:
~C
DEPT.M :
DEN.GM/CC :
SP.MV :
GR.API :
RML.OHMM :
RI. :
RXO.OHMM :
CALI.CM :
~A
# ...
  176.7500     2.1690   -18.7340    69.7870     5.7330     5.1590     5.3520    24.8450 
  176.8750     2.0940   -18.6810    71.4900     5.6850     5.0710     4.6500    25.1710 
  177.0000     2.0220   -18.6130    67.9650     5.5840     4.9800     4.4000    25.9070 
  177.1250     1.9840   -18.5160    64.9790     5.4970     4.9020     4.6810    27.0700 
  177.2500     1.9740   -18.3400    64.1360     5.4440     4.8370     4.7960    28.5260 
  177.3750     1.9850   -18.1230    62.0160     5.4240     4.7830     4.5140    29.7520 
  177.5000     2.0120   -17.8900    57.9370     5.4240     4.7500     4.2880    29.9240 
  177.6250     2.0450   -17.6070    56.5210     5.4230     4.7520     4.3820    29.0530 
  177.7500     2.0680   -17.3300    59.7690     5.4280     4.7770     4.5330    27.8160 
  177.8750     2.0770   -17.0940    63.5400     5.4450     4.8130     4.7640    26.8510 
  178.0000     2.0700   -16.8740    65.1730     5.4730     4.8500     5.0300    26.3030 
  178.1250     2.0300   -16.6430    64.1380     5.5940     4.8870     5.1520    25.8310 
  178.2500     1.9690   -16.4450    62.7200     5.8630     4.9290     5.1870    25.9780 
  178.3750     1.9190   -16.2840    63.3300     5.9680     4.9780     5.2030    27.2810 
  178.5000     1.9030   -16.1630    63.5670     5.9920     5.0170     5.4750    28.8610 
  178.6250     1.9200   -16.0980    61.7370     5.8800     5.0060     5.8760    29.7600 
  178.7500     1.9490   -16.0390    60.1460     5.6720     4.9370     5.8980    29.4850 
  178.8750     1.9800   -15.9530    58.9290     5.4350     4.8270     5.6840    28.6670 
  179.0000     2.0040   -15.8670    57.1260     5.2630     4.7130     5.2570    28.3020 
  179.1250     2.0050   -15.8430    54.2520     5.2750     4.6470     4.7850    28.8990 
  179.2500     1.9980   -15.8410    53.5060     5.4700     4.6520     4.4700    29.7340 
  179.3750     2.0080   -15.8250    55.2710     5.7900     4.7220     4.4090    30.2950 
  179.5000     2.0410   -15.7840    55.7460     6.0940     4.8230     4.6330    30.1210 
  179.6250     2.0700   -15.7000    55.1100     6.1810     4.8850     4.9580    29.4500 
  179.7500     2.0760   -15.6240    57.9680     6.0110     4.8670     5.1960    29.2700 
  179.8750     2.0770   -15.5990    62.7450     5.6650     4.7630     5.2480    29.7420 
  180.0000     2.0860   -15.6050    63.2240     5.3130     4.6080     5.0470    29.9510 
  180.1250     2.0950   -15.6070    58.9630     5.1320     4.4660     4.6050    28.8410 
  180.2500     2.0920   -15.6300    57.4970     5.1480     4.3910     4.6170    27.6130 
  180.3750     2.0880   -15.6950    58.5820     5.3450     4.4150     5.0490    27.2440 
  180.5000     2.1020   -15.7910    58.8260     5.6760     4.5420     5.4480    27.3250 
  180.6250     2.1370   -15.9330    59.7320     6.0920     4.7660     5.4130    26.6890 
  180.7500     2.1710   -16.0880    65.9730     6.5040     5.0230     5.5040    25.6430 
  180.8750     2.1910   -16.2160    77.7410     6.8490     5.2610     6.4120    25.0890 
  181.0000     2.2010   -16.3000    88.7300     7.0830     5.4300     7.5010    24.8730 
  181.1250     2.2030   -16.3330    89.0370     7.1750     5.4960     7.2260    24.6910 
  181.2500     2.1920   -16.3200    81.3230     7.1920     5.5050     6.9340    24.7760 
  181.3750     2.1700   -16.2430    72.7230     7.1860     5.5050     7.0280    25.2050 
  181.5000     2.1430   -16.1390    70.3110     7.1780     5.5280     7.4350    25.7590 
  181.6250     2.1160   -16.0590    76.8280     7.1580     5.5810     7.0280    26.0000 
  181.7500     2.0990   -15.9910    83.3760     7.1080     5.6300     6.5040    25.9630 
  181.8750     2.1070   -15.9320    83.0260     7.0160     5.6470     6.5640    26.0330 
  182.0000     2.1460   -15.8920    76.0530     6.9030     5.6220     6.6280    26.0520 
  182.1250     2.2060   -15.8620    68.8390     6.8270     5.5640     6.8330    25.6830 
  182.2500     2.2650   -15.8320    64.6920     6.8220     5.5070     6.8620    25.2320 
  182.3750     2.3120   -15.8160    64.7150     6.8810     5.4650     6.7490    24.6890 
  182.5000     2.3350   -15.8220    67.2900     6.9560     5.4450     6.7870    24.2920 
  182.6250     2.3240   -15.8070    67.7930     6.9640     5.4330     7.0400    24.3580 
  182.7500     2.2980   -15.7560    66.8180     6.8720     5.4140     7.6000    24.7970 
  182.8750     2.2720   -15.7000    67.7870     6.7050     5.3780     9.3400    25.2820 
  183.0000     2.2600   -15.6420    68.9160     6.5330     5.3230    10.9570    25.5230 
  183.1250     2.2630   -15.5650    65.1100     6.4310     5.2700     9.3910    25.3590 
  183.2500     2.2540   -15.4810    60.2130     6.4010     5.2440     7.2950    25.0050 
  183.3750     2.1970   -15.3850    57.4200     6.4170     5.2640     6.7460    24.6970 
  183.5000     2.0880   -15.2480    57.6300     6.4550     5.3440     6.8350    24.6710 
  183.6250     1.9780   -15.0700    61.6280     6.5280     5.4960     6.8390    25.1880 
  183.7500     1.9080   -14.8770    68.5550     6.6340     5.6790     8.5910    26.2720 
  183.8750     1.8760   -14.6660    75.9890     6.7120     5.8250    11.9590    27.5130 
  184.0000     1.8690   -14.4330    79.7850     6.6700     5.8510    10.6290    28.1340 
  184.1250     1.8700   -14.1760    77.3550     6.4450     5.6930     8.2740    27.9600 
  184.2500     1.8690   -13.8950    69.8150     6.1500     5.4290     7.2460    28.1720 
  184.3750     1.8680   -13.6310    59.3900     5.9090     5.1550     6.2350    29.6020 
  184.5000     1.8760   -13.4050    51.7970     5.8120     4.9600     5.0070    31.6210 
  184.6250     1.8840   -13.2180    53.4570     5.8810     4.8960     4.3280    32.2020 
  184.7500     1.8870   -13.0370    59.8160     5.9970     4.9140     4.2440    31.4300 
  184.8750     1.8980   -12.8150    62.9190     6.0690     4.9650     4.4740    30.1320 
  185.0000     1.9320   -12.4930    60.2580     6.0780     5.0110     4.8760    28.8810 
  185.1250     1.9780   -12.0890    59.1310     6.0810     5.0400     4.8950    27.6410 
  185.2500     2.0230   -11.6820    63.6010     6.1540     5.0730     4.7160    27.0140 
  185.3750     2.0770   -11.2850    69.5880     6.3130     5.1340     4.6140    27.5940 
  185.5000     2.1360   -10.9270    71.2440     6.5140     5.2250     4.6160    27.8330 
  185.6250     2.1490   -10.5770    68.5370     6.6560     5.3260     4.6510    26.6970 
  185.7500     2.1200   -10.2420    65.4610     6.6840     5.4060     4.7740    26.1340 
  185.8750     2.1010    -9.9990    63.7190     6.6180     5.4520     4.8020    26.2910 
  186.0000     2.1180    -9.9110    62.6540     6.5190     5.4760     4.8010    26.3680 
  186.1250     2.1560    -9.9710    63.1430     6.4640     5.4910     5.0450    25.9250 
  186.2500     2.1940   -10.0830    65.2860     6.4790     5.5080     5.2770    25.5440 
  186.3750     2.2280   -10.1540    69.1400     6.5390     5.5240     5.4590    25.2820 
  186.5000     2.2600   -10.1890    73.4770     6.5930     5.5360     5.4920    25.2760 
  186.6250     2.2840   -10.2150    74.6370     6.6060     5.5430     5.4120    25.4280 
  186.7500     2.2960   -10.2630    72.0340     6.6060     5.5670     5.6190    25.2730 
  186.8750     2.2980   -10.2840    69.9760     6.6360     5.6370     6.0270    25.0100 
  187.0000     2.2990   -10.2650    71.4270     6.7230     5.7680     6.5320    24.8490 
  187.1250     2.3140   -10.2400    75.1340     6.8650     5.9550     7.2780    24.8160 
  187.2500     2.3400   -10.1810    76.0780     7.0080     6.1380     7.9630    24.7940 
  187.3750     2.3640   -10.1540    72.9250     7.1120     6.2640     8.4770    24.6950 
  187.5000     2.3640   -10.0910    68.7840     7.1450     6.2890     8.6410    24.6300 
  187.6250     2.3070   -10.0200    69.1700     7.0760     6.1810     7.7220    24.6540 
  187.7500     2.2080    -9.9800    72.5030     6.9350     5.9930     6.5590    24.8860 
  187.8750     2.1080    -9.9710    72.5660     6.7580     5.7770     5.8990    25.4480 
