~V
VERS. 2.00: Ver 2.00
~W
STRT.M 50.0000:
STOP.M 240.0000:
STEP.M 0.1250:
NULL. -999.2500:
UWI. F11117:
~C
DEPT.M :
DEN.GM/CC :
GR.API :
RML.OHMM :
RI. :
RXO.OHMM :
CALI.CM :
SP.MV :
~A
# ...
  117.5000     2.1790    58.5930     6.0170     5.2090     6.4030    24.3680   -24.6510 
  117.6250     2.1840    57.5820     6.1140     5.3170     6.5590    24.3460   -24.3910 
  117.7500     2.1860    58.5200     6.2280     5.4510     6.7460    24.3020   -24.0300 
  117.8750     2.1870    62.0300     6.3280     5.5830     6.9350    24.2950   -23.6050 
  118.0000     2.1880    64.6830     6.3900     5.6900     7.0610    24.2950   -23.0800 
  118.1250     2.1920    63.4280     6.3950     5.7500     6.9960    24.3130   -22.4090 
  118.2500     2.1980    60.9660     6.3490     5.7510     6.8330    24.4200   -21.6230 
  118.3750     2.2090    61.6140     6.2380     5.6760     6.7210    24.5770   -20.7120 
  118.5000     2.2230    64.3350     6.0350     5.5020     6.8220    24.8130   -19.7140 
  118.6250     2.2400    64.2150     5.6900     5.1920     6.7640    25.1020   -18.6270 
  118.7500     2.2560    66.2370     5.2230     4.7800     6.1550    25.3650   -17.5180 
  118.8750     2.2660    72.5520     4.6800     4.3100     5.1980    25.5300   -16.4460 
  119.0000     2.2670    80.1060     4.1310     3.8440     4.3660    25.7210   -15.4200 
  119.1250     2.2550    81.3830     3.6720     3.4560     3.9530    25.9730   -14.5600 
  119.2500     2.2320    76.3330     3.3330     3.1730     3.6960    26.2690   -13.8590 
  119.3750     2.2040    70.0480     3.1390     3.0200     3.6950    26.3890   -13.3180 
  119.5000     2.1840    68.9770     3.1270     3.0320     3.9640    26.3330   -12.9570 
  119.6250     2.1940    74.5620     3.4120     3.3080     4.3700    26.0550   -12.7170 
  119.7500     2.2430    76.5060     4.0250     3.8670     4.7490    25.6700   -12.5680 
  119.8750     2.3240    70.2260     4.9780     4.7150     5.5880    25.6970   -12.4790 
  120.0000     2.4150    60.8570     6.1610     5.7390     8.1510    25.9930   -12.4360 
  120.1250     2.4690    55.4200     7.1700     6.5540    12.7070    26.2640   -12.4560 
  120.2500     2.4650    53.8970     7.5020     6.7560    12.9360    26.3530   -12.4890 
  120.3750     2.4110    55.1330     6.9510     6.2580     9.2810    26.3730   -12.5400 
  120.5000     2.3340    60.0860     5.8200     5.3590     5.6440    26.3560   -12.5610 
  120.6250     2.2640    66.0920     4.7370     4.5180     4.5430    26.3700   -12.5390 
  120.7500     2.2180    69.9440     4.0760     3.9850     4.4760    26.3420   -12.5200 
  120.8750     2.2030    70.5390     3.9010     3.8210     4.8160    26.2720   -12.4460 
  121.0000     2.2220    68.7610     4.1750     4.0270     5.1530    26.3400   -12.3260 
  121.1250     2.2800    65.7760     4.9250     4.6410     5.6710    26.3530   -12.0920 
  121.2500     2.3620    61.6580     6.0300     5.5540     7.1510    26.3590   -11.7780 
  121.3750     2.4480    57.0790     7.3610     6.6540    10.1530    26.3700   -11.4420 
  121.5000     2.5160    52.3830     8.6830     7.7520    12.3170    26.3620   -11.1080 
  121.6250     2.5480    47.8430     9.6160     8.5520    12.8730    26.2960   -10.8300 
  121.7500     2.5530    44.6710    10.0290     8.9610    12.4640    26.2060   -10.5360 
  121.8750     2.5420    44.1100    10.0170     9.0520    11.7380    26.2570   -10.2380 
  122.0000     2.5260    46.0370     9.8400     9.0010    11.3880    26.3830   -10.0130 
  122.1250     2.5080    46.5460     9.7690     8.9840    12.4000    26.4740    -9.8930 
  122.2500     2.4930    45.0410     9.8560     9.0500    13.4090    26.5030    -9.8590 
  122.3750     2.4820    44.9540    10.0390     9.1660    13.1480    26.5420    -9.8610 
  122.5000     2.4760    47.7380    10.2160     9.2660    12.5070    26.6230    -9.8690 
  122.6250     2.4790    50.4360    10.2800     9.2840    12.0540    26.6310    -9.9450 
  122.7500     2.4860    49.7940    10.2340     9.2360    11.7570    26.6330   -10.0630 
  122.8750     2.4950    46.3590    10.1530     9.1810    11.9010    26.7080   -10.2640 
  123.0000     2.5030    43.5030    10.1420     9.2030    11.6870    26.7720   -10.4590 
  123.1250     2.5130    43.8510    10.3150     9.3840    11.3590    26.7610   -10.6500 
  123.2500     2.5260    46.0770    10.6600     9.7020    11.6540    26.6850   -10.8420 
  123.3750     2.5400    47.6500    11.1050    10.0930    13.1970    26.6000   -11.0060 
  123.5000     2.5510    46.5850    11.5160    10.4480    15.2090    26.5790   -11.1940 
  123.6250     2.5480    45.7970    11.6960    10.6150    16.1020    26.5670   -11.3400 
  123.7500     2.5300    46.9320    11.5900    10.5570    14.9920    26.4810   -11.4370 
  123.8750     2.4990    47.6510    11.2440    10.3080    12.8300    26.5790   -11.5150 
  124.0000     2.4610    46.4130    10.7900     9.9720    11.6470    26.6910   -11.5760 
  124.1250     2.4240    46.2050    10.4130     9.6890    11.6240    26.6020   -11.6250 
  124.2500     2.3970    48.3880    10.2130     9.5440    11.9050    26.4990   -11.6720 
  124.3750     2.3880    49.2280    10.2010     9.5500    11.5360    26.6320   -11.7050 
  124.5000     2.3980    46.9440    10.3250     9.6610    11.1120    26.8810   -11.7310 
  124.6250     2.4200    46.2620    10.4810     9.7830    11.9130    26.9770   -11.7570 
  124.7500     2.4410    48.0010    10.5520     9.8200    13.6210    26.9460   -11.8000 
  124.8750     2.4550    49.0150    10.4700     9.7220    14.0460    26.8520   -11.7790 
  125.0000     2.4620    48.3790    10.2240     9.4840    11.9700    26.9700   -11.6550 
  125.1250     2.4660    47.9730     9.8610     9.1490    10.5910    27.0140   -11.4070 
  125.2500     2.4700    48.5820     9.4990     8.8130    10.1430    27.0300   -11.0950 
  125.3750     2.4730    48.9400     9.2000     8.5280    10.1630    27.1500   -10.8060 
  125.5000     2.4750    48.7340     8.9860     8.3150    10.1970    27.3690   -10.5170 
  125.6250     2.4750    50.2230     8.8530     8.1760    10.2540    27.6450   -10.2220 
  125.7500     2.4760    51.5420     8.7690     8.0850    10.1530    27.7020    -9.9570 
  125.8750     2.4780    48.4070     8.7240     8.0340    10.0840    27.5840    -9.7330 
  126.0000     2.4790    42.6340     8.7140     8.0190     9.9480    27.5780    -9.6170 
  126.1250     2.4780    42.8300     8.7320     8.0300    10.1160    27.5260    -9.6280 
  126.2500     2.4750    49.9370     8.7430     8.0300    10.1650    27.5070    -9.6850 
  126.3750     2.4700    56.1650     8.7200     8.0020    10.0370    27.5120    -9.7560 
  126.5000     2.4640    56.6520     8.6640     7.9470     9.9380    27.5510    -9.7970 
  126.6250     2.4600    55.7850     8.6030     7.8880     9.7700    27.5120    -9.8420 
  126.7500     2.4610    55.2920     8.5720     7.8450     9.7440    27.7410    -9.8960 
  126.8750     2.4680    52.9850     8.5920     7.8280    10.0570    27.8580    -9.9550 
  127.0000     2.4770    49.9940     8.6600     7.8370    10.8440    27.9700   -10.0260 
  127.1250     2.4820    51.0260     8.7560     7.8740    11.8650    28.0270   -10.0600 
  127.2500     2.4820    54.0500     8.8450     7.9310    11.3850    28.2550   -10.0950 
  127.3750     2.4790    54.6980     8.9100     8.0000    10.9950    28.5590   -10.1200 
  127.5000     2.4770    52.9890     8.9440     8.0670    11.0850    28.7460   -10.1270 
  127.6250     2.4780    53.5530     8.9450     8.1090    11.9670    28.8540   -10.1270 
  127.7500     2.4810    55.7850     8.9210     8.1170    12.6270    28.9790   -10.1220 
  127.8750     2.4840    55.9860     8.8800     8.0970    12.6700    29.1210   -10.1440 
  128.0000     2.4910    53.3280     8.8470     8.0760    11.8610    29.2180   -10.1720 
  128.1250     2.5010    50.2840     8.8850     8.1080    11.8280    29.3410   -10.2300 
  128.2500     2.5140    48.4130     9.0070     8.2040    12.7510    29.5460   -10.3110 
  128.3750     2.5230    47.3280     9.1710     8.3230    13.4780    29.6290   -10.3980 
  128.5000     2.5230    47.0450     9.2760     8.3840    13.9620    29.8290   -10.5660 
  128.6250     2.5110    48.0740     9.1600     8.2660    14.3040    29.9050   -10.7530 
