~V
VERS. 2.00: Ver 2.00
~W
STRT.M 62.0000:
STOP.M 277.0000:
STEP.M 0.1250:
NULL. -999.2500:
UWI. F11155:
~C
DEPT.M :
SP.MV :
DEN.GM/CC :
GR.API :
RML.OHMM :
RI. :
RXO.OHMM :
CALI.CM :
~A
# ...
  264.5000   -10.0130     2.3120    50.9030     6.3150     5.8240     5.5830    24.6080 
  264.6250    -9.9360     2.3210    50.2810     6.2650     5.7560     5.3300    24.3330 
  264.7500    -9.8720     2.3350    51.4230     6.2160     5.7010     5.0290    23.5250 
  264.8750    -9.8420     2.3480    52.0930     6.1550     5.6430     4.8150    22.0080 
  265.0000    -9.8480     2.3540    50.0420     6.0830     5.5740     4.7950    20.0650 
  265.1250    -9.8750     2.3500    47.2140     6.0080     5.4950     4.8020    18.3760 
  265.2500    -9.9120     2.3400    47.9150     5.9430     5.4140     4.7420    18.1120 
  265.3750    -9.9580     2.3290    50.3850     5.8880     5.3400     4.7310    19.0170 
  265.5000   -10.0360     2.3220    50.7040     5.8390     5.2750     4.8840    20.6280 
  265.6250   -10.0950     2.3200    48.5370     5.7930     5.2170     5.0810    22.4450 
  265.7500   -10.1530     2.3160    48.4960     5.7490     5.1620     5.1900    23.8510 
  265.8750   -10.1620     2.3000    51.2850     5.7120     5.1100     5.1710    24.4280 
  266.0000   -10.1760     2.2790    53.5310     5.6940     5.0680     5.0880    24.5040 
  266.1250   -10.1680     2.2660    53.5650     5.7090     5.0470     5.0200    24.4620 
  266.2500   -10.0950     2.2690    52.6680     5.7660     5.0600     5.1110    24.4330 
  266.3750    -9.9940     2.2830    52.1170     5.8440     5.0940     5.4370    24.4370 
  266.5000    -9.8570     2.3010    52.1170     5.9170     5.1330     6.5320    24.4480 
  266.6250    -9.7410     2.3160    52.1170     5.9560     5.1550     8.3460    24.4730 
  266.7500    -9.6340     2.3240    52.1170     5.9440     5.1420     8.7840    24.4530 
  266.8750    -9.5430     2.3280    52.1170     5.9060     5.1020     6.6420    24.3780 
  267.0000    -9.4830     2.3300    52.1170     5.8670     5.0500     5.3200    24.2970 
  267.1250    -9.4420     2.3310    52.1170     5.8480     5.0050     4.9640    24.2300 
  267.2500    -9.4270     2.3340    52.1170     5.8640     4.9870     4.9260    24.1550 
  267.3750    -9.4450     2.3390    52.1170     5.9020     4.9970     4.8750    24.1140 
  267.5000    -9.4590     2.3480    52.1170     5.9520     5.0280     4.8370    24.1020 
  267.6250    -9.4600     2.3580    52.1170     6.0040     5.0710     4.8110    24.0920 
  267.7500    -9.4760     2.3650    52.1170     6.0530     5.1120     4.8010    24.0650 
  267.8750    -9.5250     2.3650    52.1170     6.1000     5.1450     4.7810    24.0330 
  268.0000    -9.5600     2.3600    52.1170     6.1420     5.1660     4.8060    24.0020 
  268.1250    -9.6010     2.3540    52.1170     6.1730     5.1730     4.9040    23.9710 
  268.2500    -9.6310     2.3460    52.1170     6.1880     5.1680     4.9840    23.9630 
  268.3750    -9.6370     2.3320    52.1170     6.1930     5.1600     4.9940    23.9680 
  268.5000    -9.6660     2.3130    52.1170     6.1990     5.1540     4.9370    23.9660 
  268.6250    -9.7170     2.2980    52.1170     6.2160     5.1550     4.8590    23.9440 
  268.7500    -9.7850     2.3000    52.1170     6.2520     5.1660     4.8190    23.9860 
  268.8750    -9.8170     2.3150    52.1170     6.3020     5.1830     4.8230    24.0420 
  269.0000    -9.8500     2.3320    52.1170     6.3580     5.2000     4.8920    24.0540 
  269.1250    -9.8940     2.3410    52.1170     6.4100     5.2140     4.9870    23.9540 
  269.2500    -9.9590     2.3400    52.1170     6.4490     5.2250     5.1650    23.8260 
  269.3750   -10.0100     2.3370    52.1170     6.4810     5.2360     5.4170    23.7390 
  269.5000   -10.0510     2.3360    52.1170     6.5080     5.2480     5.5540    23.7870 
  269.6250   -10.0280     2.3380    52.1170     6.5350     5.2580     5.4170    23.8740 
  269.7500    -9.9290     2.3430    52.1170     6.5510     5.2550     5.3040    23.9950 
  269.8750    -9.8660     2.3530    52.1170     6.5540     5.2380     5.3500    24.2640 
  270.0000    -9.8130     2.3610    52.1170     6.5550     5.2140     5.7260    24.7090 
  270.1250    -9.7290     2.3600    52.1170     6.5670     5.1950     6.6870    25.0020 
  270.2500    -9.6340     2.3490    52.1170     6.6030     5.1900     8.4700    25.0530 
  270.3750    -9.5790     2.3330    52.1170     6.6480     5.1960     9.6380    25.1840 
  270.5000    -9.5110     2.3090    52.1170     6.6760     5.2060    10.0970    25.5190 
  270.6250    -9.4790     2.2830    52.1170     6.6740     5.2150     9.8350    25.7630 
  270.7500    -9.4380     2.2740    52.1170     6.6390     5.2200     9.8060    25.6990 
  270.8750    -9.3870     2.2860    52.1170     6.5970     5.2240     9.9960    25.5020 
  271.0000    -9.3410     2.3020    52.1170     6.5610     5.2280    10.2010    25.4340 
  271.1250    -9.3140     2.3030    52.1170     6.5340     5.2310     9.9830    25.5080 
  271.2500    -9.3060     2.3000    52.1170     6.5220     5.2320     9.2580    25.2700 
  271.3750    -9.3110     2.3270    52.1170     6.5230     5.2330     8.9220    24.7870 
  271.5000    -9.3340     2.3530    52.1170     6.5360     5.2320     9.0340    24.3600 
  271.6250    -9.3630     2.3690    52.1170     6.5570     5.2300     9.1490    24.1150 
  271.7500    -9.4470     2.3800    52.1170     6.5710     5.2290     9.0850    24.0140 
  271.8750    -9.5180     2.3910    52.1170     6.5730     5.2290     8.8010    23.9940 
  272.0000    -9.5720     2.3970    52.1170     6.5620     5.2310     7.7470    24.0380 
  272.1250    -9.6860     2.3920    52.1170     6.5450     5.2330     6.4990    24.0290 
  272.2500    -9.8420     2.3860    52.1170     6.5310     5.2350     5.8940    23.8810 
  272.3750    -9.9850     2.3830    52.1170     6.5310     5.2350     5.8320    23.7690 
  272.5000   -10.1240     2.3830    52.1170     6.5310     5.2350     5.9470    23.7330 
  272.6250   -10.2480     2.3800    52.1170     6.5310     5.2350     6.1420    23.7430 
  272.7500   -10.3770     2.3760    52.1170     6.5310     5.2350     6.3290    23.7710 
  272.8750   -10.5130     2.3770    52.1170     6.5310     5.2350     6.2990    23.7820 
  273.0000   -10.6450     2.3870    52.1170     6.5310     5.2350     6.1220    23.7840 
  273.1250   -10.6690     2.4010    52.1170     6.5310     5.2350     6.1200    23.7800 
  273.2500   -10.6690     2.4120    52.1170     6.5310     5.2350     6.2730    23.7760 
  273.3750   -10.6690     2.4220    52.1170     6.5310     5.2350     6.1770    23.7440 
  273.5000  -999.2500     2.4320    52.1170     6.5310     5.2350     6.0790    23.6890 
  273.6250  -999.2500     2.4330    52.1170     6.5310     5.2350     6.0740    23.6370 
  273.7500  -999.2500     2.4200    52.1170     6.5310     5.2350     6.0540    23.5910 
  273.8750  -999.2500     2.3950    52.1170     6.5310     5.2350     6.1180    23.5670 
  274.0000  -999.2500     2.3670    52.1170     6.5310     5.2350     6.6430    23.5900 
  274.1250  -999.2500     2.3380    52.1170     6.5310     5.2350     7.5120    23.5790 
  274.2500  -999.2500     2.2950    52.1170     6.5310     5.2350     7.9740    23.3600 
  274.3750  -999.2500     2.2280    52.1170     6.5310     5.2350     6.9050    22.6630 
  274.5000  -999.2500     2.1530    52.1170     6.5310     5.2350     6.0960    21.6540 
  274.6250  -999.2500     2.1000    52.1170     6.5310     5.2350     5.8040    21.0010 
  274.7500  -999.2500     2.0760    52.1170     6.5310     5.2350     5.7420    20.8050 
  274.8750  -999.2500     2.0710    52.1170     6.5310     5.2350     5.7390    20.8050 
  275.0000  -999.2500     2.0700    52.1170     6.5310     5.2350     5.7340    20.8050 
  275.1250  -999.2500     2.0690    52.1170     6.5310     5.2350     5.7370    20.8050 
  275.2500  -999.2500     2.0680    52.1170     6.5310     5.2350     5.7370    20.8050 
  275.3750  -999.2500     2.0680    52.1170     6.5310     5.2350     5.7360    20.8050 
  275.5000  -999.2500     2.0690    52.1170     6.5310     5.2350     5.7360    20.8030 
  275.6250  -999.2500     2.0690    52.1170     6.5310     5.2350     5.7360    20.7990 
