~V
VERS. 2.00: Ver 2.00
~W
STRT.M 45.0000:
STOP.M 250.0000:
STEP.M 0.1250:
NULL. -999.2500:
UWI. F11133:
~C
DEPT.M :
SP.MV :
DEN.GM/CC :
GR.API :
RML.OHMM :
RI. :
RXO.OHMM :
CALI.CM :
~A
# ...
  112.5000   -23.7520     2.2560    74.0060     7.4210     6.4350     6.3940    24.4550 
  112.6250   -23.8120     2.2530    77.1080     7.5070     6.5870     6.4420    24.3820 
  112.7500   -23.9680     2.2530    80.3240     7.6100     6.7480     6.5020    24.2800 
  112.8750   -24.1550     2.2510    81.2820     7.7400     6.9240     6.8330    24.1850 
  113.0000   -24.3020     2.2470    80.8950     7.8570     7.0890     7.5940    24.1210 
  113.1250   -24.3810     2.2450    79.0890     7.9120     7.2050     8.6010    24.0790 
  113.2500   -24.3990     2.2520    76.6230     7.8820     7.2310     9.0800    24.0730 
  113.3750   -24.3900     2.2690    76.9450     7.7770     7.1600     8.5070    24.1280 
  113.5000   -24.3730     2.2820    81.0030     7.6380     7.0250     7.6200    24.2270 
  113.6250   -24.3470     2.2830    83.5740     7.4980     6.8640     7.1360    24.3010 
  113.7500   -24.3230     2.2730    81.0330     7.3910     6.7210     6.8580    24.3200 
  113.8750   -24.3300     2.2640    77.2220     7.3410     6.6350     6.7150    24.3380 
  114.0000   -24.4120     2.2610    76.4990     7.3450     6.6100     6.5940    24.3750 
  114.1250   -24.5990     2.2590    77.3080     7.3860     6.6330     6.5480    24.4150 
  114.2500   -24.9050     2.2540    77.0030     7.4470     6.6830     6.5850    24.4500 
  114.3750   -25.2930     2.2430    76.2070     7.5160     6.7350     6.7100    24.4900 
  114.5000   -25.7290     2.2280    76.7500     7.5770     6.7670     6.8590    24.5160 
  114.6250   -26.2220     2.2140    77.7040     7.6000     6.7630     6.9840    24.4840 
  114.7500   -26.7690     2.2070    77.3810     7.5210     6.6910     7.2080    24.3820 
  114.8750   -27.3490     2.2080    75.8630     7.3090     6.5390     7.6010    24.2610 
  115.0000   -27.9150     2.2160    74.4230     7.0720     6.3730     8.0270    24.1780 
  115.1250   -28.4160     2.2340    74.1800     7.0400     6.3310     8.4180    24.1440 
  115.2500   -28.8370     2.2690    74.5430     7.5750     6.6380     8.8820    24.1370 
  115.3750   -29.2020     2.3260    73.9260     9.0560     7.5440    10.1750    24.1440 
  115.5000   -29.5320     2.4020    71.7380    11.7300     9.2600    14.1320    24.1650 
  115.6250   -29.8230     2.4900    67.7080    15.7640    12.0280    22.9790    24.1950 
  115.7500   -30.0830     2.5650    63.1720    20.8790    15.9080    32.7790    24.2130 
  115.8750   -30.3300     2.6010    60.6950    25.7700    20.1490    36.1470    24.2140 
  116.0000   -30.6090     2.5890    60.6650    28.3180    22.9560    36.1350    24.2010 
  116.1250   -30.9730     2.5400    60.6490    27.1780    22.8290    34.8210    24.1590 
  116.2500   -31.4600     2.4660    59.8190    22.9970    19.9230    28.6030    24.0610 
  116.3750   -32.0740     2.3710    60.9190    18.0200    16.0030    19.4740    23.9170 
  116.5000   -32.7810     2.2710    64.1540    14.0630    12.6460    12.7420    23.7790 
  116.6250   -33.5240     2.1910    66.1100    11.5030    10.2390     9.7000    23.6880 
  116.7500   -34.2380     2.1440    65.6900    10.2010     8.7710     8.7840    23.6450 
  116.8750   -34.8820     2.1240    64.3680     9.8030     8.0690     8.6740    23.6350 
  117.0000   -35.4230     2.1120    62.6860     9.8430     7.8500     8.6590    23.6400 
  117.1250   -35.8420     2.1060    60.7370    10.0170     7.9100     8.5930    23.6670 
  117.2500   -36.1150     2.1110    60.4390    10.0980     8.0590     8.4510    23.7140 
  117.3750   -36.2200     2.1210    61.8730    10.0030     8.1690     8.2380    23.7620 
  117.5000   -36.1640     2.1250    62.4670     9.8070     8.2060     8.0690    23.8130 
  117.6250   -35.9690     2.1220    62.0950     9.5940     8.1890     8.0460    23.8900 
  117.7500   -35.6600     2.1200    61.8340     9.4050     8.1340     8.0890    23.9760 
  117.8750   -35.2510     2.1220    61.9150     9.2150     8.0330     8.0830    24.0240 
  118.0000   -34.7420     2.1290    63.1120     8.9690     7.8700     8.0370    24.0080 
  118.1250   -34.1190     2.1400    66.1650     8.6590     7.6440     7.9410    23.9560 
  118.2500   -33.4000     2.1540    69.7140     8.3480     7.3940     7.7200    23.9140 
  118.3750   -32.6540     2.1690    71.3140     8.1320     7.1840     7.4320    23.8980 
  118.5000   -31.9690     2.1770    70.5470     8.0650     7.0650     7.3510    23.8680 
  118.6250   -31.3900     2.1750    68.1820     8.1380     7.0480     7.7350    23.8070 
  118.7500   -30.9270     2.1660    66.3600     8.3010     7.1190     8.3480    23.7750 
  118.8750   -30.5610     2.1560    68.1000     8.4920     7.2460     8.8340    23.8410 
  119.0000   -30.2670     2.1490    71.6360     8.6750     7.3950     9.1270    23.9700 
  119.1250   -30.0530     2.1480    72.2180     8.8420     7.5490     9.2570    24.0810 
  119.2500   -29.8820     2.1530    69.1590     8.9690     7.6830     9.1820    24.1360 
  119.3750   -29.6580     2.1650    66.2840     9.0250     7.7660     8.8870    24.1720 
  119.5000   -29.2830     2.1860    65.6080     8.9980     7.7830     8.6060    24.2150 
  119.6250   -28.7180     2.2160    66.0760     8.9140     7.7430     8.5230    24.2420 
  119.7500   -27.9720     2.2500    68.0660     8.8270     7.6720     8.4660    24.2150 
  119.8750   -27.1200     2.2750    71.7550     8.7770     7.5930     8.1030    24.1250 
  120.0000   -26.2400     2.2860    74.3240     8.7280     7.4960     7.6560    23.9920 
  120.1250   -25.3400     2.2880    73.8700     8.5670     7.3310     7.5590    23.8460 
  120.2500   -24.4410     2.2910    72.0900     8.1260     7.0080     7.4490    23.7480 
  120.3750   -23.6070     2.2950    72.1120     7.3720     6.5090     7.1450    23.7330 
  120.5000   -22.8910     2.2980    75.1360     6.5680     5.9760     6.6000    23.7570 
  120.6250   -22.3130     2.2990    78.6200     6.0900     5.6250     6.0380    23.7690 
  120.7500   -21.8690     2.3050    79.0430     6.2780     5.6910     5.9080    23.7730 
  120.8750   -21.5250     2.3290    75.6300     7.1840     6.2800     6.9270    23.8330 
  121.0000   -21.2310     2.3810    70.3120     8.5050     7.2740    10.3120    23.9530 
  121.1250   -20.9990     2.4510    63.9620     9.8890     8.4730    16.2620    24.0690 
  121.2500   -20.8450     2.5040    57.8970    10.9950     9.5970    20.0490    24.1400 
  121.3750   -20.7690     2.5060    55.4170    11.6920    10.4410    17.8740    24.2000 
  121.5000   -20.7470     2.4740    57.5150    12.0650    10.9640    14.3870    24.2580 
  121.6250   -20.7620     2.4440    60.3470    12.1120    11.1470    14.3060    24.2650 
  121.7500   -20.8020     2.4310    60.1610    11.7250    10.9250    17.7660    24.2150 
  121.8750   -20.8580     2.4120    58.1730    10.9250    10.3310    18.3670    24.1650 
  122.0000   -20.9320     2.3640    57.9150    10.0270     9.6060    13.6780    24.1390 
  122.1250   -21.0280     2.3030    59.5490     9.3380     8.9790     9.1030    24.1240 
  122.2500   -21.1270     2.2620    60.2980     9.0400     8.6100     7.6100    24.1130 
  122.3750   -21.1860     2.2530    59.1710     9.1020     8.5210     7.9080    24.1490 
  122.5000   -21.1850     2.2640    58.8610     9.2970     8.5920     8.5720    24.2810 
  122.6250   -21.1220     2.2820    61.8630     9.3660     8.6540     9.2270    24.4670 
  122.7500   -21.0070     2.2940    67.8950     9.0430     8.4990     9.4490    24.6010 
  122.8750   -20.8670     2.2980    73.1250     8.2550     8.0240     8.8510    24.6450 
  123.0000   -20.7270     2.2980    74.2610     7.2330     7.3360     7.4210    24.6450 
  123.1250   -20.5850     2.3000    71.6760     6.2820     6.6270     6.2370    24.6280 
  123.2500   -20.4390     2.3080    68.2910     5.7200     6.1360     5.8230    24.6020 
  123.3750   -20.3070     2.3270    66.6720     5.6980     6.0220     5.9080    24.5680 
  123.5000   -20.2060     2.3630    65.6890     6.1330     6.2860     6.3650    24.5220 
  123.6250   -20.1480     2.4180    63.2450     6.9170     6.8860     7.8900    24.4760 
