~V
VERS. 2.00: Ver 2.00
~W
STRT.M 63.0000:
STOP.M 208.0000:
STEP.M 0.1250:
NULL. -999.2500:
UWI. F11108:
~C
DEPT.M :
GR.API :
RML.OHMM :
RI. :
RXO.OHMM :
CALI.CM :
SP.MV :
DEN.GM/CC :
~A
# ...
   96.7500   109.0820     4.4370     3.8220     4.3670    24.5750    -5.8650     2.3510 
   96.8750   108.7960     4.6940     3.9810     4.3270    24.4660    -5.7620     2.3550 
   97.0000   106.4640     5.1470     4.3130     4.6530    24.3110    -5.9360     2.3490 
   97.1250   102.3420     5.7410     4.8090     5.5940    23.9410    -6.2450     2.3280 
   97.2500    99.3140     6.3170     5.3520     6.9840    23.4910    -6.5860     2.3010 
   97.3750    98.3220     6.7400     5.8220     7.7330    23.1890    -7.0040     2.2770 
   97.5000    97.3970     6.9350     6.1210     7.2840    23.1110    -7.5290     2.2610 
   97.6250    96.3680     6.9110     6.1930     6.8030    23.1590    -8.0920     2.2580 
   97.7500    96.6870     6.8200     6.1390     6.7700    23.2150    -8.6390     2.2610 
   97.8750    96.9820     6.7610     6.0490     6.7470    23.2260    -9.1830     2.2630 
   98.0000    94.2980     6.7800     5.9860     6.8300    23.1650    -9.7990     2.2570 
   98.1250    88.0780     6.8940     5.9840     7.2750    23.0230   -10.5480     2.2370 
   98.2500    83.4710     7.1300     6.0580     7.6710    22.9020   -11.3890     2.2100 
   98.3750    82.2030     7.6050     6.2770     7.8550    22.8840   -12.2710     2.1860 
   98.5000    82.4480     8.4690     6.7580     8.0600    23.0210   -13.1190     2.1790 
   98.6250    84.6590     9.9780     7.7170     8.3910    23.2900   -13.8940     2.2140 
   98.7500    86.7190    12.0700     9.1510    10.2220    23.5950   -14.6090     2.2920 
   98.8750    84.1820    14.3820    10.9190    16.0200    23.8070   -15.2680     2.3980 
   99.0000    77.3690    16.1940    12.6230    29.6010    23.8970   -15.8540     2.4970 
   99.1250    72.2580    16.5870    13.5480    28.2310    23.7350   -16.3500     2.5390 
   99.2500    72.1110    15.7220    13.4770    18.0290    23.3680   -16.8000     2.5150 
   99.3750    74.1320    14.1370    12.5960    12.2790    23.0030   -17.2040     2.4420 
   99.5000    76.1960    12.4700    11.3630    10.4820    22.8100   -17.6050     2.3540 
   99.6250    76.6450    11.2550    10.2640     9.6710    22.7620   -18.0850     2.2860 
   99.7500    75.1270    10.5070     9.4700     9.3470    22.7680   -18.6250     2.2440 
   99.8750    74.1270    10.0880     8.9530     8.7420    22.7090   -19.1420     2.2190 
  100.0000    74.7080     9.8450     8.6250     7.9860    22.6510   -19.5650     2.2010 
  100.1250    75.9720     9.6850     8.4190     7.6350    22.6300   -19.8580     2.1860 
  100.2500    78.4340     9.5580     8.2730     7.5910    22.6440   -20.0860     2.1730 
  100.3750    82.0730     9.4650     8.1730     7.6290    22.7010   -20.2650     2.1640 
  100.5000    83.9220     9.4380     8.1310     7.8650    22.8290   -20.3830     2.1590 
  100.6250    81.0910     9.5680     8.2080     8.6010    22.9590   -20.3730     2.1580 
  100.7500    77.7240     9.9070     8.4490     9.3230    23.0060   -20.2240     2.1610 
  100.8750    77.7690    10.4660     8.8830     8.9770    22.9140   -19.9740     2.1660 
  101.0000    79.0990    11.1630     9.4800     9.1460    22.7360   -19.7170     2.1720 
  101.1250    77.8730    11.7880    10.1030     9.9940    22.6520   -19.5650     2.1740 
  101.2500    75.5230    12.1360    10.5570    10.9730    22.6280   -19.5040     2.1700 
  101.3750    75.7250    12.1220    10.7230    11.0520    22.6110   -19.5250     2.1650 
  101.5000    76.8680    11.7900    10.5850    10.3180    22.5280   -19.5890     2.1640 
  101.6250    76.5580    11.2680    10.2030     9.2360    22.3360   -19.6590     2.1760 
  101.7500    75.6740    10.7200     9.7300     8.7860    22.1730   -19.7480     2.1980 
  101.8750    74.4890    10.1990     9.2330     9.0230    22.1930   -19.8680     2.2250 
  102.0000    74.0200     9.7130     8.7440     9.3190    22.3520   -19.9920     2.2520 
  102.1250    77.1430     9.2880     8.2950     8.4740    22.4530   -20.1060     2.2730 
  102.2500    82.1160     8.9700     7.9250     7.4900    22.5370   -20.2150     2.2860 
  102.3750    83.5450     8.8200     7.6860     7.0570    22.7050   -20.3090     2.2880 
  102.5000    82.9460     8.8760     7.6160     7.7920    22.9050   -20.4070     2.2750 
  102.6250    83.8030     9.1650     7.7620     9.3130    22.9230   -20.5550     2.2430 
  102.7500    83.2000     9.6250     8.0810     8.9350    22.7940   -20.7550     2.1980 
  102.8750    79.8280    10.2420     8.5590     8.3130    22.7000   -20.9500     2.1500 
  103.0000    76.6690    11.0200     9.1940     8.6000    22.7500   -21.0600     2.1160 
  103.1250    75.9710    11.9810    10.0120     9.3630    22.9240   -20.9670     2.1150 
  103.2500    75.7470    13.0180    10.9410    10.1160    23.0830   -20.7030     2.1440 
  103.3750    77.7330    13.9720    11.8620    11.4580    23.1870   -20.3570     2.1880 
  103.5000    81.8350    14.6630    12.6060    14.6820    23.3730   -20.0040     2.2300 
  103.6250    83.1600    14.9560    13.0000    16.9360    23.6650   -19.6880     2.2530 
  103.7500    80.5350    15.0460    13.1460    16.7810    23.9230   -19.3910     2.2650 
  103.8750    77.1840    15.1860    13.2320    15.3400    24.0460   -19.1110     2.2760 
  104.0000    75.3850    15.6230    13.4850    13.3400    24.0090   -18.9180     2.2870 
  104.1250    75.5330    16.5310    14.1340    15.6090    23.9550   -18.9540     2.2860 
  104.2500    77.2870    17.7150    15.1320    19.2240    24.0230   -19.1860     2.2630 
  104.3750    78.1270    18.8900    16.3200    20.1320    24.0970   -19.5230     2.2220 
  104.5000    76.6100    19.7130    17.4300    19.0760    24.0300   -19.8880     2.1770 
  104.6250    73.5290    19.7620    18.0520    19.2260    23.8930   -20.1950     2.1480 
  104.7500    70.6270    19.0260    18.0130    19.6440    23.8560   -20.4340     2.1370 
  104.8750    67.9690    17.6000    17.2710    19.1850    23.9360   -20.6600     2.1410 
  105.0000    66.8940    15.7300    15.9360    17.9280    24.0430   -20.8950     2.1510 
  105.1250    70.3640    13.7120    14.1880    16.1120    24.1130   -21.0890     2.1660 
  105.2500    76.7050    11.7910    12.3480    13.5540    24.1370   -21.1970     2.1820 
  105.3750    83.0310    10.0840    10.6140    10.4180    24.1540   -21.1680     2.1970 
  105.5000    87.6890     8.6760     9.1200     7.8860    24.1650   -20.9500     2.2070 
  105.6250    90.3910     7.6740     7.9830     6.9920    24.1590   -20.5050     2.2120 
  105.7500    93.1360     6.9770     7.1400     6.3630    24.0870   -19.9310     2.2190 
  105.8750    96.3830     6.5080     6.5420     5.9280    23.9400   -19.2980     2.2330 
  106.0000    98.1330     6.1980     6.1270     5.6760    23.9210   -18.6120     2.2520 
  106.1250    98.1260     5.9970     5.8500     5.3710    24.0540   -17.8300     2.2710 
  106.2500   100.6060     5.8590     5.6500     5.2170    24.1660   -17.0040     2.2830 
  106.3750   102.9620     5.7990     5.5270     5.1370    24.1770   -16.2660     2.2870 
  106.5000   101.4180     5.8670     5.5120     5.3100    24.1150   -15.7680     2.2830 
  106.6250    96.0340     6.1780     5.6950     5.7180    23.9830   -15.6600     2.2710 
  106.7500    91.7440     6.7680     6.1140     6.1910    23.7870   -15.8110     2.2560 
  106.8750    89.2730     7.6630     6.8070     7.1700    23.5390   -16.0760     2.2420 
  107.0000    86.7770     8.8420     7.7810     9.4350    23.2690   -16.4090     2.2340 
  107.1250    83.2580    10.2680     9.0270    11.6370    23.1760   -16.8470     2.2340 
  107.2500    79.2920    11.8280    10.4270    12.7580    23.2750   -17.3730     2.2310 
  107.3750    76.3500    13.4880    11.9200    14.1920    23.5800   -17.9090     2.2170 
  107.5000    75.4990    15.2460    13.4730    16.6660    23.9690   -18.3740     2.1890 
  107.6250    75.2420    17.1020    15.0910    20.6470    24.1150   -18.7030     2.1590 
  107.7500    74.5290    18.9360    16.7180    24.4970    23.9080   -18.9630     2.1470 
  107.8750    73.1150    20.5460    18.2180    27.1110    23.6260   -19.2240     2.1550 
