~V
VERS. 2.00: Ver 2.00
~W
STRT.M 62.0000:
STOP.M 217.0000:
STEP.M 0.1250:
NULL. -999.2500:
UWI. F11126:
~C
DEPT.M :
DEN.GM/CC :
SP.MV :
GR.API :
RML.OHMM :
RI. :
RXO.OHMM :
CALI.CM :
~A
# ...
   73.2500     2.1850   -17.8230    76.6050     7.1270     5.8370     8.9980    28.2420 
   73.3750     2.1680   -19.5950    74.6820     7.4570     6.1170     9.0020    28.3990 
   73.5000     2.1530   -21.1970    73.3170     7.8210     6.4080     9.0650    28.7290 
   73.6250     2.1350   -22.5620    72.7410     8.1510     6.6790     9.1500    29.1510 
   73.7500     2.1210   -23.6650    72.3410     8.3640     6.8750     9.1210    29.6390 
   73.8750     2.1130   -24.5520    71.6670     8.3960     6.9480     8.9420    30.0470 
   74.0000     2.1060   -25.2500    68.8920     8.2210     6.8580     8.9570    30.1260 
   74.1250     2.1020   -25.8100    65.3930     7.9510     6.6720     9.2000    29.9860 
   74.2500     2.1030   -26.2930    64.3280     7.6810     6.4540     9.5880    29.6350 
   74.3750     2.1080   -26.7080    66.3830     7.4810     6.2580    10.0960    29.2140 
   74.5000     2.1110   -27.0670    69.5010     7.3830     6.1150    10.2830    28.8570 
   74.6250     2.1140   -27.3220    70.0580     7.3150     6.0100    10.3110    28.7000 
   74.7500     2.1150   -27.5400    67.9640     7.2550     5.9230    10.3490    28.6050 
   74.8750     2.1180   -27.6550    66.0330     7.2040     5.8370    10.5180    28.4440 
   75.0000     2.1260   -27.8040    65.9920     7.1400     5.7490    10.6160    28.2480 
   75.1250     2.1370   -28.0010    66.6940     7.0640     5.6670    10.6200    28.1300 
   75.2500     2.1470   -28.2440    65.8760     6.9880     5.6020    10.5820    28.0900 
   75.3750     2.1540   -28.4870    63.8410     6.9210     5.5600    10.5690    28.1170 
   75.5000     2.1570   -28.7280    62.7860     6.8870     5.5450    10.5470    28.2780 
   75.6250     2.1570   -29.0180    62.1770     6.8530     5.5440    10.4720    28.5830 
   75.7500     2.1570   -29.3540    61.0560     6.8310     5.5450    10.4520    29.0060 
   75.8750     2.1570   -29.7700    60.1730     6.8180     5.5380    10.5240    29.5160 
   76.0000     2.1570   -30.0690    62.1790     6.8010     5.5160    10.6630    29.9400 
   76.1250     2.1560   -30.3710    65.6380     6.7840     5.4810    10.7720    30.1800 
   76.2500     2.1550   -30.5960    67.7700     6.7660     5.4370    10.7300    30.2820 
   76.3750     2.1560   -30.7840    68.4640     6.7760     5.3870    10.4950    30.3520 
   76.5000     2.1600   -30.8820    69.1130     6.7940     5.3400    10.1620    30.5100 
   76.6250     2.1590   -30.9370    70.1510     6.7960     5.3020     9.8060    30.7320 
   76.7500     2.1550   -30.9100    71.6130     6.7480     5.2740     9.5500    30.8110 
   76.8750     2.1500   -30.8220    74.0310     6.7220     5.2580     9.5000    30.5150 
   77.0000     2.1530   -30.6740    76.0630     6.7150     5.2470     9.8180    29.7400 
   77.1250     2.1600   -30.4500    75.3770     6.7110     5.2320    10.1340    28.8310 
   77.2500     2.1650   -30.2030    71.8710     6.6960     5.2070    10.2820    28.1910 
   77.3750     2.1660   -29.9690    68.0290     6.6630     5.1700    10.1970    27.9450 
   77.5000     2.1590   -29.7690    68.4800     6.6060     5.1260     9.9490    27.9600 
   77.6250     2.1450   -29.5820    71.3200     6.5370     5.0840     9.8130    28.1110 
   77.7500     2.1290   -29.4080    73.2170     6.4690     5.0520     9.7040    28.4000 
   77.8750     2.1140   -29.2620    73.0640     6.4110     5.0350     9.6380    28.7640 
   78.0000     2.1050   -29.1430    71.5680     6.3740     5.0320     9.6480    29.0000 
   78.1250     2.1040   -28.9760    69.8870     6.3510     5.0310     9.7070    29.0420 
   78.2500     2.1120   -28.7990    67.9240     6.3300     5.0230     9.7450    28.9500 
   78.3750     2.1220   -28.6040    66.7980     6.3030     5.0080     9.7450    28.8320 
   78.5000     2.1270   -28.4180    66.1800     6.2690     4.9910     9.7030    28.8090 
   78.6250     2.1280   -28.1860    64.3960     6.2390     4.9840     9.6730    28.8630 
   78.7500     2.1300   -27.9320    62.8720     6.2150     4.9900     9.6370    28.9370 
   78.8750     2.1360   -27.5610    63.6190     6.1830     5.0010     9.6300    28.9870 
   79.0000     2.1420   -27.1070    66.6710     6.0950     4.9830     9.6220    28.9670 
   79.1250     2.1500   -26.5090    67.6010     5.9240     4.9080     9.5010    28.9100 
   79.2500     2.1570   -25.7600    65.0110     5.6790     4.7630     9.1170    28.8110 
   79.3750     2.1620   -24.8650    62.0480     5.4110     4.5650     8.3600    28.8630 
   79.5000     2.1710   -23.9540    64.5770     5.2250     4.3770     7.2390    29.1340 
   79.6250     2.1830   -23.2630    72.5700     5.1960     4.2700     6.2430    29.1490 
   79.7500     2.1880   -22.8290    80.8770     5.3510     4.2950     5.9950    28.5760 
   79.8750     2.1820   -22.6200    84.0810     5.6610     4.4630     6.7260    27.9900 
   80.0000     2.1680   -22.5210    80.5320     6.0370     4.7470     7.8390    27.8680 
   80.1250     2.1550   -22.4380    74.2750     6.3370     5.0370     8.7930    28.0970 
   80.2500     2.1440   -22.2440    69.0470     6.4600     5.2380     9.3470    28.4230 
   80.3750     2.1300   -21.8280    67.0960     6.3610     5.2790     9.3400    28.7100 
   80.5000     2.1200   -20.9510    69.9760     6.0630     5.1230     8.6880    28.8610 
   80.6250     2.1310   -19.6430    75.2020     5.7130     4.8700     7.5560    28.9080 
   80.7500     2.1660   -18.0200    80.9020     5.4180     4.6080     6.2850    28.8170 
   80.8750     2.2020   -16.2990    85.9490     5.2420     4.4100     5.4060    28.4770 
   81.0000     2.2080   -14.6700    89.1650     5.2200     4.3330     5.3270    28.1230 
   81.1250     2.1970   -13.3240    90.8800     5.3120     4.3640     5.4320    27.8870 
   81.2500     2.1900   -12.3730    90.3560     5.5040     4.4970     5.5490    27.7240 
   81.3750     2.1930   -11.9980    86.6180     5.8080     4.7290     5.8500    27.6160 
   81.5000     2.2040   -12.2620    80.6850     6.2960     5.0960     6.4340    27.5190 
   81.6250     2.2210   -12.8620    75.7150     6.9840     5.6070     7.1840    27.4190 
   81.7500     2.2490   -13.5350    72.3480     7.8420     6.2670     8.0010    27.3430 
   81.8750     2.3000   -14.0860    69.5750     8.7410     7.0170     8.8470    27.3040 
   82.0000     2.3830   -14.3720    68.0050     9.3900     7.6730     9.6730    27.2410 
   82.1250     2.4680   -14.4930    68.6040     9.5700     8.0260    10.1060    27.1250 
   82.2500     2.4940   -14.4580    70.3870     9.1760     7.9310     9.9640    27.0210 
   82.3750     2.4370   -14.2460    73.8630     8.2970     7.3810     8.7780    27.0160 
   82.5000     2.3490   -13.9120    80.8700     7.2270     6.5520     6.7100    27.1290 
   82.6250     2.2950   -13.5330    88.9470     6.3810     5.7980     5.2550    27.2770 
   82.7500     2.2820   -13.2900    94.3770     6.0120     5.3400     4.6990    27.4380 
   82.8750     2.2970   -13.2710    94.5650     6.2470     5.3020     4.6560    27.6910 
   83.0000     2.3310   -13.6950    91.6330     7.1460     5.7850     5.3460    27.9640 
   83.1250     2.3810   -14.4560    89.3150     8.4060     6.6290     7.5470    27.9520 
   83.2500     2.4420   -15.6280    85.9020     9.7110     7.6510    11.2340    27.5840 
   83.3750     2.4860   -17.1480    79.2740    10.6940     8.5910    15.5650    27.0900 
   83.5000     2.4380   -18.9270    71.9230    10.9170     9.0700    19.1000    26.8410 
   83.6250     2.3140   -20.7220    68.7080    10.4280     8.9730    18.6040    26.9380 
   83.7500     2.1950   -22.4070    69.4500     9.4690     8.3850    13.8660    27.5130 
   83.8750     2.1300   -23.8930    71.0030     8.4230     7.5820    10.9420    28.4150 
   84.0000     2.1220   -25.0840    71.3520     7.6730     6.8950    10.4210    29.0710 
   84.1250     2.1310   -25.9810    70.7230     7.2940     6.4590    10.2270    29.2960 
   84.2500     2.1420   -26.5490    70.4620     7.2380     6.2760     9.9890    29.3720 
   84.3750     2.1550   -26.7630    70.3790     7.4190     6.2940     9.8450    29.4430 
