~V
VERS. 2.00: Ver 2.00
~W
STRT.M 47.0000:
STOP.M 248.0000:
STEP.M 0.1250:
NULL. -999.2500:
UWI. F11134:
~C
DEPT.M :
GR.API :
RML.OHMM :
RI. :
RXO.OHMM :
CALI.CM :
SP.MV :
DEN.GM/CC :
~A
# ...
  137.0000    63.7300    15.2820    13.6660    15.5060    25.0370   -16.0010     2.4320 
  137.1250    65.6480    15.1950    13.5690    13.8120    24.9790   -16.1100     2.4140 
  137.2500    66.3030    15.1310    13.4600    12.7740    24.8440   -16.1900     2.4030 
  137.3750    64.6010    15.3300    13.5310    12.5320    24.6580   -16.2340     2.4040 
  137.5000    62.4360    15.9170    13.9050    13.2190    24.4810   -16.2600     2.4100 
  137.6250    62.8890    16.8440    14.5830    15.0320    24.3150   -16.2710     2.4140 
  137.7500    64.6870    17.9370    15.4590    17.6440    24.2020   -16.2500     2.4180 
  137.8750    63.7900    18.8890    16.3090    20.1880    24.3080   -16.1960     2.4310 
  138.0000    61.1780    19.4460    16.8990    20.8380    24.5790   -16.1120     2.4550 
  138.1250    60.6380    19.5140    17.1020    19.5760    24.7940   -16.0050     2.4810 
  138.2500    62.6300    19.1450    16.9170    17.9310    24.8850   -15.8940     2.4950 
  138.3750    64.2040    18.4670    16.4220    17.7970    24.9070   -15.7870     2.4910 
  138.5000    64.2360    17.6740    15.7700    17.5850    24.9230   -15.6780     2.4820 
  138.6250    63.5220    16.9070    15.0940    16.2460    24.9570   -15.5660     2.4770 
  138.7500    63.0790    16.1910    14.4250    14.3560    24.9940   -15.4620     2.4780 
  138.8750    63.4890    15.4090    13.6840    12.5880    25.0080   -15.3900     2.4750 
  139.0000    64.0950    14.3980    12.7520    11.9300    25.0110   -15.3420     2.4650 
  139.1250    64.4330    13.0650    11.5720    11.9460    25.0120   -15.3010     2.4520 
  139.2500    64.9880    11.4620    10.2000    11.3240    25.0070   -15.2910     2.4370 
  139.3750    67.1390     9.8330     8.8220     9.2790    24.9910   -15.3360     2.4130 
  139.5000    70.6000     8.4860     7.6610     6.9560    24.9730   -15.4040     2.3820 
  139.6250    73.8620     7.6340     6.8680     5.6280    24.9590   -15.4690     2.3530 
  139.7500    75.1830     7.3530     6.5100     5.3220    24.9090   -15.5470     2.3360 
  139.8750    73.5490     7.6300     6.6170     5.5770    24.7810   -15.6410     2.3290 
  140.0000    70.5100     8.2640     7.0700     6.2250    24.6430   -15.7330     2.3260 
  140.1250    68.6050     8.9630     7.6590     7.1290    24.5570   -15.8080     2.3210 
  140.2500    69.2570     9.4640     8.1610     7.8820    24.5180   -15.8510     2.3200 
  140.3750    71.6300     9.5630     8.3650     8.2960    24.5110   -15.8740     2.3250 
  140.5000    73.1290     9.2950     8.2430     7.8600    24.5480   -15.8700     2.3330 
  140.6250    73.1610     8.8180     7.8940     7.0120    24.6520   -15.8300     2.3380 
  140.7500    72.7500     8.2540     7.4200     6.5650    24.8020   -15.7710     2.3330 
  140.8750    72.1010     7.6890     6.9070     6.7610    24.9160   -15.6930     2.3200 
  141.0000    71.4770     7.1990     6.4320     7.0270    24.9650   -15.5900     2.3060 
  141.1250    71.6860     6.8710     6.0690     6.7680    24.9470   -15.4900     2.3000 
  141.2500    73.0120     6.7910     5.8940     5.9910    24.8740   -15.4100     2.3040 
  141.3750    74.2450     7.0460     5.9890     5.8570    24.7960   -15.3380     2.3090 
  141.5000    74.3350     7.6030     6.3540     6.9870    24.7780   -15.2860     2.3090 
  141.6250    73.2240     8.3200     6.8990     8.4810    24.8270   -15.2570     2.3000 
  141.7500    70.5380     9.0070     7.4880     9.2200    24.8890   -15.2210     2.2870 
  141.8750    66.8310     9.4530     7.9500     9.0600    24.9190   -15.2060     2.2780 
  142.0000    65.0350     9.6360     8.2220     8.6650    24.9210   -15.2330     2.2750 
  142.1250    66.4770     9.7210     8.3790     8.5320    24.9210   -15.2540     2.2770 
  142.2500    68.7070     9.9120     8.5500     8.8720    24.9230   -15.2250     2.2820 
  142.3750    68.2250    10.3320     8.8290     9.5680    24.9120   -15.1730     2.2830 
  142.5000    65.5640    10.8690     9.1710    10.0490    24.8850   -15.1300     2.2810 
  142.6250    64.1600    11.2470     9.4050    10.0860    24.8520   -15.0900     2.2820 
  142.7500    65.0650    11.1850     9.3430     9.6160    24.7980   -15.0230     2.2900 
  142.8750    66.7070    10.5110     8.8500     8.6220    24.7090   -14.9080     2.3020 
  143.0000    68.3280     9.4190     8.0370     7.8450    24.6040   -14.7780     2.3070 
  143.1250    69.8380     8.2740     7.1410     7.4620    24.5140   -14.6670     2.3040 
  143.2500    71.2900     7.3510     6.3530     6.8090    24.4690   -14.5660     2.3010 
  143.3750    72.0260     6.8160     5.8060     6.1200    24.4590   -14.4710     2.3050 
  143.5000    72.4410     6.6390     5.5160     5.7810    24.4220   -14.3830     2.3080 
  143.6250    73.7670     6.6950     5.4310     5.7830    24.3490   -14.3120     2.3050 
  143.7500    75.4250     6.8600     5.4850     5.9650    24.3210   -14.2550     2.2990 
  143.8750    75.3740     7.0050     5.5880     6.1130    24.3900   -14.1840     2.2980 
  144.0000    72.6810     7.0460     5.6590     6.1270    24.5110   -14.0850     2.3010 
  144.1250    69.5890     6.9610     5.6550     6.0610    24.6120   -13.9780     2.3070 
  144.2500    69.3670     6.7740     5.5820     6.0010    24.6780   -13.8650     2.3120 
  144.3750    72.2440     6.5350     5.4660     5.9480    24.7100   -13.7210     2.3180 
  144.5000    76.1660     6.3020     5.3400     5.9080    24.7130   -13.5560     2.3240 
  144.6250    80.2320     6.1140     5.2200     5.8620    24.7120   -13.3910     2.3310 
  144.7500    84.8580     5.9860     5.1100     5.7220    24.7270   -13.2400     2.3420 
  144.8750    87.4830     5.9110     5.0130     5.4380    24.7720   -13.1200     2.3550 
  145.0000    85.8500     5.8630     4.9320     5.1890    24.8420   -13.0200     2.3680 
  145.1250    81.9590     5.8180     4.8690     5.0910    24.8960   -12.9380     2.3770 
  145.2500    79.1690     5.7700     4.8250     5.0900    24.9280   -12.8870     2.3790 
  145.3750    77.9870     5.7250     4.8000     5.0960    24.9570   -12.8640     2.3770 
  145.5000    77.2100     5.6950     4.7860     5.1210    24.9880   -12.8560     2.3740 
  145.6250    77.4010     5.6890     4.7810     5.1820    25.0070   -12.8620     2.3750 
  145.7500    78.7450     5.7160     4.7850     5.2600    25.0100   -12.9030     2.3790 
  145.8750    78.7830     5.7780     4.8020     5.3240    25.0010   -12.9860     2.3790 
  146.0000    76.8420     5.8550     4.8340     5.3680    24.9860   -13.0800     2.3740 
  146.1250    75.3620     5.9250     4.8760     5.3780    24.9820   -13.1620     2.3710 
  146.2500    75.8140     5.9750     4.9270     5.3580    24.9930   -13.2460     2.3720 
  146.3750    76.6560     6.0010     4.9810     5.3900    25.0070   -13.3370     2.3810 
  146.5000    76.4950     6.0060     5.0280     5.4950    25.0110   -13.4360     2.3900 
  146.6250    75.9110     5.9880     5.0560     5.5760    25.0100   -13.5440     2.3950 
  146.7500    75.6040     5.9380     5.0590     5.5450    25.0090   -13.6490     2.3910 
  146.8750    75.7930     5.8590     5.0300     5.4490    25.0090   -13.7270     2.3840 
  147.0000    75.7920     5.7710     4.9790     5.3410    25.0070   -13.7950     2.3820 
  147.1250    75.3240     5.6930     4.9170     5.2370    24.9920   -13.8790     2.3830 
  147.2500    75.5440     5.6310     4.8540     5.1450    24.9420   -13.9560     2.3840 
  147.3750    77.5290     5.5810     4.8020     5.0810    24.8440   -14.0040     2.3850 
  147.5000    80.4720     5.5390     4.7640     5.0480    24.7410   -14.0320     2.3830 
  147.6250    82.9960     5.5120     4.7430     5.0350    24.6770   -14.0460     2.3810 
  147.7500    84.1660     5.5110     4.7370     5.0370    24.6500   -14.0390     2.3800 
  147.8750    83.1420     5.5380     4.7470     5.0370    24.6510   -14.0230     2.3790 
  148.0000    81.3560     5.5750     4.7690     5.0140    24.6810   -14.0020     2.3740 
  148.1250    80.6720     5.5990     4.7980     4.9870    24.7360   -13.9640     2.3640 
