~V
VERS. 2.00: Ver 2.00
~W
STRT.M 40.0000:
STOP.M 232.0000:
STEP.M 0.1250:
NULL. -999.2500:
UWI. F11121:
~C
DEPT.M :
SP.MV :
DEN.GM/CC :
GR.API :
RML.OHMM :
RI. :
RXO.OHMM :
CALI.CM :
~A
# ...
   96.2500    -2.9990     2.0900    63.8310     8.9800     6.6780    10.8000    23.0850 
   96.3750    -3.0560     2.0980    64.7710     8.9850     6.6650    10.5520    23.0830 
   96.5000    -3.1770     2.1070    64.7790     9.0040     6.6650    10.8490    23.0810 
   96.6250    -3.3310     2.1170    65.8660     9.0210     6.6860    10.9500    23.0790 
   96.7500    -3.4790     2.1260    66.0920     9.0200     6.7200    10.6610    23.0660 
   96.8750    -3.6050     2.1310    64.2980     9.0010     6.7510    10.3860    23.0460 
   97.0000    -3.7090     2.1310    61.7030     8.9740     6.7680    10.1940    23.0380 
   97.1250    -3.7950     2.1250    60.4040     8.9550     6.7560    10.0680    23.0600 
   97.2500    -3.8350     2.1170    59.7550     8.9480     6.7270    10.1910    23.0920 
   97.3750    -3.8200     2.1110    58.7600     8.9470     6.6930    10.3520    23.0990 
   97.5000    -3.7350     2.1120    57.2230     8.9350     6.6610    10.4890    23.0550 
   97.6250    -3.5840     2.1190    55.9520     8.9070     6.6350    10.4360    22.9540 
   97.7500    -3.4000     2.1270    55.7210     8.8700     6.6080    10.2680    22.8560 
   97.8750    -3.2150     2.1340    56.0430     8.8280     6.5790    10.0850    22.8000 
   98.0000    -3.0220     2.1390    56.4530     8.7820     6.5510    10.2260    22.7850 
   98.1250    -2.8070     2.1420    57.3930     8.7330     6.5250    10.7790    22.7870 
   98.2500    -2.6230     2.1450    57.5310     8.6850     6.5060    11.1450    22.7860 
   98.3750    -2.4800     2.1480    57.3290     8.6460     6.4950    11.1750    22.7850 
   98.5000    -2.3830     2.1490    59.7680     8.6290     6.4990    11.1470    22.7890 
   98.6250    -2.3170     2.1450    63.9760     8.6550     6.5290    10.3760    22.7930 
   98.7500    -2.2520     2.1370    66.9220     8.7100     6.5780     9.5690    22.7720 
   98.8750    -2.1590     2.1280    67.6800     8.7520     6.6220     9.3240    22.7010 
   99.0000    -2.0360     2.1200    68.2100     8.7170     6.6190     9.7610    22.5960 
   99.1250    -1.8960     2.1190    69.7180     8.5170     6.5060     9.6210    22.5210 
   99.2500    -1.7320     2.1220    71.0030     8.1780     6.2900     8.8290    22.4900 
   99.3750    -1.5530     2.1280    72.4870     7.7690     6.0080     7.6110    22.4630 
   99.5000    -1.3720     2.1340    74.1070     7.3910     5.7230     6.5020    22.4010 
   99.6250    -1.2120     2.1370    73.9380     7.1540     5.5150     6.1840    22.2850 
   99.7500    -1.0950     2.1370    71.5220     7.0690     5.4110     6.2390    22.1500 
   99.8750    -1.0370     2.1340    69.7950     7.1160     5.4090     6.4530    22.0420 
  100.0000    -1.0380     2.1340    71.6610     7.2480     5.4860     6.6050    21.9910 
  100.1250    -1.0630     2.1400    72.2210     7.4000     5.6020     6.5120    21.9870 
  100.2500    -1.0870     2.1490    68.8100     7.5170     5.7050     6.3310    21.9910 
  100.3750    -1.1170     2.1550    64.9100     7.5790     5.7720     6.1180    21.9910 
  100.5000    -1.1610     2.1550    64.9790     7.5920     5.7980     6.0380    21.9910 
  100.6250    -1.2330     2.1510    67.9560     7.5650     5.7910     6.0500    21.9920 
  100.7500    -1.3020     2.1490    69.2380     7.5150     5.7680     6.0930    21.9930 
  100.8750    -1.3480     2.1490    68.8150     7.4470     5.7360     6.2120    21.9880 
  101.0000    -1.3820     2.1490    68.9360     7.3720     5.6930     6.4120    21.9810 
  101.1250    -1.4060     2.1470    70.7560     7.3080     5.6420     6.5420    21.9810 
  101.2500    -1.4200     2.1460    73.3530     7.2720     5.5920     6.4700    21.9860 
  101.3750    -1.4200     2.1500    74.6150     7.2670     5.5510     6.2560    21.9880 
  101.5000    -1.4020     2.1600    72.5960     7.2890     5.5240     6.1580    21.9910 
  101.6250    -1.3860     2.1700    67.1620     7.3280     5.5140     6.2980    22.0340 
  101.7500    -1.3970     2.1740    63.3130     7.3690     5.5150     6.4650    22.1130 
  101.8750    -1.4170     2.1690    65.3790     7.4020     5.5190     6.7070    22.2040 
  102.0000    -1.4340     2.1550    70.5890     7.4020     5.5120     7.1730    22.3120 
  102.1250    -1.5030     2.1350    72.0390     7.3380     5.4720     7.6030    22.4370 
  102.2500    -1.6540     2.1210    69.5160     7.2450     5.4080     7.7550    22.5570 
  102.3750    -1.8740     2.1210    66.3650     7.1890     5.3530     7.9170    22.6530 
  102.5000    -2.1310     2.1360    64.3010     7.2380     5.3530     7.7450    22.7420 
  102.6250    -2.3860     2.1550    63.3520     7.4660     5.4670     7.2870    22.8360 
  102.7500    -2.6080     2.1610    65.3330     7.8410     5.6950     7.3810    22.9010 
  102.8750    -2.8160     2.1490    69.6410     8.3000     6.0100     8.0030    22.9290 
  103.0000    -3.0300     2.1250    71.3560     8.7430     6.3560     8.7080    22.9320 
  103.1250    -3.2450     2.1050    67.0010     9.0520     6.6480     8.9240    22.9220 
  103.2500    -3.4520     2.0990    61.1540     9.1990     6.8400     8.9810    22.9310 
  103.3750    -3.6300     2.1090    59.5250     9.2080     6.9270     8.9570    23.0220 
  103.5000    -3.8000     2.1280    63.5280     9.1410     6.9360     8.9980    23.2180 
  103.6250    -3.9740     2.1440    68.0180     9.0690     6.9080     8.9890    23.4160 
  103.7500    -4.1790     2.1500    68.0030     9.0130     6.8710     9.0330    23.5090 
  103.8750    -4.4120     2.1480    64.8280     8.9600     6.8250     9.0930    23.5180 
  104.0000    -4.6320     2.1440    62.1060     8.9020     6.7690     8.9520    23.5100 
  104.1250    -4.7800     2.1440    60.9790     8.8370     6.7030     8.7930    23.5100 
  104.2500    -4.8550     2.1440    60.8420     8.7750     6.6370     8.9500    23.5100 
  104.3750    -4.8840     2.1420    61.1090     8.7230     6.5760     9.3250    23.5430 
  104.5000    -4.8650     2.1380    61.3330     8.6850     6.5250     9.5790    23.6310 
  104.6250    -4.8120     2.1340    61.3890     8.6540     6.4850     9.4680    23.7360 
  104.7500    -4.7440     2.1340    61.0740     8.6130     6.4500     9.2250    23.7950 
  104.8750    -4.6570     2.1360    60.9030     8.5520     6.4140     8.9540    23.8050 
  105.0000    -4.5860     2.1370    60.1200     8.4740     6.3760     8.6290    23.8000 
  105.1250    -4.5490     2.1360    58.7880     8.3920     6.3480     8.3890    23.7940 
  105.2500    -4.5070     2.1310    57.0380     8.3340     6.3360     8.1590    23.7950 
  105.3750    -4.4460     2.1230    55.5460     8.3140     6.3470     7.8210    23.7990 
  105.5000    -4.3670     2.1110    56.5360     8.3360     6.3760     7.4580    23.7310 
  105.6250    -4.2360     2.0980    57.4460     8.3850     6.4180     7.4120    23.4860 
  105.7500    -4.0570     2.0860    55.2950     8.4350     6.4630     7.8690    23.1420 
  105.8750    -3.8590     2.0800    53.0340     8.4750     6.5080     8.3670    22.8330 
  106.0000    -3.6360     2.0800    55.5060     8.4980     6.5490     8.7230    22.6270 
  106.1250    -3.4060     2.0860    62.1100     8.4630     6.5550     8.9440    22.5120 
  106.2500    -3.2100     2.0970    64.1850     8.3370     6.4970     9.4320    22.4450 
  106.3750    -3.0630     2.1150    61.6280     8.1200     6.3650     9.8400    22.4090 
  106.5000    -2.9660     2.1410    59.3970     7.8650     6.1890     9.5790    22.4100 
  106.6250    -2.9020     2.1710    60.0330     7.6840     6.0370     7.9530    22.5390 
  106.7500    -2.8510     2.1940    62.6050     7.6370     5.9620     6.8410    22.7960 
  106.8750    -2.8040     2.2030    66.3920     7.7040     5.9690     7.0510    23.0670 
  107.0000    -2.7840     2.1980    69.6570     7.7950     6.0120     8.2800    23.2160 
  107.1250    -2.7830     2.1870    67.9770     7.7820     6.0210     8.9650    23.1620 
  107.2500    -2.7670     2.1840    63.8610     7.6530     5.9700     8.7180    22.9450 
  107.3750    -2.7460     2.1860    63.4590     7.4800     5.8890     8.0250    22.6420 
