~V
VERS. 2.00: Ver 2.00
~W
STRT.M 59.0000:
STOP.M 247.0000:
STEP.M 0.1250:
NULL. -999.2500:
UWI. F11130:
~C
DEPT.M :
DEN.GM/CC :
SP.MV :
GR.API :
RML.OHMM :
RI. :
RXO.OHMM :
CALI.CM :
~A
# ...
  115.2500     2.3410    -0.2560   104.5240     6.5410     5.5060     6.3170    24.4440 
  115.3750     2.3300    -0.7340    99.3790     6.6460     5.5670     6.3680    24.4370 
  115.5000     2.3120    -1.2660    93.2310     6.8260     5.6920     6.6040    24.4350 
  115.6250     2.2870    -1.8910    90.4960     7.0890     5.8960     7.0270    24.4610 
  115.7500     2.2590    -2.5100    91.1330     7.3860     6.1360     7.5070    24.5610 
  115.8750     2.2320    -3.0150    93.0580     7.6590     6.3640     7.7150    24.7020 
  116.0000     2.2140    -3.4940    94.5910     7.8530     6.5220     7.8530    24.7560 
  116.1250     2.2080    -3.7990    91.7200     7.9200     6.5560     7.8440    24.6790 
  116.2500     2.2130    -3.9990    86.0140     7.8990     6.4990     8.0660    24.5770 
  116.3750     2.2210    -4.1130    83.6380     7.8440     6.4060     8.1470    24.5130 
  116.5000     2.2260    -4.1290    86.7460     7.8160     6.3400     7.9470    24.5720 
  116.6250     2.2250    -4.1090    89.1310     7.8720     6.3640     7.5730    24.6520 
  116.7500     2.2190    -4.0220    86.7680     7.9950     6.4670     7.5050    24.6600 
  116.8750     2.2120    -3.9580    83.0970     8.1410     6.6090     7.8540    24.6390 
  117.0000     2.2070    -3.9080    82.7940     8.2480     6.7320     8.3320    24.6360 
  117.1250     2.2070    -3.8820    84.6360     8.2480     6.7720     8.5650    24.6660 
  117.2500     2.2080    -3.9590    84.7120     8.1570     6.7290     8.3210    24.6960 
  117.3750     2.2080    -4.0920    83.2040     8.0220     6.6340     7.9020    24.6760 
  117.5000     2.2070    -4.2890    81.8200     7.9150     6.5410     7.8850    24.6240 
  117.6250     2.2060    -4.5290    82.3410     7.9140     6.5130     8.3170    24.5620 
  117.7500     2.2060    -4.8380    83.9190     8.0290     6.5670     8.5580    24.5340 
  117.8750     2.2070    -5.2570    84.5290     8.2390     6.6960     8.7810    24.5630 
  118.0000     2.2100    -5.7110    83.8090     8.5030     6.8740     9.0540    24.6810 
  118.1250     2.2120    -6.2360    81.0320     8.7600     7.0600     9.4990    24.7430 
  118.2500     2.2150    -6.7550    77.9180     8.9640     7.2180     9.7200    24.7650 
  118.3750     2.2170    -7.2030    76.0630     9.0960     7.3420     9.9080    24.7640 
  118.5000     2.2180    -7.5840    76.7470     9.1620     7.4390    10.1030    24.7550 
  118.6250     2.2180    -7.8280    78.1080     9.1780     7.5170    10.2960    24.7420 
  118.7500     2.2160    -8.0320    76.1550     9.1730     7.5780    10.3780    24.7460 
  118.8750     2.2130    -8.1250    72.7440     9.1640     7.6130    10.3010    24.7660 
  119.0000     2.2100    -8.1490    71.5810     9.1600     7.6160    10.2650    24.7320 
  119.1250     2.2060    -8.1220    73.8600     9.1630     7.5950     9.9920    24.6460 
  119.2500     2.2000    -7.9430    76.5380     9.1570     7.5650     9.8660    24.5790 
  119.3750     2.1940    -7.7020    78.1620     9.1050     7.5170     9.7470    24.5480 
  119.5000     2.1910    -7.3690    78.8510     8.9660     7.4190     9.8170    24.5480 
  119.6250     2.1970    -7.0180    77.8360     8.7090     7.2330     9.9850    24.5720 
  119.7500     2.2120    -6.6680    77.4480     8.3990     6.9810     9.7300    24.5890 
  119.8750     2.2290    -6.3690    79.1180     8.1390     6.7240     9.0130    24.5820 
  120.0000     2.2430    -6.1950    79.8830     8.0560     6.5610     8.2920    24.5690 
  120.1250     2.2450    -6.0220    76.0440     8.3210     6.6390     8.2770    24.5680 
  120.2500     2.2380    -5.9440    72.0240     8.9240     7.0030     8.6750    24.5770 
  120.3750     2.2240    -5.9330    70.5370     9.7910     7.6620     9.6320    24.5900 
  120.5000     2.2090    -6.0180    69.4470    10.7350     8.5310    11.6470    24.6120 
  120.6250     2.2010    -6.1800    66.2390    11.4230     9.3530    14.5880    24.6730 
  120.7500     2.2040    -6.3320    64.5210    11.6510     9.8280    15.4130    24.7710 
  120.8750     2.2180    -6.5130    67.6360    11.3810     9.8270    14.5200    24.8570 
  121.0000     2.2380    -6.6080    73.1710    10.7540     9.4280    12.7960    24.8650 
  121.1250     2.2490    -6.6920    74.5660    10.0220     8.8440    11.3760    24.7620 
  121.2500     2.2450    -6.8050    72.4540     9.4150     8.3100    10.6340    24.7130 
  121.3750     2.2270    -6.8660    70.9310     9.0110     7.9110    10.0920    24.8310 
  121.5000     2.2030    -6.8750    73.0510     8.7920     7.6620     9.0320    25.0290 
  121.6250     2.1840    -6.8370    74.6000     8.6950     7.5400     8.6910    25.1580 
  121.7500     2.1740    -6.7870    73.7170     8.6160     7.4620     8.4780    25.1790 
  121.8750     2.1740    -6.6550    72.2890     8.5080     7.3890     8.4750    25.1440 
  122.0000     2.1840    -6.4630    73.6120     8.3610     7.3220     9.0250    25.1340 
  122.1250     2.1990    -6.2900    78.2790     8.1960     7.2920     9.3310    25.0960 
  122.2500     2.2120    -6.0160    80.4210     8.0670     7.3070     8.7530    24.9620 
  122.3750     2.2200    -5.7130    77.2620     8.0250     7.3640     8.0370    24.7190 
  122.5000     2.2230    -5.3340    72.0630     8.1160     7.4600     8.3980    24.5380 
  122.6250     2.2250    -4.8580    69.8360     8.3650     7.5980     9.2130    24.6470 
  122.7500     2.2350    -4.3630    70.2130     8.6760     7.7480     9.8940    24.8400 
  122.8750     2.2550    -3.8250    71.7760     8.9390     7.8570    10.1420    24.9850 
  123.0000     2.2820    -3.3340    73.3790     9.0660     7.8820     9.9780    25.0380 
  123.1250     2.3100    -2.8250    73.9990     9.0320     7.8340    10.1550    25.0960 
  123.2500     2.3320    -2.4330    73.1440     8.9640     7.8000     9.3470    25.1880 
  123.3750     2.3440    -2.2320    72.6370     8.9860     7.8490     8.5040    25.2540 
  123.5000     2.3380    -2.2490    73.3350     9.1850     8.0170     9.1540    25.2630 
  123.6250     2.3050    -2.5950    72.3330     9.6040     8.3270    10.8870    25.2210 
  123.7500     2.2520    -3.0940    68.2000    10.1350     8.7460    11.9630    25.1340 
  123.8750     2.1910    -3.7060    65.1960    10.6710     9.2580    11.9500    25.0250 
  124.0000     2.1360    -4.2940    66.1310    11.1140     9.8140    12.2650    24.9310 
  124.1250     2.1030    -4.8030    66.2330    11.3870    10.2980    14.4520    24.8800 
  124.2500     2.0980    -5.1950    63.3930    11.5500    10.6410    15.5850    24.7480 
  124.3750     2.1240    -5.3210    62.2930    11.7030    10.8650    15.3120    24.5310 
  124.5000     2.1870    -5.1950    63.5320    11.9830    11.0600    14.6860    24.3960 
  124.6250     2.2870    -4.7070    62.4910    12.5560    11.3790    14.4800    24.3380 
  124.7500     2.4020    -4.0020    61.0400    13.4090    11.9090    14.0430    24.3640 
  124.8750     2.5080    -3.2360    62.5300    14.4500    12.6730    14.5270    24.4880 
  125.0000     2.5860    -2.4850    63.7760    15.4810    13.6030    16.0250    24.6530 
  125.1250     2.6220    -1.9030    60.9530    16.0930    14.4430    15.6840    24.7030 
  125.2500     2.6270    -1.3650    57.9540    16.1210    14.8170    15.7390    24.6580 
  125.3750     2.6130    -0.9130    55.8820    15.5950    14.4500    16.1170    24.6140 
  125.5000     2.5890    -0.5880    54.2590    14.6680    13.4060    15.8230    24.5900 
  125.6250     2.5670    -0.3610    55.9640    13.5980    12.1460    14.2620    24.5360 
  125.7500     2.5550    -0.2260    59.8860    12.8480    11.2280    12.0430    24.4950 
  125.8750     2.5580    -0.0680    61.5340    12.8310    10.9380    10.8320    24.4780 
  126.0000     2.5720     0.0850    60.2920    13.7450    11.4140    12.5620    24.4680 
  126.1250     2.5910     0.3620    58.5720    15.5630    12.8010    17.7030    24.4600 
  126.2500     2.6040     0.6460    56.2190    17.7570    14.7780    20.0950    24.5060 
  126.3750     2.6080     0.8730    52.8070    19.8490    16.9520    20.1770    24.6500 
