~V
VERS. 2.00: Ver 2.00
~W
STRT.M 55.0000:
STOP.M 210.0000:
STEP.M 0.1250:
NULL. -999.2500:
UWI. F11105:
~C
DEPT.M :
DEN.GM/CC :
GR.API :
RML.OHMM :
RI. :
RXO.OHMM :
CALI.CM :
SP.MV :
~A
# ...
  111.2500     2.1640    84.6780     5.5580     4.7890     5.0850    26.9030   -16.7910 
  111.3750     2.1540    81.0930     6.3060     5.2880     5.6420    26.6670   -17.2420 
  111.5000     2.1580    76.5680     7.4160     6.0880     6.4520    26.3200   -17.6620 
  111.6250     2.1840    72.5560     8.7120     7.1330     7.6250    25.5920   -17.9960 
  111.7500     2.2300    70.4770     9.7370     8.0970     9.1540    25.0880   -18.2400 
  111.8750     2.2830    70.7440    10.0410     8.5950    10.7790    25.3100   -18.3910 
  112.0000     2.3250    74.2490     9.4230     8.3630    10.9600    25.8400   -18.3840 
  112.1250     2.3380    80.6130     8.1020     7.4340     8.8890    26.3530   -18.1590 
  112.2500     2.3270    84.8810     6.7810     6.3480     6.4210    26.5050   -17.7780 
  112.3750     2.2980    84.8800     5.8290     5.4420     5.0610    26.7010   -17.2960 
  112.5000     2.2610    82.0660     5.3770     4.8880     4.6930    26.8220   -16.7990 
  112.6250     2.2340    79.0530     5.5320     4.8200     4.9550    26.9730   -16.3560 
  112.7500     2.2350    78.9870     6.2260     5.1960     5.7150    26.9200   -15.9880 
  112.8750     2.2780    80.4240     7.4500     6.0310     6.9180    26.7550   -15.6940 
  113.0000     2.3610    79.0170     9.0730     7.2740     8.0110    26.5140   -15.5380 
  113.1250     2.4550    72.3340    10.6400     8.6690     9.2750    26.5440   -15.5570 
  113.2500     2.5080    64.9160    11.4540     9.6490    12.5200    26.7010   -15.6820 
  113.3750     2.4760    60.0080    11.0370     9.7220    16.8380    26.7580   -15.8770 
  113.5000     2.3580    59.7010     9.5200     8.8260    15.8680    26.6710   -16.0590 
  113.6250     2.2000    65.4710     7.7010     7.4420     9.2750    26.3950   -16.2070 
  113.7500     2.0720    71.3610     6.3690     6.2610     5.2280    26.4460   -16.3800 
  113.8750     2.0080    74.1630     5.7170     5.5390     3.9740    27.3080   -16.5900 
  114.0000     2.0220    73.9360     5.6590     5.3130     4.3730    27.4990   -16.7990 
  114.1250     2.1070    72.4720     6.0250     5.5400     5.4760    27.2550   -16.9710 
  114.2500     2.2060    70.0380     6.4660     5.9490     6.4570    27.1070   -17.1080 
  114.3750     2.2750    67.6370     6.7290     6.3070     6.8350    27.0180   -17.2230 
  114.5000     2.2960    68.2070     6.6730     6.4290     6.2080    27.0330   -17.3630 
  114.6250     2.2840    71.8860     6.3240     6.2480     5.5000    27.0040   -17.5310 
  114.7500     2.2670    74.5570     5.8970     5.9230     5.1850    27.0110   -17.6480 
  114.8750     2.2560    75.1600     5.4920     5.5660     5.1710    27.0680   -17.7000 
  115.0000     2.2570    76.1360     5.1360     5.2330     5.1520    27.1290   -17.6880 
  115.1250     2.2690    80.3760     4.8310     4.9510     4.9170    27.1840   -17.6340 
  115.2500     2.2820    84.5510     4.5970     4.7340     4.4780    27.3480   -17.5830 
  115.3750     2.2900    83.1890     4.5030     4.6250     4.3270    27.4210   -17.5630 
  115.5000     2.2840    76.6980     4.6370     4.6880     4.3650    27.3760   -17.5810 
  115.6250     2.2600    70.6330     5.1250     5.0320     4.7700    27.2770   -17.6410 
  115.7500     2.2280    67.2830     5.9280     5.6620     5.7140    27.2710   -17.7310 
  115.8750     2.2050    65.8940     6.9550     6.5500     7.1660    27.2540   -17.8310 
  116.0000     2.2070    66.2150     8.0010     7.5580     8.8650    27.2750   -17.9300 
  116.1250     2.2420    67.9440     8.6640     8.3390     9.8530    27.3390   -18.0070 
  116.2500     2.2920    67.2270     8.6990     8.5740    10.2140    27.2380   -18.0410 
  116.3750     2.3300    63.7650     8.0840     8.1550     9.6870    27.0540   -18.0340 
  116.5000     2.3380    61.2800     7.0990     7.2840     7.5620    26.9010   -17.9810 
  116.6250     2.3140    63.4240     6.2580     6.3930     5.9030    26.8440   -17.8600 
  116.7500     2.2850    67.9710     5.9250     5.8470     5.1950    26.8820   -17.7110 
  116.8750     2.2760    70.0470     6.3310     5.8560     5.1330    26.9170   -17.5800 
  117.0000     2.3040    66.3470     7.7150     6.6140     5.8000    26.8420   -17.4520 
  117.1250     2.3760    59.0240    10.5680     8.5710     8.0650    26.7210   -17.3200 
  117.2500     2.4670    52.0010    16.0530    11.8210    13.9350    26.6290   -17.1970 
  117.3750     2.5520    45.9620    23.0140    16.3180    23.5740    26.6150   -17.0420 
  117.5000     2.6090    41.5750    28.7800    21.3050    34.0310    26.6340   -16.8810 
  117.6250     2.6200    39.6790    31.6760    24.7090    35.1670    26.6880   -16.7450 
  117.7500     2.6040    39.0810    31.2670    25.4810    27.8390    26.7740   -16.6100 
  117.8750     2.5780    40.8920    28.9590    24.2960    20.5930    26.8680   -16.4610 
  118.0000     2.5510    45.5440    26.5930    22.5580    18.7080    26.9000   -16.3270 
  118.1250     2.5320    49.1440    25.2480    21.3070    19.9070    26.9050   -16.2180 
  118.2500     2.5220    48.4570    24.6970    20.6400    19.6880    26.9050   -16.0960 
  118.3750     2.5180    45.3200    24.6050    20.4020    17.4520    26.9110   -15.9890 
  118.5000     2.5170    42.6710    24.7360    20.4280    17.0780    26.9390   -15.8960 
  118.6250     2.5180    42.7230    25.0340    20.6480    18.5120    26.9810   -15.7970 
  118.7500     2.5170    45.4590    25.4900    21.0200    18.9550    27.0230   -15.6990 
  118.8750     2.5140    49.2840    26.0960    21.5450    18.5880    27.0520   -15.5950 
  119.0000     2.5090    50.2330    26.7760    22.1790    19.3120    27.0750   -15.4890 
  119.1250     2.5040    47.7640    27.3950    22.8310    21.6810    27.0750   -15.4090 
  119.2500     2.5000    46.0480    27.8550    23.3910    22.7070    27.0990   -15.3930 
  119.3750     2.4980    46.3680    28.0770    23.7670    20.9850    27.1300   -15.4220 
  119.5000     2.4980    47.0770    28.0030    23.8820    19.7580    27.1120   -15.4550 
  119.6250     2.4970    45.5590    27.5730    23.6500    19.3670    27.0830   -15.5090 
  119.7500     2.4920    44.3600    26.9380    23.1910    19.6210    27.0790   -15.5990 
  119.8750     2.4800    45.0770    26.2640    22.6490    19.0210    27.1180   -15.6940 
  120.0000     2.4620    45.5570    25.7370    22.1910    18.4200    27.1880   -15.7560 
  120.1250     2.4450    44.6960    25.6070    22.0210    18.0740    27.2560   -15.7560 
  120.2500     2.4360    43.3960    25.9340    22.2020    17.9030    27.3230   -15.7230 
  120.3750     2.4400    42.3430    26.7040    22.7510    18.3050    27.3860   -15.6760 
  120.5000     2.4580    42.1160    27.7780    23.5990    19.6820    27.3940   -15.6170 
  120.6250     2.4830    43.3730    28.9060    24.5950    21.2140    27.3560   -15.5430 
  120.7500     2.5070    45.6390    29.8310    25.5220    21.7860    27.2620   -15.4410 
  120.8750     2.5240    46.9540    30.4250    26.2490    21.6670    27.2380   -15.3530 
  121.0000     2.5300    47.5820    30.6580    26.7000    21.9250    27.3690   -15.3140 
  121.1250     2.5250    48.0200    30.5770    26.8330    22.4100    27.3930   -15.3260 
  121.2500     2.5150    47.8550    30.4090    26.8000    22.3900    27.4030   -15.3430 
  121.3750     2.5030    48.6220    30.3370    26.7500    21.9950    27.4160   -15.3510 
  121.5000     2.4960    50.6750    30.4830    26.8170    21.0670    27.4340   -15.3650 
  121.6250     2.4980    51.7830    30.8580    27.0810    21.8520    27.4600   -15.3950 
  121.7500     2.5070    50.5260    31.2560    27.4430    24.5290    27.5160   -15.4580 
  121.8750     2.5160    48.5250    31.4560    27.7550    27.9320    27.5740   -15.5350 
  122.0000     2.5170    48.0120    31.2650    27.8350    27.2480    27.5750   -15.6110 
  122.1250     2.5100    50.3480    30.5590    27.4950    23.6750    27.5690   -15.6870 
  122.2500     2.5000    52.1860    29.6100    26.8590    21.4400    27.5750   -15.7530 
  122.3750     2.4900    50.9510    28.7080    26.1420    20.4890    27.6260   -15.8190 
