~V
VERS. 2.00: Ver 2.00
~W
STRT.M 50.0000:
STOP.M 248.0000:
STEP.M 0.1250:
NULL. -999.2500:
UWI. F11129:
~C
DEPT.M :
SP.MV :
DEN.GM/CC :
GR.API :
RML.OHMM :
RI. :
RXO.OHMM :
CALI.CM :
~A
# ...
  140.0000   -19.0920     2.5030    56.9320    18.6310    16.2670    18.0320    23.7260 
  140.1250   -19.0780     2.4980    55.9390    19.6340    17.0200    19.3440    23.7060 
  140.2500   -19.1030     2.4880    57.1560    20.7820    17.9140    20.7860    23.6940 
  140.3750   -19.1290     2.4730    58.1960    21.7960    18.7360    21.6650    23.6790 
  140.5000   -19.1290     2.4580    59.0900    22.4200    19.2670    22.0590    23.6610 
  140.6250   -19.1250     2.4510    60.4390    22.5780    19.4190    21.7130    23.6140 
  140.7500   -19.1500     2.4610    60.5250    22.4180    19.2700    20.6360    23.5030 
  140.8750   -19.1990     2.4800    58.6920    22.2140    19.0270    19.9350    23.3250 
  141.0000   -19.2360     2.4980    57.9970    22.1780    18.8810    20.3650    23.1310 
  141.1250   -19.2360     2.5060    59.9900    22.3500    18.8920    21.4570    23.0090 
  141.2500   -19.2330     2.5010    61.9590    22.6580    19.0340    22.5610    23.0460 
  141.3750   -19.2660     2.4910    62.0990    22.9710    19.2150    22.9920    23.2040 
  141.5000   -19.3070     2.4820    62.5070    23.1930    19.3480    22.6690    23.3380 
  141.6250   -19.2990     2.4810    63.3280    23.3190    19.4090    22.2700    23.4180 
  141.7500   -19.2590     2.4890    62.5250    23.3610    19.4000    21.9390    23.4650 
  141.8750   -19.2500     2.5050    60.5630    23.2730    19.2980    21.8800    23.4810 
  142.0000   -19.2720     2.5250    59.5010    22.9670    19.0500    22.1950    23.4750 
  142.1250   -19.2970     2.5400    59.4410    22.3700    18.6130    22.9330    23.4230 
  142.2500   -19.3240     2.5460    60.0410    21.5080    18.0030    22.8630    23.2960 
  142.3750   -19.3630     2.5400    61.3020    20.5260    17.3130    20.9550    23.1490 
  142.5000   -19.4030     2.5270    62.9690    19.6100    16.6560    18.5500    23.0870 
  142.6250   -19.4650     2.5150    64.4940    18.8680    16.0920    17.3690    23.0840 
  142.7500   -19.5460     2.5090    65.2360    18.3450    15.6630    17.4450    23.0810 
  142.8750   -19.5890     2.5090    65.5020    17.9790    15.3590    17.5700    23.1020 
  143.0000   -19.5750     2.5060    65.8970    17.5600    15.0680    16.7440    23.1660 
  143.1250   -19.5360     2.4940    66.2620    16.8120    14.5870    15.4410    23.2490 
  143.2500   -19.4630     2.4740    66.6100    15.4320    13.6300    14.9830    23.3190 
  143.3750   -19.3380     2.4490    67.9410    13.3730    12.0720    14.9590    23.3980 
  143.5000   -19.1730     2.4200    72.3570    11.0020    10.1520    13.6020    23.4660 
  143.6250   -18.9490     2.3910    79.9190     8.7450     8.2150    10.5330    23.5170 
  143.7500   -18.6610     2.3680    87.5590     6.9770     6.5970     7.4310    23.5390 
  143.8750   -18.3670     2.3560    90.9650     5.8480     5.4560     5.7020    23.5320 
  144.0000   -18.1350     2.3510    89.1870     5.2390     4.7390     5.2120    23.5170 
  144.1250   -17.9420     2.3490    86.2660     5.0130     4.3680     5.1520    23.5170 
  144.2500   -17.7370     2.3430    86.5970     5.0250     4.2500     5.1620    23.5330 
  144.3750   -17.5330     2.3350    90.6580     5.1280     4.2790     5.1620    23.5450 
  144.5000   -17.3840     2.3280    94.6510     5.2130     4.3460     5.1760    23.5300 
  144.6250   -17.2830     2.3260    95.8260     5.2500     4.3950     5.2120    23.4940 
  144.7500   -17.2020     2.3270    95.1530     5.2390     4.3980     5.2540    23.4620 
  144.8750   -17.1450     2.3330    95.5500     5.1920     4.3560     5.2760    23.4500 
  145.0000   -17.1000     2.3440    97.0350     5.1260     4.2890     5.2790    23.4440 
  145.1250   -17.0440     2.3580    96.3520     5.0540     4.2130     5.2500    23.4360 
  145.2500   -16.9990     2.3700    93.0680     4.9880     4.1430     5.1850    23.4350 
  145.3750   -16.9960     2.3770    92.0890     4.9360     4.0850     5.1400    23.4480 
  145.5000   -17.0270     2.3830    94.5800     4.8970     4.0340     5.1730    23.4610 
  145.6250   -17.0980     2.3860    96.1020     4.8640     3.9880     5.1940    23.4690 
  145.7500   -17.1930     2.3850    95.0030     4.8300     3.9430     5.1260    23.4770 
  145.8750   -17.2670     2.3790    94.8730     4.7950     3.9020     5.0160    23.5060 
  146.0000   -17.3330     2.3700    97.2490     4.7670     3.8690     4.9500    23.5360 
  146.1250   -17.4310     2.3610   100.4540     4.7520     3.8450     4.9480    23.5470 
  146.2500   -17.5440     2.3570   102.4550     4.7550     3.8340     4.9790    23.5370 
  146.3750   -17.6330     2.3600   102.1700     4.7810     3.8360     5.0190    23.5290 
  146.5000   -17.7000     2.3660    99.6970     4.8220     3.8450     5.0610    23.5310 
  146.6250   -17.7720     2.3710    97.1570     4.8680     3.8550     5.0920    23.5250 
  146.7500   -17.8610     2.3710    96.2560     4.9050     3.8600     5.0730    23.5120 
  146.8750   -17.9490     2.3670    96.0700     4.9230     3.8590     5.0210    23.5020 
  147.0000   -18.0210     2.3610    95.3510     4.9220     3.8510     5.0070    23.4960 
  147.1250   -18.1090     2.3560    93.2620     4.9100     3.8410     5.0230    23.5100 
  147.2500   -18.2470     2.3540    90.3740     4.8940     3.8350     5.0520    23.5280 
  147.3750   -18.4320     2.3520    88.7650     4.8840     3.8380     5.0660    23.5190 
  147.5000   -18.6130     2.3510    90.7600     4.8910     3.8530     5.0480    23.4680 
  147.6250   -18.7470     2.3490    96.1390     4.9270     3.8800     5.0510    23.3420 
  147.7500   -18.8580     2.3440    99.8720     4.9910     3.9120     5.1200    23.1460 
  147.8750   -18.9950     2.3370    97.9440     5.0580     3.9340     5.2380    22.9650 
  148.0000   -19.1360     2.3290    92.8170     5.0910     3.9320     5.3410    22.8530 
  148.1250   -19.2180     2.3240    88.6840     5.0720     3.9030     5.3770    22.8090 
  148.2500   -19.2430     2.3200    86.9480     5.0200     3.8600     5.3600    22.8430 
  148.3750   -19.2670     2.3130    86.2800     5.0070     3.8450     5.3080    22.9930 
  148.5000   -19.3200     2.3000    86.1540     5.1280     3.9080     5.2920    23.2220 
  148.6250   -19.4050     2.2870    86.9270     5.4600     4.1030     5.4140    23.4270 
  148.7500   -19.5380     2.2770    88.1650     6.0660     4.4790     5.7750    23.5280 
  148.8750   -19.7200     2.2750    88.4620     6.9280     5.0480     6.5220    23.5420 
  149.0000   -19.9220     2.2850    87.3810     7.8840     5.7270     7.6400    23.5330 
  149.1250   -20.1330     2.3030    86.0950     8.6960     6.3740     8.7130    23.5380 
  149.2500   -20.3450     2.3190    84.3960     9.0360     6.7590     9.2230    23.5570 
  149.3750   -20.5310     2.3220    81.0520     8.7470     6.7240     9.0960    23.5670 
  149.5000   -20.6910     2.3130    77.7380     8.0590     6.3570     8.3360    23.5580 
  149.6250   -20.8360     2.3000    77.3730     7.3420     5.8740     7.1650    23.5300 
  149.7500   -20.9280     2.2880    81.7350     6.9940     5.5440     6.3700    23.4680 
  149.8750   -20.9460     2.2740    88.6640     7.2730     5.5800     6.2800    23.3120 
  150.0000   -20.9440     2.2560    91.1910     8.2230     6.0700     6.8810    23.0690 
  150.1250   -20.9640     2.2350    85.5180     9.8570     7.0710     8.3560    22.8940 
  150.2500   -20.9780     2.2160    76.6450    12.0990     8.6000    11.0420    22.9330 
  150.3750   -20.9500     2.2040    72.9750    14.5790    10.4820    14.3750    23.1250 
  150.5000   -20.9020     2.2000    74.1450    16.5320    12.2160    16.4720    23.3200 
  150.6250   -20.8770     2.2040    74.0950    17.1850    13.2010    16.3340    23.4540 
  150.7500   -20.8990     2.2110    70.2820    16.2360    13.0110    15.5300    23.5250 
  150.8750   -20.9340     2.2180    66.5160    14.3660    11.8990    15.4870    23.4640 
  151.0000   -20.9480     2.2250    67.5040    12.7590    10.6650    15.0310    23.1840 
  151.1250   -20.9700     2.2340    71.7930    12.0670     9.8590    13.2670    22.7390 
