~V
VERS. 2.00: Ver 2.00
~W
STRT.M 53.0000:
STOP.M 202.0000:
STEP.M 0.1250:
NULL. -999.2500:
UWI. F11113:
~C
DEPT.M :
DEN.GM/CC :
SP.MV :
GR.API :
RML.OHMM :
RI. :
RXO.OHMM :
CALI.CM :
~A
# ...
  120.5000     2.5890    -5.1800    47.8640    22.1260    19.9650    18.7570    24.5770 
  120.6250     2.5890    -5.2400    44.8730    22.2370    20.1800    19.4190    24.5000 
  120.7500     2.5840    -5.3610    45.4020    21.7960    19.9990    20.9390    24.3930 
  120.8750     2.5750    -5.4550    47.3370    20.7920    19.3270    20.3830    24.2680 
  121.0000     2.5660    -5.4700    49.8790    19.5400    18.3530    17.4750    24.2360 
  121.1250     2.5610    -5.4050    53.2510    18.5880    17.4750    15.3770    24.3500 
  121.2500     2.5600    -5.3370    55.9670    18.1860    16.9550    15.2870    24.4720 
  121.3750     2.5610    -5.3190    54.4520    18.3040    16.8450    16.9720    24.6070 
  121.5000     2.5620    -5.3320    49.4620    18.7130    17.0400    20.1800    24.7640 
  121.6250     2.5560    -5.3100    46.2280    19.0570    17.3100    21.3960    24.9710 
  121.7500     2.5470    -5.2450    45.9310    19.1660    17.4490    19.5220    25.1070 
  121.8750     2.5370    -5.1620    47.8600    19.1670    17.4740    17.4790    25.1100 
  122.0000     2.5310    -5.0970    50.3900    19.3380    17.5670    16.8910    25.0050 
  122.1250     2.5290    -5.0710    52.3810    19.9890    18.0050    17.3600    24.9750 
  122.2500     2.5280    -5.0560    52.8950    21.0420    18.8030    18.7710    24.9780 
  122.3750     2.5240    -5.0460    52.3310    22.2450    19.8070    21.2870    25.0520 
  122.5000     2.5130    -5.0640    51.8150    23.2170    20.7040    24.8290    25.2490 
  122.6250     2.4990    -5.1440    51.5500    23.5360    21.0840    23.8650    25.3470 
  122.7500     2.4860    -5.2390    50.9900    23.3190    20.9620    20.7660    25.1930 
  122.8750     2.4780    -5.3530    51.4380    22.8580    20.5550    17.6030    25.0250 
  123.0000     2.4710    -5.4820    52.8240    22.4670    20.1420    16.3590    25.1920 
  123.1250     2.4620    -5.6130    53.2700    22.3480    19.9480    17.4330    25.6310 
  123.2500     2.4580    -5.7280    53.2890    22.3850    19.9400    18.9940    25.9660 
  123.3750     2.4630    -5.7840    53.8140    22.3850    19.9770    19.4690    26.0730 
  123.5000     2.4780    -5.7720    54.5250    22.1660    19.8790    18.2560    26.0130 
  123.6250     2.4930    -5.7130    54.0140    21.6420    19.5080    17.5340    25.8650 
  123.7500     2.5030    -5.6790    52.3630    21.0110    18.9970    17.8690    25.7160 
  123.8750     2.5110    -5.6910    50.8680    20.4950    18.5310    18.5210    25.6290 
  124.0000     2.5180    -5.7140    49.4470    20.3050    18.2970    18.4650    25.6030 
  124.1250     2.5220    -5.7010    47.4960    20.6960    18.5050    18.4000    25.6020 
  124.2500     2.5220    -5.6730    45.5950    21.6010    19.1330    19.0820    25.6000 
  124.3750     2.5170    -5.6910    45.3550    22.8450    20.0810    20.4540    25.6050 
  124.5000     2.5130    -5.7660    46.5110    24.1320    21.1470    21.3760    25.5780 
  124.6250     2.5160    -5.8630    47.1430    25.0900    22.0540    22.8840    25.5510 
  124.7500     2.5210    -5.9290    46.8560    25.6160    22.6610    25.2850    25.5380 
  124.8750     2.5290    -5.9460    46.9990    25.8020    22.9780    25.9560    25.5300 
  125.0000     2.5430    -5.9400    47.6690    25.8490    23.1220    24.4290    25.4680 
  125.1250     2.5620    -5.9700    48.4260    25.8860    23.2050    24.0850    25.2770 
  125.2500     2.5770    -6.0300    46.6840    25.8370    23.2190    23.6540    24.9820 
  125.3750     2.5790    -6.0910    41.9610    25.5240    23.0370    22.7180    24.7530 
  125.5000     2.5690    -6.1140    39.5100    24.7800    22.5020    21.3350    24.7070 
  125.6250     2.5520    -6.1130    44.6660    23.4190    21.4150    20.4450    24.8010 
  125.7500     2.5340    -6.1040    51.4720    21.6080    19.8910    19.5170    24.9850 
  125.8750     2.5210    -6.0850    54.1940    19.5810    18.1310    18.6040    25.2210 
  126.0000     2.5190    -6.0690    53.4550    17.6510    16.4110    16.4560    25.4090 
  126.1250     2.5280    -6.0710    54.1580    16.1790    15.0360    14.8900    25.5260 
  126.2500     2.5370    -6.0790    57.3750    15.2450    14.0790    13.3380    25.5610 
  126.3750     2.5390    -6.0920    60.5310    14.8380    13.5490    12.4010    25.5100 
  126.5000     2.5240    -6.1140    60.1500    14.8680    13.4090    12.5230    25.3720 
  126.6250     2.4880    -6.1520    57.0480    15.2580    13.6500    13.1510    25.3920 
  126.7500     2.4490    -6.2440    55.5720    15.8550    14.1450    13.1130    25.7660 
  126.8750     2.4240    -6.4230    55.6410    16.5820    14.8170    13.1690    26.2280 
  127.0000     2.4200    -6.6300    55.4330    17.3370    15.5580    13.7970    26.3180 
  127.1250     2.4320    -6.7870    55.7230    17.9560    16.2130    15.8740    26.0680 
  127.2500     2.4460    -6.9250    58.0890    18.3310    16.6730    17.9300    25.8530 
  127.3750     2.4520    -7.0630    60.1660    18.3940    16.8650    17.8580    25.7180 
  127.5000     2.4450    -7.2250    59.1480    18.1340    16.7390    15.7410    25.5900 
  127.6250     2.4290    -7.4030    55.9240    17.5870    16.2550    14.7270    25.3280 
  127.7500     2.4140    -7.5290    54.5310    16.9290    15.5770    15.0370    25.0510 
  127.8750     2.4020    -7.5770    58.1550    16.2890    14.8520    15.1300    24.8780 
  128.0000     2.3970    -7.5890    63.9270    15.8090    14.2260    14.0240    24.8320 
  128.1250     2.4000    -7.5850    66.7210    15.7120    13.8730    12.5930    24.8190 
  128.2500     2.4020    -7.5600    68.2430    16.0590    13.8460    12.7260    24.7360 
  128.3750     2.3960    -7.5480    70.3810    16.8570    14.1870    13.5530    24.6470 
  128.5000     2.3810    -7.5610    72.9290    18.0050    14.8800    14.4150    24.6300 
  128.6250     2.3740    -7.5850    72.6540    19.2670    15.8470    15.5310    24.6740 
  128.7500     2.3860    -7.6060    70.1080    20.3410    16.8260    17.5170    24.6940 
  128.8750     2.4090    -7.6260    68.7580    21.0760    17.6090    19.1120    24.6510 
  129.0000     2.4270    -7.6500    69.4160    21.4980    18.0990    19.1260    24.5950 
  129.1250     2.4290    -7.6920    72.6480    21.7890    18.3680    17.6650    24.5700 
  129.2500     2.4220    -7.7490    76.9200    22.1740    18.6530    17.5090    24.6210 
  129.3750     2.4130    -7.8020    80.6880    22.6760    19.0530    17.9650    24.7790 
  129.5000     2.4110    -7.8180    82.8200    23.1080    19.4780    19.7990    24.7870 
  129.6250     2.4180    -7.7880    82.8690    22.9630    19.5350    22.1910    24.6480 
  129.7500     2.4250    -7.7670    82.3440    21.9780    18.9180    24.2580    24.6110 
  129.8750     2.4230    -7.7740    79.9240    20.2440    17.6110    23.7840    24.8190 
  130.0000     2.4170    -7.8270    75.4370    18.2300    15.9530    21.0980    25.0370 
  130.1250     2.4100    -7.9420    72.6540    16.6080    14.4870    16.5230    25.1410 
  130.2500     2.4050    -8.0850    73.0780    15.6760    13.5190    13.0610    25.1240 
  130.3750     2.4070    -8.2000    74.6150    15.4590    13.1250    12.5060    25.0840 
  130.5000     2.4140    -8.2760    76.0760    15.7890    13.2270    13.8890    25.0310 
  130.6250     2.4240    -8.3420    79.0710    16.3340    13.6160    15.2420    24.9390 
  130.7500     2.4290    -8.4360    80.5280    16.6860    13.9390    15.3680    24.8450 
  130.8750     2.4250    -8.5390    78.7010    16.7000    14.0290    15.7360    24.8470 
  131.0000     2.4120    -8.6080    75.4610    16.4990    13.9300    16.1900    24.9200 
  131.1250     2.4030    -8.6000    74.0310    16.4410    13.8900    15.0740    25.0910 
  131.2500     2.4070    -8.5550    76.0220    16.7880    14.1260    14.0550    25.2970 
  131.3750     2.4250    -8.5240    79.2020    17.6020    14.7130    15.1500    25.3920 
  131.5000     2.4500    -8.5320    81.7320    18.7370    15.5840    18.4010    25.2860 
  131.6250     2.4700    -8.5730    80.3110    19.7620    16.4810    20.9280    25.0430 
