~V
VERS. 2.00: Ver 2.00
~W
STRT.M 20.0000:
STOP.M 279.0000:
STEP.M 0.1250:
NULL. -999.2500:
UWI. F11153:
~C
DEPT.M :
DEN.GM/CC :
GR.API :
RML.OHMM :
RI. :
RXO.OHMM :
CALI.CM :
SP.MV :
~A
# ...
  155.0000     2.2680    93.3870     6.6580     6.0870     5.8410    24.6570   -21.6680 
  155.1250     2.2780    91.2880     6.0740     5.6350     4.8260    24.5550   -21.4030 
  155.2500     2.2940    89.0310     5.6040     5.1930     4.5630    24.3500   -21.1720 
  155.3750     2.3040    88.6830     5.3030     4.8540     4.6420    24.3290   -20.9130 
  155.5000     2.3000    90.2100     5.1550     4.6420     4.7010    24.5900   -20.6400 
  155.6250     2.2840    92.7390     5.1700     4.5790     4.6470    24.8190   -20.4390 
  155.7500     2.2690    93.8320     5.3560     4.6600     4.6030    24.8530   -20.3540 
  155.8750     2.2620    92.4640     5.7580     4.9170     4.8520    24.8200   -20.3520 
  156.0000     2.2650    87.9480     6.4080     5.3780     5.5340    24.7950   -20.3920 
  156.1250     2.2740    84.1080     7.3490     6.1030     6.8310    24.7790   -20.4830 
  156.2500     2.2820    83.0930     8.4920     7.0550     8.4000    24.7910   -20.6170 
  156.3750     2.2840    83.4540     9.7670     8.2090    10.0460    24.8470   -20.8050 
  156.5000     2.2790    84.2060    11.1260     9.5330    10.8520    24.9440   -21.0180 
  156.6250     2.2720    83.5350    12.5670    11.0060    12.1460    25.0120   -21.1990 
  156.7500     2.2660    80.8610    14.0380    12.5400    14.7460    25.1090   -21.3250 
  156.8750     2.2600    77.5190    15.4110    14.0100    17.5060    25.2810   -21.4410 
  157.0000     2.2490    75.6930    16.4680    15.2330    18.8890    25.4910   -21.5520 
  157.1250     2.2300    73.3190    16.8740    15.9110    18.7980    25.6140   -21.5740 
  157.2500     2.2150    70.6020    16.6260    15.9870    17.0960    25.6070   -21.5020 
  157.3750     2.2110    71.1320    15.8300    15.4950    14.4220    25.5140   -21.3790 
  157.5000     2.2200    73.7600    14.6890    14.5860    12.4360    25.4390   -21.2800 
  157.6250     2.2370    75.8260    13.3930    13.4220    12.6600    25.3820   -21.2320 
  157.7500     2.2540    77.0480    12.1730    12.2380    11.8510    25.3010   -21.2030 
  157.8750     2.2670    79.1150    11.2670    11.2490    10.6390    25.2320   -21.1820 
  158.0000     2.2770    83.3930    10.9420    10.6950    10.0970    25.1910   -21.2220 
  158.1250     2.2800    87.2050    11.6640    10.9760    10.4640    25.2650   -21.3830 
  158.2500     2.2760    85.7490    13.5830    12.2810    11.7430    25.3390   -21.6270 
  158.3750     2.2590    79.2650    16.9010    14.9070    15.0810    25.4500   -21.9110 
  158.5000     2.2300    72.1960    22.9390    19.0580    23.7460    25.6080   -22.1900 
  158.6250     2.1990    68.9940    29.0430    24.6670    32.0390    25.7640   -22.4330 
  158.7500     2.1790    66.7650    34.6890    30.3920    35.3770    25.8740   -22.6740 
  158.8750     2.1710    65.8910    38.6030    34.8790    34.0750    25.9040   -22.9230 
  159.0000     2.1700    67.6070    40.6320    37.5440    32.3270    25.7940   -23.1630 
  159.1250     2.1730    67.7280    41.9780    39.0450    33.4090    25.5330   -23.3440 
  159.2500     2.1810    63.7470    44.0050    40.7630    36.4010    25.3430   -23.4640 
  159.3750     2.1940    58.0750    46.9370    43.1350    39.2530    25.3120   -23.5560 
  159.5000     2.2110    55.7670    50.2590    45.8620    40.8280    25.3630   -23.6670 
  159.6250     2.2260    58.3510    52.9250    48.0790    44.2850    25.4510   -23.7960 
  159.7500     2.2400    59.7330    54.4020    49.2700    49.4350    25.5870   -23.9130 
  159.8750     2.2530    58.3030    54.8770    49.5220    50.5910    25.7580   -24.0160 
  160.0000     2.2590    57.0270    55.0970    49.4430    45.9350    25.8400   -24.1280 
  160.1250     2.2550    59.7920    56.0110    49.9020    42.4870    25.8300   -24.2340 
  160.2500     2.2420    63.1650    57.8750    51.2400    46.1820    25.9740   -24.3370 
  160.3750     2.2250    63.8130    60.5500    53.4370    52.8840    26.2140   -24.4310 
  160.5000     2.2080    62.9380    63.6440    56.2260    58.1400    26.3900   -24.4910 
  160.6250     2.1970    61.3530    66.6750    59.2380    55.6650    26.4520   -24.5650 
  160.7500     2.1940    59.4460    69.5870    62.2960    50.3550    26.4880   -24.6480 
  160.8750     2.1950    57.1940    72.7520    65.6400    49.9160    26.5590   -24.6720 
  161.0000     2.1970    55.8800    76.4300    69.5010    60.8980    26.6390   -24.5920 
  161.1250     2.2000    55.6320    79.8820    73.3960    69.5320    26.5830   -24.4920 
  161.2500     2.2020    56.1070    81.1540    75.7320    70.0580    26.3470   -24.4100 
  161.3750     2.2050    57.5390    78.0450    74.5430    65.6180    25.9740   -24.2870 
  161.5000     2.2110    59.8370    69.4930    68.3940    57.8410    25.6430   -24.0940 
  161.6250     2.2220    61.4390    56.8090    57.3610    48.2560    25.5160   -23.8220 
  161.7500     2.2330    61.7580    44.2620    45.2520    38.9610    25.4790   -23.5460 
  161.8750     2.2440    62.3970    34.1650    34.7760    29.5200    25.4420   -23.3620 
  162.0000     2.2580    66.1930    27.3200    27.2520    20.8880    25.4000   -23.2550 
  162.1250     2.2820    72.3860    24.0050    23.2000    15.5540    25.3850   -23.1400 
  162.2500     2.3070    73.7670    23.1230    21.5660    14.0180    25.4030   -23.0370 
  162.3750     2.3170    69.1600    24.1270    21.8390    15.9310    25.4530   -23.0070 
  162.5000     2.3020    63.2180    26.4450    23.5600    19.4470    25.5180   -23.0630 
  162.6250     2.2750    61.8020    29.2740    26.1740    23.9460    25.5440   -23.1690 
  162.7500     2.2600    63.0060    31.3930    28.5170    27.5130    25.5480   -23.2470 
  162.8750     2.2600    62.9650    31.9790    29.6510    28.2530    25.5540   -23.2620 
  163.0000     2.2680    61.8620    30.9770    29.2420    26.8260    25.5690   -23.2730 
  163.1250     2.2740    62.5810    29.1560    27.7490    24.4220    25.5650   -23.2950 
  163.2500     2.2750    66.8730    27.5990    26.2350    22.0350    25.5950   -23.2630 
  163.3750     2.2700    72.5620    26.6170    25.1100    20.7180    25.6200   -23.1840 
  163.5000     2.2610    74.5160    26.0160    24.3300    21.0990    25.6310   -23.0750 
  163.6250     2.2550    73.3810    25.2390    23.4750    23.1800    25.6330   -22.9460 
  163.7500     2.2510    72.2500    23.9160    22.1900    25.3360    25.6290   -22.8080 
  163.8750     2.2480    71.7560    22.1080    20.4860    23.5900    25.6070   -22.6470 
  164.0000     2.2470    72.2000    19.0690    18.6780    17.9330    25.5360   -22.4740 
  164.1250     2.2470    75.5760    17.7520    17.2520    14.5170    25.4110   -22.3310 
  164.2500     2.2460    80.5260    17.0620    16.3810    13.7940    25.2670   -22.2280 
  164.3750     2.2470    82.3510    16.9240    16.0440    14.2540    25.1770   -22.1160 
  164.5000     2.2540    81.1080    17.1000    16.0750    14.7250    25.1240   -21.9760 
  164.6250     2.2680    79.1540    17.2550    16.1980    14.7650    25.0590   -21.8270 
  164.7500     2.2830    77.1640    17.1740    16.1540    14.3560    24.9830   -21.7210 
  164.8750     2.2940    74.5400    16.8540    15.8860    13.6200    24.9700   -21.7020 
  165.0000     2.2980    72.0550    16.4290    15.4800    13.0930    25.0230   -21.7290 
  165.1250     2.2960    70.8110    16.0940    15.1020    12.7250    25.1500   -21.7680 
  165.2500     2.2910    70.0170    15.9720    14.8750    12.6540    25.1930   -21.8130 
  165.3750     2.2850    71.5280    16.1120    14.8580    13.0100    25.2130   -21.8850 
  165.5000     2.2810    75.6370    16.4900    15.0540    13.6140    25.2340   -22.0190 
  165.6250     2.2780    77.6630    17.0160    15.4330    14.0340    25.2280   -22.2270 
  165.7500     2.2740    76.2900    17.5190    15.8570    14.4080    25.2070   -22.4230 
  165.8750     2.2720    73.8100    17.8660    16.1990    15.0000    25.1840   -22.5640 
  166.0000     2.2710    73.0170    17.9740    16.3490    15.5400    25.1470   -22.6810 
  166.1250     2.2710    73.9560    17.7970    16.2170    15.2590    25.0670   -22.8150 
