~V
VERS. 2.00: Ver 2.00
~W
STRT.M 50.0000:
STOP.M 209.0000:
STEP.M 0.1250:
NULL. -999.2500:
UWI. F11109:
~C
DEPT.M :
GR.API :
RML.OHMM :
RI. :
RXO.OHMM :
CALI.CM :
SP.MV :
DEN.GM/CC :
~A
# ...
   83.7500    72.6590     9.1430     7.0660     8.0400    22.7120   -27.5570     2.0960 
   83.8750    74.4460     9.2990     7.1620     8.1350    22.8120   -26.9480     2.1100 
   84.0000    74.8740     9.3930     7.1970     7.8640    22.9900   -26.1640     2.1410 
   84.1250    74.3510     9.2960     7.0960     8.0250    23.1870   -25.1670     2.1960 
   84.2500    75.3890     8.9360     6.8270     8.4880    23.4170   -24.0370     2.2570 
   84.3750    81.0560     8.3130     6.3880     8.6570    23.7480   -22.8480     2.3040 
   84.5000    91.0880     7.5460     5.8450     7.0370    24.1400   -21.6800     2.3230 
   84.6250    98.8160     6.8770     5.3350     5.4380    24.4890   -20.6480     2.3150 
   84.7500   100.0160     6.4850     4.9750     4.9900    24.6530   -19.8470     2.3000 
   84.8750    97.5450     6.4410     4.8320     5.0780    24.6890   -19.3480     2.2830 
   85.0000    94.5830     6.7350     4.9290     5.3620    24.6960   -19.1900     2.2630 
   85.1250    91.1200     7.3160     5.2770     5.7370    24.6840   -19.4470     2.2430 
   85.2500    87.4730     8.0070     5.7640     6.2860    24.6000   -20.0330     2.2330 
   85.3750    85.2700     8.6860     6.3040     7.1390    24.4170   -20.8590     2.2350 
   85.5000    84.0370     9.2530     6.8080     8.0220    24.2950   -21.8120     2.2430 
   85.6250    81.5840     9.6090     7.1790     8.3160    24.2670   -22.8000     2.2400 
   85.7500    77.3010     9.7640     7.3990     8.2150    24.2530   -23.7290     2.2180 
   85.8750    73.0580     9.7560     7.4790     8.2180    24.2440   -24.5470     2.1820 
   86.0000    71.3380     9.6560     7.4630     8.5010    24.2600   -25.2030     2.1460 
   86.1250    73.7860     9.5450     7.4010     8.7480    24.1840   -25.6080     2.1230 
   86.2500    78.3910     9.4780     7.3400     8.6820    24.0200   -25.7860     2.1190 
   86.3750    81.7750     9.4720     7.2950     8.4370    23.8550   -25.7400     2.1310 
   86.5000    82.2510     9.5170     7.2580     8.1950    23.7210   -25.4660     2.1500 
   86.6250    80.5020     9.5640     7.2010     7.9950    23.5880   -24.9100     2.1650 
   86.7500    80.1350     9.5270     7.0870     7.9790    23.5950   -24.1310     2.1740 
   86.8750    81.3240     9.3240     6.8820     7.9200    23.8240   -23.2100     2.1760 
   87.0000    82.6480     8.9130     6.5670     7.8400    24.2510   -22.2410     2.1740 
   87.1250    84.9350     8.3530     6.1760     7.5340    24.7750   -21.3040     2.1680 
   87.2500    88.4860     7.8860     5.8400     6.9360    25.1850   -20.4890     2.1670 
   87.3750    91.1140     7.7510     5.6970     6.2260    25.3900   -19.8790     2.1810 
   87.5000    90.4720     8.1310     5.8650     6.0110    25.4350   -19.5240     2.2170 
   87.6250    87.5480     9.2020     6.4850     7.1740    25.3970   -19.5270     2.2820 
   87.7500    87.1490    10.7250     7.4630    10.2440    25.2740   -19.8500     2.3640 
   87.8750    87.8820    12.3140     8.6090    14.7780    24.9790   -20.4380     2.4390 
   88.0000    85.6710    13.4160     9.5780    14.3900    24.4750   -21.2100     2.4810 
   88.1250    79.1690    13.4240     9.8980    11.9180    23.9210   -22.1450     2.4660 
   88.2500    74.1640    12.6100     9.6140    10.1280    23.5310   -23.1680     2.4140 
   88.3750    73.4490    11.4760     8.9900     9.3430    23.3850   -24.2100     2.3440 
   88.5000    73.3410    10.5090     8.3410     8.8800    23.3560   -25.2300     2.2720 
   88.6250    71.6320    10.0230     7.8970     8.6750    23.3340   -26.1740     2.2150 
   88.7500    70.4070     9.8960     7.6530     8.5260    23.2870   -27.0270     2.1760 
   88.8750    70.3470     9.9700     7.5540     8.4830    23.2330   -27.7720     2.1530 
   89.0000    71.5020    10.1030     7.5340     8.5160    23.2150   -28.4020     2.1420 
   89.1250    74.1010    10.2090     7.5480     8.4720    23.2420   -28.8600     2.1390 
   89.2500    77.6340    10.2810     7.5640     8.3970    23.2800   -29.1810     2.1380 
   89.3750    79.4420    10.3290     7.5710     8.3400    23.3110   -29.3700     2.1390 
   89.5000    77.3470    10.3430     7.5640     8.4560    23.3460   -29.4250     2.1410 
   89.6250    72.5710    10.2860     7.5320     8.8880    23.3860   -29.3530     2.1410 
   89.7500    67.9120    10.1550     7.4760     9.9910    23.4420   -29.2230     2.1360 
   89.8750    66.3370     9.9850     7.4070    11.5310    23.5040   -29.0480     2.1250 
   90.0000    68.4170     9.8530     7.3550    11.4590    23.5710   -28.8180     2.1140 
   90.1250    70.3740     9.8880     7.3820     9.7600    23.6470   -28.5430     2.1070 
   90.2500    70.1760    10.1170     7.5090     8.8400    23.6950   -28.2420     2.1070 
   90.3750    69.6800    10.5030     7.7300     8.7170    23.7300   -27.9430     2.1110 
   90.5000    70.6940    10.9420     8.0020     8.9410    23.7580   -27.6780     2.1190 
   90.6250    71.7690    11.2420     8.2350     9.0440    23.8050   -27.4750     2.1310 
   90.7500    71.9030    11.2800     8.3480     8.9600    23.8280   -27.3320     2.1440 
   90.8750    72.5880    11.0290     8.2960     8.9660    23.7960   -27.2430     2.1530 
   91.0000    73.6660    10.5710     8.0880     8.9390    23.7290   -27.2080     2.1530 
   91.1250    74.1660    10.0680     7.7780     9.0130    23.6610   -27.1910     2.1420 
   91.2500    75.5430     9.6720     7.4690     8.9420    23.6040   -27.1990     2.1310 
   91.3750    78.6910     9.4370     7.2220     8.5660    23.5400   -27.2160     2.1270 
   91.5000    81.8420     9.3560     7.0670     8.1790    23.4650   -27.2160     2.1350 
   91.6250    79.9110     9.3920     7.0120     8.0200    23.4490   -27.2220     2.1500 
   91.7500    74.9960     9.4700     7.0230     7.9730    23.4950   -27.2830     2.1610 
   91.8750    71.0140     9.5570     7.0770     7.8400    23.5860   -27.4330     2.1610 
   92.0000    69.0570     9.6290     7.1530     7.9040    23.6370   -27.6680     2.1530 
   92.1250    68.1300     9.6630     7.2280     8.3120    23.5780   -28.0010     2.1430 
   92.2500    68.1170     9.6640     7.2870     8.4310    23.4300   -28.3660     2.1340 
   92.3750    70.4470     9.6450     7.3260     8.2360    23.2980   -28.7290     2.1290 
   92.5000    73.0750     9.6190     7.3440     8.1210    23.2520   -29.0550     2.1230 
   92.6250    73.2940     9.5910     7.3380     8.2680    23.2790   -29.3060     2.1150 
   92.7500    71.5630     9.5580     7.3090     8.3310    23.3360   -29.4690     2.1080 
   92.8750    69.5980     9.5130     7.2580     8.1330    23.4940   -29.5500     2.1030 
   93.0000    68.0240     9.4470     7.1890     7.8780    23.7560   -29.5810     2.1030 
   93.1250    66.5650     9.3630     7.1120     7.8160    23.9150   -29.5760     2.1060 
   93.2500    67.6670     9.2760     7.0410     7.7380    23.8710   -29.5580     2.1090 
   93.3750    70.4740     9.1940     6.9830     7.5860    23.7770   -29.5180     2.1110 
   93.5000    70.9820     9.1310     6.9390     7.6200    23.7190   -29.4380     2.1120 
   93.6250    68.9540     9.0930     6.9130     7.8760    23.6930   -29.2980     2.1110 
   93.7500    68.6680     9.0700     6.8960     8.1510    23.6890   -29.0850     2.1110 
   93.8750    69.5030     9.0520     6.8820     8.3010    23.7080   -28.8370     2.1100 
   94.0000    67.9590     9.0320     6.8680     8.3010    23.7260   -28.5790     2.1100 
   94.1250    64.2300     8.9960     6.8440     8.1880    23.7320   -28.3210     2.1100 
   94.2500    61.9820     8.9420     6.8090     8.0090    23.7330   -28.0740     2.1120 
   94.3750    60.7910     8.8780     6.7610     7.8730    23.7330   -27.8380     2.1150 
   94.5000    61.2320     8.8220     6.7030     7.7580    23.7300   -27.6090     2.1160 
   94.6250    63.3900     8.7900     6.6450     7.7290    23.7460   -27.4160     2.1140 
   94.7500    65.3360     8.7830     6.5980     7.7720    23.7970   -27.2740     2.1110 
   94.8750    64.7220     8.7990     6.5740     7.8180    23.9060   -27.1590     2.1110 
