~V
VERS. 2.00: Ver 2.00
~W
STRT.M 50.0000:
STOP.M 253.0000:
STEP.M 0.1250:
NULL. -999.2500:
UWI. F11132:
~C
DEPT.M :
DEN.GM/CC :
GR.API :
RML.OHMM :
RI. :
RXO.OHMM :
CALI.CM :
SP.MV :
~A
# ...
   83.7500     2.1400    48.2500    10.4100     7.6920     9.5620    24.7340   -21.0470 
   83.8750     2.1210    45.7550    11.7240     8.7180    10.0220    24.7300   -21.4880 
   84.0000     2.1600    43.0870    12.9370     9.7920    10.3100    24.7470   -21.9140 
   84.1250     2.2310    42.3720    13.7580    10.6480    11.0210    24.7780   -22.2600 
   84.2500     2.2860    45.3710    14.1220    11.1510    12.1020    24.7880   -22.4630 
   84.3750     2.2980    50.2330    14.0310    11.2540    12.8360    24.7770   -22.4740 
   84.5000     2.2880    53.1190    13.5870    11.0080    10.8880    24.7450   -22.2750 
   84.6250     2.2540    52.2200    13.0040    10.5540     9.4300    24.7270   -21.9070 
   84.7500     2.1920    50.8500    12.5150    10.0980     8.5430    24.7230   -21.5000 
   84.8750     2.1310    50.3170    12.1520     9.6980     8.2450    24.7220   -21.1200 
   85.0000     2.1070    50.4320    11.8360     9.3280     7.9380    24.7240   -20.7800 
   85.1250     2.1190    50.2830    11.4340     8.9150     7.7810    24.7360   -20.4520 
   85.2500     2.1410    49.7300    10.9160     8.4410     7.8300    24.7610   -20.1090 
   85.3750     2.1520    50.8430    10.3730     7.9610     7.5210    24.7800   -19.7710 
   85.5000     2.1590    54.2540     9.9710     7.5710     6.5110    24.7700   -19.5360 
   85.6250     2.1700    56.3380     9.8890     7.3910     6.2490    24.7340   -19.4830 
   85.7500     2.1750    55.0460    10.0810     7.4090     6.6250    24.7210   -19.5330 
   85.8750     2.1600    52.7470    10.4360     7.5790     6.9680    24.7390   -19.6110 
   86.0000     2.1500    52.1600    10.7870     7.8210     7.4940    24.7330   -19.6890 
   86.1250     2.1720    52.5310    10.9410     8.0310     8.0190    24.7220   -19.7780 
   86.2500     2.2120    53.6300    10.8970     8.1690     7.9940    24.7420   -19.8850 
   86.3750     2.2140    55.6080    10.7690     8.2670     7.7420    24.8170   -19.9690 
   86.5000     2.1750    56.5790    10.7060     8.3880     7.7020    24.9310   -19.9220 
   86.6250     2.1380    54.9110    10.8240     8.5890     7.6900    25.0320   -19.6160 
   86.7500     2.1400    51.7540    11.0510     8.8320     7.8570    25.1080   -19.0710 
   86.8750     2.1730    49.7870    11.2420     9.0250     8.3700    25.1430   -18.3210 
   87.0000     2.2050    50.5440    11.2220     9.0460     8.5540    25.1250   -17.3960 
   87.1250     2.2340    53.2200    10.7970     8.7470     8.2660    25.0390   -16.3010 
   87.2500     2.2720    55.9600    10.0220     8.1630     7.8090    24.9420   -15.0920 
   87.3750     2.3260    59.3300     9.0230     7.3770     6.8560    24.9000   -13.8250 
   87.5000     2.3860    63.1930     7.9880     6.5300     5.8130    24.9250   -12.5570 
   87.6250     2.4230    66.3600     7.1150     5.7730     5.3570    25.0240   -11.4390 
   87.7500     2.4190    68.8640     6.4500     5.1670     4.4320    25.1190   -10.5800 
   87.8750     2.3940    71.8500     6.0080     4.7370     3.7040    25.2020   -10.0550 
   88.0000     2.3870    74.9190     5.8140     4.5110     3.5690    25.2590    -9.9090 
   88.1250     2.3910    77.8770     5.9930     4.5850     3.7430    25.2470   -10.2090 
   88.2500     2.3790    80.8170     6.5740     4.9740     4.2130    25.2020   -10.8670 
   88.3750     2.3440    80.6660     7.5850     5.7090     5.8820    25.1420   -11.8320 
   88.5000     2.3030    74.6170     8.9450     6.7600     9.6840    25.0390   -13.1080 
   88.6250     2.2670    64.7650    10.3270     7.9420    17.7720    24.8750   -14.6810 
   88.7500     2.2400    55.3340    11.2580     8.8740    20.0480    24.7300   -16.3550 
   88.8750     2.2100    48.6290    11.4920     9.3020    17.9070    24.6680   -17.9970 
   89.0000     2.1580    47.2490    11.1300     9.2270    12.1670    24.6740   -19.4930 
   89.1250     2.0920    51.3780    10.5290     8.8600     9.7640    24.7370   -20.7600 
   89.2500     2.0400    54.4230    10.0870     8.5190     8.9670    24.8210   -21.8310 
   89.3750     2.0200    53.7110     9.9380     8.3280     8.8590    24.8900   -22.6870 
   89.5000     2.0230    51.8570    10.0560     8.2930     8.7310    24.9080   -23.2720 
   89.6250     2.0520    51.3030    10.3380     8.3630     8.7030    24.8690   -23.5070 
   89.7500     2.0980    51.0960    10.6310     8.4540     8.7430    24.8260   -23.5130 
   89.8750     2.1350    50.0110    10.8260     8.5120     8.7970    24.8010   -23.3590 
   90.0000     2.1600    48.8690    10.8440     8.4920     8.9360    24.7930   -23.1080 
   90.1250     2.1870    48.1520    10.6610     8.3640     9.0560    24.8000   -22.7690 
   90.2500     2.2260    49.2060    10.3960     8.1780     8.9160    24.8370   -22.3730 
   90.3750     2.2590    51.7900    10.1470     7.9860     8.5270    24.9040   -21.9620 
   90.5000     2.2720    53.7440     9.9880     7.8350     8.1160    24.9210   -21.5640 
   90.6250     2.2650    54.0330     9.9580     7.7610     8.3450    24.8290   -21.2000 
   90.7500     2.2320    53.7650     9.9880     7.7340     8.7820    24.7600   -20.8480 
   90.8750     2.1810    53.2240    10.0140     7.7220     9.1660    24.7590   -20.5590 
   91.0000     2.1520    53.6460     9.9960     7.6990     9.4810    24.7820   -20.3750 
   91.1250     2.1710    55.3490     9.9330     7.6630     9.4360    24.7860   -20.3230 
   91.2500     2.2220    55.9550     9.8890     7.6470     9.0050    24.7590   -20.3420 
   91.3750     2.2430    53.3990     9.9200     7.6850     8.8720    24.7030   -20.3790 
   91.5000     2.2110    49.8060    10.0470     7.7900     8.9940    24.6630   -20.4370 
   91.6250     2.1570    49.8380    10.2230     7.9400     9.1680    24.6400   -20.5070 
   91.7500     2.1270    52.2470    10.3530     8.0750     9.3300    24.6150   -20.5590 
   91.8750     2.1420    53.9500    10.3820     8.1520     9.4780    24.5910   -20.5200 
   92.0000     2.1700    53.4520    10.3090     8.1580     9.4410    24.5810   -20.3580 
   92.1250     2.1890    50.3790    10.1890     8.1120     9.3700    24.5810   -20.1190 
   92.2500     2.1950    47.5120    10.0990     8.0600     9.3840    24.5800   -19.8640 
   92.3750     2.1950    46.6290    10.0670     8.0270     9.4690    24.5790   -19.6190 
   92.5000     2.1920    48.0160    10.0860     8.0190     9.5810    24.5800   -19.3400 
   92.6250     2.1840    49.9610    10.1280     8.0280     9.6960    24.5800   -19.0360 
   92.7500     2.1730    52.2230    10.1700     8.0400     9.7860    24.5810   -18.7880 
   92.8750     2.1570    54.4780    10.2060     8.0500     9.7420    24.5810   -18.6310 
   93.0000     2.1340    54.0350    10.2200     8.0510     9.5620    24.5790   -18.5780 
   93.1250     2.1080    52.5040    10.1690     8.0150     9.4450    24.5610   -18.5830 
   93.2500     2.0930    54.4560    10.0350     7.9250     9.3720    24.5170   -18.6000 
   93.3750     2.1110    58.1950     9.8210     7.7790     9.2660    24.4630   -18.6120 
   93.5000     2.1540    60.3090     9.5630     7.5940     8.8200    24.4260   -18.6580 
   93.6250     2.2040    62.9220     9.3330     7.4130     8.0420    24.4100   -18.8080 
   93.7500     2.2490    67.9040     9.1900     7.2820     7.9100    24.4010   -19.0760 
   93.8750     2.2850    69.6310     9.1540     7.2240     8.4050    24.3870   -19.4780 
   94.0000     2.3020    65.4030     9.2120     7.2380     8.4940    24.3380   -19.9890 
   94.1250     2.2760    59.5720     9.3290     7.3050     8.5860    24.2900   -20.5560 
   94.2500     2.2050    54.3140     9.4220     7.3730     8.7030    24.2520   -21.1160 
   94.3750     2.1330    49.4240     9.4340     7.4020     8.7000    24.2270   -21.6620 
   94.5000     2.1000    47.8960     9.3750     7.3920     8.5920    24.2170   -22.1940 
   94.6250     2.1070    51.0590     9.3520     7.4000     8.4800    24.2330   -22.6350 
   94.7500     2.1390    53.1270     9.4560     7.4840     8.4150    24.2840   -22.9080 
   94.8750     2.1870    51.6040     9.7010     7.6570     8.3470    24.3810   -22.9940 
