~V
VERS. 2.00: Ver 2.00
~W
STRT.M 50.0000:
STOP.M 201.0000:
STEP.M 0.1250:
NULL. -999.2500:
UWI. F11102:
~C
DEPT.M :
GR.API :
RML.OHMM :
RI. :
RXO.OHMM :
CALI.CM :
SP.MV :
DEN.GM/CC :
~A
# ...
   83.7500    67.7720     8.1110     7.1590     8.3620    25.8990   -14.4960     2.1380 
   83.8750    70.3350     7.9030     7.0020     8.4450    26.0560   -14.3450     2.1400 
   84.0000    74.2630     7.6570     6.7890     8.5160    26.2020   -14.1550     2.1420 
   84.1250    76.4200     7.4420     6.5710     8.2290    26.6150   -13.9720     2.1430 
   84.2500    74.6440     7.3250     6.4100     7.7150    27.3040   -13.7830     2.1430 
   84.3750    69.5670     7.3490     6.3510     7.4200    27.5690   -13.5950     2.1430 
   84.5000    64.7440     7.5180     6.4120     7.4990    27.5270   -13.4060     2.1440 
   84.6250    64.7670     7.7780     6.5780     7.6830    27.2270   -13.2190     2.1470 
   84.7500    66.9350     7.9940     6.7490     7.8700    26.7410   -13.0100     2.1530 
   84.8750    67.5740     8.0540     6.8330     8.1620    26.0330   -12.8200     2.1620 
   85.0000    66.6270     7.9080     6.7710     8.5100    25.4930   -12.6630     2.1710 
   85.1250    68.4900     7.6020     6.5620     8.3750    25.3280   -12.5310     2.1770 
   85.2500    72.9890     7.3220     6.3310     7.5420    25.5830   -12.4690     2.1790 
   85.3750    75.4230     7.2060     6.1820     6.5890    25.7560   -12.4930     2.1750 
   85.5000    74.9590     7.3210     6.1880     6.3810    25.1210   -12.6100     2.1640 
   85.6250    73.2820     7.6830     6.3880     6.5880    24.5490   -12.8190     2.1490 
   85.7500    70.6510     8.1550     6.7050     6.9980    24.3090   -13.1080     2.1310 
   85.8750    66.5660     8.6060     7.0530     7.4260    24.1980   -13.4240     2.1150 
   86.0000    62.5430     8.9220     7.3400     7.6930    24.2860   -13.7530     2.1020 
   86.1250    62.2400     9.0300     7.4860     7.8360    24.5680   -14.0660     2.0940 
   86.2500    63.0460     9.0190     7.5270     8.0430    24.9130   -14.3210     2.0910 
   86.3750    61.6590     8.9780     7.5170     8.2300    25.2270   -14.4940     2.0910 
   86.5000    58.8310     8.9870     7.5220     8.2630    25.6630   -14.5850     2.0920 
   86.6250    58.2250     9.1170     7.6070     8.1640    25.8040   -14.6230     2.0930 
   86.7500    59.4780     9.3700     7.7890     7.9860    25.3640   -14.6220     2.0950 
   86.8750    59.7010     9.7350     8.0710     7.8520    24.7850   -14.6080     2.1010 
   87.0000    57.9630    10.1700     8.4290     7.7780    24.5170   -14.5740     2.1130 
   87.1250    55.3190    10.5740     8.8020     7.7950    24.4640   -14.5170     2.1350 
   87.2500    54.7220    10.8310     9.0910     7.7880    24.4050   -14.4350     2.1630 
   87.3750    57.4880    10.8590     9.2150     7.7190    24.4390   -14.3670     2.1920 
   87.5000    61.3870    10.6520     9.1400     7.5120    24.6090   -14.3020     2.2120 
   87.6250    62.6800    10.2770     8.8830     7.2680    25.0910   -14.2390     2.2150 
   87.7500    62.7740     9.8910     8.5710     7.1710    25.1160   -14.2080     2.2050 
   87.8750    64.2070     9.5770     8.2840     7.2110    24.8070   -14.1990     2.1880 
   88.0000    65.7300     9.3510     8.0610     7.3360    24.1550   -14.1930     2.1730 
   88.1250    64.3670     9.1750     7.9000     7.5590    23.3460   -14.2060     2.1650 
   88.2500    62.5450     8.9750     7.7470     7.7560    23.1090   -14.2220     2.1610 
   88.3750    63.0800     8.7230     7.5690     7.8590    23.0670   -14.2060     2.1580 
   88.5000    65.1280     8.4330     7.3590     7.6580    23.0980   -14.1590     2.1550 
   88.6250    66.0640     8.1660     7.1430     7.2390    23.2380   -14.0680     2.1530 
   88.7500    67.3360     7.9730     6.9620     6.9990    23.2570   -13.9120     2.1540 
   88.8750    70.2220     7.8570     6.8340     7.1400    22.9680   -13.6890     2.1590 
   89.0000    72.7320     7.7860     6.7470     7.3570    22.8990   -13.4160     2.1650 
   89.1250    71.5570     7.7030     6.6680     7.3900    22.9250   -13.0740     2.1710 
   89.2500    68.5780     7.5690     6.5600     7.3040    23.1040   -12.6970     2.1730 
   89.3750    66.3780     7.3790     6.4120     7.2670    23.4790   -12.2960     2.1720 
   89.5000    64.9580     7.1660     6.2390     7.2290    24.0020   -11.8980     2.1670 
   89.6250    65.4080     6.9850     6.0780     7.1490    24.4200   -11.5370     2.1600 
   89.7500    67.3340     6.8670     5.9620     6.9740    24.5970   -11.2520     2.1530 
   89.8750    69.1930     6.8180     5.9050     6.8700    24.8010   -11.0580     2.1470 
   90.0000    69.1670     6.8320     5.9030     6.8800    24.6860   -10.9660     2.1430 
   90.1250    69.4500     6.9000     5.9500     6.9740    23.8580   -10.9860     2.1420 
   90.2500    71.2470     7.0040     6.0310     7.1000    23.4810   -11.0670     2.1440 
   90.3750    70.9130     7.1320     6.1370     7.2270    23.5510   -11.2130     2.1470 
   90.5000    68.6540     7.2660     6.2540     7.1980    24.0280   -11.4250     2.1510 
   90.6250    67.8670     7.3550     6.3500     7.1240    24.6250   -11.6970     2.1550 
   90.7500    68.3300     7.3570     6.3850     7.6340    24.2940   -11.9820     2.1600 
   90.8750    67.6570     7.2500     6.3310     7.9480    23.7100   -12.2840     2.1650 
   91.0000    68.4450     7.0620     6.1930     7.5380    23.1320   -12.6170     2.1710 
   91.1250    72.9760     6.8780     6.0250     6.7420    23.2090   -12.9950     2.1770 
   91.2500    77.1850     6.7950     5.9050     6.3640    23.3840   -13.4360     2.1790 
   91.3750    78.6590     6.8610     5.8890     6.2790    23.2480   -13.9460     2.1760 
   91.5000    76.3440     7.0780     5.9970     6.4930    23.0580   -14.4810     2.1700 
   91.6250    70.1700     7.3910     6.2210     7.0650    22.8470   -14.9890     2.1630 
   91.7500    64.6390     7.6900     6.4740     7.6090    22.5770   -15.4640     2.1580 
   91.8750    63.2490     7.9060     6.6940     7.8440    22.4690   -15.8840     2.1560 
   92.0000    63.8210     8.0130     6.8390     7.9100    22.4990   -16.2340     2.1560 
   92.1250    61.8340     8.0250     6.8950     7.9770    22.5910   -16.4910     2.1570 
   92.2500    58.4210     8.0100     6.9060     8.0350    22.7250   -16.6680     2.1550 
   92.3750    56.2310     8.0150     6.9070     8.1410    22.9470   -16.7590     2.1500 
   92.5000    56.7520     8.0620     6.9260     8.3340    23.1020   -16.7850     2.1450 
   92.6250    57.9360     8.1560     6.9740     8.6650    23.3090   -16.7750     2.1400 
   92.7500    58.1410     8.2700     7.0440     8.8950    23.5300   -16.7500     2.1380 
   92.8750    57.4810     8.3840     7.1250     9.0170    23.7520   -16.7380     2.1370 
   93.0000    58.5980     8.4760     7.2040     9.0870    23.8950   -16.7500     2.1380 
   93.1250    61.7330     8.5280     7.2680     9.1990    23.9370   -16.7860     2.1390 
   93.2500    63.7870     8.5390     7.3110     9.3480    23.9840   -16.8460     2.1390 
   93.3750    63.9430     8.5160     7.3320     9.5430    23.9780   -16.9430     2.1390 
   93.5000    64.0970     8.4660     7.3310     9.7550    23.8830   -17.0570     2.1380 
   93.6250    65.0450     8.3980     7.3080     9.9360    23.4990   -17.1780     2.1380 
   93.7500    63.8710     8.3230     7.2640    10.0120    22.9970   -17.3120     2.1390 
   93.8750    59.6900     8.2390     7.1990     9.9580    22.8790   -17.4170     2.1410 
   94.0000    57.7410     8.1430     7.1140     9.6030    22.9530   -17.4860     2.1430 
   94.1250    60.1560     8.0290     7.0120     8.8520    23.0790   -17.5460     2.1450 
   94.2500    59.4330     7.9060     6.9010     8.1730    23.1210   -17.5790     2.1460 
   94.3750    56.5730     7.7830     6.7920     7.9590    23.1310   -17.5700     2.1460 
   94.5000    56.5440     7.6680     6.6920     7.9980    23.0850   -17.5370     2.1450 
   94.6250    58.5180     7.5780     6.6150     7.9980    22.9900   -17.4460     2.1430 
   94.7500    56.8010     7.5150     6.5650     7.9280    22.9960   -17.3030     2.1410 
   94.8750    53.6160     7.4760     6.5470     7.8610    23.0070   -17.1140     2.1400 
