~V
VERS. 2.00: Ver 2.00
~W
STRT.M 59.0000:
STOP.M 247.0000:
STEP.M 0.1250:
NULL. -999.2500:
UWI. F11130:
~C
DEPT.M :
DEN.GM/CC :
SP.MV :
GR.API :
RML.OHMM :
RI. :
RXO.OHMM :
CALI.CM :
~A
   59.0000     2.2020   140.9570    41.5780     0.6600     0.4510 18679.0100    25.8610 
   59.1250     2.2080   138.3780    45.0100     0.6730     0.4320 18679.0100    25.8640 
   59.2500     2.2170   135.6880    46.6210     0.6580     0.4070 18679.0100    25.8690 
   59.3750     2.2450   132.7130    43.7740     0.5740     0.3710 18679.0100    25.8710 
   59.5000     2.3100   129.1950    40.0370     0.4100     0.3170 18679.0100    25.8630 
   59.6250     2.4250   124.4810    40.5330     0.2160     0.2480 18679.0100    25.8490 
   59.7500     2.5620   117.8320    43.0250     0.0700     0.1850 18679.0100    25.8340 
   59.8750     2.6770   108.2550    44.3250    -0.0020     0.1410 18679.0100    25.8250 
   60.0000     2.7280    95.2030    45.4620    -0.0060     0.1220    10.6880    25.7920 
   60.1250     2.6830    79.3600    49.3590     0.0660     0.1500     3.2760    25.6310 
   60.2500     2.5830    62.9750    52.3190     0.2450     0.2700     4.0840    25.3530 
   60.3750     2.4710    47.1670    52.4480     0.6270     0.5630     6.3130    25.1320 
   60.5000     2.3850    32.5510    54.1670     1.3250     1.1310     7.9400    25.0610 
   60.6250     2.3440    19.7990    65.9540     2.3180     2.0430     7.9130    25.1340 
   60.7500     2.3310     9.3630    83.2370     3.2140     2.9980     6.7630    25.2550 
   60.8750     2.3300     2.1550    97.2690     3.7070     3.6750     6.2340    25.3660 
   61.0000     2.3290    -1.3580   103.0960     3.7850     4.0000     6.3100    25.4370 
   61.1250     2.3270    -1.8790   104.2220     3.7010     4.1220     5.6790    25.4700 
   61.2500     2.3270    -1.5970   106.2350     3.7000     4.2410     5.4110    25.4530 
   61.3750     2.3360    -1.4380   109.2210     3.8130     4.4140     5.4000    25.4350 
   61.5000     2.3570    -1.7330   111.4950     4.0070     4.6490     5.5350    25.4320 
   61.6250     2.3800    -2.4570   112.3930     4.2400     4.9360     5.9050    25.4160 
   61.7500     2.3930    -3.3740   111.7650     4.4590     5.2170     7.5650    25.3110 
   61.8750     2.3850    -4.3870   109.9780     4.6280     5.4270     8.9700    25.1560 
   62.0000     2.3570    -5.4470   107.0940     4.7320     5.5240     7.1170    25.1030 
   62.1250     2.3180    -6.5250   106.1120     4.7920     5.5320     5.8710    25.1440 
   62.2500     2.2830    -7.6280   106.7450     4.8670     5.5520     5.6500    25.2000 
   62.3750     2.2580    -8.7500   106.0160     5.0020     5.6650     6.0590    25.2450 
   62.5000     2.2470    -9.8080   102.1470     5.2100     5.9000     6.8080    25.2570 
   62.6250     2.2540   -10.6940    97.7550     5.4600     6.2030     8.0430    25.2310 
   62.7500     2.2700   -11.4530    93.8770     5.6810     6.4370     8.9060    25.2140 
   62.8750     2.2900   -12.1210    89.9940     5.8150     6.5160     8.9060    25.2160 
   63.0000     2.3040   -12.6970    89.7000     5.8350     6.4300     7.8360    25.2380 
   63.1250     2.3060   -13.0760    94.6120     5.7370     6.2370     6.2470    25.2070 
   63.2500     2.3000   -13.2970    96.7420     5.5900     6.0500     6.4400    25.1000 
   63.3750     2.2900   -13.4460    94.0750     5.4520     5.9200     7.5200    25.0610 
   63.5000     2.2810   -13.6680    90.7090     5.3770     5.8630     7.6160    25.1340 
   63.6250     2.2730   -14.0620    92.5170     5.4160     5.8920     6.7260    25.1510 
   63.7500     2.2630   -14.6140    96.8480     5.5550     6.0000     6.8170    24.9840 
   63.8750     2.2500   -15.2900   100.1000     5.7740     6.1750     7.3980    24.7040 
   64.0000     2.2330   -16.0170    99.0870     6.0380     6.3880     7.2450    24.4350 
   64.1250     2.2190   -16.8470    92.9330     6.3000     6.6000     7.3950    24.2860 
   64.2500     2.2110   -17.7120    86.4410     6.5050     6.7690     8.0010    24.4080 
   64.3750     2.2060   -18.5200    82.9970     6.6150     6.8790     8.4490    24.6330 
   64.5000     2.2020   -19.1730    83.2200     6.6030     6.9280     8.3010    24.8560 
   64.6250     2.1970   -19.4850    83.3990     6.4300     6.8810     8.1310    24.8750 
   64.7500     2.1920   -19.4140    80.1780     6.1280     6.6780     9.3050    24.7980 
   64.8750     2.1920   -19.0000    77.8340     5.7650     6.2910     9.7950    24.7910 
   65.0000     2.2050   -18.4180    80.9180     5.4820     5.8290     9.1980    24.8200 
   65.1250     2.2470   -17.8810    89.3060     5.5270     5.5760     7.8300    24.8650 
   65.2500     2.3240   -17.4880    96.1920     6.0390     5.7610     6.5280    25.0070 
   65.3750     2.4270   -17.2610    97.4260     7.1550     6.5530     6.9920    25.2260 
   65.5000     2.5300   -17.3010    92.0330     8.9070     8.0390    11.6470    25.3850 
   65.6250     2.5800   -17.7740    81.7300    10.9030    10.0660    28.0790    25.3330 
   65.7500     2.5550   -18.6280    72.4630    12.1900    11.7180    38.1530    25.1590 
   65.8750     2.4610   -19.8150    66.1330    12.1470    12.0710    25.9840    24.9430 
   66.0000     2.3350   -21.1990    63.3010    10.9100    11.0060    13.9460    24.9450 
   66.1250     2.2250   -22.4890    65.4780     9.2980     9.3380    10.4400    25.3160 
   66.2500     2.1480   -23.6270    70.7840     8.1160     7.9510     9.5680    25.6570 
   66.3750     2.0980   -24.6410    74.2130     7.5630     7.0760     9.3920    25.7250 
   66.5000     2.0650   -25.4200    72.1510     7.6110     6.7250     9.4630    25.5210 
   66.6250     2.0690   -25.9280    69.2590     8.2670     6.9330     9.5720    25.4670 
   66.7500     2.1300   -26.2930    70.0240     9.3400     7.5680     9.5260    25.7200 
   66.8750     2.2440   -26.5630    70.7350    10.6480     8.5400     9.4520    26.1260 
   67.0000     2.3710   -26.7600    68.4700    11.8790     9.6550    11.0550    26.2970 
   67.1250     2.4410   -27.0190    66.2520    12.5000    10.4560    17.9320    26.1690 
   67.2500     2.4320   -27.3500    66.3580    12.3360    10.5770    26.2020    25.8890 
   67.3750     2.3650   -27.6680    65.6150    11.5210     9.9850    19.7840    25.5380 
   67.5000     2.2870   -27.9350    63.3930    10.4440     8.9950    12.4250    25.3000 
   67.6250     2.2420   -28.1520    64.7100     9.5720     8.0330    10.2550    25.3280 
   67.7500     2.2300   -28.3600    69.6390     9.0720     7.3270    10.1230    24.8280 
   67.8750     2.2320   -28.4780    74.4880     8.9080     6.9230     9.7410    24.4730 
   68.0000     2.2320   -28.4360    75.5030     8.9560     6.7660     9.2070    24.3080 
   68.1250     2.2200   -28.2840    73.5940     9.0860     6.7680     9.2240    24.1410 
   68.2500     2.2000   -27.9670    72.9380     9.2000     6.8170     9.9500    24.0040 
   68.3750     2.1780   -27.4260    74.5720     9.2700     6.8800    10.5290    24.0000 
   68.5000     2.1620   -26.7990    76.0140     9.2840     6.9340    10.4650    24.1400 
   68.6250     2.1590   -26.1310    75.3720     9.2290     6.9470    10.1940    24.2590 
   68.7500     2.1680   -25.3460    76.4890     9.1270     6.9120     9.8360    24.1880 
   68.8750     2.1850   -24.5410    79.5370     9.0110     6.8430     9.6650    23.9950 
   69.0000     2.2050   -23.8730    82.4660     8.9160     6.7690     9.5800    23.8140 
   69.1250     2.2200   -23.3070    82.8410     8.8790     6.7160     9.5330    23.7230 
   69.2500     2.2280   -22.7660    83.0560     8.8970     6.6880     9.4040    23.7200 
   69.3750     2.2290   -22.2910    85.8930     8.9480     6.6800     9.5350    23.7600 
   69.5000     2.2240   -21.8930    90.3430     9.0000     6.6800     9.8560    23.8120 
   69.6250     2.2180   -21.6540    92.1920     9.0070     6.6610     9.9060    23.9320 
   69.7500     2.2150   -21.4870    88.6760     8.9550     6.6080    10.0520    24.1480 
   69.8750     2.2180   -21.2970    82.1060     8.8570     6.5240    10.7710    24.3930 
   70.0000     2.2260   -21.0750    78.1030     8.7480     6.4320    11.9570    24.5940 
   70.1250     2.2330   -20.8940    77.7520     8.6850     6.3760    10.6290    24.6860 
