~V
VERS. 2.00: Ver 2.00
~W
STRT.M 63.0000:
STOP.M 244.0000:
STEP.M 0.1250:
NULL. -999.2500:
UWI. F11131:
~C
DEPT.M :
SP.MV :
DEN.GM/CC :
GR.API :
RML.OHMM :
RI. :
RXO.OHMM :
CALI.CM :
~A
# ...
   85.5000   -32.9280     2.1230    58.8270     9.6880     7.4480    10.7420    24.8910 
   85.6250   -32.8350     2.1480    59.9270     9.5510     7.3240    10.7770    24.8510 
   85.7500   -32.7850     2.1560    61.0450     9.5110     7.2660    10.3220    24.7780 
   85.8750   -32.7900     2.1480    61.9670     9.5700     7.2960     9.6250    24.7410 
   86.0000   -32.8370     2.1370    63.0110     9.7020     7.4040     8.9420    24.7500 
   86.1250   -32.8780     2.1310    62.5760     9.8510     7.5580     8.9570    24.7610 
   86.2500   -32.8920     2.1290    60.4650     9.9550     7.6960     9.2060    24.7170 
   86.3750   -32.8550     2.1270    57.8750     9.9850     7.7890     9.3920    24.5960 
   86.5000   -32.7150     2.1210    56.9980     9.9520     7.8320     9.2520    24.4470 
   86.6250   -32.3940     2.1150    58.7980     9.9110     7.8510     9.0920    24.3620 
   86.7500   -31.8880     2.1140    61.2370     9.9250     7.8890     9.2170    24.3390 
   86.8750   -31.1930     2.1190    64.3470     9.9910     7.9500     9.4230    24.3340 
   87.0000   -30.3160     2.1300    69.7610    10.0260     7.9880     9.2450    24.3690 
   87.1250   -29.2340     2.1420    76.5620     9.8490     7.8880     9.0190    24.5280 
   87.2500   -27.9750     2.1560    80.5390     9.4150     7.6030     9.0530    24.7350 
   87.3750   -26.5610     2.1760    82.0030     8.8050     7.1720     9.3510    24.9110 
   87.5000   -25.0610     2.2040    82.1980     8.6760     7.0790     9.3970    24.9420 
   87.6250   -23.5980     2.2390    82.1890     8.5600     6.9850     9.4220    24.9680 
   87.7500   -22.3020     2.2720    81.7810     8.0560     6.5560     9.1970    25.1260 
   87.8750   -21.2130     2.2970    80.4130     7.8280     6.2780     8.1050    25.4350 
   88.0000   -20.3310     2.3110    79.8520     7.9090     6.2040     6.8880    25.9370 
   88.1250   -19.7170     2.3170    82.0350     8.2040     6.3180     6.8110    26.4470 
   88.2500   -19.3790     2.3120    83.6490     8.4670     6.4750     8.1810    26.6980 
   88.3750   -19.3330     2.2960    82.5360     8.5260     6.5520     9.6290    26.5790 
   88.5000   -19.5430     2.2690    78.9500     8.3070     6.4700     8.2990    26.2310 
   88.6250   -20.0100     2.2420    76.3800     7.8700     6.2230     7.4360    25.9830 
   88.7500   -20.6120     2.2190    76.7930     7.4610     5.9560     7.3230    25.9830 
   88.8750   -21.3270     2.2030    76.7000     7.2580     5.7990     6.6550    26.1240 
   89.0000   -22.1430     2.1860    72.8510     7.3620     5.8330     6.0530    26.2320 
   89.1250   -23.0300     2.1620    68.4090     7.8170     6.1090     5.7840    26.1630 
   89.2500   -23.9530     2.1380    68.2310     8.4580     6.5400     5.8360    25.8610 
   89.3750   -24.8580     2.1350    69.7470     9.1230     7.0260     6.6170    25.4170 
   89.5000   -25.7200     2.1790    68.4510     9.6840     7.4770     8.2010    25.1050 
   89.6250   -26.5180     2.2550    65.3470    10.1270     7.8560     9.4010    25.1340 
   89.7500   -27.2430     2.3200    64.3290    10.5680     8.2150     9.4070    25.3660 
   89.8750   -27.8580     2.3310    65.3740    11.0610     8.5830     9.2080    25.7000 
   90.0000   -28.3690     2.2780    66.4470    11.5420     8.9320     9.6950    26.0490 
   90.1250   -28.8410     2.2150    65.5050    11.7750     9.1190    11.0400    26.1270 
   90.2500   -29.2570     2.1740    65.5810    11.6370     9.0440    11.7400    25.7720 
   90.3750   -29.6320     2.1670    68.1050    11.1910     8.7200    10.7870    25.1380 
   90.5000   -29.9560     2.1790    69.5390    10.6560     8.2880    10.1810    24.5730 
   90.6250   -30.2090     2.1840    66.7220    10.2840     7.9460     9.9120    24.3530 
   90.7500   -30.4320     2.1720    64.3870    10.1230     7.7770     9.6570    24.3340 
   90.8750   -30.6460     2.1470    66.2990    10.1010     7.7560     9.2640    24.3460 
   91.0000   -30.8290     2.1230    70.5080    10.0930     7.7910     8.9800    24.3430 
   91.1250   -30.9130     2.1090    71.9340     9.9990     7.7770     9.5070    24.3550 
   91.2500   -30.8990     2.1050    71.1730     9.8450     7.7000     9.9250    24.3820 
   91.3750   -30.7980     2.1090    70.5150     9.6860     7.5940    10.1510    24.4070 
   91.5000   -30.6760     2.1150    71.6080     9.5660     7.4970    10.1460    24.4170 
   91.6250   -30.5480     2.1170    75.4410     9.5100     7.4330     9.7810    24.4170 
   91.7500   -30.4260     2.1120    78.6710     9.4880     7.3910     9.2580    24.4160 
   91.8750   -30.2760     2.1020    79.5050     9.4680     7.3570     8.8930    24.4200 
   92.0000   -30.0960     2.0900    78.7950     9.4100     7.3100     8.7460    24.4350 
   92.1250   -29.9150     2.0800    78.2910     9.2790     7.2280     8.8310    24.4630 
   92.2500   -29.7520     2.0770    78.6840     9.0930     7.1120     8.9110    24.4860 
   92.3750   -29.6160     2.0820    79.1440     8.8910     6.9750     8.9010    24.4840 
   92.5000   -29.4980     2.0950    80.4360     8.7200     6.8430     8.7340    24.4470 
   92.6250   -29.4020     2.1100    81.2020     8.6340     6.7550     8.5800    24.3960 
   92.7500   -29.3270     2.1210    80.8020     8.6530     6.7360     8.2670    24.3620 
   92.8750   -29.3070     2.1260    79.5420     8.7870     6.8050     7.9560    24.3500 
   93.0000   -29.3880     2.1270    76.1470     9.0230     6.9580     7.7080    24.3480 
   93.1250   -29.6230     2.1270    71.7700     9.3120     7.1740     7.5530    24.3480 
   93.2500   -29.9740     2.1280    69.0740     9.5770     7.3940     7.6750    24.3530 
   93.3750   -30.3940     2.1320    68.7840     9.7720     7.5790     7.9630    24.3550 
   93.5000   -30.8170     2.1340    69.9240     9.8860     7.7080     8.3540    24.3480 
   93.6250   -31.1920     2.1320    71.6850     9.9420     7.7760     8.5270    24.3390 
   93.7500   -31.4880     2.1270    73.0100     9.9970     7.8190     8.6620    24.3330 
   93.8750   -31.7200     2.1190    71.5050    10.0730     7.8540     8.8040    24.3210 
   94.0000   -31.8720     2.1120    68.9320    10.1680     7.8900     8.9830    24.2830 
   94.1250   -31.8760     2.1080    68.3040    10.2420     7.9170     9.0080    24.2310 
   94.2500   -31.7750     2.1120    68.2820    10.2670     7.9250     9.0210    24.2040 
   94.3750   -31.6150     2.1210    67.4320    10.2990     7.9300     9.1350    24.1470 
   94.5000   -31.4210     2.1240    65.6250    10.2640     7.9010     9.2620    24.1050 
   94.6250   -31.2060     2.1160    66.3840    10.1980     7.8540     9.1990    24.0760 
   94.7500   -30.9750     2.1090    70.5860    10.1950     7.8440     9.0090    24.0540 
   94.8750   -30.7270     2.1270    74.5210    10.3270     7.9250     8.9210    24.0540 
   95.0000   -30.4870     2.2060    75.6990    10.6120     8.1180     9.0400    24.1190 
   95.1250   -30.2950     2.3240    73.4480    10.9870     8.4020     9.2940    24.3180 
   95.2500   -30.1330     2.4230    70.6220    11.2810     8.6730     9.5050    24.5850 
   95.3750   -29.9800     2.4410    69.0110    11.3530     8.8330     9.5570    24.8530 
   95.5000   -29.8160     2.3700    67.7630    11.1530     8.8240     9.2130    25.1140 
   95.6250   -29.6460     2.2800    65.7230    10.7640     8.6600     8.4920    25.3020 
   95.7500   -29.4590     2.2100    63.5380    10.4080     8.4690     8.0950    25.2260 
   95.8750   -29.2020     2.1710    63.0070    10.2100     8.3380     8.2210    24.8520 
   96.0000   -28.8210     2.1580    64.7750    10.1710     8.2870     8.6040    24.4140 
   96.1250   -28.2700     2.1530    67.3660     9.9900     8.1090     9.2340    24.1920 
   96.2500   -27.5730     2.1530    67.4530     9.5490     7.7650     9.3520    24.3030 
   96.3750   -26.7380     2.1600    70.3150     8.8850     7.2420     9.0990    24.6120 
   96.5000   -25.8060     2.1760    78.0170     8.1330     6.6270     8.1040    25.1110 
   96.6250   -24.7990     2.1940    85.4440     7.4630     6.0440     6.6910    25.5560 
