~V
VERS. 2.00: Ver 2.00
~W
STRT.M 62.0000:
STOP.M 217.0000:
STEP.M 0.1250:
NULL. -999.2500:
UWI. F11126:
~C
DEPT.M :
DEN.GM/CC :
SP.MV :
GR.API :
RML.OHMM :
RI. :
RXO.OHMM :
CALI.CM :
~A
   62.0000     2.0240    57.3190    55.0180     0.1620     0.1850  8076.2920    25.2950 
   62.1250     2.0460    56.9800    55.2520     0.1400     0.1740  3699.8830    25.2970 
   62.2500     2.0830    56.5630    54.0900     0.0860     0.1640  1953.4770    25.3020 
   62.3750     2.1410    56.0370    52.8220    -0.0130     0.1580  2221.2420    25.3100 
   62.5000     2.2270    55.1760    52.8070    -0.1330     0.1530  3675.2110    25.3140 
   62.6250     2.3310    53.7070    52.9380    -0.2240     0.1520  4844.7020    25.3150 
   62.7500     2.4470    51.2960    52.8500    -0.2620     0.1540  2055.3290    25.3110 
   62.8750     2.5560    47.6190    52.4860    -0.2430     0.1660   274.6180    25.3010 
   63.0000     2.5930    42.0080    51.0540    -0.1450     0.2140     1.0070    25.2890 
   63.1250     2.5230    34.7670    49.2620     0.0750     0.3420     1.8470    25.2730 
   63.2500     2.3870    26.4550    48.8740     0.5400     0.6190     3.1150    25.2730 
   63.3750     2.2560    17.6310    51.3700     1.4700     1.1150     4.2530    25.3600 
   63.5000     2.1920     8.8200    56.3290     2.8970     1.8970     4.9110    25.6240 
   63.6250     2.1810     0.6230    60.7100     4.6880     2.8640     5.4070    26.0190 
   63.7500     2.1900    -6.4900    63.4570     6.4890     3.8770     5.9320    26.3780 
   63.8750     2.1990   -12.1190    64.7020     7.3860     4.7740     6.5750    26.6300 
   64.0000     2.1980   -15.6090    66.1930     7.6780     5.4260     7.3430    26.6970 
   64.1250     2.1850   -17.3810    68.7930     7.8330     5.8980     8.1630    26.6090 
   64.2500     2.1640   -17.9760    70.8770     7.9450     6.2340     8.8920    26.5240 
   64.3750     2.1410   -17.8940    72.0700     7.9890     6.4440     9.1760    26.6050 
   64.5000     2.1270   -17.3590    73.2000     7.9750     6.5120     9.0480    26.9270 
   64.6250     2.1200   -16.7870    74.9660     7.9100     6.4900     8.8680    27.2630 
   64.7500     2.1190   -16.4440    76.0200     7.7650     6.4150     8.7540    27.5030 
   64.8750     2.1220   -16.3880    75.3360     7.5800     6.3200     8.6970    27.5940 
   65.0000     2.1260   -16.5630    75.2960     7.4380     6.2210     8.6370    27.5850 
   65.1250     2.1290   -16.8190    77.4120     7.3410     6.1270     8.5990    27.5590 
   65.2500     2.1340   -17.1100    80.1590     7.3060     6.0450     8.5210    27.5450 
   65.3750     2.1400   -17.4810    82.2200     7.3410     5.9910     8.4820    27.5310 
   65.5000     2.1480   -18.0340    82.9300     7.5060     5.9940     8.4550    27.5010 
   65.6250     2.1550   -18.7330    83.3250     7.6620     6.0600     8.4590    27.4810 
   65.7500     2.1590   -19.5240    82.3570     7.7880     6.1790     8.4060    27.4600 
   65.8750     2.1610   -20.3940    80.0290     7.9220     6.3270     8.2600    27.4540 
   66.0000     2.1630   -21.3480    76.9050     7.9860     6.4620     8.0310    27.4960 
   66.1250     2.1690   -22.3480    73.9720     7.9850     6.5500     7.8930    27.5590 
   66.2500     2.1780   -23.3430    72.4640     7.9030     6.5750     8.1050    27.6160 
   66.3750     2.1880   -24.2590    72.2690     7.7410     6.5370     8.7210    27.6570 
   66.5000     2.1850   -25.0660    71.0160     7.5460     6.4450     9.2860    27.7950 
   66.6250     2.1610   -25.8130    68.1020     7.3670     6.3310     9.5950    28.2280 
   66.7500     2.1130   -26.4270    64.2950     7.2420     6.2140     9.5720    29.0380 
   66.8750     2.0410   -26.8970    61.9930     7.1310     6.1060     9.2750    29.9120 
   67.0000     1.9390   -27.2480    62.1910     7.0390     6.0210     9.0460    30.6580 
   67.1250     1.8360   -27.4740    63.4100     6.9910     5.9600     8.8100    31.5550 
   67.2500     1.7630   -27.5950    63.8370     7.0090     5.9260     8.5800    32.7310 
   67.3750     1.7390   -27.6240    62.6950     7.0730     5.9190     8.4940    33.4630 
   67.5000     1.7700   -27.6030    60.4250     7.1790     5.9390     8.5370    33.6080 
   67.6250     1.8380   -27.4910    58.5550     7.2680     5.9720     8.6190    33.4810 
   67.7500     1.9280   -27.2680    57.9300     7.3310     6.0080     8.7860    33.3110 
   67.8750     2.0180   -26.9480    58.9470     7.3910     6.0390     9.1020    33.1620 
   68.0000     2.0810   -26.5610    60.6300     7.4300     6.0590     9.3500    33.0210 
   68.1250     2.1150   -26.2100    62.8750     7.4810     6.0740     9.4450    32.8180 
   68.2500     2.1290   -25.9600    65.3090     7.5270     6.0890     9.3080    32.4590 
   68.3750     2.1310   -25.8200    66.6970     7.5620     6.1060     9.1040    32.1380 
   68.5000     2.1330   -25.6800    67.8440     7.6120     6.1230     9.1640    32.0090 
   68.6250     2.1380   -25.5800    69.2530     7.6310     6.1360     9.3950    31.9750 
   68.7500     2.1450   -25.5210    71.0390     7.6380     6.1400     9.6320    31.9600 
   68.8750     2.1500   -25.5710    72.1540     7.6380     6.1300     9.7740    31.9760 
   69.0000     2.1540   -25.6520    72.0760     7.5780     6.1000     9.7380    31.9480 
   69.1250     2.1580   -25.7030    71.3410     7.5000     6.0530     9.4840    31.8050 
   69.2500     2.1640   -25.7130    71.2150     7.4500     5.9940     9.1690    31.5110 
   69.3750     2.1710   -25.6880    73.4130     7.4140     5.9340     8.8650    31.2090 
   69.5000     2.1760   -25.7250    75.9060     7.3650     5.8820     8.6290    31.1030 
   69.6250     2.1710   -25.7470    77.5820     7.3370     5.8410     8.5480    31.0570 
   69.7500     2.1530   -25.8050    79.4410     7.2920     5.8080     8.6070    30.9840 
   69.8750     2.1300   -25.8540    80.9410     7.2210     5.7780     8.7640    30.9000 
   70.0000     2.1120   -25.9370    79.9640     7.1700     5.7460     8.7690    30.9190 
   70.1250     2.1040   -26.0690    77.0850     7.1170     5.7110     8.6530    31.0180 
   70.2500     2.1040   -26.2460    76.0080     7.0480     5.6710     8.6160    31.1230 
   70.3750     2.1060   -26.3810    76.7120     6.9380     5.6250     8.6740    31.2210 
   70.5000     2.1080   -26.4050    75.8230     6.8150     5.5810     8.7220    31.3580 
   70.6250     2.1070   -26.2470    74.1040     6.6640     5.5470     8.7220    31.4660 
   70.7500     2.1010   -25.9150    74.3860     6.5710     5.5300     8.7470    31.4350 
   70.8750     2.0840   -25.4050    77.6280     6.5430     5.5350     8.8470    31.2570 
   71.0000     2.0630   -24.7170    79.1000     6.5550     5.5710     9.0050    30.9020 
   71.1250     2.0600   -23.8160    76.3180     6.6010     5.6290     9.1040    30.6480 
   71.2500     2.0850   -22.7220    73.7740     6.6540     5.6970     8.9690    30.5950 
   71.3750     2.1320   -21.4760    76.3000     6.6730     5.7460     8.7300    30.7000 
   71.5000     2.1800   -19.9820    82.9670     6.5990     5.7270     8.5460    30.8400 
   71.6250     2.2160   -18.3580    87.0420     6.4160     5.6160     8.2820    30.9000 
   71.7500     2.2440   -16.6410    88.3400     6.1300     5.4040     7.7170    30.6970 
   71.8750     2.2710   -14.9650    90.7230     5.7750     5.1070     6.8010    30.1080 
   72.0000     2.2990   -13.3600    96.3240     5.4130     4.7650     5.8460    29.4180 
   72.1250     2.3230   -11.9780   103.9840     5.1140     4.4430     5.1350    29.0060 
   72.2500     2.3430   -10.8060   111.1760     4.9330     4.1950     4.7800    28.8220 
   72.3750     2.3570   -10.0040   114.7980     4.9090     4.0660     4.6540    28.7410 
   72.5000     2.3590    -9.8040   112.8990     5.0810     4.1070     4.7440    28.6940 
   72.6250     2.3510   -10.2240   108.1460     5.3870     4.2880     5.1330    28.6710 
   72.7500     2.3360   -11.1750   101.6790     5.7700     4.5750     5.8730    28.6140 
   72.8750     2.3070   -12.5140    93.1920     6.1660     4.9160     6.9570    28.5160 
   73.0000     2.2610   -14.1860    85.2300     6.5180     5.2520     8.1350    28.4000 
   73.1250     2.2150   -15.9750    79.8530     6.8260     5.5560     8.8330    28.2790 
