~V
VERS. 2.00: Ver 2.00
~W
STRT.M 51.0000:
STOP.M 249.0000:
STEP.M 0.1250:
NULL. -999.2500:
UWI. F11143:
~C
DEPT.M :
GR.API :
RML.OHMM :
RI. :
RXO.OHMM :
CALI.CM :
SP.MV :
DEN.GM/CC :
~A
# ...
  152.2500    69.6690    14.6110    13.7690    18.8410    23.6290   -16.0830     2.3490 
  152.3750    69.6920    14.6420    13.8820    19.5420    23.8970   -16.1530     2.3320 
  152.5000    73.6410    14.5470    13.8340    16.3710    24.0360   -16.2780     2.3180 
  152.6250    73.6670    14.6740    13.8450    13.9300    24.1170   -16.4720     2.3160 
  152.7500    71.1530    15.2980    14.1960    14.7210    24.2180   -16.6840     2.3220 
  152.8750    70.2600    16.5280    15.0500    17.6470    24.2780   -16.8590     2.3230 
  153.0000    72.5920    18.3440    16.4720    19.9390    24.2130   -16.9860     2.3120 
  153.1250    74.1640    20.6070    18.4610    23.4950    24.0530   -17.0660     2.2960 
  153.2500    71.8420    22.8090    20.5950    30.4260    23.9460   -17.1470     2.2800 
  153.3750    67.6900    24.4460    22.3830    37.6370    23.8780   -17.2100     2.2660 
  153.5000    66.4930    25.1770    23.4160    36.5300    23.8380   -17.2350     2.2560 
  153.6250    69.1330    24.9180    23.4870    31.1940    23.7920   -17.2120     2.2550 
  153.7500    69.4060    24.2230    23.0190    28.0190    23.7360   -17.1620     2.2590 
  153.8750    65.9750    23.5750    22.4150    26.7160    23.7020   -17.0790     2.2650 
  154.0000    62.3760    23.3620    22.0540    26.5400    23.7170   -16.9540     2.2720 
  154.1250    61.4270    23.7960    22.2190    25.9540    23.7490   -16.8040     2.2780 
  154.2500    63.4910    24.5430    22.7400    27.3310    23.7520   -16.6390     2.2810 
  154.3750    66.6430    25.1630    23.2980    28.0370    23.7350   -16.4560     2.2820 
  154.5000    66.7150    25.1460    23.4450    27.7450    23.7330   -16.2760     2.2840 
  154.6250    63.3180    23.9700    22.6370    26.5090    23.7320   -16.1090     2.2820 
  154.7500    61.9190    21.9720    21.0420    24.4110    23.6920   -15.9730     2.2790 
  154.8750    65.3760    19.7310    19.1050    20.7440    23.6370   -15.8790     2.2800 
  155.0000    71.1730    17.8800    17.3710    17.6740    23.5940   -15.8420     2.2860 
  155.1250    75.9120    16.9440    16.3400    16.6550    23.5550   -15.8400     2.2890 
  155.2500    76.8960    16.7400    15.9730    16.9370    23.5160   -15.8540     2.2870 
  155.3750    75.9960    16.9410    16.0810    18.3200    23.4870   -15.8860     2.2800 
  155.5000    78.5160    17.1270    16.3380    20.9620    23.4810   -15.9020     2.2760 
  155.6250    82.9190    16.8900    16.3350    23.7050    23.4960   -15.9140     2.2790 
  155.7500    83.2000    16.2810    15.9740    24.4150    23.5230   -15.9320     2.2880 
  155.8750    79.6080    15.5950    15.4380    21.0230    23.5600   -15.9690     2.2950 
  156.0000    77.7690    15.1700    15.0190    16.2500    23.6240   -15.9870     2.2960 
  156.1250    77.6670    15.1390    14.9020    17.1180    23.6510   -15.9840     2.2920 
  156.2500    76.1020    15.1530    14.8740    18.6170    23.6700   -15.9840     2.2900 
  156.3750    74.3920    14.8420    14.6280    19.0730    23.6860   -15.9970     2.2880 
  156.5000    72.6350    14.0180    13.9560    18.0410    23.6970   -16.0350     2.2830 
  156.6250    73.5660    12.8830    12.9520    15.3610    23.6920   -16.1010     2.2800 
  156.7500    78.2030    12.0230    12.0800    11.9400    23.6600   -16.1450     2.2820 
  156.8750    81.8120    11.7580    11.6280    10.2640    23.6190   -16.1250     2.2890 
  157.0000    81.1840    12.0300    11.6340    11.1590    23.5800   -16.0770     2.2970 
  157.1250    77.9100    12.4180    11.8680    14.7660    23.5710   -16.0180     2.3040 
  157.2500    75.5760    12.4100    11.8880    17.6160    23.5530   -15.9370     2.3070 
  157.3750    73.2400    11.8210    11.4590    16.2650    23.5490   -15.8280     2.3050 
  157.5000    71.6740    10.8500    10.6700    12.9530    23.5480   -15.6860     2.3030 
  157.6250    73.3170    10.0020     9.9070    10.4290    23.5410   -15.4890     2.3070 
  157.7500    75.5730     9.5580     9.4520    10.4280    23.5260   -15.2920     2.3130 
  157.8750    76.7590     9.4770     9.3270    12.0260    23.5120   -15.1500     2.3170 
  158.0000    76.8850     9.5990     9.4300    12.8450    23.5220   -15.0750     2.3200 
  158.1250    77.1080     9.8400     9.6790    14.5850    23.5490   -15.0530     2.3200 
  158.2500    76.7830    10.2300    10.0440    15.3000    23.5690   -15.0470     2.3200 
  158.3750    75.4210    10.8840    10.5980    13.4610    23.5670   -15.0230     2.3230 
  158.5000    72.7890    11.8170    11.3930    11.5220    23.5670   -14.9890     2.3280 
  158.6250    69.5910    12.7390    12.2630    14.9150    23.5940   -14.9720     2.3270 
  158.7500    66.5710    13.0750    12.6720    19.8290    23.6560   -14.9640     2.3210 
  158.8750    63.8540    12.3750    12.1110    21.2680    23.7210   -14.9430     2.3160 
  159.0000    64.7380    10.6640    10.5510    17.8790    23.7500   -14.8970     2.3080 
  159.1250    70.2760     8.6090     8.6250    12.2690    23.6670   -14.8980     2.2790 
  159.2500    75.8370     7.0620     7.0930     8.1520    23.5510   -14.9820     2.2360 
  159.3750    79.2850     6.3500     6.2170     6.2250    23.5030   -15.1710     2.2050 
  159.5000    80.1830     6.4700     6.0200     6.2220    23.5390   -15.4390     2.2030 
  159.6250    79.9050     7.3580     6.5270     7.7260    23.6300   -15.7230     2.2350 
  159.7500    79.5150     8.6570     7.5090     9.6310    23.7130   -15.9940     2.2730 
  159.8750    79.6100    10.1070     8.7900    10.9930    23.7780   -16.2800     2.2980 
  160.0000    81.5860    11.4660    10.1460    12.1720    23.8440   -16.5560     2.3070 
  160.1250    81.6290    12.5310    11.3180    13.9050    23.9010   -16.7420     2.3080 
  160.2500    79.8240    13.3390    12.2330    15.6860    23.9280   -16.8210     2.3090 
  160.3750    77.6660    13.9970    12.9450    17.0490    23.9260   -16.7900     2.3100 
  160.5000    75.1930    14.6550    13.5880    17.8990    23.9280   -16.6890     2.3070 
  160.6250    70.1250    15.5120    14.3340    18.5910    23.9480   -16.5640     2.2960 
  160.7500    64.4610    16.6560    15.2830    19.7850    23.9670   -16.4290     2.2820 
  160.8750    62.7460    18.0940    16.4750    22.0450    23.9660   -16.2680     2.2720 
  161.0000    64.2310    19.7050    17.8650    24.7840    23.9670   -16.1150     2.2700 
  161.1250    65.2110    21.1710    19.2770    26.3600    23.9810   -16.0320     2.2730 
  161.2500    64.8370    22.0880    20.3730    27.4290    23.9820   -16.0170     2.2750 
  161.3750    65.0240    22.0730    20.7570    27.9770    23.9600   -16.0330     2.2750 
  161.5000    65.5780    20.9470    20.1370    26.8810    23.9180   -16.0650     2.2780 
  161.6250    66.6010    18.8120    18.4590    23.7730    23.8740   -16.1320     2.2840 
  161.7500    68.1840    16.3760    16.3480    21.0430    23.8620   -16.1960     2.2890 
  161.8750    72.5070    14.1470    14.2690    17.3170    23.8770   -16.2280     2.2900 
  162.0000    80.5200    12.4670    12.5590    13.6300    23.9280   -16.2540     2.2890 
  162.1250    86.9840    11.5370    11.4490    13.2660    23.9630   -16.2950     2.2890 
  162.2500    88.6330    11.1000    10.7890    13.0420    24.0030   -16.3330     2.2910 
  162.3750    87.4110    10.9410    10.4400    12.7830    24.0270   -16.3980     2.2930 
  162.5000    88.4020    10.8650    10.2530    12.5890    24.0070   -16.4850     2.2930 
  162.6250    91.9170    10.7110    10.1030    12.6180    23.9270   -16.5400     2.2960 
  162.7500    92.7790    10.4860     9.9410    11.7110    23.7940   -16.5950     2.3020 
  162.8750    90.8740    10.3190     9.8320    10.6120    23.6840   -16.7000     2.3070 
  163.0000    89.1400    10.4060     9.9070    10.8840    23.6470   -16.8320     2.3090 
  163.1250    87.5170    11.0410    10.3810    12.6620    23.6620   -16.9710     2.3060 
  163.2500    82.5310    12.3190    11.3520    14.0710    23.6880   -17.1310     2.3020 
  163.3750    75.8770    14.2800    12.9240    15.2180    23.7040   -17.3000     2.2980 
