~V
VERS. 2.00: Ver 2.00
~W
STRT.M 63.0000:
STOP.M 246.0000:
STEP.M 0.1250:
NULL. -999.2500:
UWI. F11137:
~C
DEPT.M :
DEN.GM/CC :
GR.API :
RML.OHMM :
RI. :
RXO.OHMM :
CALI.CM :
SP.MV :
~A
   63.0000     2.2380    59.9280     0.0680     0.2290    13.0670    25.6330    83.1660 
   63.1250     2.4270    64.9370     0.0420     0.2060     6.4050    25.6190    78.7780 
   63.2500     2.5760    65.7880     0.0750     0.2020     2.8820    25.5900    72.9000 
   63.3750     2.6180    64.3730     0.1890     0.2440     2.9270    25.5800    65.3380 
   63.5000     2.5160    66.6420     0.4460     0.3950     4.5250    25.7530    56.5180 
   63.6250     2.2890    72.6670     1.0030     0.8020     7.0880    26.4670    47.1950 
   63.7500     2.0480    78.4560     1.8830     1.5350     9.4900    27.4220    37.9210 
   63.8750     1.8770    83.0410     2.9660     2.5650     9.3630    27.6670    29.0130 
   64.0000     1.8260    86.4030     3.9740     3.6620     8.0000    26.4530    20.7820 
   64.1250     1.9020    89.7910     4.6050     4.5070     7.4960    25.0550    13.7750 
   64.2500     2.0320    92.7230     4.9280     5.1110     7.6100    24.1990     8.2430 
   64.3750     2.1610    91.8600     5.0870     5.5870     7.7700    23.8720     4.4220 
   64.5000     2.2520    86.1850     5.1810     5.9870     8.4440    23.7450     1.8980 
   64.6250     2.2890    81.1550     5.2300     6.2620     9.0290    23.6630    -0.0410 
   64.7500     2.2910    79.1080     5.2810     6.4330     9.5750    23.6930    -1.8190 
   64.8750     2.2730    77.7910     5.4180     6.5950     9.7640    23.9610    -3.4230 
   65.0000     2.2460    77.7050     5.7370     6.8800     9.4740    24.3750    -4.7980 
   65.1250     2.2210    79.1600     6.3180     7.4050     9.2010    24.6170    -5.9420 
   65.2500     2.2050    78.1770     7.0390     8.0900    11.4980    24.7020    -6.9640 
   65.3750     2.1980    73.6160     7.7110     8.7590    17.9560    24.7460    -7.8910 
   65.5000     2.1920    69.4020     8.1160     9.1430    21.5560    24.6660    -8.6980 
   65.6250     2.1800    69.4950     8.0670     8.9910    14.0220    24.4980    -9.4260 
   65.7500     2.1630    71.9430     7.7180     8.4970    10.5660    24.3670   -10.1900 
   65.8750     2.1450    73.9270     7.2590     7.9170     9.4670    24.3290   -11.0230 
   66.0000     2.1330    75.2540     6.8600     7.4600     9.7790    24.3930   -11.8960 
   66.1250     2.1340    75.5360     6.6470     7.2700    10.2050    24.5450   -12.7890 
   66.2500     2.1440    75.0530     6.6130     7.2760    10.3970    24.6910   -13.6510 
   66.3750     2.1550    73.5380     6.7370     7.3730    10.2020    24.7880   -14.3980 
   66.5000     2.1620    71.1680     6.9620     7.4630     9.9260    24.8020   -15.0580 
   66.6250     2.1600    71.3920     7.1890     7.4990     9.8710    24.7480   -15.6510 
   66.7500     2.1520    74.2790     7.3230     7.4890     9.9050    24.6910   -16.1320 
   66.8750     2.1460    77.0830     7.3260     7.4480     9.7740    24.6320   -16.4840 
   67.0000     2.1460    78.2410     7.2120     7.3930     9.5730    24.5440   -16.8090 
   67.1250     2.1540    79.0810     7.0310     7.3410     9.6730    24.4530   -17.2400 
   67.2500     2.1610    79.8550     6.8640     7.3000     9.9910    24.3790   -17.6520 
   67.3750     2.1630    77.2110     6.7660     7.2700    10.0880    24.3420   -17.9770 
   67.5000     2.1590    72.1900     6.7740     7.2500    10.0960    24.3310   -18.2740 
   67.6250     2.1530    70.5750     6.9060     7.2320    10.2260    24.3280   -18.5460 
   67.7500     2.1490    72.8110     7.0900     7.2060    10.2510    24.3100   -18.7260 
   67.8750     2.1490    76.5650     7.2480     7.1740    10.1400    24.2810   -18.9290 
   68.0000     2.1510    77.4530     7.3370     7.1460    10.1510    24.2610   -19.2200 
   68.1250     2.1510    74.3340     7.3820     7.1400    10.5240    24.2590   -19.4550 
   68.2500     2.1500    71.9020     7.4980     7.1600    10.6990    24.2850   -19.6230 
   68.3750     2.1500    71.4030     7.7330     7.2090    10.7590    24.3150   -19.8270 
   68.5000     2.1550    71.9620     8.0170     7.2800    10.8770    24.3300   -20.0500 
   68.6250     2.1660    71.3290     8.2130     7.3720    10.8990    24.3670   -20.2230 
   68.7500     2.1760    71.1590     8.3180     7.4780    11.0620    24.4670   -20.4290 
   68.8750     2.1800    71.4770     8.3840     7.5830    11.2600    24.6200   -20.6160 
   69.0000     2.1730    69.4640     8.4340     7.6600    11.4140    24.7780   -20.6790 
   69.1250     2.1540    65.2810     8.4220     7.6570    11.3750    24.8790   -20.6670 
   69.2500     2.1300    62.8380     8.3280     7.5610    11.0810    24.9860   -20.5930 
   69.3750     2.1100    65.1390     8.1160     7.3740    10.7930    25.0820   -20.3460 
   69.5000     2.1010    70.3060     7.7850     7.1260    10.3310    25.0980   -19.9160 
   69.6250     2.1120    75.5810     7.4640     6.8830     9.5500    24.9830   -19.4950 
   69.7500     2.1370    81.1780     7.3390     6.7120     8.7410    24.7690   -19.0860 
   69.8750     2.1680    84.9220     7.4510     6.6610     8.7880    24.5200   -18.6910 
   70.0000     2.1940    83.6240     7.6770     6.7470     9.8460    24.3420   -18.3780 
   70.1250     2.2090    77.4330     7.8630     6.9450    10.4190    24.2230   -18.0770 
   70.2500     2.2160    72.4290     7.9780     7.1590    10.4300    24.1360   -17.8410 
   70.3750     2.2200    70.8890     8.0390     7.3160    10.4550    24.0960   -17.7280 
   70.5000     2.2260    70.7000     8.0620     7.3820    10.5550    24.1110   -17.6940 
   70.6250     2.2320    71.3820     8.0580     7.3640    10.4380    24.0890   -17.6440 
   70.7500     2.2320    74.2160     8.0590     7.3390    10.2460    24.0310   -17.5200 
   70.8750     2.2250    77.2120     8.0510     7.3480    10.0580    24.0030   -17.3050 
   71.0000     2.2080    75.6570     8.0130     7.3930     9.7850    24.0260   -16.9680 
   71.1250     2.1850    70.3320     7.9740     7.4280     9.8640    24.0480   -16.4900 
   71.2500     2.1640    70.0880     7.9750     7.3950    10.1360    24.0620   -15.8080 
   71.3750     2.1540    76.3690     7.9430     7.2520    10.2910    24.1430   -14.8930 
   71.5000     2.1640    85.5540     7.7600     7.0050     9.7960    24.3200   -13.8250 
   71.6250     2.1970    92.9150     7.4080     6.6950     8.4970    24.5450   -12.6540 
   71.7500     2.2440    98.3500     7.0530     6.3880     7.4390    24.6940   -11.4990 
   71.8750     2.2940   101.1540     6.7750     6.1020     6.9940    24.7480   -10.3210 
   72.0000     2.3410   101.9850     6.5490     5.8230     6.7440    24.7240    -9.1310 
   72.1250     2.3840   103.9410     6.3210     5.5230     6.6130    24.6600    -8.0780 
   72.2500     2.4200   106.4050     6.0960     5.2080     6.3230    24.6140    -7.2570 
   72.3750     2.4440   107.1030     5.9640     4.9480     6.1040    24.6040    -6.7520 
   72.5000     2.4510   105.1500     6.0720     4.8630     6.0110    24.6140    -6.5370 
   72.6250     2.4450   100.9230     6.6340     5.1310     5.9810    24.6180    -6.6580 
   72.7500     2.4430    96.4420     7.6160     5.7700     6.7340    24.6030    -7.0470 
   72.8750     2.4540    90.1040     8.8680     6.7610    10.2680    24.6020    -7.8070 
   73.0000     2.4720    81.9620    10.0690     7.9350    18.0720    24.6140    -8.9660 
   73.1250     2.4690    75.9870    10.6940     8.8250    26.9590    24.6160   -10.4510 
   73.2500     2.4310    73.0800    10.5960     9.0560    20.1710    24.5680   -12.0820 
   73.3750     2.3600    71.9420     9.9230     8.6270    13.1340    24.5290   -13.7770 
   73.5000     2.2780    72.2960     9.0380     7.8540    11.0340    24.5980   -15.4790 
   73.6250     2.2130    75.8030     8.3430     7.1380    11.1170    24.7310   -17.0820 
   73.7500     2.1750    77.5990     7.9530     6.6720    11.0300    24.8610   -18.5460 
   73.8750     2.1590    73.4770     7.8100     6.4680    11.0290    24.9800   -19.8350 
   74.0000     2.1540    67.6110     7.8020     6.4450    11.1820    25.0770   -20.8740 
   74.1250     2.1510    66.4390     7.8380     6.5060    11.2030    25.1550   -21.7030 
