~V
VERS. 2.00: Ver 2.00
~W
STRT.M 49.0000:
STOP.M 247.0000:
STEP.M 0.1250:
NULL. -999.2500:
UWI. F11144:
~C
DEPT.M :
DEN.GM/CC :
SP.MV :
GR.API :
RML.OHMM :
RI. :
RXO.OHMM :
CALI.CM :
~A
# ...
  240.2500     2.4430   -12.1250    71.3780     7.7360     7.9100     7.8460    23.2880 
  240.3750     2.4490   -12.0420    71.3780     7.6770     7.8870     7.7030    23.2480 
  240.5000     2.4600   -11.9690    71.3780     7.7000     7.9040     7.6430    23.2140 
  240.6250     2.4700   -11.9200    71.3780     7.8120     7.9310     7.7170    23.2050 
  240.7500     2.4670   -11.8840    71.3780     7.9620     7.9340     8.0030    23.2180 
  240.8750     2.4530   -11.8960    71.3780     8.0750     7.9080     8.4600    23.2530 
  241.0000     2.4380   -11.9310    71.3780     8.1110     7.8670     8.9650    23.3070 
  241.1250     2.4270   -11.9570    71.3780     8.0610     7.8310     9.2290    23.3440 
  241.2500     2.4180   -11.9840    71.3780     7.9550     7.8260     9.2780    23.3640 
  241.3750     2.4100   -12.0850    71.3780     7.8560     7.8410     9.1590    23.3800 
  241.5000     2.4020   -12.2450    71.3780     7.7990     7.8550     8.8710    23.3820 
  241.6250     2.4010   -12.4080    71.3780     7.7940     7.8490     8.5550    23.3690 
  241.7500     2.4010   -12.5690    71.3780     7.8500     7.8190     8.5900    23.3540 
  241.8750     2.4100   -12.7230    71.3780     7.9310     7.7880     9.0610    23.3190 
  242.0000     2.4160   -12.8630    71.3780     7.9980     7.7750     9.5620    23.2440 
  242.1250     2.4140   -12.9940    71.3780     8.0390     7.7840     9.9800    23.1900 
  242.2500     2.4100   -13.1360    71.3780     8.0630     7.8080    10.2490    23.1420 
  242.3750     2.4210   -13.1680    71.3780     8.0770     7.8260    10.9220    23.1040 
  242.5000     2.4520   -13.0540    71.3780     8.0800     7.8330    11.5310    23.0630 
  242.6250     2.4870   -12.9210    71.3780     8.0750     7.8330    11.4490    23.0460 
  242.7500     2.5050   -12.7900    71.3780     8.0630     7.8330    10.6650    23.0140 
  242.8750     2.4910   -12.6860    71.3780     8.0480     7.8370    10.4070    22.8550 
  243.0000     2.4610   -12.5730    71.3780     8.0410     7.8400    10.9190    22.5820 
  243.1250     2.4340   -12.4510    71.3780     8.0410     7.8400    11.6790    22.2260 
  243.2500     2.4200   -12.3310    71.3780     8.0410     7.8400    11.2780    22.0900 
  243.3750     2.4220   -12.2800    71.3780     8.0410     7.8400    10.4900    22.0690 
  243.5000     2.4320   -12.2800    71.3780     8.0410     7.8400    10.0670    22.0870 
  243.6250     2.4500   -12.2800    71.3780     8.0410     7.8400    10.0370    22.1050 
  243.7500     2.4690  -999.2500    71.3780     8.0410     7.8400    10.2030    22.1370 
  243.8750     2.4750  -999.2500    71.3780     8.0410     7.8400    10.5290    22.1350 
  244.0000     2.4650  -999.2500    71.3780     8.0410     7.8400    10.9300    22.0980 
  244.1250     2.4490  -999.2500    71.3780     8.0410     7.8400    11.2620    22.0280 
  244.2500     2.4410  -999.2500    71.3780     8.0410     7.8400    11.1490    21.9270 
  244.3750     2.4410  -999.2500    71.3780     8.0410     7.8400    10.7560    21.8240 
  244.5000     2.4420  -999.2500    71.3780     8.0410     7.8400    10.0950    21.7820 
  244.6250     2.4440  -999.2500    71.3780     8.0410     7.8400     9.0260    21.7760 
  244.7500     2.4540  -999.2500    71.3780     8.0410     7.8400     8.0750    21.7640 
  244.8750     2.4720  -999.2500    71.3780     8.0410     7.8400     7.6780    21.7180 
  245.0000     2.4900  -999.2500    71.3780     8.0410     7.8400     7.6670    21.6290 
  245.1250     2.4960  -999.2500    71.3780     8.0410     7.8400     7.7630    21.5460 
  245.2500     2.4770  -999.2500    71.3780     8.0410     7.8400     7.5220    21.4470 
  245.3750     2.4240  -999.2500    71.3780     8.0410     7.8400     7.1550    21.3430 
  245.5000     2.3570  -999.2500    71.3780     8.0410     7.8400     7.1990    21.1650 
  245.6250     2.3010  -999.2500    71.3780     8.0410     7.8400     7.8440    20.9550 
  245.7500     2.2640  -999.2500    71.3780     8.0410     7.8400     9.0550    20.7930 
  245.8750     2.2390  -999.2500    71.3780     8.0410     7.8400    10.1060    20.7340 
  246.0000     2.2170  -999.2500    71.3780     8.0410     7.8400    10.5300    20.7300 
  246.1250     2.2010  -999.2500    71.3780     8.0410     7.8400    10.2160    20.6750 
  246.2500     2.1940  -999.2500    71.3780     8.0410     7.8400     9.2500    20.1100 
  246.3750     2.1950  -999.2500    71.3780     8.0410     7.8400     8.0970    18.6780 
  246.5000     2.1970  -999.2500    71.3780     8.0410     7.8400     7.4620    16.9280 
  246.6250     2.1990  -999.2500    71.3780     8.0410     7.8400     7.2790    15.9270 
  246.7500     2.1980  -999.2500    71.3780     8.0410     7.8400     7.2710    15.7040 
  246.8750     2.1960  -999.2500    71.3780     8.0410     7.8400     7.2700    15.7000 
  247.0000     2.1940  -999.2500    71.3780     8.0410     7.8400     7.2710    15.7000 
