~V
VERS. 2.00: Ver 2.00
~W
STRT.M 45.0000:
STOP.M 270.0000:
STEP.M 0.1250:
NULL. -999.2500:
UWI. F11186:
~C
DEPT.M :
SP.MV :
GR.API :
RI. :
RML.OHMM :
RXO.OHMM :
DEN.GM/CC :
~A
# ...
   96.5000   -27.8390    99.0860     3.4070     3.8660     4.3910     2.2110 
   96.6250   -27.9210    99.9640     3.5190     4.0010     5.3960     2.2010 
   96.7500   -27.9990    95.6930     3.5110     3.9440     6.4360     2.1750 
   96.8750   -28.0220    91.1520     3.3930     3.7630     5.3940     2.1630 
   97.0000   -28.0250    90.3140     3.2590     3.5530     4.1430     2.1750 
   97.1250   -28.0260    92.7590     3.2180     3.4600     3.6830     2.1890 
   97.2500   -28.0420    97.0410     3.2740     3.5040     4.0800     2.1840 
   97.3750   -28.0650    99.6180     3.4160     3.6490     4.7220     2.1750 
   97.5000   -28.0600    98.5220     3.5420     3.7740     4.8690     2.1770 
   97.6250   -27.9770    95.5940     3.5630     3.7610     4.4620     2.1890 
   97.7500   -27.8030    97.0230     3.4540     3.6050     4.0240     2.2030 
   97.8750   -27.5560   101.5740     3.2580     3.3690     3.8360     2.2160 
   98.0000   -27.3000   104.5780     3.0790     3.1830     3.7550     2.2280 
   98.1250   -27.0970   106.3120     2.9680     3.1000     3.9140     2.2310 
   98.2500   -26.9830   109.7800     2.8970     3.0580     4.0280     2.2250 
   98.3750   -26.9860   111.1110     2.8220     3.0060     3.7590     2.2220 
   98.5000   -27.1120   109.0980     2.7300     2.9250     3.4680     2.2320 
   98.6250   -27.3960   106.8500     2.6470     2.8290     3.4940     2.2480 
   98.7500   -27.8540   107.3150     2.6120     2.7700     3.5190     2.2500 
   98.8750   -28.5250   107.8210     2.7150     2.8640     3.5190     2.2280 
   99.0000   -29.4000   105.5740     3.0520     3.2060     3.8710     2.2150 
   99.1250   -30.4710   101.6370     3.9560     4.1890     4.6200     2.2790 
   99.2500   -31.6670    96.5570     5.8220     6.3380     9.6540     2.4320 
   99.3750   -32.9120    87.5220     8.6270     9.6650    24.7030     2.5650 
   99.5000   -34.1270    75.1450    11.1700    12.6720    42.8600     2.5450 
   99.6250   -35.2470    66.2470    12.1680    13.6940    48.9950     2.3620 
   99.7500   -36.2460    63.1260    11.2760    12.4410    36.0980     2.1620 
   99.8750   -37.0780    61.2660     9.1770     9.7740    16.2610     2.0830 
  100.0000   -37.7170    58.0220     7.2070     7.4280     7.6200     2.1370 
  100.1250   -38.1170    57.0250     6.0670     6.2630     7.5010     2.2240 
  100.2500   -38.3030    59.3920     5.6030     5.8710     7.4330     2.2330 
  100.3750   -38.3020    62.9850     5.5090     5.8680     7.2420     2.1580 
  100.5000   -38.1940    64.3220     5.4820     5.8900     7.2850     2.0880 
  100.6250   -38.0400    64.1130     5.4360     5.8750     7.4520     2.0730 
  100.7500   -37.8930    64.0000     5.4270     5.8740     7.4470     2.0770 
  100.8750   -37.7880    65.2910     5.4630     5.9090     7.6200     2.0740 
  101.0000   -37.7320    66.3660     5.5590     6.0110     7.9410     2.0650 
  101.1250   -37.7300    67.0920     5.6300     6.1000     7.9860     2.0580 
  101.2500   -37.7660    67.9640     5.6330     6.1040     7.9150     2.0540 
  101.3750   -37.8320    68.4060     5.5720     6.0600     7.9140     2.0470 
  101.5000   -37.9210    67.4060     5.4700     5.9640     7.8640     2.0500 
  101.6250   -38.0390    65.4420     5.3790     5.9070     7.7520     2.0590 
  101.7500   -38.1920    64.3960     5.3450     5.9520     7.6910     2.0610 
  101.8750   -38.3850    65.1810     5.3640     6.0840     9.0050     2.0590 
  102.0000   -38.5930    65.3270     5.3790     6.2290    26.3730     2.0610 
  102.1250   -38.7710    62.4820     5.3250     6.2430    46.6920     2.0620 
  102.2500   -38.8610    58.4270     5.1740     6.0590    35.0610     2.0560 
  102.3750   -38.7970    57.2510     4.9550     5.7330    13.8310     2.0470 
  102.5000   -38.5510    58.9630     4.9350     5.6170     8.5360     2.0570 
  102.6250   -38.1010    60.5920     5.3770     6.0880     9.8430     2.1300 
  102.7500   -37.4870    59.7330     6.5440     7.5340    17.0220     2.2810 
  102.8750   -36.7580    58.4750     8.4890     9.9720    29.2890     2.4470 
  103.0000   -36.0090    58.8520    10.4010    12.2440    37.2870     2.5310 
  103.1250   -35.3330    60.1590    11.0230    12.8120    37.6560     2.4790 
  103.2500   -34.7780    60.3870    10.0680    11.4280    31.0100     2.3370 
  103.3750   -34.3430    60.6340     7.9950     8.7910    18.5110     2.1900 
  103.5000   -33.9420    61.6290     5.8450     6.2900     8.6340     2.1070 
  103.6250   -33.4660    62.1500     4.5750     4.9760     5.9800     2.0990 
  103.7500   -32.8410    63.0110     3.9740     4.4500     6.0780     2.1190 
  103.8750   -32.0350    66.7930     3.7160     4.2800     5.8100     2.1440 
  104.0000   -31.1210    74.4980     3.6170     4.2210     5.2670     2.1740 
  104.1250   -30.2090    83.6100     3.5280     4.0940     4.9080     2.2050 
  104.2500   -29.4260    91.0580     3.4550     3.9680     4.8210     2.2220 
  104.3750   -28.8780    94.7230     3.4720     3.9640     4.7330     2.2110 
  104.5000   -28.5600    94.8370     3.5710     4.0420     5.1640     2.1800 
  104.6250   -28.4150    92.8670     3.7140     4.1670     6.0820     2.1570 
  104.7500   -28.3110    89.8310     3.8320     4.2660     6.2790     2.1630 
  104.8750   -28.1440    87.1980     3.8710     4.2670     5.7100     2.1900 
  105.0000   -27.8740    87.2640     3.8110     4.1790     5.2230     2.2120 
  105.1250   -27.5220    90.6980     3.6950     4.0500     5.1360     2.2170 
  105.2500   -27.1610    94.7740     3.5520     3.9150     5.0810     2.2120 
  105.3750   -26.8690    96.1740     3.4590     3.8570     4.7810     2.2040 
  105.5000   -26.6900    95.0890     3.3900     3.8300     4.4380     2.2010 
  105.6250   -26.6610    92.8260     3.3350     3.7970     4.3650     2.2030 
  105.7500   -26.7880    93.1130     3.2890     3.7420     4.5930     2.2160 
  105.8750   -27.1080    96.7690     3.3000     3.7530     4.7650     2.2330 
  106.0000   -27.6350    99.6260     3.5010     3.9810     5.0490     2.2350 
  106.1250   -28.4150    98.2340     3.9710     4.5550     6.0440     2.2110 
  106.2500   -29.4300    93.7950     4.6290     5.3720    10.9230     2.1750 
  106.3750   -30.6470    87.8850     5.3990     6.3020    19.1960     2.1370 
  106.5000   -31.9490    80.8440     6.0520     7.1060    20.7720     2.1060 
  106.6250   -33.1860    74.5840     6.3280     7.3460    14.1810     2.0890 
  106.7500   -34.2130    70.7350     6.2570     7.1900     9.1790     2.0860 
  106.8750   -34.8880    68.3430     5.9140     6.7290     8.5230     2.0810 
  107.0000   -35.1830    65.3810     5.4770     6.1900     8.6470     2.0760 
  107.1250   -35.0860    63.3530     5.0570     5.7290     7.8930     2.0890 
  107.2500   -34.7070    64.2950     4.6630     5.3010     6.6210     2.1260 
  107.3750   -34.1670    69.5840     4.2940     4.8880     5.5160     2.1620 
  107.5000   -33.6330    76.8220     3.9970     4.5820     5.1470     2.1660 
  107.6250   -33.2550    81.5590     3.8640     4.4690     5.2490     2.1350 
  107.7500   -33.0980    81.9180     3.8880     4.5340     5.3720     2.1030 
  107.8750   -33.1800    78.4400     4.0650     4.7760     5.5390     2.0950 
  108.0000   -33.4390    76.2380     4.3200     5.0670     5.8740     2.0960 
  108.1250   -33.8300    76.7400     4.5730     5.3370     6.3800     2.0890 
  108.2500   -34.3080    77.0430     4.7860     5.5610     6.9630     2.0770 
  108.3750   -34.8500    74.4470     4.9580     5.7360     7.2840     2.0740 
  108.5000   -35.4100    69.1690     5.0900     5.8960     7.1890     2.0800 
  108.6250   -35.9250    64.5750     5.1730     5.9780     7.5100     2.0860 
  108.7500   -36.3320    63.5160     5.2100     5.9910     8.0750     2.0850 
  108.8750   -36.5670    64.7330     5.2030     5.9400     8.0960     2.0800 
  109.0000   -36.6170    64.7000     5.1960     5.8820     8.1350     2.0760 
  109.1250   -36.4660    64.0360     5.2320     5.8840     8.6030     2.0780 
  109.2500   -36.1460    65.9500     5.3530     6.0430     9.0740     2.0870 
