~V
VERS. 2.00: Ver 2.00
~W
STRT.M 50.0000:
STOP.M 243.0000:
STEP.M 0.1250:
NULL. -999.2500:
UWI. F11115:
~C
DEPT.M :
DEN.GM/CC :
GR.API :
RML.OHMM :
RI. :
RXO.OHMM :
CALI.CM :
SP.MV :
~A
# ...
  162.5000     2.0420    56.2310    67.7750    50.9820    39.2660    30.5360   -28.3720 
  162.6250     2.0380    53.3560    72.0730    52.7090    40.7080    30.5250   -28.2860 
  162.7500     2.0360    51.4740    76.5190    54.4770    40.1180    30.4830   -28.1410 
  162.8750     2.0350    51.9770    81.2790    56.3610    40.8040    30.5070   -27.9730 
  163.0000     2.0330    53.0240    86.3360    58.3490    48.1420    30.6950   -27.8100 
  163.1250     2.0270    52.2900    91.3640    60.3150    52.1590    31.0020   -27.6270 
  163.2500     2.0190    50.4400    95.9720    62.1180    49.7530    31.1340   -27.4340 
  163.3750     2.0120    48.3280    99.9640    63.6790    51.6170    30.9200   -27.2700 
  163.5000     2.0090    47.8160   103.3470    64.9990    59.5990    30.4830   -27.1260 
  163.6250     2.0080    50.2310   106.3530    66.1630    74.0600    30.1170   -26.9800 
  163.7500     2.0080    51.9800   109.4820    67.3720    82.6490    29.9440   -26.8180 
  163.8750     2.0080    50.3750   113.0030    68.7570    86.4930    29.8880   -26.6400 
  164.0000     2.0080    47.4010   116.8170    70.3330   109.0570    29.8530   -26.4500 
  164.1250     2.0090    48.6960   120.0040    71.8720   161.1020    29.8090   -26.2440 
  164.2500     2.0110    52.9790   121.2000    72.9520   180.6100    29.7220   -26.0110 
  164.3750     2.0110    55.5320   119.1220    73.1590   160.2640    29.6900   -25.7440 
  164.5000     2.0080    55.1340   113.1920    72.2070   143.7350    29.8500   -25.4710 
  164.6250     2.0020    56.1720   103.4850    69.8340   135.0730    30.1410   -25.2060 
  164.7500     1.9990    58.0600    91.9140    66.4120   133.2800    30.2310   -24.9150 
  164.8750     1.9990    57.6880    79.7550    62.1980   138.1230    30.0220   -24.5980 
  165.0000     2.0020    55.4500    68.0750    57.4990   136.2560    29.7520   -24.3020 
  165.1250     2.0070    54.9240    58.0200    52.7460   123.9300    29.7160   -24.0510 
  165.2500     2.0150    55.9320    49.9280    48.4480   107.3220    29.8210   -23.8090 
  165.3750     2.0280    56.9470    43.9990    44.9940    77.7120    29.9840   -23.5670 
  165.5000     2.0380    58.1770    40.3030    42.7050    52.0680    30.2060   -23.3350 
  165.6250     2.0400    61.6650    39.1380    42.0340    41.4560    30.4210   -23.0900 
  165.7500     2.0400    65.3220    39.6530    42.5920    40.7630    30.4630   -22.8330 
  165.8750     2.0400    66.4570    40.7240    43.6320    43.6450    29.9740   -22.5750 
  166.0000     2.0410    63.1150    40.6900    43.8690    49.0070    29.5570   -22.3320 
  166.1250     2.0730    59.5130    37.5440    41.5150    57.9040    29.2060   -22.1160 
  166.2500     2.1530    61.8650    31.8670    36.7220    58.9300    28.8450   -21.9290 
  166.3750     2.1810    68.8320    25.3160    30.6930    42.5630    28.5230   -21.7530 
  166.5000     2.2060    76.3140    19.6480    25.0100    24.6090    28.2490   -21.5880 
  166.6250     2.2190    81.0860    16.0520    20.9850    18.2870    27.9840   -21.4500 
  166.7500     2.2210    83.5160    14.1840    18.6000    16.4110    27.7040   -21.3160 
  166.8750     2.2130    83.7250    13.7360    17.6970    15.8200    27.4230   -21.1590 
  167.0000     2.2000    81.0240    14.4220    18.0650    16.8300    27.1330   -20.9780 
  167.1250     2.1870    77.5310    16.1480    19.6480    20.1290    26.8240   -20.8170 
  167.2500     2.1760    75.0090    18.6270    22.0870    24.3850    26.5330   -20.6920 
  167.3750     2.1690    74.2500    21.8420    25.2940    26.9610    26.2540   -20.5950 
  167.5000     2.1620    75.5260    25.8460    29.2360    28.0330    25.9540   -20.5280 
  167.6250     2.1560    76.0180    30.7760    33.9470    30.4190    25.6310   -20.5100 
  167.7500     2.1520    74.6680    36.1630    38.9720    35.9430    25.3240   -20.5400 
  167.8750     2.1520    71.2070    41.2230    43.6160    40.2150    25.0270   -20.5850 
  168.0000     2.1580    67.5710    44.8170    46.9190    41.1160    24.7360   -20.6280 
  168.1250     2.1750    67.9810    45.4800    47.6260    38.2560    24.4870   -20.6820 
  168.2500     2.1960    71.1210    43.7120    46.1140    34.7150    24.2990   -20.7740 
  168.3750     2.2120    75.2870    40.6760    43.2860    30.3120    24.1540   -20.8950 
  168.5000     2.2150    79.9920    37.8170    40.3550    27.2630    24.0240   -21.0120 
  168.6250     2.2080    83.6770    36.4940    38.5130    24.8940    23.9070   -21.1430 
  168.7500     2.2060    83.5670    37.0230    38.1330    22.6690    23.8160   -21.3080 
  168.8750     2.2090    80.0020    39.6000    39.3960    21.7000    23.7680   -21.4900 
  169.0000     2.1970    76.9130    44.2690    42.3420    23.0930    23.7530   -21.6740 
  169.1250     2.1390    76.5400    51.1410    47.0560    27.5350    23.8040   -21.8630 
  169.2500     2.0490    75.8120    59.3130    52.8320    35.0070    24.0290   -22.0650 
  169.3750     1.9560    72.9500    67.8570    58.9690    44.4830    24.5960   -22.2600 
  169.5000     1.8910    67.9980    75.6480    64.6310    47.7510    25.4540   -22.4310 
  169.6250     1.8880    63.9000    81.5230    68.9410    38.7810    25.9670   -22.5590 
  169.7500     1.9380    63.7350    85.6850    71.9850    31.7340    25.5700   -22.6550 
  169.8750     2.0150    65.7990    88.0240    73.8100    25.7330    24.4430   -22.7180 
  170.0000     2.0890    67.0950    87.1490    73.8440    24.4100    23.3120   -22.7390 
  170.1250     2.1430    69.3800    79.4200    69.9570    25.5110    22.7940   -22.7160 
  170.2500     2.1850    73.8130    65.4700    61.7060    25.3230    22.6670   -22.6940 
  170.3750     2.2170    76.1420    48.8890    50.3470    23.8300    22.6550   -22.7040 
  170.5000     2.2420    73.5930    34.1700    38.6600    21.3170    22.6510   -22.7170 
  170.6250     2.2600    71.8700    24.3810    29.5570    17.5950    22.6490   -22.6820 
  170.7500     2.2700    74.5000    18.4960    23.3890    14.0580    22.6390   -22.6220 
  170.8750     2.2760    78.3170    15.3760    19.7030    12.2520    22.6070   -22.5890 
  171.0000     2.2770    79.6830    13.9990    17.8110    11.7100    22.5570   -22.5920 
  171.1250     2.2740    79.7570    13.7190    17.2280    11.6230    22.5170   -22.5990 
  171.2500     2.2690    80.6100    13.8350    17.2370    11.6050    22.5010   -22.6110 
  171.3750     2.2590    81.7340    14.0220    17.4630    11.4950    22.5000   -22.6490 
  171.5000     2.2430    81.7790    14.1250    17.6670    11.4430    22.5040   -22.7290 
  171.6250     2.2200    80.5240    14.2610    17.8680    11.9980    22.5070   -22.8100 
  171.7500     2.1950    80.6770    14.7650    18.3530    12.9530    22.5040   -22.8630 
  171.8750     2.1750    83.5680    15.9940    19.4630    13.5800    22.4900   -22.9030 
  172.0000     2.1630    86.0620    18.2540    21.5110    13.5830    22.4450   -22.9460 
  172.1250     2.1630    84.1780    21.8970    24.8730    12.9350    22.3060   -22.9940 
  172.2500     2.1710    79.3200    26.4860    29.1750    13.0430    22.1500   -23.0340 
  172.3750     2.1820    76.0260    31.3530    33.7890    14.2360    22.1310   -23.0700 
  172.5000     2.1890    75.4800    35.5400    37.8190    16.6530    22.2970   -23.1120 
  172.6250     2.1900    74.5160    37.9390    40.2480    18.9030    22.4960   -23.1580 
  172.7500     2.1860    73.5320    38.8580    41.2780    20.6990    22.5870   -23.1810 
  172.8750     2.1800    73.9970    39.1050    41.5120    22.5440    22.6210   -23.1740 
  173.0000     2.1760    74.0740    39.5540    41.6670    25.3480    22.6710   -23.1800 
  173.1250     2.1760    71.5040    40.7120    42.2670    26.3520    22.7330   -23.1950 
  173.2500     2.1770    70.2110    42.2830    43.2750    27.4570    22.7790   -23.1970 
  173.3750     2.1770    71.6700    43.9090    44.5110    30.2980    22.8030   -23.1800 
  173.5000     2.1770    73.3650    45.3070    45.7530    34.2080    22.8130   -23.1600 
  173.6250     2.1790    72.7760    46.2360    46.7410    38.4360    22.8120   -23.1430 
