~V
VERS. 2.00: Ver 2.00
~W
STRT.M 63.0000:
STOP.M 208.0000:
STEP.M 0.1250:
NULL. -999.2500:
UWI. F11108:
~C
DEPT.M :
GR.API :
RML.OHMM :
RI. :
RXO.OHMM :
CALI.CM :
SP.MV :
DEN.GM/CC :
~A
# ...
  130.5000    61.1160    15.7280    12.8800    15.7080    24.3960   -10.0800     2.5340 
  130.6250    58.0420    16.0350    13.2480    15.4410    24.3360   -10.0890     2.5060 
  130.7500    56.2050    15.9950    13.3530    14.8930    24.1550   -10.1160     2.4790 
  130.8750    56.2380    15.4670    13.0480    13.1870    23.9250   -10.1580     2.4700 
  131.0000    58.1960    14.2580    12.2340    12.9550    23.7380   -10.1770     2.4860 
  131.1250    62.3770    12.2820    10.8850    13.4650    23.6940   -10.1420     2.5180 
  131.2500    68.9110    10.1140     9.3050    11.8460    23.7910   -10.0520     2.5380 
  131.3750    77.1260     8.2620     7.7570     8.0500    23.9360    -9.9810     2.5290 
  131.5000    84.4840     6.9450     6.4490     5.5770    24.0110   -10.0130     2.4880 
  131.6250    91.0760     6.1620     5.5470     5.0320    23.7560   -10.1410     2.4310 
  131.7500    97.4510     5.7530     4.9950     5.0190    23.2400   -10.2420     2.3820 
  131.8750   101.6550     5.6670     4.7480     5.1490    22.8330   -10.2870     2.3510 
  132.0000   102.5360     5.8150     4.7480     5.2590    22.6890   -10.3300     2.3390 
  132.1250   100.8210     6.1230     4.9440     5.4410    22.6520   -10.4350     2.3450 
  132.2500    97.0810     6.4670     5.2180     5.9670    22.6160   -10.6140     2.3580 
  132.3750    92.8120     6.7660     5.4900     6.6640    22.5580   -10.8060     2.3700 
  132.5000    90.7130     6.9550     5.6930     7.0770    22.4780   -10.9530     2.3730 
  132.6250    92.8300     6.9940     5.7690     6.8470    22.3830   -11.0790     2.3600 
  132.7500    96.2790     6.9330     5.7430     6.3300    22.3090   -11.2490     2.3380 
  132.8750    97.2120     6.8210     5.6480     5.7380    22.2840   -11.4910     2.3160 
  133.0000    94.9210     6.7020     5.5200     5.5870    22.2630   -11.7580     2.3010 
  133.1250    92.9630     6.5940     5.3880     5.8630    22.2470   -11.9690     2.2960 
  133.2500    95.6290     6.4900     5.2610     5.9110    22.2230   -12.1150     2.2950 
  133.3750    98.9050     6.3800     5.1370     5.5680    22.2320   -12.2300     2.2950 
  133.5000    97.2770     6.2670     5.0170     5.2700    22.2790   -12.3500     2.2940 
  133.6250    95.0940     6.1810     4.9180     5.1680    22.3880   -12.4910     2.2930 
  133.7500    96.8020     6.1500     4.8610     5.2200    22.4730   -12.6250     2.2940 
  133.8750    99.4650     6.1960     4.8650     5.3270    22.5490   -12.6860     2.2970 
  134.0000   101.7120     6.3180     4.9380     5.4140    22.6020   -12.6680     2.3010 
  134.1250   103.3570     6.4900     5.0700     5.7650    22.6510   -12.6140     2.3050 
  134.2500   102.9490     6.6490     5.2090     5.9440    22.7420   -12.5790     2.3090 
  134.3750    99.7900     6.7390     5.3110     6.1100    22.8220   -12.5810     2.3110 
  134.5000    98.8070     6.7280     5.3390     6.0130    22.8190   -12.5580     2.3120 
  134.6250   100.6310     6.6010     5.2680     5.7420    22.7400   -12.4240     2.3140 
  134.7500    99.8760     6.4100     5.1280     5.4360    22.6440   -12.1950     2.3150 
  134.8750    99.2430     6.1930     4.9480     5.2970    22.5540   -11.9520     2.3180 
  135.0000   101.4400     5.9800     4.7550     5.2730    22.4850   -11.7340     2.3220 
  135.1250   105.8970     5.7940     4.5710     5.2200    22.4590   -11.5290     2.3260 
  135.2500   108.3560     5.6520     4.4150     5.0340    22.5230   -11.3190     2.3290 
  135.3750   107.6970     5.5950     4.3190     4.8980    22.6770   -11.0720     2.3300 
  135.5000   105.3790     5.6840     4.3260     4.9530    22.8220   -10.8310     2.3280 
  135.6250   101.2420     6.0130     4.5200     5.1310    22.8390   -10.6730     2.3270 
  135.7500    97.2420     6.5660     4.9110     5.3950    22.7380   -10.6170     2.3320 
  135.8750    93.6430     7.2780     5.4800     6.2650    22.8800   -10.6060     2.3410 
  136.0000    89.6500     8.0030     6.1460     7.9490    23.4120   -10.5990     2.3480 
  136.1250    85.4950     8.4860     6.7210     9.1930    24.0120   -10.5540     2.3430 
  136.2500    83.9690     8.6040     7.0470     9.0290    24.3730   -10.5040     2.3260 
  136.3750    87.8650     8.3640     7.0600     8.0480    24.4530   -10.5180     2.3010 
  136.5000    95.0010     7.9070     6.8220     7.1750    24.4190   -10.5560     2.2800 
  136.6250    98.8400     7.4360     6.4700     6.6680    24.4140   -10.5360     2.2730 
  136.7500    97.1410     7.0800     6.1530     6.2490    24.4190   -10.4400     2.2820 
  136.8750    91.5120     6.8380     5.9060     6.3370    24.4010   -10.2800     2.3000 
  137.0000    87.5060     6.6460     5.7020     6.6750    24.3670   -10.0920     2.3190 
  137.1250    90.6050     6.4250     5.4840     6.6600    24.4050    -9.9620     2.3300 
  137.2500    96.3480     6.1650     5.2300     5.7610    24.4940    -9.8970     2.3300 
  137.3750   100.7210     5.9060     4.9650     4.9040    24.5370    -9.8040     2.3220 
  137.5000   102.5950     5.7100     4.7350     4.4840    24.4920    -9.6460     2.3100 
  137.6250   102.0010     5.6440     4.6030     4.4200    24.3690    -9.5000     2.3000 
  137.7500   100.6070     5.7040     4.5780     4.5360    24.2280    -9.4540     2.2930 
  137.8750   100.0300     5.8890     4.6630     4.8100    24.1220    -9.5270     2.2880 
  138.0000   100.1290     6.2220     4.8660     5.5120    24.0770    -9.6400     2.2840 
  138.1250    98.4250     6.8390     5.2630     5.9230    24.0580    -9.6980     2.2780 
  138.2500    94.4280     7.8520     5.9290     6.1160    24.1480    -9.7140     2.2720 
  138.3750    88.4970     9.3690     6.9820     6.6140    24.2770    -9.7700     2.2710 
  138.5000    80.1860    11.3750     8.4990     8.1420    24.4290    -9.9210     2.2810 
  138.6250    74.6510    13.6030    10.4360    11.5480    24.4380   -10.1040     2.3030 
  138.7500    75.9480    15.4640    12.3360    17.3940    24.3900   -10.2260     2.3270 
  138.8750    81.0160    16.4700    13.6980    21.6200    24.3620   -10.2800     2.3420 
  139.0000    84.5650    16.4380    14.1780    18.0660    24.1590   -10.3610     2.3410 
  139.1250    84.4910    15.5860    13.7380    12.9420    23.5240   -10.5730     2.3260 
  139.2500    84.4290    14.6390    12.9780    11.0630    22.9690   -10.8310     2.3070 
  139.3750    86.3080    13.9830    12.2970    11.1410    22.7850   -11.0330     2.2930 
  139.5000    89.7260    13.7080    11.8810    11.6360    22.7920   -11.1720     2.2850 
  139.6250    90.4540    13.6730    11.7140    11.3760    22.7510   -11.3070     2.2800 
  139.7500    87.1430    13.6180    11.6070    11.5760    22.6140   -11.4810     2.2760 
  139.8750    84.0210    13.4670    11.4660    11.4350    22.4680   -11.7230     2.2720 
  140.0000    83.1220    13.3040    11.3090    10.8820    22.3750   -11.9840     2.2690 
  140.1250    82.7480    13.3850    11.2980     9.9160    22.4540   -12.1520     2.2700 
  140.2500    82.9880    13.8770    11.5850     9.8510    22.7190   -12.2430     2.2730 
  140.3750    86.0020    14.8230    12.2660    11.0400    23.0480   -12.3120     2.2770 
  140.5000    89.1150    16.1130    13.3280    13.3260    23.4350   -12.3810     2.2810 
  140.6250    87.2630    17.4510    14.6180    16.5950    23.6780   -12.4370     2.2810 
  140.7500    82.7770    18.4760    15.7870    19.7350    23.7050   -12.4450     2.2780 
  140.8750    79.6860    18.9780    16.5720    20.7930    23.6400   -12.3380     2.2740 
  141.0000    80.4820    18.9400    16.8530    17.9350    23.5930   -12.1370     2.2730 
  141.1250    83.4610    18.4920    16.6500    15.3160    23.6810   -11.9600     2.2780 
  141.2500    84.2960    17.9210    16.2320    14.5720    23.7800   -11.8590     2.2860 
  141.3750    82.7470    17.3510    15.7370    14.7210    23.6980   -11.7860     2.2950 
  141.5000    81.8980    16.8380    15.2420    14.8840    23.4700   -11.6790     2.3030 
  141.6250    83.7620    16.4690    14.8290    15.1530    23.3310   -11.5030     2.3070 
