~V
VERS. 2.00: Ver 2.00
~W
STRT.M 55.0000:
STOP.M 201.0000:
STEP.M 0.1250:
NULL. -999.2500:
UWI. F11111:
~C
DEPT.M :
GR.API :
RML.OHMM :
RI. :
RXO.OHMM :
CALI.CM :
SP.MV :
DEN.GM/CC :
~A
# ...
  111.2500    61.5760    24.5750    21.1270    24.0350    22.4980   -19.7300     2.1550 
  111.3750    57.9470    24.2480    21.0990    24.3210    21.6110   -19.0930     2.1610 
  111.5000    56.9250    23.3400    20.4620    23.5080    21.1940   -18.5210     2.1810 
  111.6250    59.6660    22.1160    19.4310    20.2730    21.2210   -18.0810     2.2090 
  111.7500    61.2280    20.7990    18.2550    17.9730    21.4800   -17.8640     2.2320 
  111.8750    59.3850    19.4410    17.0100    17.2360    21.7900   -17.8490     2.2410 
  112.0000    56.5470    18.0800    15.7500    16.7150    21.8950   -17.9580     2.2310 
  112.1250    57.5520    16.8300    14.5810    14.1560    22.0740   -18.0920     2.2070 
  112.2500    60.7710    15.8390    13.6180    11.8280    22.3820   -18.2200     2.1860 
  112.3750    62.9270    15.2970    12.9910    11.0280    22.4900   -18.3160     2.1800 
  112.5000    63.3060    15.3860    12.8280    11.6450    22.5350   -18.3840     2.2000 
  112.6250    63.8340    16.3240    13.3260    13.4150    22.7110   -18.4420     2.2510 
  112.7500    64.1010    17.9020    14.4010    15.5410    22.9230   -18.5240     2.3250 
  112.8750    63.8220    19.8540    15.9330    17.7120    23.1380   -18.6710     2.4080 
  113.0000    62.5500    21.7880    17.6620    20.7420    23.2510   -18.8230     2.4820 
  113.1250    60.0350    23.1310    19.1220    22.2000    23.4590   -18.9780     2.5220 
  113.2500    58.1410    23.6080    19.9500    22.1480    23.4670   -19.1700     2.5210 
  113.3750    59.7590    23.1290    19.9690    21.4420    23.4880   -19.3530     2.4860 
  113.5000    63.1210    21.8220    19.2030    20.1820    23.5830   -19.4690     2.4320 
  113.6250    63.1390    19.9180    17.7840    19.1510    23.7190   -19.5460     2.3800 
  113.7500    60.5130    17.8160    16.0820    18.3600    23.7970   -19.5810     2.3430 
  113.8750    61.1050    15.7350    14.3120    16.8070    23.7600   -19.4830     2.3240 
  114.0000    66.0440    13.8530    12.6570    14.2380    23.6750   -19.2480     2.3190 
  114.1250    70.5110    12.3890    11.3200    11.9680    23.5070   -18.9690     2.3200 
  114.2500    71.3200    11.3660    10.3430     9.9640    23.4620   -18.6890     2.3150 
  114.3750    70.2080    10.7500     9.7310     8.9520    23.3080   -18.4740     2.3000 
  114.5000    71.6300    10.4270     9.4330     8.8700    23.3670   -18.3560     2.2760 
  114.6250    74.2740    10.2490     9.3680     9.0690    23.6890   -18.2430     2.2520 
  114.7500    74.0450    10.0860     9.3830     9.0400    23.7910   -18.1420     2.2420 
  114.8750    72.1160     9.9400     9.4220     8.7720    23.7190   -18.1280     2.2530 
  115.0000    72.4560     9.8820     9.4960     8.9000    23.6500   -18.2020     2.2870 
  115.1250    74.2260    10.0110     9.6740     9.1310    23.1940   -18.3380     2.3370 
  115.2500    71.5440    10.2870     9.9600     8.6040    22.8860   -18.4770     2.3820 
  115.3750    65.8200    10.6010    10.2860     8.6570    22.9020   -18.6150     2.4080 
  115.5000    62.3170    10.7730    10.4930    10.7900    23.0050   -18.7570     2.4040 
  115.6250    63.5700    10.5370    10.3150    12.0690    23.0310   -18.9110     2.3680 
  115.7500    66.4750     9.8610     9.7050    11.0930    23.0860   -19.0890     2.3190 
  115.8750    71.3100     8.8410     8.7430     9.0500    23.3680   -19.3130     2.2710 
  116.0000    78.4350     7.7200     7.6430     7.3300    23.6390   -19.5860     2.2370 
  116.1250    85.7990     6.8660     6.7160     6.5200    23.6570   -19.8330     2.2310 
  116.2500    88.9200     6.4680     6.1480     5.9010    23.4970   -20.0740     2.2500 
  116.3750    88.6470     6.6050     6.0240     5.7210    23.3950   -20.3050     2.2910 
  116.5000    86.2640     7.3200     6.3780     6.2170    23.3280   -20.5310     2.3450 
  116.6250    79.6800     8.7830     7.3410     9.0730    23.2150   -20.7630     2.4000 
  116.7500    69.9470    10.8990     8.8700    13.7270    23.1880   -20.9790     2.4460 
  116.8750    61.9830    13.5470    10.9520    15.4350    23.1840   -21.1730     2.4810 
  117.0000    59.8480    16.3930    13.4220    14.5910    23.1850   -21.3600     2.5030 
  117.1250    59.0280    18.6330    15.6960    17.9090    23.2120   -21.5690     2.5060 
  117.2500    56.2340    19.5440    16.9820    23.8750    23.3160   -21.7530     2.4870 
  117.3750    53.2630    18.9110    16.8930    25.7260    23.3830   -21.8870     2.4490 
  117.5000    52.4180    17.3140    15.7750    20.6510    23.4260   -21.9940     2.4040 
  117.6250    55.2760    15.9020    14.4950    13.8020    23.4690   -22.0960     2.3720 
  117.7500    57.5680    15.5350    13.8110    11.0030    23.4930   -22.1920     2.3670 
  117.8750    57.8550    16.5750    14.0870    13.0170    23.5410   -22.2780     2.3870 
  118.0000    57.2020    19.0270    15.4820    19.8880    23.5190   -22.3470     2.4230 
  118.1250    55.6100    22.6090    18.0570    27.5510    23.4430   -22.3750     2.4540 
  118.2500    51.1040    26.2280    21.1120    31.6850    23.4000   -22.3800     2.4680 
  118.3750    43.2030    28.8930    23.8100    30.8980    23.2990   -22.3800     2.4660 
  118.5000    38.4720    30.0840    25.4410    28.7610    23.1920   -22.3460     2.4570 
  118.6250    40.7110    30.1130    25.8680    26.7080    22.9460   -22.2620     2.4570 
  118.7500    45.3100    30.0990    25.9360    26.0720    22.7040   -22.1530     2.4680 
  118.8750    49.1480    30.5170    26.1330    26.3950    22.7590   -22.0310     2.4850 
  119.0000    49.9250    31.3380    26.5800    26.8040    23.1380   -21.9050     2.5000 
  119.1250    46.5940    32.2000    27.0980    27.5580    23.3750   -21.7920     2.5080 
  119.2500    41.3180    32.7190    27.3920    28.3820    23.5160   -21.7060     2.5140 
  119.3750    39.2490    32.7470    27.3100    27.9620    23.4750   -21.6390     2.5230 
  119.5000    41.8050    32.3810    26.9100    25.8830    23.2860   -21.5930     2.5370 
  119.6250    44.1920    31.9370    26.4680    23.8240    22.9690   -21.5580     2.5550 
  119.7500    44.2860    31.7300    26.2680    24.0860    22.6840   -21.5160     2.5700 
  119.8750    44.0070    31.8930    26.4290    25.3280    22.6290   -21.4880     2.5810 
  120.0000    44.9520    32.4410    26.9660    26.3230    22.9000   -21.4820     2.5890 
  120.1250    46.0880    33.2490    27.8160    26.9620    22.9410   -21.4600     2.5950 
  120.2500    46.0820    33.9370    28.6900    27.9900    22.9200   -21.4210     2.5970 
  120.3750    45.0760    34.1180    29.2750    28.1710    22.8540   -21.3670     2.5930 
  120.5000    42.8690    33.4400    29.2340    29.5490    22.8640   -21.3100     2.5810 
  120.6250    41.5300    31.5840    28.1670    32.0780    22.7840   -21.2730     2.5660 
  120.7500    44.3350    28.9820    26.3120    30.4600    22.6830   -21.2520     2.5560 
  120.8750    50.3260    26.1440    24.0530    24.2630    22.5490   -21.2030     2.5520 
  121.0000    53.2840    23.5710    21.8370    18.2280    22.4520   -21.1140     2.5520 
  121.1250    49.4490    21.7330    20.1050    15.7080    22.4710   -21.0370     2.5450 
  121.2500    44.7330    20.6300    18.9510    15.8200    22.5650   -20.9760     2.5270 
  121.3750    44.1940    20.1410    18.3530    16.6400    22.7160   -20.9280     2.4990 
  121.5000    47.1850    20.0170    18.1720    16.6080    22.9090   -20.8870     2.4720 
  121.6250    48.4450    19.9790    18.2080    16.3940    23.1830   -20.8360     2.4600 
  121.7500    47.8900    19.8600    18.2430    16.8620    23.3890   -20.7800     2.4630 
  121.8750    47.6890    19.6870    18.2140    16.4490    23.2010   -20.7230     2.4750 
  122.0000    48.8930    19.5920    18.1640    15.3040    23.0630   -20.6720     2.4860 
  122.1250    49.3920    19.7500    18.2250    14.5990    23.0630   -20.6260     2.4880 
  122.2500    48.2180    20.1440    18.4560    14.8110    23.0800   -20.5990     2.4790 
  122.3750    46.8310    20.6920    18.8470    15.9170    23.0360   -20.5890     2.4630 
