~V
VERS. 2.00: Ver 2.00
~W
STRT.M 49.0000:
STOP.M 247.0000:
STEP.M 0.1250:
NULL. -999.2500:
UWI. F11144:
~C
DEPT.M :
DEN.GM/CC :
SP.MV :
GR.API :
RML.OHMM :
RI. :
RXO.OHMM :
CALI.CM :
~A
# ...
  150.2500     2.2030   -13.1150    70.4820    15.5310    13.5690    16.3950    23.3510 
  150.3750     2.1820   -13.4030    70.8840    15.1960    13.8630    13.7250    23.3930 
  150.5000     2.1780   -13.6460    73.3700    14.5050    13.6160    11.9590    23.2560 
  150.6250     2.1840   -13.8430    76.0440    13.8990    13.2170    11.7330    22.9950 
  150.7500     2.1910   -14.0150    76.0570    13.4880    12.8500    11.9180    22.7260 
  150.8750     2.1950   -14.1140    76.2170    13.0680    12.4510    11.9590    22.5420 
  151.0000     2.2000   -14.1720    77.4150    12.5240    11.9400    11.8540    22.4710 
  151.1250     2.2050   -14.2460    78.6960    11.8800    11.3350    11.2900    22.4970 
  151.2500     2.2110   -14.2410    78.2890    11.2560    10.7360    10.6730    22.6060 
  151.3750     2.2140   -14.1970    77.5160    10.7350    10.2250    10.5750    22.7080 
  151.5000     2.2160   -14.1660    78.1670    10.3500     9.8390    10.5800    22.8370 
  151.6250     2.2190   -14.0870    79.7450    10.1130     9.5930    10.3100    22.9800 
  151.7500     2.2260   -14.0010    79.2940    10.0490     9.5120     9.8000    23.0600 
  151.8750     2.2310   -13.9430    75.3430    10.1130     9.5600     9.5350    23.0490 
  152.0000     2.2340   -13.8900    71.7510    10.2810     9.7140     9.4940    22.9560 
  152.1250     2.2330   -13.8370    73.7360    10.5070     9.9340     9.6340    22.8670 
  152.2500     2.2320   -13.8180    78.2910    10.7100    10.1440     9.9150    22.7880 
  152.3750     2.2320   -13.8060    79.7560    10.8000    10.2590    10.2860    22.7480 
  152.5000     2.2310   -13.7660    79.5890    10.7190    10.2160    10.6250    22.7430 
  152.6250     2.2280   -13.7510    81.1330    10.4490     9.9960    10.6830    22.7710 
  152.7500     2.2250   -13.7370    84.0100    10.0320     9.6210    10.4010    22.8120 
  152.8750     2.2270   -13.7050    85.2150     9.6070     9.2110    10.2830    22.8650 
  153.0000     2.2340   -13.6780    83.6360     9.2890     8.8630    10.1020    22.9010 
  153.1250     2.2430   -13.6170    79.2290     9.1600     8.6550     9.5790    22.9170 
  153.2500     2.2510   -13.5570    74.3690     9.3210     8.6770     9.2090    22.9310 
  153.3750     2.2550   -13.4950    72.6840     9.7750     8.9370     9.2440    22.9620 
  153.5000     2.2530   -13.4090    75.7200    10.5590     9.4650     9.6340    23.0240 
  153.6250     2.2460   -13.3240    81.0160    11.6900    10.2810    10.2510    23.0940 
  153.7500     2.2330   -13.2100    82.0870    13.1250    11.3920    10.7230    23.2280 
  153.8750     2.2160   -13.1100    76.8970    14.5130    12.5760    11.0110    23.4670 
  154.0000     2.1950   -13.0290    70.7700    15.3730    13.4700    11.4630    23.7850 
  154.1250     2.1750   -12.9460    68.7820    15.2260    13.6210    12.9140    24.1220 
  154.2500     2.1700   -12.8750    71.1480    13.8960    12.7310    14.8370    24.2350 
  154.3750     2.1820   -12.8600    72.9990    12.2620    11.4190    14.2990    24.0480 
  154.5000     2.2080   -12.9230    74.0040    11.1140    10.2980    11.5510    23.7920 
  154.6250     2.2410   -13.0250    75.1370    11.0050     9.8310     9.0740    23.5110 
  154.7500     2.2690   -13.2230    75.6240    12.4200    10.4870     9.3200    23.3110 
  154.8750     2.2840   -13.4370    74.3210    15.1420    12.3010    12.3710    23.2310 
  155.0000     2.2880   -13.6320    71.4010    18.8550    15.2870    18.6040    23.3330 
  155.1250     2.2860   -13.8310    69.4100    22.7110    19.0160    25.4390    23.5380 
  155.2500     2.2780   -14.0230    68.9500    24.8880    22.0340    28.0970    23.8700 
  155.3750     2.2650   -14.1540    69.3340    24.5860    23.0000    26.0640    24.2290 
  155.5000     2.2510   -14.2120    69.0260    22.3300    21.8320    21.5980    24.4390 
  155.6250     2.2420   -14.2390    68.7770    19.3320    19.4410    18.0150    24.5190 
  155.7500     2.2420   -14.1630    71.5480    16.5210    16.7660    17.0830    24.4590 
  155.8750     2.2450   -14.1020    75.3890    14.1070    14.2950    15.6100    24.3480 
  156.0000     2.2470   -14.0370    78.2220    12.0710    12.1350    13.0210    24.2380 
  156.1250     2.2420   -13.9650    79.8370    10.4000    10.3380    10.3090    24.0850 
  156.2500     2.2300   -13.9560    83.9490     9.1840     9.0110     9.1760    23.7500 
  156.3750     2.2160   -13.9400    92.6150     8.3880     8.1040     8.4000    23.3070 
  156.5000     2.2050   -13.9480   101.2040     8.0190     7.6120     8.0880    23.0050 
  156.6250     2.1990   -13.9650   103.2860     8.0480     7.5040     8.3240    22.8940 
  156.7500     2.1960   -13.9680    95.2090     8.4460     7.7670     8.9880    22.9740 
  156.8750     2.1960   -13.9500    85.3960     9.0390     8.2680     9.3590    23.1650 
  157.0000     2.1990   -13.9360    78.8410     9.6750     8.9010     9.5800    23.4310 
  157.1250     2.2030   -13.8920    75.7330    10.1430     9.4960     9.8540    23.6370 
  157.2500     2.2070   -13.7600    74.5780    10.0930     9.7180    10.2570    23.7440 
  157.3750     2.2120   -13.6260    74.5400     9.4570     9.3920    10.6080    23.8220 
  157.5000     2.2190   -13.4550    74.2840     8.3730     8.5560    10.1790    23.8740 
  157.6250     2.2250   -13.2510    73.3770     7.1690     7.4750     8.4840    23.8800 
  157.7500     2.2280   -13.1090    74.3870     6.2390     6.5130     6.6680    23.8160 
  157.8750     2.2310   -12.9700    78.3130     5.7040     5.8540     5.5780    23.6430 
  158.0000     2.2380   -12.8450    81.4540     5.5320     5.5210     5.4820    23.2890 
  158.1250     2.2530   -12.7870    81.9020     5.5870     5.4390     6.5210    22.6780 
  158.2500     2.2680   -12.7170    81.5920     5.6590     5.4540     7.0270    22.3710 
  158.3750     2.2760   -12.6560    82.0210     5.5790     5.3860     6.3650    22.4740 
  158.5000     2.2760   -12.6450    82.1990     5.3260     5.1800     5.3670    22.8140 
  158.6250     2.2730   -12.6650    82.8600     4.9990     4.8840     4.9380    23.0720 
  158.7500     2.2720   -12.6780    85.6980     4.7560     4.6170     4.8520    22.7950 
  158.8750     2.2710   -12.6890    89.2090     4.6630     4.4550     4.8910    22.1520 
  159.0000     2.2730   -12.7000    91.4690     4.7060     4.4090     4.9890    21.5350 
  159.1250     2.2780   -12.6890    91.5690     4.8510     4.4610     5.1720    21.2350 
  159.2500     2.2840   -12.7110    87.7340     5.1040     4.6160     5.4120    21.2460 
  159.3750     2.2870   -12.7470    80.8520     5.4850     4.8790     5.7080    21.3860 
  159.5000     2.2900   -12.7700    75.2650     6.0430     5.2860     6.0680    21.6480 
  159.6250     2.2900   -12.7930    73.5180     6.8110     5.8730     6.6940    22.1800 
  159.7500     2.2860   -12.7700    73.8990     7.8270     6.7000     7.7850    22.9000 
  159.8750     2.2790   -12.7530    73.0270     9.0320     7.7280     9.2510    23.4860 
  160.0000     2.2730   -12.7270    70.4090    10.4170     8.9320    10.7750    23.8840 
  160.1250     2.2680   -12.6710    69.5050    11.9940    10.2980    12.1410    24.0930 
  160.2500     2.2630   -12.6190    70.6240    13.7570    11.8330    13.1890    24.1530 
  160.3750     2.2560   -12.5270    69.9150    15.4600    13.3980    14.2490    24.1840 
  160.5000     2.2480   -12.4080    66.5100    16.6340    14.6590    15.9550    24.1920 
  160.6250     2.2380   -12.2740    63.4770    16.6690    15.0670    17.7320    24.1970 
  160.7500     2.2270   -12.1200    65.0180    15.0280    14.0020    18.1850    24.2170 
  160.8750     2.2210   -11.9200    68.9670    12.5150    12.0260    15.6900    24.1970 
  161.0000     2.2260   -11.7250    72.7440    10.0140     9.8730    11.3730    24.1130 
  161.1250     2.2390   -11.5720    76.3610     8.1510     8.1030     7.9190    24.0250 
  161.2500     2.2520   -11.4550    78.4790     7.2760     7.0660     6.7170    23.9910 
  161.3750     2.2560   -11.4170    78.6290     7.1720     6.6730     7.2040    23.9850 
