~V
VERS. 2.00: Ver 2.00
~W
STRT.M 50.0000:
STOP.M 245.0000:
STEP.M 0.1250:
NULL. -999.2500:
UWI. F11135:
~C
DEPT.M :
GR.API :
RML.OHMM :
RI. :
RXO.OHMM :
CALI.CM :
SP.MV :
DEN.GM/CC :
~A
# ...
  117.5000    54.3730     8.9780     6.7460     8.0560    24.7800   -34.9150     2.0620 
  117.6250    53.8210     8.8310     6.8260     8.1050    24.7790   -35.4970     2.0680 
  117.7500    55.0060     8.4040     6.8280     8.0200    24.7790   -35.9390     2.0700 
  117.8750    55.5040     7.8310     6.7630     7.7910    24.7780   -36.1660     2.0690 
  118.0000    53.9690     7.3690     6.6670     7.6280    24.7720   -36.2200     2.0670 
  118.1250    51.8290     7.2950     6.6000     7.6830    24.7780   -36.0250     2.0670 
  118.2500    51.9490     7.5740     6.6040     7.7960    24.7780   -35.6450     2.0720 
  118.3750    53.2630     8.0740     6.6760     7.8880    24.7720   -35.0500     2.0800 
  118.5000    53.8160     8.5970     6.7650     8.0210    24.7700   -34.2840     2.0910 
  118.6250    55.7730     8.8960     6.7840     8.3040    24.7850   -33.3520     2.1070 
  118.7500    59.6050     8.9100     6.7010     8.2720    24.8290   -32.3300     2.1360 
  118.8750    63.2520     8.6830     6.5280     7.7350    24.9030   -31.2520     2.1770 
  119.0000    65.2620     8.3200     6.3060     7.0540    24.9560   -30.1560     2.2240 
  119.1250    69.1750     7.9950     6.0920     6.4210    25.0090   -29.2040     2.2570 
  119.2500    77.0010     7.8460     5.9260     6.0380    25.0110   -28.4010     2.2670 
  119.3750    83.5000     7.8950     5.8230     5.7960    24.9810   -27.8320     2.2550 
  119.5000    82.4590     8.0820     5.7990     5.8040    24.8860   -27.5060     2.2310 
  119.6250    74.6810     8.2980     5.8760     5.9840    24.8590   -27.5380     2.2030 
  119.7500    68.0370     8.4590     6.0330     6.2970    24.7980   -27.8170     2.1710 
  119.8750    64.9350     8.5620     6.2460     6.5070    24.6780   -28.3340     2.1340 
  120.0000    64.2810     8.6840     6.4850     6.9610    24.4480   -28.9700     2.0930 
  120.1250    63.3730     8.9380     6.7130     7.8520    24.2970   -29.5450     2.0590 
  120.2500    59.6830     9.2470     6.8960     8.6830    24.2470   -30.0310     2.0410 
  120.3750    54.0350     9.4270     7.0030     8.9530    24.2910   -30.3390     2.0400 
  120.5000    49.7150     9.3480     7.0270     9.0970    24.3100   -30.4270     2.0570 
  120.6250    48.6510     9.0960     7.0210     9.7310    24.3770   -30.1480     2.0900 
  120.7500    48.5990     9.0260     7.0900     9.9200    24.4680   -29.5910     2.1390 
  120.8750    50.5540     9.4560     7.3450     9.4920    24.6020   -28.7540     2.2040 
  121.0000    55.2870    10.5740     7.9030     9.2280    24.6150   -27.7340     2.2850 
  121.1250    58.7620    12.3260     8.8840    11.2820    24.3350   -26.6950     2.3700 
  121.2500    57.2770    14.0370    10.0960    15.8670    24.0750   -25.6370     2.4460 
  121.3750    53.4630    14.9480    11.1890    18.7920    23.8760   -24.6390     2.5000 
  121.5000    50.8310    14.4660    11.6840    18.9760    23.8470   -23.7600     2.5280 
  121.6250    52.0120    12.5260    11.1330    16.8980    23.8200   -23.1290     2.5210 
  121.7500    57.8730    10.3090     9.9350    12.2190    23.7080   -22.6580     2.4830 
  121.8750    65.4310     8.7040     8.6050     8.6880    23.6850   -22.3460     2.4210 
  122.0000    68.3550     8.0980     7.5750     7.6160    23.6910   -22.1470     2.3510 
  122.1250    63.4980     8.6420     7.2150     7.6360    23.7180   -21.9650     2.2930 
  122.2500    60.0720    10.1090     7.5970     7.7330    23.7900   -21.8380     2.2620 
  122.3750    60.4220    12.4710     8.8430     8.4190    23.8520   -21.7160     2.2670 
  122.5000    60.0090    15.5110    10.9650    10.9170    23.7820   -21.6150     2.3090 
  122.6250    54.2250    18.2740    13.5520    19.7640    23.7390   -21.4760     2.3800 
  122.7500    47.9360    19.1690    15.2180    30.8130    23.8180   -21.3520     2.4490 
  122.8750    48.0620    17.3090    14.8300    26.7030    23.8390   -21.2190     2.4900 
  123.0000    54.1080    13.7430    12.7560    15.5650    23.7560   -21.1010     2.4870 
  123.1250    61.3610    10.9360    10.6530     9.7210    23.6230   -21.0140     2.4460 
  123.2500    63.9650    10.1690     9.6150     8.1180    23.5460   -20.9050     2.4020 
  123.3750    60.4930    11.7840     9.9880     9.3420    23.5460   -20.8100     2.3770 
  123.5000    53.2020    15.8890    12.0400    13.8740    23.6400   -20.6790     2.3820 
  123.6250    45.6150    22.6720    16.4090    22.7160    23.7560   -20.5620     2.4190 
  123.7500    40.6540    30.4910    22.5010    28.9550    23.7170   -20.4160     2.4670 
  123.8750    38.1480    36.9200    28.7930    32.0570    23.6110   -20.2920     2.5110 
  124.0000    36.7220    39.7440    33.0060    35.2520    23.5740   -20.1770     2.5380 
  124.1250    35.0220    38.8480    33.7290    34.5480    23.6770   -20.0850     2.5420 
  124.2500    34.3230    37.1740    32.8160    31.5200    23.9770   -20.0240     2.5310 
  124.3750    36.5640    36.0920    31.6540    28.2320    24.0490   -19.9440     2.5140 
  124.5000    40.4730    35.8250    30.8860    28.3900    24.0480   -19.8710     2.5010 
  124.6250    42.5880    36.1060    30.6490    31.7580    23.9880   -19.7540     2.5000 
  124.7500    43.1580    36.4640    30.6720    34.5420    23.9530   -19.6380     2.5090 
  124.8750    42.8200    36.5680    30.7230    31.6030    23.8790   -19.5170     2.5210 
  125.0000    39.9150    36.1710    30.5860    27.2030    23.8940   -19.4240     2.5320 
  125.1250    36.5030    35.2400    30.1220    26.1440    23.8630   -19.3060     2.5380 
  125.2500    36.5520    34.2550    29.4950    27.5490    23.7810   -19.2070     2.5440 
  125.3750    38.5490    33.5750    28.8920    28.3050    23.7500   -19.1160     2.5500 
  125.5000    40.0940    33.2880    28.4250    24.4980    23.7530   -19.0200     2.5520 
  125.6250    40.8100    33.1670    28.0760    21.3020    23.8070   -18.9570     2.5510 
  125.7500    41.7920    32.9040    27.7090    22.9940    23.8790   -18.9220     2.5490 
  125.8750    41.4480    32.4840    27.2780    26.5770    23.9580   -18.8910     2.5480 
  126.0000    38.6810    32.0170    26.8220    27.0650    24.0050   -18.8290     2.5470 
  126.1250    36.3930    31.5350    26.4240    24.4730    24.1420   -18.8290     2.5420 
  126.2500    36.3660    31.0040    26.0850    23.2680    24.2850   -18.7920     2.5320 
  126.3750    38.5750    30.3770    25.7260    24.0090    24.3710   -18.7510     2.5240 
  126.5000    41.5220    29.6250    25.2240    24.6460    24.3880   -18.7180     2.5210 
  126.6250    44.4010    28.6620    24.4580    22.1880    24.4470   -18.6860     2.5250 
  126.7500    46.5740    27.4970    23.5340    18.9900    24.5580   -18.6470     2.5320 
  126.8750    46.6390    26.2660    22.6230    17.7380    24.6030   -18.6180     2.5360 
  127.0000    43.7540    25.2620    21.9190    18.2140    24.6000   -18.6130     2.5360 
  127.1250    39.1600    24.9540    21.6490    19.2890    24.5290   -18.5530     2.5360 
  127.2500    36.2620    25.2870    21.7590    20.7680    24.4650   -18.5330     2.5360 
  127.3750    36.0400    25.8980    22.0740    21.2490    24.4080   -18.5320     2.5380 
  127.5000    36.5950    26.2860    22.3310    20.6990    24.2550   -18.5390     2.5400 
  127.6250    37.0930    25.9210    22.2120    21.0550    24.0950   -18.5550     2.5350 
  127.7500    37.8070    24.8520    21.6480    22.2720    24.0000   -18.5750     2.5220 
  127.8750    38.3890    23.3600    20.7240    21.2110    23.9850   -18.6040     2.5020 
  128.0000    37.0110    21.8210    19.6780    18.3070    23.9850   -18.6230     2.4780 
  128.1250    35.3320    20.6070    18.7950    16.5380    23.9910   -18.6990     2.4540 
  128.2500    36.3460    19.8220    18.1610    16.0950    23.9770   -18.7480     2.4350 
  128.3750    38.1540    19.4140    17.7600    16.1640    23.8860   -18.8190     2.4240 
  128.5000    39.0840    19.1820    17.5220    16.7480    23.7540   -18.9090     2.4200 
  128.6250    41.6990    18.9490    17.3570    16.4260    23.7330   -18.9850     2.4260 
