~V
VERS. 2.00: Ver 2.00
~W
STRT.M 60.0000:
STOP.M 282.0000:
STEP.M 0.1250:
NULL. -999.2500:
UWI. F11159:
~C
DEPT.M :
GR.API :
RML.OHMM :
RI. :
RXO.OHMM :
CALI.CM :
SP.MV :
DEN.GM/CC :
~A
# ...
  172.5000    65.4640   123.0000   108.0240   106.6690    26.0030   -28.6800     2.0560 
  172.6250    62.6050   113.9820    99.1950    99.1250    25.9300   -28.5570     2.0770 
  172.7500    61.5420   103.5840    89.5320    98.7890    25.8310   -28.4090     2.1160 
  172.8750    63.2710    93.5300    80.6440    92.6520    25.6710   -28.2840     2.1580 
  173.0000    66.4570    85.8390    74.2920    76.4330    25.3740   -28.1860     2.1870 
  173.1250    68.7340    83.1340    72.6950    61.4610    24.8860   -28.1430     2.1890 
  173.2500    69.7360    85.8620    75.9390    58.2080    24.5310   -28.1400     2.1720 
  173.3750    68.9870    94.3290    83.9510    67.7820    24.4770   -28.1230     2.1510 
  173.5000    64.6110   107.8860    95.7120    86.4230    24.4960   -28.1310     2.1370 
  173.6250    59.7790   123.6770   108.0850   112.5240    24.4680   -28.1710     2.1390 
  173.7500    59.3320   135.5230   115.8330   111.6670    24.3300   -28.2350     2.1510 
  173.8750    62.8860   138.4570   115.3350    97.3170    24.2620   -28.2850     2.1700 
  174.0000    67.0060   131.3380   106.8510    88.1010    24.3070   -28.3390     2.1890 
  174.1250    68.1630   117.0670    94.0380    82.2660    24.4860   -28.3740     2.2050 
  174.2500    67.7880   101.8190    81.6810    71.1870    24.6180   -28.3930     2.2190 
  174.3750    69.9190    88.6910    71.7850    61.5270    24.6910   -28.4550     2.2290 
  174.5000    75.4120    79.2690    65.2990    57.9830    24.7040   -28.5580     2.2340 
  174.6250    79.2180    75.1930    63.5950    52.4000    24.7090   -28.6800     2.2290 
  174.7500    75.8820    76.5050    66.6960    48.0800    24.7320   -28.8270     2.2150 
  174.8750    68.6030    83.9430    75.1000    52.5140    24.8120   -29.0190     2.1940 
  175.0000    63.3620    98.0090    88.9240    76.2800    24.8490   -29.2360     2.1720 
  175.1250    63.7030   118.9190   107.7630   106.5180    24.8560   -29.4750     2.1550 
  175.2500    65.1520   142.0860   127.3940   132.9990    24.8560   -29.7150     2.1450 
  175.3750    64.5400   161.5170   142.5380   156.0220    24.8560   -29.9770     2.1410 
  175.5000    63.5080   171.0720   148.3530   168.0620    24.8560   -30.2430     2.1440 
  175.6250    64.7990   167.3000   143.2100   175.5990    24.8510   -30.5010     2.1500 
  175.7500    64.2150   156.8900   133.7220   154.3260    24.8230   -30.7460     2.1580 
  175.8750    60.8150   145.4190   124.5370   130.7640    24.7420   -30.9600     2.1630 
  176.0000    57.9380   136.5400   118.2160   126.6340    24.7090   -31.1400     2.1640 
  176.1250    57.7960   132.2670   115.9770   122.4830    24.7020   -31.2900     2.1610 
  176.2500    58.9990   131.6350   116.6800   113.4530    24.6930   -31.4450     2.1580 
  176.3750    59.7290   133.8250   119.4910   112.2380    24.6350   -31.5600     2.1560 
  176.5000    60.7240   137.9930   123.6340   122.0120    24.4560   -31.6470     2.1550 
  176.6250    62.2660   143.7000   128.7210   136.2560    24.2460   -31.7280     2.1540 
  176.7500    63.5940   150.3530   134.4110   135.4040    24.1480   -31.8140     2.1520 
  176.8750    63.2550   157.4880   140.3710   128.7930    24.3330   -31.9060     2.1500 
  177.0000    61.9570   164.0020   145.6050   137.7880    24.8250   -32.0070     2.1510 
  177.1250    62.5660   167.1120   147.5860   169.1070    24.9100   -32.0970     2.1560 
  177.2500    63.5120   165.1040   144.9760   200.7470    24.9320   -32.1780     2.1650 
  177.3750    62.0680   157.9270   138.1090   194.5900    24.9320   -32.2540     2.1730 
  177.5000    58.9720   147.8700   129.4270   153.8370    24.9320   -32.3120     2.1780 
  177.6250    59.7310   139.1790   122.9520   125.1420    24.9320   -32.3560     2.1780 
  177.7500    64.1050   135.1150   121.1320   115.0450    24.9320   -32.3670     2.1740 
  177.8750    66.9430   137.1840   124.8510   111.9980    24.9310   -32.3680     2.1680 
  178.0000    64.6730   145.2870   133.6160   125.1010    24.9230   -32.3790     2.1610 
  178.1250    59.9210   157.9820   145.7230   148.4610    24.8700   -32.3810     2.1550 
  178.2500    59.1270   170.9210   157.1810   168.2750    24.7830   -32.3520     2.1520 
  178.3750    61.5530   180.4440   164.6960   178.0450    24.7240   -32.3090     2.1520 
  178.5000    62.8130   183.9940   166.2860   180.7790    24.6870   -32.2810     2.1560 
  178.6250    61.6650   180.5990   161.7530   179.0310    24.4200   -32.2570     2.1620 
  178.7500    60.8760   173.6250   154.5750   169.5990    24.3490   -32.2450     2.1680 
  178.8750    60.9170   165.4430   146.9120   152.2050    24.7180   -32.1960     2.1720 
  179.0000    59.4000   157.7870   140.1790   136.2240    24.8410   -32.1110     2.1730 
  179.1250    56.6370   152.1270   135.4790   132.5790    24.8560   -32.0220     2.1750 
  179.2500    56.4940   148.5120   132.5350   130.3360    24.8530   -31.9400     2.1770 
  179.3750    58.8930   146.3440   130.6150   127.6140    24.8360   -31.8530     2.1760 
  179.5000    60.5930   144.3260   128.4740   128.5190    24.7710   -31.7380     2.1700 
  179.6250    60.3550   140.4830   124.4230   128.2290    24.7130   -31.6180     2.1580 
  179.7500    60.7550   134.0680   118.1490   123.6590    24.6830   -31.4730     2.1480 
  179.8750    63.0570   125.4020   110.2300   112.1520    24.5870   -31.3460     2.1470 
  180.0000    66.0320   115.9330   102.1310    94.5060    24.3430   -31.2380     2.1610 
  180.1250    69.2880   108.3070    96.2020    81.4570    24.0940   -31.1220     2.1900 
  180.2500    71.1640   104.1500    93.5240    79.7740    23.7290   -31.0060     2.2150 
  180.3750    71.9060   104.0310    94.3280    87.5600    23.5000   -30.8620     2.2260 
  180.5000    72.8700   107.5310    98.0390   102.9120    23.4640   -30.6950     2.2170 
  180.6250    74.2220   113.4950   103.3990   127.5170    23.4900   -30.5210     2.1960 
  180.7500    76.6980   119.3250   108.1130   139.7070    23.5610   -30.3500     2.1800 
  180.8750    79.4220   123.1110   110.5790   120.9080    23.5970   -30.1560     2.1770 
  181.0000    79.6710   123.8320   110.1350    96.9140    23.6120   -29.9500     2.1850 
  181.1250    75.1580   121.2100   106.8730    98.0560    23.6690   -29.7390     2.1920 
  181.2500    69.2690   116.5670   102.1410   102.8660    23.7640   -29.5320     2.1840 
  181.3750    67.7590   110.5960    96.5900   112.5280    23.8580   -29.3200     2.1620 
  181.5000    69.9160   103.8710    90.6980   108.0080    24.0900   -29.1260     2.1360 
  181.6250    70.2260    97.1860    85.1740    92.1410    24.6110   -28.9290     2.1200 
  181.7500    66.0900    91.5880    80.8690    76.9990    25.4440   -28.7350     2.1150 
  181.8750    62.0390    88.0420    78.5640    69.3800    25.8830   -28.5550     2.1150 
  182.0000    62.4450    87.1830    78.7170    70.3390    25.9460   -28.3870     2.1130 
  182.1250    63.6990    89.6460    81.7580    85.0640    25.9260   -28.2520     2.1050 
  182.2500    62.7510    94.6210    86.8620   113.0450    25.8860   -28.1340     2.1000 
  182.3750    62.6080   101.4980    93.3940   135.8780    25.8610   -28.0620     2.1030 
  182.5000    63.6980   109.4050   100.4750   127.8090    25.7840   -28.0030     2.1150 
  182.6250    63.7420   116.6830   106.4560   110.2490    25.3710   -27.9620     2.1320 
  182.7500    62.4830   121.2910   109.6440    98.4040    24.7620   -27.9170     2.1490 
  182.8750    61.1620   121.4480   108.6740   106.8950    24.3740   -27.8780     2.1650 
  183.0000    59.8360   116.3830   103.2060   123.4380    24.0200   -27.8380     2.1830 
  183.1250    61.5730   106.6940    94.2490   108.7980    23.8150   -27.7920     2.2020 
  183.2500    66.6340    95.9900    85.1040    79.2030    23.5420   -27.7470     2.2200 
  183.3750    69.7710    87.0770    78.1970    60.9270    23.3650   -27.6960     2.2320 
  183.5000    68.1580    81.9930    75.1630    53.7000    23.3890   -27.6550     2.2350 
  183.6250    66.7070    82.7410    77.5890    55.0920    23.7700   -27.6180     2.2270 
