~V
VERS. 2.00: Ver 2.00
~W
STRT.M 45.0000:
STOP.M 250.0000:
STEP.M 0.1250:
NULL. -999.2500:
UWI. F11133:
~C
DEPT.M :
SP.MV :
DEN.GM/CC :
GR.API :
RML.OHMM :
RI. :
RXO.OHMM :
CALI.CM :
~A
# ...
  213.7500   -35.7180     2.1930    59.3540   107.9370    95.7470    84.5090    23.3810 
  213.8750   -35.9170     2.1810    56.8480   116.8270   104.9490    75.0050    23.2700 
  214.0000   -36.0870     2.1740    53.3980   122.4260   111.6820    54.9350    23.1440 
  214.1250   -36.2400     2.1790    52.0040   123.8800   114.8530    39.8840    22.9760 
  214.2500   -36.3890     2.1840    52.8130   121.8710   114.6350    30.8980    22.7810 
  214.3750   -36.5420     2.1800    54.8980   118.2780   112.5280    27.0230    22.6490 
  214.5000   -36.6980     2.1690    57.4480   115.0160   110.4840    29.2610    22.6950 
  214.6250   -36.8690     2.1570    59.0860   112.9030   109.5510    38.9830    22.9430 
  214.7500   -37.0690     2.1470    58.1460   112.0540   110.0280    58.9860    23.2680 
  214.8750   -37.2990     2.1410    55.6600   111.8630   111.3230    93.3200    23.5160 
  215.0000   -37.5390     2.1390    54.7600   111.2490   112.2240   130.8980    23.6700 
  215.1250   -37.7690     2.1430    56.0320   109.2750   111.6920   138.1390    23.7450 
  215.2500   -37.9790     2.1490    57.9400   105.2190   108.9050   114.5520    23.7690 
  215.3750   -38.1460     2.1520    58.9670    99.0940   103.7570    96.3030    23.8390 
  215.5000   -38.2560     2.1500    59.1950    91.7940    97.0420    90.6670    24.0240 
  215.6250   -38.3030     2.1470    58.4840    84.1860    89.5630    94.5500    24.2580 
  215.7500   -38.2800     2.1440    56.3040    77.2000    82.2600   101.8100    24.3890 
  215.8750   -38.1930     2.1390    53.7160    71.6920    76.0990   105.3600    24.3590 
  216.0000   -38.0660     2.1340    52.7350    68.2640    71.8580   103.3670    24.2920 
  216.1250   -37.9210     2.1370    53.9970    67.5230    70.2380    99.6180    24.2390 
  216.2500   -37.7840     2.1480    55.9250    70.3640    72.2380   102.8630    24.2300 
  216.3750   -37.6840     2.1530    56.4130    77.5570    78.7500   113.6110    24.2940 
  216.5000   -37.6210     2.1450    54.7700    89.0920    89.7750   122.8930    24.4510 
  216.6250   -37.6020     2.1320    52.8390   104.6540   104.8120   130.7390    24.6540 
  216.7500   -37.6320     2.1280    53.8250   122.5840   121.8810   143.6640    24.8230 
  216.8750   -37.7060     2.1350    57.1400   139.4500   137.5180   160.0630    24.9070 
  217.0000   -37.8170     2.1460    58.2210   151.6900   148.5630   168.6890    24.9170 
  217.1250   -37.9370     2.1600    55.5690   158.0660   154.0050   166.0790    24.8740 
  217.2500   -38.0420     2.1750    52.7290   159.8980   154.9970   160.9990    24.8060 
  217.3750   -38.1290     2.1930    52.7800   159.8400   154.0060   155.5730    24.7160 
  217.5000   -38.2000     2.2090    53.7360   159.8980   153.1740   153.8480    24.6080 
  217.6250   -38.2390     2.2210    52.4400   160.1600   152.9190   158.1910    24.5100 
  217.7500   -38.2150     2.2290    49.5490   159.1620   152.1930   163.0390    24.4530 
  217.8750   -38.1070     2.2360    48.8570   154.6290   148.9580   165.7510    24.4660 
  218.0000   -37.9210     2.2450    51.7250   145.1660   141.5360   161.9280    24.5370 
  218.1250   -37.6670     2.2540    55.5560   130.9290   129.4460   146.1170    24.6130 
  218.2500   -37.3450     2.2560    58.0490   113.9870   113.9100   120.2580    24.6560 
  218.3750   -36.9440     2.2510    58.9970    97.4020    97.6280    96.7140    24.6670 
  218.5000   -36.4760     2.2460    58.6430    83.4160    83.2290    80.4940    24.6630 
  218.6250   -35.9650     2.2430    58.0470    72.7080    71.8350    68.1670    24.6430 
  218.7500   -35.4490     2.2380    58.7130    65.1640    63.6340    59.1240    24.6220 
  218.8750   -34.9490     2.2260    59.8980    60.1060    58.0540    55.5270    24.6220 
  219.0000   -34.4640     2.2180    59.9170    56.5970    54.1360    56.6960    24.6370 
  219.1250   -33.9950     2.2240    59.3670    54.3500    51.5390    57.1920    24.6460 
  219.2500   -33.5440     2.2490    59.6770    53.5710    50.3810    53.6470    24.6310 
  219.3750   -33.1290     2.2870    60.4300    54.7210    51.0290    49.7850    24.5980 
  219.5000   -32.7480     2.3280    60.5100    58.0840    53.7600    51.4270    24.5520 
  219.6250   -32.3980     2.3740    60.2720    63.7510    58.7610    59.7170    24.4710 
  219.7500   -32.0570     2.4320    60.6180    70.8590    65.3950    71.5860    24.3820 
  219.8750   -31.7140     2.5000    61.9870    76.7870    71.3910    82.7410    24.3330 
  220.0000   -31.3800     2.5630    63.2490    77.5590    73.0160    91.2940    24.3310 
  220.1250   -31.0550     2.6010    62.0300    70.2600    67.0570    92.2380    24.3480 
  220.2500   -30.7410     2.6000    58.1990    55.8340    53.7070    75.6900    24.3620 
  220.3750   -30.4330     2.5670    54.4580    39.4650    37.9670    51.8220    24.3720 
  220.5000   -30.1350     2.5220    53.1220    26.1050    25.1780    34.3080    24.3770 
  220.6250   -29.8500     2.4760    53.5430    17.0020    16.5910    22.5510    24.4110 
  220.7500   -29.5940     2.4310    52.5280    11.7380    11.5940    13.5140    24.5060 
  220.8750   -29.3720     2.3920    49.0130     9.2160     9.0490     9.1230    24.6620 
  221.0000   -29.1820     2.3640    46.4590     8.1780     7.8280     8.3490    24.8910 
  221.1250   -29.0290     2.3450    47.3530     8.0390     7.4530     9.2750    25.1970 
  221.2500   -28.9070     2.3300    49.6060     8.4240     7.6490     9.8340    25.5020 
  221.3750   -28.8050     2.3200    50.3000     9.0060     8.1720     9.1610    25.6620 
  221.5000   -28.7090     2.3200    50.5200     9.4440     8.7200     8.3520    25.6200 
  221.6250   -28.6070     2.3320    51.0580     9.4930     9.0300     8.0910    25.4400 
  221.7500   -28.5030     2.3480    50.9990     9.0120     8.8730     8.4160    25.2300 
  221.8750   -28.4210     2.3640    51.1630     8.0740     8.2220     8.7080    25.0260 
  222.0000   -28.3590     2.3810    56.6090     6.9830     7.3180     8.1380    24.8190 
  222.1250   -28.3110     2.4050    71.5460     6.0280     6.4260     6.9740    24.6160 
  222.2500   -28.3000     2.4370    91.7150     5.4450     5.7750     6.2000    24.4630 
  222.3750   -28.3430     2.4700   106.0440     5.3250     5.4780     6.2610    24.3850 
  222.5000   -28.4370     2.4820   107.5870     5.5870     5.5050     6.7070    24.3600 
  222.6250   -28.5840     2.4610    99.0740     6.1240     5.8030     7.1870    24.3610 
  222.7500   -28.7750     2.4240    87.7280     6.7800     6.2820     7.6000    24.3810 
  222.8750   -28.9750     2.3960    79.4370     7.3650     6.8050     7.9760    24.4390 
  223.0000   -29.1740     2.3820    76.7440     7.7490     7.2340     8.3180    24.5270 
  223.1250   -29.3850     2.3710    78.8320     7.9080     7.5030     8.6010    24.5950 
  223.2500   -29.6030     2.3550    83.0510     7.8960     7.6020     8.7100    24.6200 
  223.3750   -29.8240     2.3450    87.3800     7.8060     7.5710     8.6780    24.6140 
  223.5000   -30.0580     2.3470    90.6360     7.7060     7.4750     8.6270    24.6030 
  223.6250   -30.2940     2.3530    91.9590     7.6250     7.3540     8.5940    24.5970 
  223.7500   -30.5200     2.3570    91.3010     7.6000     7.2520     8.6080    24.5950 
  223.8750   -30.7380     2.3580    90.0740     7.6820     7.2120     8.6350    24.5880 
  224.0000   -30.9550     2.3550    89.7350     7.8870     7.2610     8.6140    24.5680 
  224.1250   -31.1680     2.3500    90.1370     8.1920     7.3950     8.6910    24.5400 
  224.2500   -31.3600     2.3430    90.7720     8.5210     7.5780     9.0800    24.5180 
  224.3750   -31.5090     2.3390    91.1660     8.7680     7.7470     9.6750    24.4940 
  224.5000   -31.6170     2.3400    91.0620     8.8720     7.8470     9.9540    24.4610 
  224.6250   -31.6910     2.3460    90.5120     8.8320     7.8600     9.6140    24.4250 
  224.7500   -31.7450     2.3550    90.2060     8.6990     7.8120     9.0240    24.4070 
  224.8750   -31.7920     2.3660    90.5690     8.5640     7.7640     8.7990    24.4370 
