~V
VERS. 2.00: Ver 2.00
~W
STRT.M 55.0000:
STOP.M 201.0000:
STEP.M 0.1250:
NULL. -999.2500:
UWI. F11111:
~C
DEPT.M :
GR.API :
RML.OHMM :
RI. :
RXO.OHMM :
CALI.CM :
SP.MV :
DEN.GM/CC :
~A
# ...
  156.2500    75.7630     8.5940     8.8180    10.0170    23.3420   -25.2140     2.2670 
  156.3750    77.1970     8.2370     8.2570     9.3290    23.3520   -25.3070     2.2760 
  156.5000    80.1660     8.5960     8.2810     9.2590    23.3870   -25.4150     2.2730 
  156.6250    81.5290     9.8600     9.0850     9.6750    23.4200   -25.5250     2.2540 
  156.7500    78.6720    11.8610    10.6100    10.7100    23.4690   -25.6280     2.2270 
  156.8750    75.5710    15.4980    12.7920    12.4150    23.5330   -25.7360     2.2010 
  157.0000    74.0130    18.6030    15.3060    14.3510    23.5670   -25.8530     2.1860 
  157.1250    72.2780    20.4130    17.3170    15.8610    23.5580   -26.0070     2.1870 
  157.2500    70.3490    20.9900    18.2640    17.0700    23.5070   -26.1820     2.2000 
  157.3750    70.1310    20.8180    18.3100    18.5030    23.3090   -26.3530     2.2160 
  157.5000    72.7630    20.8700    18.1700    20.3060    22.9710   -26.5180     2.2260 
  157.6250    75.9920    22.3850    18.8200    21.9890    22.9490   -26.7160     2.2270 
  157.7500    79.2380    25.7660    20.7650    22.9730    22.8600   -26.9290     2.2230 
  157.8750    80.0600    31.1460    24.3390    25.0730    22.7450   -27.1520     2.2170 
  158.0000    74.2270    38.2660    29.6220    40.7620    22.7100   -27.3830     2.2130 
  158.1250    66.7610    46.4560    36.3800    47.1900    22.7100   -27.6200     2.2120 
  158.2500    66.0840    54.4940    43.4470    43.8250    22.6180   -27.8710     2.2130 
  158.3750    71.1780    61.8370    50.0790    42.3380    22.5240   -28.1270     2.2130 
  158.5000    76.3500    68.6720    56.1950    49.9800    22.4770   -28.3710     2.2140 
  158.6250    75.9160    75.4810    62.2590    66.2540    22.5040   -28.5780     2.2170 
  158.7500    71.2060    81.7740    68.1520    78.0570    22.5310   -28.7640     2.2250 
  158.8750    66.1930    85.8200    72.5810    74.7200    22.5330   -28.9180     2.2370 
  159.0000    64.8460    85.7670    73.8190    70.7080    22.5130   -29.0290     2.2490 
  159.1250    65.6020    81.0590    70.7470    77.8410    22.4280   -29.0790     2.2580 
  159.2500    63.6630    75.0970    65.7760    76.0150    22.2970   -29.0960     2.2580 
  159.3750    61.8020    70.7720    61.3600    60.6980    22.3420   -29.0990     2.2500 
  159.5000    63.9250    70.0660    59.5110    44.8400    22.4200   -29.0770     2.2330 
  159.6250    68.7300    74.7480    62.2180    42.8820    22.4690   -29.0170     2.2110 
  159.7500    71.1990    84.0730    69.3130    58.9540    22.4510   -28.8970     2.1920 
  159.8750    69.6020    97.0800    80.2720    92.0430    22.4170   -28.7350     2.1810 
  160.0000    65.7710   111.4750    93.2780   112.2750    22.4380   -28.5760     2.1800 
  160.1250    62.7860   122.8650   104.5600    98.4820    22.4460   -28.4360     2.1890 
  160.2500    62.7860   128.9700   111.4450    88.3070    22.3620   -28.3030     2.1990 
  160.3750    65.8550   130.6970   113.9940    94.0900    22.2700   -28.1660     2.2050 
  160.5000    71.2560   130.8420   114.3020   106.5600    22.2140   -28.0310     2.2040 
  160.6250    77.1500   131.8860   114.7200   121.5650    22.1260   -27.9140     2.2000 
  160.7500    78.6710   134.3430   116.1790   137.6490    22.2090   -27.8480     2.1980 
  160.8750    74.0110   138.1740   118.7290   163.5800    22.3470   -27.8370     2.2010 
  161.0000    67.8360   143.6460   122.5350   186.5990    22.3770   -27.8530     2.2040 
  161.1250    64.4330   152.1450   128.6520   186.3950    22.6240   -27.8780     2.2030 
  161.2500    61.6420   164.5910   137.8530   156.4860    23.0650   -27.8800     2.1940 
  161.3750    58.6370   182.2220   151.1580   135.5940    23.5820   -27.8740     2.1780 
  161.5000    56.8960   206.1280   169.4790   125.7440    23.7130   -27.8650     2.1600 
  161.6250    57.1390   238.1040   194.3650   116.5270    23.7300   -27.8540     2.1430 
  161.7500    56.5690   276.0040   224.2810   123.6580    23.7880   -27.8340     2.1310 
  161.8750    53.5010   316.3170   256.7970   169.3560    23.8910   -27.7910     2.1280 
  162.0000    49.7150   352.8840   287.5370   248.2000    23.9000   -27.7350     2.1320 
  162.1250    49.5050   375.3480   308.8720   263.9500    23.7380   -27.6790     2.1380 
  162.2500    52.6280   380.0970   317.2260   178.9220    23.5090   -27.6190     2.1410 
  162.3750    54.4410   367.0620   311.6520   113.8440    23.1860   -27.5500     2.1360 
  162.5000    51.7350   339.1230   293.7560    86.5320    23.3090   -27.4780     2.1240 
  162.6250    50.7630   299.1220   265.1290    86.3220    23.9210   -27.4050     2.1120 
  162.7500    52.5100   254.3390   231.1130    95.4880    24.7390   -27.3190     2.1040 
  162.8750    52.5590   210.2810   195.7800   121.4680    25.2170   -27.2240     2.1000 
  163.0000    51.0680   188.7680   163.1660   133.5440    24.6930   -27.1230     2.0930 
  163.1250    52.5340   156.5800   137.3950    89.7210    24.0500   -27.0050     2.0800 
  163.2500    57.0480   133.4900   118.6550    73.6000    23.7590   -26.8940     2.0680 
  163.3750    59.7360   118.1830   106.4810    72.3640    23.9640   -26.8000     2.0650 
  163.5000    60.2150   108.4300    99.3620    82.3120    24.1730   -26.7190     2.0790 
  163.6250    61.5060   101.3710    95.0230    91.2640    24.2490   -26.6580     2.1110 
  163.7500    63.2780    93.3380    89.9350    92.1950    24.2250   -26.6150     2.1520 
  163.8750    64.8540    82.4350    81.8340    88.7310    23.9680   -26.5860     2.1950 
  164.0000    65.3720    68.6410    70.0620    86.2440    23.9200   -26.5720     2.2370 
  164.1250    66.2190    53.9650    56.0940    67.7340    23.9160   -26.5940     2.2750 
  164.2500    68.9480    41.0460    43.1140    44.6270    23.8380   -26.6260     2.3090 
  164.3750    73.8850    31.0750    32.7920    29.9900    23.7550   -26.6490     2.3350 
  164.5000    79.7870    24.2210    25.5280    20.5170    23.7810   -26.6740     2.3480 
  164.6250    83.3240    20.4830    21.3210    16.0860    23.7220   -26.7180     2.3440 
  164.7500    83.3590    18.9130    19.1830    13.7360    23.6340   -26.7690     2.3260 
  164.8750    79.1840    19.2800    18.8240    14.0660    23.6330   -26.8140     2.2990 
  165.0000    74.2200    21.6150    20.2160    16.5750    23.6220   -26.8380     2.2680 
  165.1250    73.2430    26.6990    24.0150    20.8910    23.5320   -26.8180     2.2390 
  165.2500    73.9100    34.7110    30.5030    25.4750    23.5000   -26.8070     2.2160 
  165.3750    71.4590    45.8790    40.1770    36.9230    23.4190   -26.8330     2.2010 
  165.5000    64.5630    59.5910    52.7880    54.7020    23.3470   -26.8680     2.1940 
  165.6250    59.0340    73.4010    66.2960    65.5820    23.2810   -26.8840     2.1940 
  165.7500    58.8020    83.5590    76.8280    68.0140    23.2590   -26.8820     2.2000 
  165.8750    62.4480    87.8390    81.7770    70.5860    23.2810   -26.8580     2.2080 
  166.0000    66.1160    86.9770    81.2900    70.4170    23.4690   -26.8300     2.2150 
  166.1250    66.9740    84.0600    77.9940    61.8010    23.4620   -26.8310     2.2200 
  166.2500    66.8230    82.0190    75.1530    56.2140    23.4060   -26.8540     2.2220 
  166.3750    65.5160    81.1950    73.5550    54.8530    23.3420   -26.8770     2.2240 
  166.5000    63.1720    80.6410    72.6650    61.0270    23.2680   -26.8960     2.2300 
  166.6250    61.9000    78.5060    71.0310    66.2560    23.2370   -26.9160     2.2440 
  166.7500    64.9710    73.8910    67.5510    62.8510    23.1880   -26.9450     2.2620 
  166.8750    70.6670    67.1220    62.1230    53.9130    23.1550   -27.0050     2.2770 
  167.0000    73.8830    59.6960    55.7550    46.1250    23.0170   -27.0910     2.2810 
  167.1250    73.3280    53.7160    50.1950    39.9390    23.0790   -27.1830     2.2680 
  167.2500    72.7450    49.8730    46.3130    35.8010    23.0890   -27.2580     2.2460 
  167.3750    72.9660    48.0040    44.1470    34.2050    23.0850   -27.3280     2.2260 
