~V
VERS. 2.00: Ver 2.00
~W
STRT.M 50.0000:
STOP.M 243.0000:
STEP.M 0.1250:
NULL. -999.2500:
UWI. F11115:
~C
DEPT.M :
DEN.GM/CC :
GR.API :
RML.OHMM :
RI. :
RXO.OHMM :
CALI.CM :
SP.MV :
~A
# ...
  117.5000     2.2330    70.0540     6.2910     5.1910     8.9060    27.0820   -32.0630 
  117.6250     2.2630    75.9490     5.4260     4.5820     7.5830    27.0410   -31.6890 
  117.7500     2.2790    83.2990     4.6950     4.0170     5.6190    26.9780   -31.2760 
  117.8750     2.2730    87.3280     4.2960     3.6220     4.2920    26.9110   -30.8550 
  118.0000     2.2540    85.0680     4.3110     3.4660     4.2600    26.8540   -30.4920 
  118.1250     2.2350    80.9330     4.7830     3.6250     5.3480    26.8020   -30.3060 
  118.2500     2.2250    80.1430     5.5460     4.0410     6.4760    26.7440   -30.3510 
  118.3750     2.2230    79.1580     6.4350     4.6480     8.6000    26.6860   -30.6390 
  118.5000     2.2240    73.8230     7.2350     5.3140    11.9170    26.6450   -31.1350 
  118.6250     2.2180    68.4720     7.6880     5.8180    16.3070    26.6260   -31.8260 
  118.7500     2.2030    68.2290     7.7890     6.0620    17.3050    26.5890   -32.6010 
  118.8750     2.1860    71.4880     7.6310     6.0720    14.0890    26.4850   -33.3850 
  119.0000     2.1720    73.8800     7.3570     5.9540    10.8030    26.3260   -34.1260 
  119.1250     2.1670    72.1410     7.1080     5.8370     9.2270    26.2010   -34.8070 
  119.2500     2.1660    68.0380     6.9660     5.7850     8.7520    26.1510   -35.4350 
  119.3750     2.1640    65.3690     6.9630     5.7940     8.8440    26.1460   -35.9960 
  119.5000     2.1600    65.9570     7.1030     5.8440     9.1030    26.1480   -36.4820 
  119.6250     2.1540    67.6980     7.3640     5.9230     9.0060    26.1450   -36.8530 
  119.7500     2.1500    67.3050     7.6610     6.0230     8.6200    26.1410   -37.1110 
  119.8750     2.1510    65.8010     7.9520     6.1440     8.4420    26.1420   -37.2690 
  120.0000     2.1580    65.4970     8.2130     6.2790     8.4570    26.1450   -37.3320 
  120.1250     2.1680    66.6430     8.4140     6.4200     8.5490    26.1500   -37.2990 
  120.2500     2.1790    66.3450     8.5450     6.5530     8.7360    26.1640   -37.2160 
  120.3750     2.1870    65.1910     8.6030     6.6710     8.8050    26.1810   -37.1000 
  120.5000     2.1910    66.9410     8.6040     6.7710     8.7650    26.1910   -36.9600 
  120.6250     2.1870    71.0340     8.6040     6.8670     8.7110    26.1870   -36.8160 
  120.7500     2.1750    71.5860     8.6670     6.9780     8.8350    26.1840   -36.6950 
  120.8750     2.1570    67.7610     8.8170     7.1220     9.1250    26.1890   -36.5810 
  121.0000     2.1390    63.1830     9.0370     7.2980     9.3590    26.1950   -36.4440 
  121.1250     2.1320    61.2950     9.2620     7.4710     9.5100    26.2010   -36.2980 
  121.2500     2.1400    62.0640     9.3620     7.5630     9.6410    26.2030   -36.1530 
  121.3750     2.1620    64.7440     9.2120     7.4990     9.6910    26.1980   -35.9740 
  121.5000     2.1920    66.4350     8.7800     7.2490     9.5510    26.1920   -35.7400 
  121.6250     2.2180    66.5530     8.1820     6.8520     9.2680    26.2180   -35.4390 
  121.7500     2.2340    67.7410     7.6590     6.4580     8.6590    26.2820   -35.1120 
  121.8750     2.2380    70.3420     7.3700     6.1800     7.7590    26.3560   -34.7920 
  122.0000     2.2320    73.0040     7.3720     6.0810     7.2730    26.4030   -34.5220 
  122.1250     2.2180    73.9220     7.6270     6.1840     8.0350    26.4140   -34.3210 
  122.2500     2.2030    73.1860     7.9350     6.3810     8.6060    26.4220   -34.1770 
  122.3750     2.1900    70.3740     8.1380     6.5660     8.8400    26.4380   -34.0800 
  122.5000     2.1800    66.8190     8.1420     6.6500     8.8840    26.4810   -33.9820 
  122.6250     2.1800    65.2130     7.9650     6.6050     8.9060    26.5860   -33.8230 
  122.7500     2.1950    66.6900     7.8060     6.5320     8.8790    26.7170   -33.5880 
  122.8750     2.2300    69.7570     7.7940     6.5150     8.8500    26.8060   -33.2540 
  123.0000     2.2820    71.0040     7.9570     6.5940     8.8140    26.8270   -32.7740 
  123.1250     2.3420    66.9310     8.2280     6.7610     8.8000    26.8200   -32.1380 
  123.2500     2.3900    60.5320     8.4520     6.9420     8.8680    26.8220   -31.4050 
  123.3750     2.4150    56.1840     8.5300     7.0790     8.8820    26.8280   -30.5930 
  123.5000     2.4200    55.6530     8.4720     7.1560     8.5410    26.8290   -29.7540 
  123.6250     2.4210    57.3460     8.4470     7.2380     8.9510    26.8270   -28.9540 
  123.7500     2.4320    59.2940     8.6680     7.4380     9.7540    26.8240   -28.2330 
  123.8750     2.4570    60.3830     9.2700     7.8440    10.2020    26.8240   -27.6240 
  124.0000     2.4880    60.2780    10.2340     8.4730    10.2060    26.8250   -27.1520 
  124.1250     2.5000    58.1760    11.2390     9.1510    11.9700    26.8280   -26.8400 
  124.2500     2.4780    55.7010    11.6940     9.4810    13.3110    26.8310   -26.6390 
  124.3750     2.4310    55.2940    11.1520     9.1280    14.0520    26.8320   -26.5250 
  124.5000     2.3780    57.8110     9.6310     8.0670    13.0720    26.8290   -26.4510 
  124.6250     2.3420    64.2760     7.7410     6.6630     9.6900    26.8260   -26.3800 
  124.7500     2.3290    71.0350     6.2830     5.4650     6.2330    26.8250   -26.3250 
  124.8750     2.3340    75.2980     5.5600     4.7220     4.6780    26.8270   -26.2900 
  125.0000     2.3440    76.8590     5.6190     4.5200     4.6040    26.8240   -26.2520 
  125.1250     2.3510    73.3410     6.5390     4.9610     6.1250    26.8200   -26.2040 
  125.2500     2.3610    65.9560     8.0820     5.9180     9.3140    26.8160   -26.1730 
  125.3750     2.3830    58.6700     9.9760     7.2620    12.2940    26.8100   -26.1490 
  125.5000     2.4180    56.3130    11.7980     8.7320    13.6550    26.7990   -26.1100 
  125.6250     2.4560    57.9090    13.0280     9.9330    13.9850    26.7930   -26.0560 
  125.7500     2.4850    58.0740    13.6390    10.7160    15.5100    26.7920   -25.9860 
  125.8750     2.4980    56.8960    13.7690    11.1200    16.9540    26.7900   -25.8990 
  126.0000     2.4940    54.8950    13.5970    11.2420    15.7240    26.7860   -25.8080 
  126.1250     2.4730    52.4520    13.2040    11.1210    15.7310    26.7860   -25.7310 
  126.2500     2.4430    52.1880    12.6740    10.8310    17.8530    26.7900   -25.6830 
  126.3750     2.4170    53.9830    12.1290    10.4610    19.3890    26.7950   -25.6640 
  126.5000     2.4090    56.2490    11.7670    10.1530    15.3930    26.7920   -25.6610 
  126.6250     2.4280    58.7500    11.7430    10.0320    12.2740    26.7600   -25.6400 
  126.7500     2.4520    61.4810    11.8040     9.9760    11.8310    26.6830   -25.5770 
  126.8750     2.4580    61.2450    11.5690     9.7470    12.7940    26.5680   -25.4640 
  127.0000     2.4360    57.8970    10.7020     9.1200    14.6920    26.4540   -25.2970 
  127.1250     2.3930    60.9980     9.1290     8.0130    13.4740    26.3790   -25.1090 
  127.2500     2.3490    72.2040     7.4130     6.7530     9.3390    26.3350   -24.9380 
  127.3750     2.3170    84.6870     6.0110     5.6380     5.8920    26.3100   -24.8110 
  127.5000     2.3000    92.6050     5.1610     4.8570     4.5840    26.2980   -24.7310 
  127.6250     2.2930    93.8540     4.9360     4.5020     4.6510    26.2950   -24.7030 
  127.7500     2.2870    91.1470     5.0780     4.4320     4.9220    26.2930   -24.7260 
  127.8750     2.2810    86.0550     5.3780     4.5230     5.1770    26.2950   -24.8020 
  128.0000     2.2730    82.7960     5.6230     4.6410     5.3360    26.2990   -24.8880 
  128.1250     2.2640    83.8260     5.6290     4.6700     5.4380    26.2970   -24.9460 
  128.2500     2.2570    85.5630     5.4350     4.5980     5.4580    26.2910   -24.9990 
  128.3750     2.2540    86.6230     5.1490     4.4670     5.4240    26.2880   -25.0740 
  128.5000     2.2550    86.2790     4.9190     4.3600     5.3710    26.2900   -25.1610 
  128.6250     2.2520    84.1700     4.9750     4.4340     5.3730    26.2910   -25.2110 
