~V
VERS. 2.00: Ver 2.00
~W
STRT.M 50.0000:
STOP.M 264.0000:
STEP.M 0.1250:
NULL. -999.2500:
UWI. F11182:
~C
DEPT.M :
SP.MV :
GR.API :
RI. :
RML.OHMM :
RXO.OHMM :
DEN.GM/CC :
~A
   50.0000    71.7670    36.6450     0.0970     0.2420     4.7050     2.4540 
   50.1250    74.2450    36.8650     0.1040     0.2490     1.3540     2.4580 
   50.2500    76.1140    36.0330     0.1130     0.2930     1.1180     2.4300 
   50.3750    71.7670    36.6450     0.0970     0.2420     4.7050     2.4540 
   50.5000    72.5320    37.0550     0.0980     0.2410     3.0820     2.4600 
   50.6250    75.1670    36.5840     0.1080     0.2600     1.0960     2.4470 
   50.7500    71.7670    36.6450     0.0970     0.2420     4.7050     2.4540 
   50.8750    72.5320    37.0550     0.0980     0.2410     3.0820     2.4600 
   51.0000    74.2450    36.8650     0.1040     0.2490     1.3540     2.4580 
   51.1250    71.7670    36.6450     0.0970     0.2420     4.7050     2.4540 
   51.2500    72.5320    37.0550     0.0980     0.2410     3.0820     2.4600 
   51.3750    75.1670    36.5840     0.1080     0.2600     1.0960     2.4470 
   51.5000    71.7670    36.6450     0.0970     0.2420     4.7050     2.4540 
   51.6250    74.2450    36.8650     0.1040     0.2490     1.3540     2.4580 
   51.7500    71.7670    36.6450     0.0970     0.2420     4.7050     2.4540 
   51.8750    71.7670    36.6450     0.0970     0.2420     4.7050     2.4540 
   52.0000    71.7670    36.6450     0.0970     0.2420     4.7050     2.4540 
   52.1250    71.7670    36.6450     0.0970     0.2420     4.7050     2.4540 
   52.2500    71.7670    36.6450     0.0970     0.2420     4.7050     2.4540 
   52.3750    74.2450    36.8650     0.1040     0.2490     1.3540     2.4580 
   52.5000    76.1140    36.0330     0.1130     0.2930     1.1180     2.4300 
   52.6250    78.9400    36.4990     0.1350     0.3450     0.7310     2.3400 
   52.7500    80.6610    37.8130     0.1500     0.3630     0.5940     2.2670 
   52.8750    82.7600    39.0350     0.1590     0.3620     0.7760     2.1920 
   53.0000    83.7850    39.3160     0.1530     0.2990     0.9380     2.1830 
   53.1250    84.8460    42.2770     0.1320     0.2900     0.9440     2.1940 
   53.2500    85.3540    44.8170     0.1170     0.2760     0.7740     2.1930 
   53.3750    86.0160    47.4230     0.1020     0.2610     0.6250     2.1760 
   53.5000    86.4460    48.2210     0.0980     0.2580     0.6640     2.1710 
   53.6250    87.0360    49.5850     0.0960     0.2460     0.9890     2.1820 
   53.7500    87.3260    50.8830     0.0980     0.2540     1.1950     2.1970 
   53.8750    87.5110    52.4450     0.1010     0.2640     1.2070     2.2120 
   54.0000    87.4550    52.5640     0.1060     0.2730     1.2700     2.2160 
   54.1250    87.1600    50.6940     0.1130     0.2820     1.6130     2.2330 
   54.2500    86.8760    49.5260     0.1180     0.2870     1.6190     2.2640 
   54.3750    86.4110    50.9410     0.1220     0.2870     1.2100     2.3040 
   54.5000    86.1150    53.0720     0.1200     0.2800     1.0080     2.2860 
   54.6250    85.7280    54.1970     0.1120     0.2610     0.9680     2.1870 
   54.7500    85.5110    53.6130     0.1050     0.2460     1.0410     2.1340 
   54.8750    85.2240    51.8260     0.0980     0.2310     1.0920     2.1930 
   55.0000    85.0460    50.9600     0.0990     0.2300     1.1670     2.3420 
   55.1250    84.8030    49.7530     0.1040     0.2370     1.4110     2.5940 
   55.2500    84.6730    49.0710     0.1120     0.2430     1.4140     2.6720 
   55.3750    84.5450    47.9390     0.1130     0.2390     1.1830     2.5970 
   55.5000    84.4790    46.7210     0.1100     0.2270     1.0140     2.4880 
   55.6250    84.2750    44.7650     0.1030     0.2060     0.8500     2.3750 
   55.7500    83.9490    44.0450     0.1090     0.1930     0.8790     2.3550 
   55.8750    82.9300    43.4960     0.1240     0.1860     1.0540     2.3800 
   56.0000    81.7550    43.0440     0.1410     0.1900     1.2320     2.4100 
   56.1250    79.0410    41.8870     0.1640     0.2000     1.6930     2.4610 
   56.2500    76.5290    41.9280     0.1760     0.2070     1.8350     2.4920 
   56.3750    71.7540    42.9770     0.1800     0.2060     1.4530     2.5200 
   56.5000    68.0360    43.0120     0.1740     0.1980     1.1060     2.5280 
   56.6250    62.0170    41.5400     0.1580     0.1830     0.7580     2.5390 
   56.7500    57.9320    40.5150     0.1480     0.1730     0.6990     2.5540 
   56.8750    51.9730    40.4870     0.1380     0.1720     1.4430     2.5610 
   57.0000    48.1920    40.1000     0.1380     0.1710     3.4850     2.5350 
   57.1250    42.8490    38.2840     0.1440     0.1780     5.0390     2.4630 
   57.2500    39.5150    37.1290     0.1480     0.1860     2.7880     2.4260 
   57.3750    34.8860    37.9970     0.1470     0.1910     0.2290     2.4170 
   57.5000    32.0690    40.1950     0.1310     0.1810     0.2520     2.4330 
   57.6250    28.2470    43.6980     0.0910     0.1330     0.2790     2.4540 
   57.7500    25.9350    44.3110     0.0620     0.0900     0.3010     2.4480 
   57.8750    22.6920    42.2250     0.0290     0.0380     0.6870     2.4150 
   58.0000    20.5690    40.9930     0.0300     0.0290     2.9120     2.4020 
   58.1250    17.2200    42.6340     0.0990     0.0760     6.9200     2.3540 
   58.2500    14.7650    46.3240     0.2260     0.1710     6.3470     2.2740 
   58.3750    10.6700    53.2380     0.8320     0.6910     4.6030     2.1380 
   58.5000     7.7210    57.8760     1.8360     1.7800     4.8710     2.0980 
   58.6250     3.2230    62.9110     3.3950     3.4350     5.3280     2.1010 
   58.7500     0.3680    65.0670     4.1490     4.1140     5.4660     2.1030 
   58.8750    -3.4260    65.1950     4.5010     4.1980     5.6680     2.1080 
   59.0000    -5.5470    63.8910     4.2640     3.6350     6.0290     2.1120 
   59.1250    -8.1130    62.0730     4.0560     3.1260     5.9290     2.1000 
   59.2500    -9.4690    63.2220     4.0840     3.1170     5.4060     2.0860 
   59.3750   -11.0890    67.8320     4.2620     3.2950     5.1280     2.0890 
   59.5000   -11.9600    70.6490     4.5790     3.5970     5.1790     2.1330 
   59.6250   -13.0400    71.7700     5.3620     4.2510     5.7330     2.2890 
   59.7500   -13.6510    70.6120     5.8770     4.6880     6.7900     2.4170 
   59.8750   -14.4500    66.3400     6.4230     5.1780     7.1610     2.4920 
   60.0000   -14.9180    64.1100     6.4410     5.2340     5.9500     2.4190 
   60.1250   -15.5280    62.8240     5.8720     4.8470     4.8530     2.2230 
   60.2500   -15.8690    61.9610     5.3090     4.4000     4.8010     2.1240 
   60.3750   -16.2860    58.4130     4.4490     3.7500     4.5160     2.0600 
   60.5000   -16.5180    56.3480     4.0830     3.4940     4.3130     2.0520 
   60.6250   -16.8440    57.5020     3.9640     3.4960     4.0760     2.0590 
   60.7500   -17.0790    59.2680     4.0210     3.6170     3.9700     2.0690 
   60.8750   -17.4960    60.1990     4.0800     3.7300     4.0480     2.0780 
   61.0000   -17.8260    60.4860     4.1370     3.8150     4.3210     2.0850 
   61.1250   -18.3910    63.6170     4.2320     3.9360     4.7360     2.1030 
   61.2500   -18.8020    66.1510     4.3430     4.0660     4.9140     2.1140 
   61.3750   -19.4450    66.4990     4.5580     4.3240     5.2360     2.1170 
   61.5000   -19.8720    64.2240     4.7340     4.5520     5.5290     2.1150 
   61.6250   -20.4690    63.1980     4.9620     4.8550     5.8170     2.1140 
   61.7500   -20.8150    63.9760     5.0140     4.9480     5.6940     2.1110 
   61.8750   -21.2320    64.7500     4.9150     4.8890     5.4410     2.0880 
   62.0000   -21.4370    62.8500     4.7460     4.7180     5.3680     2.0720 
   62.1250   -21.6510    59.6130     4.4650     4.4900     5.1710     2.0550 
   62.2500   -21.7500    58.9930     4.3110     4.3760     5.0980     2.0500 
   62.3750   -21.8650    60.8330     4.1590     4.3160     5.1070     2.0480 
   62.5000   -21.9370    62.3880     4.1310     4.3570     5.1110     2.0560 
   62.6250   -22.0600    62.8230     4.1550     4.4670     5.2980     2.0710 
   62.7500   -22.1570    61.7490     4.1880     4.5600     5.8960     2.0750 
