~V
VERS. 2.00: Ver 2.00
~W
STRT.M 60.0000:
STOP.M 281.0000:
STEP.M 0.1250:
NULL. -999.2500:
UWI. F11154:
~C
DEPT.M :
DEN.GM/CC :
GR.API :
RML.OHMM :
RI. :
RXO.OHMM :
CALI.CM :
SP.MV :
~A
# ...
  183.7500     2.2330    58.5680   130.0760   119.9040   108.4520    23.5660   -17.5760 
  183.8750     2.2250    55.3910   167.6280   155.6290   139.8880    23.4780   -18.0770 
  184.0000     2.2260    54.2330   201.4270   187.9750   143.0970    23.5990   -18.5530 
  184.1250     2.2350    54.4330   221.8390   207.9250   139.5220    23.7030   -18.9940 
  184.2500     2.2440    54.8660   228.7590   215.3240   142.1310    23.6600   -19.3770 
  184.3750     2.2480    55.2060   226.3080   213.4860   150.5100    23.5420   -19.6590 
  184.5000     2.2490    54.9600   219.0110   206.3530   157.1550    23.4330   -19.8410 
  184.6250     2.2550    53.8440   208.9720   196.1040   157.6770    23.3340   -20.0400 
  184.7500     2.2600    52.7540   197.7810   184.6620   148.9410    23.2900   -20.2830 
  184.8750     2.2570    52.6240   186.2570   173.0240   133.9840    23.2950   -20.5580 
  185.0000     2.2450    53.1110   174.9980   161.9280   120.3160    23.3140   -20.8660 
  185.1250     2.2320    53.7820   164.6740   152.1350   109.3280    23.3360   -21.1220 
  185.2500     2.2240    54.9330   155.8670   144.0440   103.0380    23.3730   -21.3110 
  185.3750     2.2150    55.9540   149.5580   138.3930    99.3550    23.4640   -21.4140 
  185.5000     2.2020    56.9710   146.9390   136.1060    98.3870    23.6530   -21.3910 
  185.6250     2.1820    58.1700   149.7460   138.6520   103.1080    24.0010   -21.2310 
  185.7500     2.1600    58.1630   156.7740   144.9770   114.3500    24.4140   -20.9880 
  185.8750     2.1450    56.2640   165.7650   153.1250   129.5930    24.8170   -20.6810 
  186.0000     2.1430    54.3180   172.9130   159.7410   148.0220    25.1360   -20.3290 
  186.1250     2.1570    55.1360   172.3630   159.6110   165.0370    25.2570   -20.0100 
  186.2500     2.1760    56.7570   162.6220   151.3110   171.6070    25.2260   -19.7370 
  186.3750     2.1930    57.0800   145.3800   136.1100   163.9170    25.1460   -19.4870 
  186.5000     2.2090    56.8420   125.3580   117.9210   138.7450    25.0850   -19.2610 
  186.6250     2.2220    57.9810   108.1750   101.7170   103.6630    25.0090   -19.0390 
  186.7500     2.2290    59.2550    95.8620    89.7480    81.8940    24.9270   -18.7690 
  186.8750     2.2270    59.5650    88.4810    82.3130    75.9370    24.8720   -18.4720 
  187.0000     2.2190    59.2960    85.3050    78.8270    77.1910    24.8560   -18.2050 
  187.1250     2.2090    59.4350    85.7220    78.7420    79.2690    24.8630   -17.9610 
  187.2500     2.2010    59.4480    87.9970    80.4290    78.3970    24.8720   -17.7440 
  187.3750     2.1960    59.1480    90.9180    82.7710    77.4090    24.8770   -17.6230 
  187.5000     2.1900    59.1870    93.0820    84.4860    80.0030    24.8670   -17.6130 
  187.6250     2.1790    60.6480    92.4860    83.7670    82.1300    24.8480   -17.6950 
  187.7500     2.1650    62.4770    88.4690    80.0070    80.3290    24.8370   -17.8600 
  187.8750     2.1490    62.8940    81.0130    73.1820    74.0590    24.8320   -18.0610 
  188.0000     2.1360    61.4230    71.0370    64.0870    65.3750    24.8400   -18.2170 
  188.1250     2.1350    60.5720    60.3580    54.3490    52.4870    24.8180   -18.3160 
  188.2500     2.1450    61.0860    50.9280    45.8570    38.2650    24.7270   -18.3480 
  188.3750     2.1590    62.1630    43.8410    39.5430    26.5550    24.6050   -18.2800 
  188.5000     2.1780    64.1530    39.4250    35.6420    20.6270    24.5610   -18.1620 
  188.6250     2.2110    66.0080    37.5460    34.2420    21.9920    24.6000   -18.0800 
  188.7500     2.2480    66.3870    38.3030    34.4540    26.7590    24.6120   -18.0460 
  188.8750     2.2700    66.1340    40.0980    35.7280    30.9470    24.5910   -18.0630 
  189.0000     2.2740    67.6580    42.3640    37.5740    32.5130    24.5280   -18.1440 
  189.1250     2.2710    71.6160    44.8290    39.6990    33.5920    24.4580   -18.2200 
  189.2500     2.2710    73.1080    47.6090    42.0670    36.6290    24.4580   -18.2570 
  189.3750     2.2700    69.9840    51.2060    45.0030    40.9430    24.5770   -18.2660 
  189.5000     2.2700    64.2820    56.2640    49.0000    46.0670    24.7720   -18.2110 
  189.6250     2.2680    61.0850    63.5730    54.6980    53.7950    24.8570   -18.0800 
  189.7500     2.2650    61.4550    72.6240    61.7130    65.2780    24.8680   -17.8840 
  189.8750     2.2600    63.4800    82.5690    69.3470    78.8670    24.8460   -17.6480 
  190.0000     2.2530    64.7010    92.0810    76.5120    92.1430    24.7940   -17.3630 
  190.1250     2.2480    63.3530    99.1660    81.6140   100.3560    24.7250   -17.0480 
  190.2500     2.2470    61.3240   103.1140    84.1720    99.5990    24.6640   -16.8070 
  190.3750     2.2480    61.6000   103.9930    84.3200    93.1790    24.6260   -16.6210 
  190.5000     2.2470    63.4300   102.6300    82.7770    88.2930    24.6060   -16.4960 
  190.6250     2.2430    63.3750    99.9710    80.4200    89.6950    24.5970   -16.4230 
  190.7500     2.2420    63.5240    96.9670    78.1010    94.6180    24.5740   -16.3620 
  190.8750     2.2450    66.4010    93.9380    76.1770    97.2350    24.5460   -16.2730 
  191.0000     2.2520    70.8100    91.0750    74.8540    96.6440    24.5200   -16.1910 
  191.1250     2.2540    72.7400    89.2330    74.4290    94.7720    24.5060   -16.1330 
  191.2500     2.2500    71.1160    88.2060    74.9080    95.0160    24.4950   -16.0620 
  191.3750     2.2460    66.8980    88.0570    76.2390    97.0720    24.4790   -16.0110 
  191.5000     2.2480    62.2160    88.8930    78.0120    96.1930    24.4450   -15.9830 
  191.6250     2.2670    59.1830    86.4950    79.0270    91.0080    24.3790   -15.9510 
  191.7500     2.2980    57.6420    81.8030    77.8480    86.7790    24.2870   -15.9250 
  191.8750     2.3320    57.2720    74.0070    73.2140    84.6510    24.1610   -15.8950 
  192.0000     2.3590    57.4210    63.1030    64.5920    77.7930    24.0220   -15.7940 
  192.1250     2.3700    58.2090    50.1060    52.4480    62.3680    23.9070   -15.6210 
  192.2500     2.3720    59.9600    37.4400    39.6480    43.0040    23.8030   -15.3120 
  192.3750     2.3730    63.5710    26.7140    28.3800    27.9080    23.6850   -14.8510 
  192.5000     2.3830    68.3530    18.6860    19.8490    17.9710    23.5780   -14.3110 
  192.6250     2.3980    71.5140    13.6280    14.4550    11.9510    23.4550   -13.7550 
  192.7500     2.4060    72.9830    10.4640    11.0200     8.2970    23.3430   -13.2150 
  192.8750     2.3990    72.8440     8.6090     8.9090     6.5880    23.4370   -12.7390 
  193.0000     2.3760    72.0660     7.6480     7.6970     5.9680    23.7770   -12.3820 
  193.1250     2.3540    72.6180     7.4830     7.2830     5.7560    24.0520   -12.2040 
  193.2500     2.3470    75.3770     8.0190     7.5470     5.8300    24.0760   -12.2480 
  193.3750     2.3490    79.8590     9.4170     8.6280     6.8270    24.0220   -12.5250 
  193.5000     2.3570    82.4840    11.8930    10.7570    10.1160    24.1680   -12.9620 
  193.6250     2.3670    78.2870    15.8270    14.4250    16.6450    24.4720   -13.4960 
  193.7500     2.3670    70.1680    20.9820    19.5160    25.4380    24.7130   -14.0610 
  193.8750     2.3490    63.3420    27.1290    25.8470    35.5750    24.8240   -14.6430 
  194.0000     2.3220    60.8620    34.0170    33.0400    43.3590    24.8160   -15.2450 
  194.1250     2.3070    59.6100    41.9180    40.9380    48.3250    24.7380   -15.8380 
  194.2500     2.2940    57.7540    51.5680    49.9510    55.2920    24.6990   -16.4620 
  194.3750     2.2720    57.4460    64.2480    61.2220    69.8190    24.7490   -17.0860 
  194.5000     2.2440    59.1080    80.9690    75.7410    90.4270    24.8240   -17.6980 
  194.6250     2.2230    59.5800   101.5740    93.4090   119.0180    24.8530   -18.2900 
  194.7500     2.2140    57.0090   122.0040   110.6640   154.2370    24.8270   -18.8640 
  194.8750     2.2160    53.2300   137.4290   123.1780   183.3240    24.7490   -19.3780 
