~V
VERS. 2.00: Ver 2.00
~W
STRT.M 45.0000:
STOP.M 250.0000:
STEP.M 0.1250:
NULL. -999.2500:
UWI. F11133:
~C
DEPT.M :
SP.MV :
DEN.GM/CC :
GR.API :
RML.OHMM :
RI. :
RXO.OHMM :
CALI.CM :
~A
# ...
   78.7500   -32.8760     2.1990    85.1590     7.3520     5.7500     8.3170    24.3150 
   78.8750   -32.8600     2.1920    81.2540     7.2950     5.7140     8.6380    24.2690 
   79.0000   -33.0140     2.1840    77.5350     7.6960     5.9430     9.4070    24.1640 
   79.1250   -33.3050     2.1760    74.6760     8.4330     6.4080    10.5780    24.0630 
   79.2500   -33.6560     2.1710    70.7540     9.3180     7.0280    11.7330    24.0160 
   79.3750   -33.9890     2.1750    64.6470    10.1510     7.6740    12.5250    24.0030 
   79.5000   -34.2380     2.1880    60.0630    10.7780     8.2000    12.8820    23.9890 
   79.6250   -34.3300     2.2010    59.4810    11.0910     8.4820    12.8840    23.9810 
   79.7500   -34.1900     2.2040    60.3020    11.0060     8.4340    12.5230    24.0180 
   79.8750   -33.7780     2.2000    60.4410    10.5360     8.0750    11.8100    24.1120 
   80.0000   -33.1390     2.2030    62.4520     9.8200     7.5360    11.0380    24.2220 
   80.1250   -32.3440     2.2220    69.4770     8.9860     6.9190     9.9170    24.3290 
   80.2500   -31.4890     2.2510    80.9880     8.1690     6.3120     8.5930    24.4250 
   80.3750   -30.6660     2.2780    91.9770     7.4450     5.7630     7.6110    24.4900 
   80.5000   -29.9420     2.2950    96.6230     6.8070     5.2770     7.1080    24.5160 
   80.6250   -29.3690     2.3040    94.0260     6.2380     4.8530     6.8620    24.5210 
   80.7500   -29.0110     2.3060    89.1940     5.7750     4.5200     6.7980    24.5220 
   80.8750   -28.9090     2.3050    88.2300     5.5250     4.3350     6.8340    24.5190 
   81.0000   -29.0220     2.3020    91.0580     5.6340     4.3690     6.7660    24.4990 
   81.1250   -29.3290     2.3010    92.6330     6.2850     4.7170     6.9800    24.4310 
   81.2500   -29.8370     2.3090    88.1110     7.6620     5.5080     8.2060    24.3070 
   81.3750   -30.5170     2.3340    78.2530     9.7510     6.8000    10.5510    24.1930 
   81.5000   -31.2910     2.3730    68.7510    12.1370     8.4240    13.6200    24.1740 
   81.6250   -32.1090     2.4090    62.8670    14.1630    10.0110    17.6450    24.2290 
   81.7500   -32.9130     2.4090    60.1760    14.9750    10.9430    21.1560    24.2790 
   81.8750   -33.6570     2.3540    58.2250    14.2640    10.8440    20.1450    24.2960 
   82.0000   -34.3270     2.2750    55.3500    12.7190    10.0270    15.5880    24.3010 
   82.1250   -34.8840     2.2130    51.9760    11.1460     8.9850    12.2080    24.3150 
   82.2500   -35.2860     2.1830    50.1950    10.1080     8.1220    10.9770    24.3530 
   82.3750   -35.5280     2.1710    51.6690     9.7420     7.6040    10.6250    24.4000 
   82.5000   -35.6350     2.1600    54.6760     9.8450     7.3950    10.4130    24.4100 
   82.6250   -35.6160     2.1550    55.9280    10.2140     7.4180    10.4440    24.3510 
   82.7500   -35.4730     2.1600    54.8920    10.6760     7.5910    10.6410    24.2140 
   82.8750   -35.2190     2.1700    54.5420    11.1520     7.8540    10.8170    24.0480 
   83.0000   -34.8790     2.1770    56.6790    11.6340     8.1680    11.1200    23.9260 
   83.1250   -34.4890     2.1800    59.4150    12.0740     8.4830    11.5840    23.8440 
   83.2500   -34.0780     2.1840    61.0020    12.2720     8.6720    12.0060    23.7040 
   83.3750   -33.6460     2.1910    61.5380    11.9630     8.5700    12.3970    23.4670 
   83.5000   -33.1920     2.2000    61.5890    11.0750     8.1170    12.6600    23.3040 
   83.6250   -32.7170     2.2130    62.5320     9.7860     7.4010    12.3610    23.4040 
   83.7500   -32.2530     2.2290    66.0730     8.5260     6.6430    11.2270    23.7150 
   83.8750   -31.8540     2.2460    70.6520     7.7400     6.0880     9.6700    24.0330 
   84.0000   -31.5800     2.2550    72.3970     7.6390     5.8790     8.7730    24.1350 
   84.1250   -31.4580     2.2500    70.0550     8.2530     6.0790     9.3080    23.9760 
   84.2500   -31.4390     2.2380    66.2280     9.4540     6.6910    10.6800    23.7370 
   84.3750   -31.4500     2.2360    63.7580    10.8700     7.5720    11.9040    23.6040 
   84.5000   -31.4480     2.2490    62.2540    11.9070     8.3820    13.0610    23.5840 
   84.6250   -31.4190     2.2690    60.7070    12.0850     8.7750    14.0470    23.6010 
   84.7500   -31.3540     2.2780    60.6690    11.3060     8.5630    13.6820    23.6070 
   84.8750   -31.2440     2.2700    64.5350    10.0630     7.9360    11.8260    23.6330 
   85.0000   -31.0710     2.2570    70.8190     9.0610     7.3030    10.3930    23.6890 
   85.1250   -30.8180     2.2480    74.8750     8.6180     6.8960     9.8350    23.7210 
   85.2500   -30.5240     2.2450    74.3400     8.7650     6.8070    10.3360    23.6870 
   85.3750   -30.2560     2.2450    71.9080     9.2880     6.9840    11.3750    23.6280 
   85.5000   -30.0470     2.2480    71.3280     9.8300     7.2570    12.1780    23.6100 
   85.6250   -29.8930     2.2530    72.5250    10.1380     7.4780    12.3900    23.6380 
   85.7500   -29.7740     2.2560    73.7200    10.1010     7.5490    12.1460    23.6830 
   85.8750   -29.6740     2.2590    74.6250     9.8010     7.4690    12.1190    23.7320 
   86.0000   -29.5970     2.2620    75.3200     9.4490     7.3270    12.1790    23.7730 
   86.1250   -29.5540     2.2640    75.4240     9.1980     7.1990    11.6220    23.8110 
   86.2500   -29.5560     2.2630    74.6890     9.1690     7.1560    10.7870    23.8400 
   86.3750   -29.6090     2.2590    73.4680     9.3790     7.2210    10.2210    23.8520 
   86.5000   -29.6980     2.2550    72.9260     9.6870     7.3380    10.2490    23.8550 
   86.6250   -29.8370     2.2500    73.0670     9.8880     7.4060    10.5900    23.8540 
   86.7500   -30.0450     2.2530    72.5090     9.7600     7.3050    11.1420    23.8540 
   86.8750   -30.3170     2.2680    71.6110     9.2460     7.0020    11.4370    23.8540 
   87.0000   -30.6250     2.2930    73.1240     8.5960     6.6230    10.8700    23.8570 
   87.1250   -30.9560     2.3160    77.4770     8.1430     6.3350     9.8020    23.8630 
   87.2500   -31.3170     2.3200    80.9150     8.1910     6.3000     9.1500    23.8790 
   87.3750   -31.7230     2.3100    79.7910     8.8190     6.5810     9.5590    23.9010 
   87.5000   -32.2040     2.2990    74.5150     9.8110     7.1030    10.9240    23.8980 
   87.6250   -32.7800     2.2910    68.3320    10.8950     7.7540    12.1500    23.8400 
   87.7500   -33.4320     2.2850    65.5200    11.8010     8.4000    12.2200    23.7460 
   87.8750   -34.1070     2.2860    66.3780    12.4520     8.9620    11.8580    23.6890 
   88.0000   -34.7590     2.3100    66.1620    13.0060     9.4550    12.7150    23.7140 
   88.1250   -35.3520     2.3610    62.6800    13.5920     9.9150    17.3870    23.7860 
   88.2500   -35.8550     2.4280    58.8050    14.1450    10.3050    27.2910    23.8230 
   88.3750   -36.2600     2.4740    58.0890    14.4210    10.5110    34.7560    23.8000 
   88.5000   -36.5840     2.4580    59.8710    14.2200    10.4280    29.4470    23.7840 
   88.6250   -36.8250     2.3740    61.8070    13.5550    10.0440    18.2650    23.7960 
   88.7500   -36.9950     2.2710    63.2890    12.6660     9.4700    11.6470    23.8110 
   88.8750   -37.1340     2.2010    64.3670    11.8710     8.8870     9.7410    23.8070 
   89.0000   -37.2800     2.1710    63.2870    11.3430     8.4290     9.3100    23.7890 
   89.1250   -37.4450     2.1630    59.9070    11.0760     8.1250     9.1270    23.7680 
   89.2500   -37.6140     2.1600    57.0530    10.9580     7.9420     8.8880    23.7420 
   89.3750   -37.7650     2.1580    57.2750    10.8390     7.8100     8.6810    23.7170 
   89.5000   -37.8830     2.1570    59.7310    10.6300     7.6770     8.4730    23.7090 
   89.6250   -37.9650     2.1540    62.4630    10.3490     7.5400     8.1960    23.7170 
   89.7500   -38.0070     2.1470    63.4580    10.1090     7.4420     7.9460    23.7550 
   89.8750   -38.0030     2.1360    61.6780    10.0410     7.4340     7.9010    23.8230 
