~V
VERS. 2.00: Ver 2.00
~W
STRT.M 20.0000:
STOP.M 279.0000:
STEP.M 0.1250:
NULL. -999.2500:
UWI. F11153:
~C
DEPT.M :
DEN.GM/CC :
GR.API :
RML.OHMM :
RI. :
RXO.OHMM :
CALI.CM :
SP.MV :
~A
# ...
  233.7500     2.2650    63.8880    46.5300    36.8960    31.3470    24.9540   -32.5220 
  233.8750     2.2700    62.2910    46.8220    37.4040    31.6190    25.0100   -32.5760 
  234.0000     2.2740    64.6310    46.9300    37.7710    32.8440    25.2970   -32.6430 
  234.1250     2.2650    66.8220    46.5640    37.7820    33.0030    25.7590   -32.7500 
  234.2500     2.2500    67.8370    45.5730    37.3120    32.0410    25.9830   -32.9030 
  234.3750     2.2350    70.2720    43.9630    36.3240    31.4800    26.0380   -33.0840 
  234.5000     2.2230    73.3610    42.0100    34.9610    30.8860    26.0400   -33.2620 
  234.6250     2.2110    73.3060    40.2530    33.5760    29.0700    26.0380   -33.4280 
  234.7500     2.2010    71.8240    39.0890    32.5230    27.4580    26.0270   -33.5690 
  234.8750     2.1990    70.1580    38.6660    31.9680    26.8680    25.9890   -33.6730 
  235.0000     2.2080    68.8460    38.9280    31.9410    27.9050    25.9040   -33.7470 
  235.1250     2.2220    69.4940    39.6960    32.4050    29.4630    25.6830   -33.7950 
  235.2500     2.2340    70.7530    40.5710    33.0730    30.5280    25.4030   -33.8490 
  235.3750     2.2410    69.7010    41.3580    33.7570    30.3740    25.2220   -33.8850 
  235.5000     2.2440    67.4460    42.1060    34.4080    29.7620    25.2060   -33.8720 
  235.6250     2.2450    68.1880    43.2270    35.2360    29.5890    25.2570   -33.7940 
  235.7500     2.2500    72.2450    45.1570    36.5720    29.5250    25.3270   -33.6570 
  235.8750     2.2570    74.5390    48.2180    38.7490    30.5870    25.4870   -33.5020 
  236.0000     2.2640    71.1210    52.4190    41.9400    34.4660    25.7300   -33.3510 
  236.1250     2.2740    65.6910    57.0480    45.8460    41.3270    25.9410   -33.1650 
  236.2500     2.2860    63.5700    60.2690    49.1020    46.5780    25.8190   -32.9220 
  236.3750     2.3020    64.8010    60.2260    50.1760    48.4490    25.3080   -32.6650 
  236.5000     2.3260    65.8360    56.1340    48.0850    46.1210    24.7130   -32.4500 
  236.6250     2.3530    64.7000    49.0610    43.0520    39.0160    24.3420   -32.3010 
  236.7500     2.3580    62.4000    42.0480    37.4220    30.9850    24.2920   -32.2140 
  236.8750     2.3240    59.3240    36.6470    32.6750    25.8680    24.5440   -32.1630 
  237.0000     2.2730    57.5480    33.3390    29.4710    23.7680    25.1940   -32.1300 
  237.1250     2.2390    58.0290    32.1890    28.0510    23.7290    25.7110   -32.1240 
  237.2500     2.2250    57.6620    32.3880    27.8620    24.4040    25.9760   -32.1250 
  237.3750     2.2210    56.7670    33.4610    28.5740    24.8510    25.9600   -32.1400 
  237.5000     2.2210    56.9920    34.9610    29.8090    23.9570    25.6670   -32.1820 
  237.6250     2.2300    58.3510    36.5000    31.1760    22.1430    25.1730   -32.2570 
  237.7500     2.2510    59.8570    37.8570    32.3960    22.7370    24.8940   -32.3660 
  237.8750     2.2880    60.3190    38.9570    33.3900    25.7620    24.7810   -32.4890 
  238.0000     2.3310    61.4110    39.7600    34.1470    28.6840    24.7630   -32.6000 
  238.1250     2.3590    66.1330    40.2230    34.6410    29.2320    24.8600   -32.7100 
  238.2500     2.3580    71.6190    40.4050    34.9020    30.3410    24.9490   -32.8330 
  238.3750     2.3360    75.3710    40.2580    34.8730    31.0680    24.9900   -32.9560 
  238.5000     2.3070    76.8510    39.7230    34.4960    30.4850    25.0280   -33.0850 
  238.6250     2.2830    73.0480    38.7860    33.7530    29.5990    25.1570   -33.2080 
  238.7500     2.2650    65.0510    37.7140    32.8550    29.9140    25.3810   -33.3370 
  238.8750     2.2490    59.0470    36.8010    32.0200    29.3130    25.5800   -33.4890 
  239.0000     2.2320    60.0460    36.3430    31.4840    27.8640    25.6290   -33.6560 
  239.1250     2.2170    64.4960    36.6040    31.4970    27.3840    25.5130   -33.8030 
  239.2500     2.2050    66.4200    37.3550    31.9480    29.4500    25.3160   -33.9170 
  239.3750     2.1960    66.0800    38.2510    32.6080    31.9240    25.1820   -34.0120 
  239.5000     2.1880    64.9720    38.8590    33.1480    31.9260    25.2460   -34.0920 
  239.6250     2.1870    64.9210    38.6530    33.1300    31.0920    25.3070   -34.1570 
  239.7500     2.1950    67.1290    37.6050    32.4400    29.5550    25.2700   -34.1910 
  239.8750     2.2130    68.0750    35.8770    31.1350    27.3990    25.1400   -34.1940 
  240.0000     2.2350    65.6200    33.8370    29.4800    25.0860    25.0690   -34.1810 
  240.1250     2.2480    61.6360    31.9880    27.8980    23.5840    25.1050   -34.1600 
  240.2500     2.2420    59.8200    30.6630    26.7130    22.6990    25.0830   -34.1490 
  240.3750     2.2190    60.7490    30.0200    26.0820    22.0440    24.8710   -34.1230 
  240.5000     2.1860    61.8550    30.0760    26.0440    21.0220    24.5260   -34.0680 
  240.6250     2.1480    60.4000    30.7890    26.6140    21.0300    24.3460   -33.9600 
  240.7500     2.1050    57.4580    31.7770    27.5290    21.6020    24.3960   -33.8040 
  240.8750     2.0530    56.0700    32.6220    28.4910    23.1120    24.7380   -33.6200 
  241.0000     1.9950    57.7170    32.7570    29.0060    24.9380    25.2680   -33.4360 
  241.1250     1.9600    59.3420    31.4300    28.3020    25.5270    25.4620   -33.2660 
  241.2500     1.9810    58.0270    28.8880    26.4110    26.5470    25.1840   -33.0710 
  241.3750     2.0740    57.7040    25.7550    23.7920    25.3420    24.6630   -32.8360 
  241.5000     2.2290    62.9710    22.8040    21.1180    17.9560    24.3770   -32.5420 
  241.6250     2.3860    70.6100    20.7260    19.0480    12.7480    24.3690   -32.1840 
  241.7500     2.4510    73.3270    19.5190    17.7050    12.2130    24.6670   -31.7770 
  241.8750     2.4040    70.4660    19.0420    17.0400    14.8760    25.0710   -31.3020 
  242.0000     2.3150    66.5740    19.0980    16.9400    17.6880    25.3040   -30.7200 
  242.1250     2.2520    64.8650    19.5390    17.3250    18.5470    25.3200   -29.9640 
  242.2500     2.2280    65.1510    20.1300    17.9460    18.4770    25.3120   -29.0610 
  242.3750     2.2270    66.8660    20.7420    18.6350    19.0350    25.2770   -28.0080 
  242.5000     2.2200    65.9910    21.2650    19.2500    20.1960    25.2330   -26.7920 
  242.6250     2.2140    61.7660    21.5240    19.6140    20.6900    25.0840   -25.3990 
  242.7500     2.2380    59.4850    21.4010    19.6280    19.6580    24.7900   -23.8890 
  242.8750     2.2550    60.1300    20.8550    19.2400    17.7130    24.5640   -22.3010 
  243.0000     2.3420    61.7130    20.0020    18.5200    15.9840    24.7050   -20.6800 
  243.1250     2.3600    64.4340    19.0800    17.6340    14.7750    24.9940   -19.1180 
  243.2500     2.3630    66.9770    18.3280    16.8030    14.2140    25.1540   -18.2210 
  243.3750     2.3600    66.1610    17.8490    16.1570    13.7610    25.2930   -16.1780 
  243.5000     2.3430    62.1790    17.6450    15.7570    13.6240    25.4390   -15.2280 
  243.6250     2.3160    60.4880    17.6840    15.6330    13.8540    25.5730   -14.5190 
  243.7500     2.2970    60.7040    17.8660    15.6960    14.6220    25.7180   -14.0210 
  243.8750     2.2860    60.7470    18.1540    15.8940    15.6140    25.8370   -13.7210 
  244.0000     2.2790    61.3370    18.5130    16.1730    15.9780    25.8920   -13.6100 
  244.1250     2.2730    62.2040    18.8400    16.4330    15.6400    25.8760   -13.6010 
  244.2500     2.2670    61.3270    19.1980    16.7210    15.0830    25.8180   -13.6460 
  244.3750     2.2620    58.5700    19.7250    17.1540    15.1400    25.6970   -13.6940 
  244.5000     2.2580    56.1500    20.3930    17.7060    15.9480    25.5490   -13.7400 
  244.6250     2.2580    56.2190    21.2930    18.4210    17.0770    25.3820   -13.7840 
  244.7500     2.2610    59.1860    22.5070    19.3390    17.6830    25.2100   -13.8270 
  244.8750     2.2640    62.1050    24.1290    20.5320    18.0720    25.0720   -13.8610 
