~V
VERS. 2.00: Ver 2.00
~W
STRT.M 50.0000:
STOP.M 253.0000:
STEP.M 0.1250:
NULL. -999.2500:
UWI. F11132:
~C
DEPT.M :
DEN.GM/CC :
GR.API :
RML.OHMM :
RI. :
RXO.OHMM :
CALI.CM :
SP.MV :
~A
# ...
  218.7500     2.1970    44.7560    35.8590    34.2750    31.4520    24.8490   -28.3920 
  218.8750     2.2000    44.4190    35.5200    34.2130    31.8150    24.9550   -28.3040 
  219.0000     2.2070    43.5430    34.8980    33.8620    32.6870    25.3320   -28.2090 
  219.1250     2.2130    43.0460    33.8600    33.0450    34.2590    25.7130   -28.1550 
  219.2500     2.2140    42.8860    32.5090    31.8560    35.9420    25.9180   -28.1640 
  219.3750     2.2130    41.6220    31.0400    30.5040    34.8240    25.9800   -28.1920 
  219.5000     2.2220    40.7080    29.7390    29.2890    29.6710    25.9800   -28.1800 
  219.6250     2.2520    42.7920    28.9700    28.5800    25.9720    25.9030   -28.1600 
  219.7500     2.3130    45.8620    28.7870    28.4410    30.4990    25.6240   -28.1770 
  219.8750     2.4100    47.5880    29.1690    28.8570    39.7900    25.2840   -28.1940 
  220.0000     2.5170    48.2440    30.0870    29.7710    43.8550    25.0790   -28.2420 
  220.1250     2.5940    49.4320    31.7570    31.3190    37.5190    25.0610   -28.3150 
  220.2500     2.6020    50.7280    34.1770    33.5270    32.9920    25.1100   -28.3490 
  220.3750     2.5340    50.8800    36.9280    36.1230    35.3870    25.1430   -28.3320 
  220.5000     2.4640    49.3110    38.6080    37.8510    45.0550    25.1050   -28.3030 
  220.6250     2.4460    47.0980    36.2250    35.6610    52.8150    25.0350   -28.2690 
  220.7500     2.4900    46.2660    29.6520    29.2930    51.6260    25.0010   -28.2000 
  220.8750     2.5570    45.5520    21.2060    21.1490    36.1040    25.0090   -28.1220 
  221.0000     2.5850    42.6620    13.8260    14.0800    15.4560    25.0260   -28.0600 
  221.1250     2.5590    39.6870     9.2530     9.5850     7.5490    25.0210   -28.0240 
  221.2500     2.5000    41.3420     6.7560     6.9520     4.8870    24.9690   -28.0510 
  221.3750     2.4370    48.0660     5.6940     5.6340     4.6670    24.8220   -28.1890 
  221.5000     2.3940    57.9030     5.5690     5.2290     5.3010    24.5140   -28.4450 
  221.6250     2.3810    66.2760     6.0900     5.5480     6.3060    24.1290   -28.7810 
  221.7500     2.4000    69.6280     6.8630     6.2510     6.8720    23.9050   -29.1140 
  221.8750     2.4460    68.1600     7.6550     7.1210     7.4670    24.0730   -29.4650 
  222.0000     2.4880    66.0230     8.2840     7.9510     8.0180    24.5220   -29.8070 
  222.1250     2.5110    66.1020     8.6220     8.5480     8.6130    24.8860   -30.0850 
  222.2500     2.5200    66.5290     8.7310     8.8910     8.8320    25.0320   -30.3360 
  222.3750     2.5200    68.0710     8.6860     9.0090     8.7550    25.0900   -30.5590 
  222.5000     2.5090    70.6940     8.5680     8.9550     8.5270    25.1390   -30.7050 
  222.6250     2.4880    71.8440     8.4460     8.7780     8.4030    25.1880   -30.8020 
  222.7500     2.4630    72.6280     8.3570     8.5500     8.4730    25.1970   -30.9560 
  222.8750     2.4370    75.2280     8.2910     8.2980     8.6600    25.1710   -31.1060 
  223.0000     2.4180    78.4860     8.2140     8.0350     8.6440    25.1300   -31.2190 
  223.1250     2.4100    80.4020     8.0960     7.7670     8.4550    25.1250   -31.3630 
  223.2500     2.4080    82.6920     7.9480     7.5080     8.0890    25.1440   -31.5150 
  223.3750     2.4020    84.3240     7.7980     7.2760     7.7810    25.1630   -31.6410 
  223.5000     2.3900    83.2450     7.6740     7.0890     7.7390    25.1580   -31.7690 
  223.6250     2.3810    82.0520     7.6150     6.9760     7.9990    25.1020   -31.9310 
  223.7500     2.3820    84.5740     7.6750     6.9730     8.4350    25.0230   -32.0840 
  223.8750     2.3870    87.3940     7.9830     7.1760     8.9140    24.9390   -32.2090 
  224.0000     2.3880    87.5150     8.6770     7.6990     9.5790    24.8890   -32.3010 
  224.1250     2.3820    86.1980     9.8330     8.6460    11.7190    24.8570   -32.3350 
  224.2500     2.3770    85.1750    11.1460     9.8060    16.7790    24.8140   -32.2740 
  224.3750     2.3820    83.3770    12.1870    10.8320    24.8070    24.7720   -32.1030 
  224.5000     2.3970    80.5840    12.5060    11.2970    25.3410    24.7630   -31.8560 
  224.6250     2.4180    81.5430    11.8520    10.8950    15.2760    24.7740   -31.5130 
  224.7500     2.4400    86.5290    10.8120    10.0690     9.9540    24.7530   -31.0810 
  224.8750     2.4580    91.0860     9.8960     9.2440     9.0230    24.6570   -30.6270 
  225.0000     2.4670    92.5480     9.3760     8.6770     9.6560    24.5610   -30.1970 
  225.1250     2.4700    93.8480     9.2980     8.4600     9.5390    24.5230   -29.7300 
  225.2500     2.4730    95.7850     9.3910     8.4240     8.8340    24.4700   -29.2790 
  225.3750     2.4750    95.5050     9.4150     8.3920     8.0570    24.3470   -28.9140 
  225.5000     2.4650    93.3400     9.2130     8.2230     7.8290    24.1920   -28.5860 
  225.6250     2.4400    91.9270     8.7600     7.8630     8.0330    24.0910   -28.2520 
  225.7500     2.4080    89.6570     8.2040     7.4090     7.7580    24.1130   -27.9730 
  225.8750     2.3800    85.8250     7.6480     6.9410     7.0420    24.3200   -27.7260 
  226.0000     2.3620    84.1560     7.1970     6.5440     6.4990    24.6690   -27.4700 
  226.1250     2.3510    84.7850     7.0060     6.3420     6.1600    24.9940   -27.3030 
  226.2500     2.3470    80.5780     7.1440     6.3990     6.5830    25.1170   -27.1900 
  226.3750     2.3490    70.2370     7.6700     6.7750     8.3140    25.0330   -27.0630 
  226.5000     2.3500    59.1510     8.5570     7.4740    10.6970    24.8140   -26.9160 
  226.6250     2.3520    51.6080     9.6480     8.4070    11.8090    24.5920   -26.7390 
  226.7500     2.3650    46.4990    10.6140     9.2970    12.7330    24.4280   -26.4770 
  226.8750     2.4010    44.1080    11.1890     9.8940    12.9320    24.4410   -26.1040 
  227.0000     2.4440    44.2720    11.2430    10.0390    12.0320    24.6610   -25.6770 
  227.1250     2.4770    45.5370    10.8110     9.7110    10.9820    24.8980   -25.1650 
  227.2500     2.4890    47.7180    10.2260     9.1850    10.3100    25.0010   -24.6090 
  227.3750     2.4780    51.1890     9.6870     8.6400     9.3870    24.9940   -24.0490 
  227.5000     2.4650    53.2190     9.3060     8.1980     7.8720    24.9060   -23.5230 
  227.6250     2.4610    52.3340     9.1930     7.9730     6.3890    24.7980   -23.0880 
  227.7500     2.4710    51.3900     9.3350     7.9730     6.4550    24.7970   -22.7450 
  227.8750     2.4920    50.9790     9.6950     8.1770     7.6170    24.8900   -22.4980 
  228.0000     2.5130    49.8270    10.1770     8.5180     8.9170    24.9450   -22.3330 
  228.1250     2.5250    48.5810    10.6040     8.8700     9.5690    24.9430   -22.1890 
  228.2500     2.5300    48.9060    10.8240     9.0990    10.1850    24.9210   -22.0550 
  228.3750     2.5290    49.2590    10.7850     9.1430    12.4950    24.9130   -21.9440 
  228.5000     2.5260    48.8010    10.5560     9.0220    16.9200    24.8930   -21.8870 
  228.6250     2.5200    48.4250    10.2540     8.7980    19.7610    24.9120   -21.8260 
  228.7500     2.5100    49.5840     9.9520     8.5370    17.7650    25.0220   -21.7440 
  228.8750     2.5000    51.6240     9.6200     8.2320    16.6090    25.1360   -21.6930 
  229.0000     2.4900    52.7090     9.1970     7.8580    15.2010    25.1320   -21.6370 
  229.1250     2.4770    52.3770     8.6480     7.3930    11.0420    25.0250   -21.5880 
  229.2500     2.4630    51.9440     8.0620     6.8960     7.3310    24.9070   -21.5700 
  229.3750     2.4490    52.7500     7.5450     6.4430     5.6710    24.7590   -21.5840 
  229.5000     2.4350    54.4200     7.1850     6.1050     5.6870    24.5890   -21.6000 
  229.6250     2.4250    55.0820     7.0540     5.9510     6.4800    24.5850   -21.6260 
  229.7500     2.4190    54.1440     7.0930     5.9520     8.0040    24.7940   -21.6670 
  229.8750     2.4110    51.7920     7.2520     6.0730    10.2250    24.9470   -21.7090 
