~V
VERS. 2.00: Ver 2.00
~W
STRT.M 45.0000:
STOP.M 250.0000:
STEP.M 0.1250:
NULL. -999.2500:
UWI. F11133:
~C
DEPT.M :
SP.MV :
DEN.GM/CC :
GR.API :
RML.OHMM :
RI. :
RXO.OHMM :
CALI.CM :
~A
# ...
  225.0000   -31.8310     2.3720    90.1800     8.5300     7.7880     9.0960    24.5020 
  225.1250   -31.8460     2.3760    88.1290     8.6620     7.9260     9.5900    24.5650 
  225.2500   -31.8520     2.3830    85.8930     8.9690     8.1880    10.0700    24.5920 
  225.3750   -31.8710     2.3970    85.5940     9.3830     8.5180    10.7630    24.5960 
  225.5000   -31.9090     2.4110    86.6090     9.7620     8.8100    11.7770    24.5960 
  225.6250   -31.9740     2.4160    85.9270     9.9930     8.9770    12.7660    24.5960 
  225.7500   -32.0710     2.4050    83.4180    10.0180     8.9760    12.6070    24.5910 
  225.8750   -32.1890     2.3890    82.5390     9.8950     8.8440    11.1790    24.5690 
  226.0000   -32.3060     2.3780    85.0920     9.7360     8.6610    10.1960    24.5250 
  226.1250   -32.4220     2.3740    88.3510     9.5830     8.4740    10.0170    24.4580 
  226.2500   -32.5430     2.3760    89.0040     9.4600     8.3200    10.5440    24.3840 
  226.3750   -32.6620     2.3800    87.7820     9.4590     8.2710    11.2190    24.3080 
  226.5000   -32.7700     2.3850    86.6860     9.8010     8.4720    11.6590    24.2070 
  226.6250   -32.8530     2.3850    85.2950    10.8460     9.1630    12.4450    24.0910 
  226.7500   -32.8830     2.3750    82.2090    13.2200    10.7990    14.5380    24.0410 
  226.8750   -32.8570     2.3520    76.4390    17.6520    14.0220    21.3260    24.1070 
  227.0000   -32.7780     2.3290    68.4790    23.1030    19.4910    39.9190    24.1880 
  227.1250   -32.6270     2.3140    59.5290    29.8660    27.8520    73.2170    24.2110 
  227.2500   -32.3810     2.3000    53.1330    40.5470    38.7350   104.4210    24.2010 
  227.3750   -32.0210     2.2900    51.3460    51.3620    49.1540   111.7240    24.2080 
  227.5000   -31.5520     2.2950    52.2260    56.9270    54.5150    97.3920    24.2210 
  227.6250   -30.9820     2.3110    54.5830    55.3880    53.0320    78.1470    24.2250 
  227.7500   -30.3290     2.3180    57.8880    49.2590    47.1290    59.5550    24.2180 
  227.8750   -29.6020     2.3110    59.6340    42.5140    40.6300    43.7900    24.2080 
  228.0000   -28.8270     2.3140    57.5220    37.1970    35.5080    32.9320    24.2040 
  228.1250   -28.0360     2.3470    53.3550    33.3960    31.8460    26.9020    24.1830 
  228.2500   -27.2400     2.4000    51.0300    30.6180    29.1690    25.3860    24.1280 
  228.3750   -26.4510     2.4440    51.7770    28.0730    26.7180    25.9870    24.0870 
  228.5000   -25.6750     2.4570    54.4970    25.0110    23.7680    24.3170    24.0850 
  228.6250   -24.9330     2.4420    58.5730    21.2250    20.1210    20.5820    24.0770 
  228.7500   -24.2480     2.4160    62.4120    17.1020    16.1480    17.4680    24.0340 
  228.8750   -23.6250     2.3870    63.9880    13.3450    12.5290    14.0330    23.9720 
  229.0000   -23.0580     2.3540    62.7840    10.4350     9.7250     9.5360    23.9440 
  229.1250   -22.5500     2.3280    59.3370     8.4600     7.8220     6.9430    23.9820 
  229.2500   -22.1250     2.3180    54.7420     7.3250     6.7290     6.0290    24.0580 
  229.3750   -21.7950     2.3210    50.8760     6.8360     6.2590     5.8230    24.1180 
  229.5000   -21.5520     2.3240    49.4890     6.7380     6.1630     5.7770    24.1500 
  229.6250   -21.3740     2.3270    50.7080     6.8590     6.2800     5.9050    24.1590 
  229.7500   -21.2380     2.3300    53.9960     7.0350     6.4500     6.1210    24.1600 
  229.8750   -21.1440     2.3360    58.1700     7.1510     6.5620     6.2850    24.1600 
  230.0000   -21.0910     2.3440    60.7410     7.1770     6.5860     6.2890    24.1580 
  230.1250   -21.0570     2.3510    60.9960     7.1290     6.5400     6.2420    24.1510 
  230.2500   -21.0240     2.3550    60.5420     7.0360     6.4510     6.2980    24.1330 
  230.3750   -20.9900     2.3580    59.5150     6.9220     6.3420     6.4600    24.1160 
  230.5000   -20.9580     2.3600    56.4410     6.8000     6.2230     6.4600    24.1230 
  230.6250   -20.9210     2.3550    53.1500     6.6690     6.0970     6.1750    24.1500 
  230.7500   -20.8850     2.3410    52.7640     6.5390     5.9710     5.8860    24.1690 
  230.8750   -20.8510     2.3280    54.2020     6.4290     5.8660     5.7200    24.1710 
  231.0000   -20.8110     2.3250    55.0580     6.3570     5.7970     5.6750    24.1650 
  231.1250   -20.7670     2.3320    55.8010     6.3320     5.7720     5.7110    24.1590 
  231.2500   -20.7230     2.3390    56.2860     6.3430     5.7830     5.7540    24.1500 
  231.3750   -20.6700     2.3450    56.2820     6.3610     5.8010     5.7790    24.1300 
  231.5000   -20.6000     2.3490    57.0820     6.3570     5.7970     5.8120    24.1060 
  231.6250   -20.5230     2.3560    59.0360     6.3230     5.7630     5.8720    24.0890 
  231.7500   -20.4470     2.3630    60.3610     6.2720     5.7140     5.9210    24.0810 
  231.8750   -20.3770     2.3680    59.2990     6.2340     5.6780     5.9160    24.0730 
  232.0000   -20.3220     2.3710    56.8800     6.2380     5.6820     5.8650    24.0740 
  232.1250   -20.2810     2.3730    55.0050     6.2910     5.7330     5.9130    24.0940 
  232.2500   -20.2410     2.3730    54.7930     6.3780     5.8170     6.1800    24.1240 
  232.3750   -20.2050     2.3610    55.7680     6.4630     5.8990     6.4950    24.1460 
  232.5000   -20.1860     2.3390    56.1810     6.5130     5.9460     6.5450    24.1500 
  232.6250   -20.1790     2.3120    55.8420     6.5200     5.9540     6.3270    24.1380 
  232.7500   -20.1780     2.2970    55.6540     6.5060     5.9400     6.1630    24.0960 
  232.8750   -20.1700     2.3070    56.0320     6.5050     5.9390     6.1480    24.0310 
  233.0000   -20.1460     2.3320    56.8910     6.5470     5.9790     6.1890    23.9820 
  233.1250   -20.1100     2.3540    57.8220     6.6380     6.0670     6.6400    23.9730 
  233.2500   -20.0650     2.3670    58.5180     6.7700     6.1950     7.7290    23.9750 
  233.3750   -20.0060     2.3760    58.7070     6.9210     6.3400     8.6420    23.9450 
  233.5000   -19.9350     2.3890    58.0310     7.0630     6.4770     8.4830    23.9000 
  233.6250   -19.8360     2.4030    56.0680     7.1800     6.5900     7.8940    23.8720 
  233.7500   -19.7010     2.4090    53.3750     7.2590     6.6660     7.4980    23.8640 
  233.8750   -19.5410     2.4060    52.1230     7.3070     6.7120     7.2950    23.8650 
  234.0000   -19.3590     2.4000    53.6260     7.3440     6.7470     7.7220    23.8660 
  234.1250   -19.1480     2.3980    56.4620     7.3900     6.7920     8.1150    23.8630 
  234.2500   -18.9200     2.4030    58.6140     7.4710     6.8700     7.9470    23.8570 
  234.3750   -18.6890     2.4130    59.5290     7.5940     6.9880     7.6200    23.8620 
  234.5000   -18.4630     2.4240    59.4480     7.7470     7.1350     7.4640    23.8740 
  234.6250   -18.2510     2.4310    58.6070     7.9090     7.2920     7.4690    23.8310 
  234.7500   -18.0470     2.4300    57.4730     8.0580     7.4350     7.7090    23.6800 
  234.8750   -17.8620     2.4250    56.2130     8.1770     7.5500     8.4970    23.5440 
  235.0000   -17.7150     2.4220    55.1350     8.2660     7.6360     9.6320    23.5710 
  235.1250   -17.6070     2.4190    54.9040     8.3380     7.7050    10.3180    23.6600 
  235.2500   -17.5220     2.4170    55.9210     8.4100     7.7750    10.3220    23.6860 
  235.3750   -17.4450     2.4200    57.6550     8.5020     7.8630    10.2190    23.6620 
  235.5000   -17.3840     2.4270    58.8190     8.6260     7.9820    10.0090    23.6500 
  235.6250   -17.3580     2.4340    58.6240     8.7890     8.1400     9.5220    23.6480 
  235.7500   -17.3700     2.4370    57.2520     8.9920     8.3360     9.0450    23.6480 
  235.8750   -17.3850     2.4350    56.5350     9.2260     8.5610     8.9530    23.6480 
  236.0000   -17.4000     2.4330    58.0300     9.4740     8.7990     9.0530    23.6460 
  236.1250   -17.4050     2.4360    60.7310     9.7140     9.0310     9.0890    23.6280 
