~V
VERS. 2.00: Ver 2.00
~W
STRT.M 63.0000:
STOP.M 244.0000:
STEP.M 0.1250:
NULL. -999.2500:
UWI. F11131:
~C
DEPT.M :
SP.MV :
DEN.GM/CC :
GR.API :
RML.OHMM :
RI. :
RXO.OHMM :
CALI.CM :
~A
# ...
  130.5000   -17.8950     2.3300    47.8090    17.7330    16.5570    15.0020    31.4840 
  130.6250   -17.8630     2.3040    48.7860    18.1270    16.8260    14.7920    31.2820 
  130.7500   -17.7790     2.2600    51.1830    18.4270    17.0540    15.4250    30.9730 
  130.8750   -17.6770     2.2200    53.7000    18.5450    17.1640    16.6330    30.2820 
  131.0000   -17.5840     2.2220    55.4530    18.5220    17.1690    17.0570    29.0090 
  131.1250   -17.4990     2.2760    56.1900    18.5220    17.1790    16.2750    27.0500 
  131.2500   -17.4470     2.3630    56.5100    18.5850    17.2260    15.2760    25.7620 
  131.3750   -17.4270     2.4400    56.1880    18.7800    17.3680    14.2610    24.6340 
  131.5000   -17.4440     2.4760    54.7680    19.3000    17.7610    13.2370    23.2820 
  131.6250   -17.5000     2.4870    53.2750    20.0880    18.3930    12.9690    22.8250 
  131.7500   -17.5690     2.4850    52.8410    20.9480    19.1220    13.4370    22.7510 
  131.8750   -17.6330     2.4730    53.3080    21.7210    19.8200    14.1660    22.7800 
  132.0000   -17.6880     2.4520    55.3400    22.2870    20.3720    14.5650    22.7970 
  132.1250   -17.7320     2.4340    57.7710    22.5530    20.6820    14.9850    22.7620 
  132.2500   -17.7700     2.4270    57.5000    22.6170    20.8070    15.6080    22.6480 
  132.3750   -17.7950     2.4230    54.8210    22.5610    20.8060    15.5480    22.4380 
  132.5000   -17.7920     2.3890    53.3220    22.4330    20.7240    13.8780    22.1210 
  132.6250   -17.7720     2.3130    53.6420    22.2050    20.5490    11.8670    21.7740 
  132.7500   -17.7700     2.2050    52.9950    21.8600    20.2800    10.2360    21.7020 
  132.8750   -17.7830     2.0950    52.1630    21.4070    19.9320    10.2520    22.1670 
  133.0000   -17.8100     2.0250    53.3500    20.9300    19.5710    12.9330    23.1290 
  133.1250   -17.8650     2.0200    56.8820    20.6710    19.3790    16.1630    24.3020 
  133.2500   -17.9200     2.0900    59.7790    20.8390    19.5160    15.9930    25.2340 
  133.3750   -17.9560     2.2210    59.6770    21.5100    20.0600    13.6190    25.5690 
  133.5000   -17.9690     2.3670    57.9790    22.5330    20.9180    12.3490    25.2450 
  133.6250   -17.9370     2.4800    59.1440    23.4300    21.7360    12.2720    24.6820 
  133.7500   -17.8590     2.5430    61.6320    23.6700    22.0430    12.8180    24.3860 
  133.8750   -17.7540     2.5520    61.2130    23.0560    21.6130    12.9570    24.3470 
  134.0000   -17.6090     2.5010    56.1070    21.8770    20.6330    12.1470    24.5110 
  134.1250   -17.4150     2.4130    50.3580    20.8120    19.6500    11.0190    25.1410 
  134.2500   -17.2120     2.3120    47.7210    20.3000    19.0930    11.2580    26.1420 
  134.3750   -17.0320     2.2280    48.1470    20.3650    19.0460    13.2520    27.2040 
  134.5000   -16.9010     2.2010    49.0900    20.7930    19.3820    16.4910    28.0810 
  134.6250   -16.8060     2.2360    48.1850    21.2520    19.8500    17.3940    28.5830 
  134.7500   -16.7390     2.3150    45.9800    21.5070    20.1990    18.0740    28.6800 
  134.8750   -16.7040     2.3990    43.9700    21.5330    20.3570    18.9430    28.5020 
  135.0000   -16.7110     2.4500    43.6270    21.3940    20.3460    19.3610    28.4070 
  135.1250   -16.7510     2.4680    45.6020    21.1150    20.1690    19.8960    28.6610 
  135.2500   -16.7970     2.4620    47.5100    20.7050    19.8400    21.6370    29.0470 
  135.3750   -16.8290     2.4410    47.4760    20.1370    19.3430    23.3400    29.4670 
  135.5000   -16.8330     2.4190    46.1720    19.3910    18.6690    22.2490    29.9170 
  135.6250   -16.8400     2.4130    45.8670    18.4600    17.8230    19.5010    30.2840 
  135.7500   -16.8300     2.4250    46.7730    17.4660    16.9150    17.9890    30.5160 
  135.8750   -16.7980     2.4340    47.8170    16.5280    16.0450    17.1960    30.7600 
  136.0000   -16.7660     2.3910    48.4020    15.7450    15.2980    16.8210    31.2430 
  136.1250   -16.7540     2.2950    48.3070    15.2260    14.7720    16.0500    32.1630 
  136.2500   -16.7600     2.1760    47.3380    14.9600    14.4690    15.2810    33.2690 
  136.3750   -16.7850     2.0680    46.2480    14.9350    14.3870    15.2080    34.2730 
  136.5000   -16.8270     2.0200    46.5760    15.1050    14.4950    15.0830    34.8440 
  136.6250   -16.8700     2.0540    47.2500    15.3410    14.6880    14.2860    34.4270 
  136.7500   -16.8980     2.1630    47.3180    15.4680    14.7990    13.5430    33.6950 
  136.8750   -16.9110     2.2980    46.8630    15.7550    15.0580    12.1340    31.3270 
  137.0000   -16.8820     2.3860    44.8860    15.9330    15.2280    12.6820    28.7050 
  137.1250   -16.7850     2.4160    42.0250    15.9230    15.2250    13.6040    27.4400 
  137.2500   -16.6110     2.4160    40.3480    15.7620    15.0720    14.1810    27.6700 
  137.3750   -16.3770     2.4050    40.5810    15.5040    14.8130    14.4860    28.7770 
  137.5000   -16.0830     2.3810    41.8010    15.2250    14.5150    14.5120    30.0370 
  137.6250   -15.7580     2.3450    42.1050    14.9910    14.2450    14.7510    30.8280 
  137.7500   -15.4570     2.3080    42.4230    14.7940    14.0070    13.9930    31.2780 
  137.8750   -15.1890     2.2880    43.6520    14.5890    13.7730    13.6220    31.7910 
  138.0000   -14.9540     2.2870    47.0970    14.3260    13.5070    13.1850    32.5050 
  138.1250   -14.7630     2.2840    50.8260    13.9740    13.1850    12.8150    33.1350 
  138.2500   -14.6180     2.2540    50.0680    13.5930    12.8420    12.7830    33.4850 
  138.3750   -14.5320     2.1850    47.7520    13.2770    12.5390    13.0600    33.6800 
  138.5000   -14.5080     2.0930    49.1620    13.1160    12.3410    12.5710    34.0100 
  138.6250   -14.5100     2.0100    52.3740    13.1650    12.2990    12.0720    34.5860 
  138.7500   -14.5110     1.9490    52.1280    13.3200    12.3470    12.0950    35.1210 
  138.8750   -14.5080     1.9070    50.1030    13.4530    12.3980    12.1940    35.4190 
  139.0000   -14.5260     1.8740    49.0490    13.4500    12.3610    12.4260    35.4900 
  139.1250   -14.5780     1.8470    48.0670    13.2990    12.2250    12.5500    35.4700 
  139.2500   -14.6580     1.8350    47.4860    13.1770    12.1200    12.8480    35.4800 
  139.3750   -14.7320     1.8480    47.1110    12.8500    11.8350    12.6280    35.4970 
  139.5000   -14.8010     1.8950    48.9820    12.5420    11.5510    11.7160    35.3430 
  139.6250   -14.8800     1.9580    51.6540    12.3620    11.3600    11.3600    34.8250 
  139.7500   -14.9750     2.0280    53.6830    12.3290    11.2850    11.8590    34.1920 
  139.8750   -15.0600     2.1000    55.9650    12.4260    11.3230    12.2180    33.6520 
  140.0000   -15.1180     2.1800    58.2780    12.5830    11.4240    12.2550    33.1520 
  140.1250   -15.1350     2.2500    58.6120    12.6540    11.4790    12.5510    32.5950 
  140.2500   -15.1120     2.2810    56.9760    12.4930    11.3660    13.0840    32.2390 
  140.3750   -15.0340     2.2590    55.7390    11.9840    10.9810    14.1440    32.3650 
  140.5000   -14.8930     2.1960    56.8310    11.0850    10.2730    14.7970    32.9410 
  140.6250   -14.6770     2.1330    60.9070     9.8520     9.2600    13.8240    33.6150 
  140.7500   -14.4160     2.0920    66.5510     8.5380     8.1380    11.7550    33.9910 
  140.8750   -14.1420     2.0780    71.7290     7.3210     7.0540    10.0960    33.9730 
  141.0000   -13.8730     2.0870    75.0840     6.3330     6.1230     9.3650    33.7550 
  141.1250   -13.6170     2.1020    74.9460     5.6880     5.4560     7.6590    33.5940 
  141.2500   -13.3880     2.1150    72.9820     5.3300     5.0290     5.6230    33.3890 
  141.3750   -13.2190     2.1270    71.9890     5.2090     4.8140     4.5400    32.9890 
  141.5000   -13.1410     2.1330    73.9260     5.2520     4.7600     4.2830    32.4420 
  141.6250   -13.1650     2.1260    76.3630     5.3490     4.7940     4.3550    32.0250 
