~V
VERS. 2.00: Ver 2.00
~W
STRT.M 63.0000:
STOP.M 244.0000:
STEP.M 0.1250:
NULL. -999.2500:
UWI. F11131:
~C
DEPT.M :
SP.MV :
DEN.GM/CC :
GR.API :
RML.OHMM :
RI. :
RXO.OHMM :
CALI.CM :
~A
# ...
   74.2500   -23.4400     2.2000    81.8540     6.9730     5.2380     6.3400    29.1220 
   74.3750   -23.2150     2.2010    78.1360     6.9150     5.1570     5.8180    29.1030 
   74.5000   -23.0590     2.2100    77.8860     6.9110     5.1470     5.7400    29.0960 
   74.6250   -22.9520     2.2180    85.5840     6.9330     5.1520     5.6070    29.0100 
   74.7500   -22.8390     2.2180    92.1690     6.9540     5.1670     5.6130    28.9160 
   74.8750   -22.7220     2.2120    90.1370     6.9680     5.1710     5.6460    28.8620 
   75.0000   -22.5830     2.2060    84.5220     6.9810     5.1600     5.6180    28.8550 
   75.1250   -22.4000     2.2080    85.5320     6.9870     5.1350     5.4010    28.8580 
   75.2500   -22.2170     2.2180    88.7430     6.9770     5.1050     5.3100    28.8400 
   75.3750   -22.0340     2.2360    89.1720     6.9420     5.0740     5.3280    28.8020 
   75.5000   -21.8570     2.2530    88.8550     6.8910     5.0450     5.4270    28.7540 
   75.6250   -21.7030     2.2640    94.0100     6.8560     5.0270     5.4060    28.7240 
   75.7500   -21.5880     2.2700   101.5960     6.8690     5.0280     5.3160    28.7130 
   75.8750   -21.5060     2.2730   105.1160     6.9450     5.0540     5.2720    28.7130 
   76.0000   -21.4480     2.2790   101.9590     7.0620     5.0980     5.3150    28.7160 
   76.1250   -21.4230     2.2910    95.2800     7.1560     5.1330     5.5120    28.7050 
   76.2500   -21.4510     2.3090    91.2020     7.1650     5.1170     5.7050    28.6640 
   76.3750   -21.5740     2.3250    91.5760     7.0550     5.0270     5.7720    28.5920 
   76.5000   -21.8080     2.3200    94.0590     6.8260     4.8600     5.5690    28.5010 
   76.6250   -22.1530     2.2910    95.9980     6.5190     4.6470     5.1900    28.4100 
   76.7500   -22.5950     2.2500    98.4000     6.2420     4.4590     4.9480    28.3180 
   76.8750   -23.1200     2.2130   100.3640     6.0890     4.3560     4.9140    28.2140 
   77.0000   -23.7120     2.1910    98.4390     6.1350     4.3890     5.0610    28.1090 
   77.1250   -24.3190     2.1810    93.9290     6.4750     4.6230     5.2690    27.8420 
   77.2500   -24.8260     2.1740    90.4780     7.0650     5.0420     5.8400    27.2710 
   77.3750   -25.1130     2.1680    88.6020     7.8320     5.6130     6.7500    26.5140 
   77.5000   -25.1220     2.1720    85.2410     8.6350     6.2520     7.3280    25.8870 
   77.6250   -24.8200     2.1890    79.9870     9.2620     6.8090     7.2630    25.6330 
   77.7500   -24.2680     2.2110    77.1210     9.5880     7.1560     7.8980    25.6420 
   77.8750   -23.4860     2.2250    78.1110     9.5680     7.2200     8.2130    25.8390 
   78.0000   -22.5100     2.2140    83.0190     9.2540     7.0050     7.9680    26.1200 
   78.1250   -21.4400     2.1810    88.2820     8.7380     6.5540     7.2130    26.3350 
   78.2500   -20.4530     2.1300    91.1120     8.1430     6.0000     6.7670    26.7590 
   78.3750   -19.6940     2.0690    91.8300     7.4940     5.4150     6.1660    27.5910 
   78.5000   -19.2500     2.0120    91.7970     6.8030     4.8490     5.2160    28.5490 
   78.6250   -19.1990     1.9880    94.1240     6.1410     4.3700     4.7100    29.3980 
   78.7500   -19.4820     2.0340    97.7360     5.6980     4.0530     4.6430    30.1800 
   78.8750   -20.1320     2.1690    98.3520     5.7280     4.0180     4.7420    30.6390 
   79.0000   -21.1490     2.3380    92.3200     6.4880     4.4020     4.9590    30.3900 
   79.1250   -22.4870     2.4180    79.4770     8.3460     5.4420     6.3040    29.4810 
   79.2500   -23.9960     2.3700    67.1180    11.1150     7.1050    11.8210    28.6800 
   79.3750   -25.5650     2.2450    60.2040    14.2480     9.1860    27.0420    28.2310 
   79.5000   -27.1060     2.1250    58.5450    16.5490    11.0500    37.2750    28.0370 
   79.6250   -28.5260     2.0480    58.1090    16.3610    11.5790    25.2420    27.7670 
   79.7500   -29.7550     2.0210    56.6240    14.3410    10.8340    14.7650    27.2880 
   79.8750   -30.7360     2.0340    56.4590    11.8900     9.5170    10.6330    26.7870 
   80.0000   -31.4510     2.0650    58.5150    10.0800     8.3200     9.2170    26.3890 
   80.1250   -31.8970     2.0880    59.2650     9.3570     7.6430     8.8090    26.0410 
   80.2500   -32.1380     2.0960    58.5990     9.3200     7.3920     8.9110    25.7420 
   80.3750   -32.2100     2.0950    59.4990     9.6420     7.4320     9.4210    25.5880 
   80.5000   -32.1530     2.0960    61.8660    10.0550     7.6150     9.6510    25.5600 
   80.6250   -32.0130     2.1010    62.8800    10.3710     7.8110     9.5220    25.5700 
   80.7500   -31.8690     2.1090    61.1740    10.5540     7.9480     9.3650    25.5360 
   80.8750   -31.7670     2.1140    58.3210    10.6300     8.0180     9.2430    25.4050 
   81.0000   -31.7080     2.1140    57.1720    10.6390     8.0370     9.1440    25.1640 
   81.1250   -31.6540     2.1120    57.8530    10.6210     8.0330     9.0170    24.8870 
   81.2500   -31.6010     2.1110    57.9160    10.6200     8.0320     8.8450    24.6460 
   81.3750   -31.5570     2.1140    57.5240    10.6570     8.0470     8.9310    24.4350 
   81.5000   -31.5370     2.1240    58.9360    10.7460     8.0820     9.5950    24.2560 
   81.6250   -31.5340     2.1370    62.8350    10.8920     8.1400    10.1910    24.1550 
   81.7500   -31.5550     2.1460    65.2730    11.0580     8.2090    10.7280    24.1250 
   81.8750   -31.5810     2.1470    64.4320    11.1950     8.2700    11.1920    24.1290 
   82.0000   -31.5860     2.1410    61.9000    11.2590     8.3040    11.5590    24.1320 
   82.1250   -31.5830     2.1340    61.6720    11.2080     8.2900    11.4810    24.1330 
   82.2500   -31.6160     2.1290    64.4810    11.0610     8.2340    11.3640    24.1350 
   82.3750   -31.6860     2.1310    67.0350    10.8660     8.1560    10.9370    24.1380 
   82.5000   -31.7570     2.1370    66.2690    10.6940     8.0850    10.4600    24.1380 
   82.6250   -31.8210     2.1470    62.7090    10.6340     8.0670    10.3350    24.1350 
   82.7500   -31.8330     2.1570    60.1810    10.7060     8.1160    10.3370    24.1330 
   82.8750   -31.7310     2.1620    60.8820    10.9060     8.2380    10.2830    24.1330 
   83.0000   -31.5550     2.1530    63.9950    11.1870     8.4180    10.0810    24.1410 
   83.1250   -31.3080     2.1320    64.4360    11.4150     8.5740    10.0390    24.1730 
   83.2500   -30.9510     2.1070    62.5120    11.4200     8.5870     9.7160    24.2440 
   83.3750   -30.5020     2.0920    64.0630    11.0660     8.3550     9.2590    24.4240 
   83.5000   -30.0050     2.1040    72.3370    10.3030     7.8390     9.7810    24.8440 
   83.6250   -29.5120     2.1420    83.4190     9.2010     7.0750     8.9980    25.5220 
   83.7500   -29.1170     2.1960    88.3340     8.1000     6.2830     7.5960    26.1380 
   83.8750   -28.9180     2.2480    86.0940     7.3080     5.6600     6.4540    26.4390 
   84.0000   -28.9370     2.2800    80.3100     7.0970     5.3960     5.9880    26.4400 
   84.1250   -29.2210     2.2830    73.9170     7.7430     5.7170     6.1470    26.3200 
   84.2500   -29.7210     2.2570    68.6690     9.0110     6.5300     7.1590    25.9950 
   84.3750   -30.3590     2.2120    65.7100    10.5010     7.6240     9.9760    25.3510 
   84.5000   -31.0670     2.1630    64.5700    11.6180     8.6010    13.0800    24.6210 
   84.6250   -31.7700     2.1230    62.2150    11.7840     8.9770    14.2090    24.2620 
   84.7500   -32.3730     2.0950    58.7360    11.3390     8.8410    12.9260    24.2440 
   84.8750   -32.8290     2.0770    56.6740    10.7640     8.4780    11.2920    24.3160 
   85.0000   -33.1180     2.0640    56.9120    10.3750     8.1420    10.2100    24.3860 
   85.1250   -33.2060     2.0590    58.2210    10.1990     7.9270    10.0010    24.5020 
   85.2500   -33.1570     2.0660    58.7800    10.0570     7.7630    10.0400    24.6580 
   85.3750   -33.0440     2.0890    58.6100     9.8810     7.6060    10.3430    24.8120 
