~V
VERS. 2.00: Ver 2.00
~W
STRT.M 49.0000:
STOP.M 247.0000:
STEP.M 0.1250:
NULL. -999.2500:
UWI. F11144:
~C
DEPT.M :
DEN.GM/CC :
SP.MV :
GR.API :
RML.OHMM :
RI. :
RXO.OHMM :
CALI.CM :
~A
# ...
   82.7500     2.1410   -42.3480    58.6160     8.7830     6.5160    12.8070    24.7910 
   82.8750     2.1420   -41.5310    59.9500     8.9090     6.6120    12.8750    24.8790 
   83.0000     2.1370   -40.3760    61.4860     9.0300     6.7050    12.7760    24.9710 
   83.1250     2.1290   -38.9460    61.9080     9.0760     6.7480    12.7590    25.0560 
   83.2500     2.1170   -37.2040    61.9940     8.9380     6.6670    12.8310    25.1000 
   83.3750     2.1030   -35.2600    63.6860     8.6230     6.4650    12.7160    25.0120 
   83.5000     2.1010   -33.2700    68.4170     8.1940     6.1740    11.8160    24.6300 
   83.6250     2.1290   -31.3720    75.2320     7.7720     5.8640     9.9000    23.8370 
   83.7500     2.1940   -29.7610    83.1040     7.5410     5.6430     7.9000    23.0310 
   83.8750     2.2590   -28.5090    90.4690     7.5600     5.5680     7.4360    22.5130 
   84.0000     2.2940   -27.6240    93.4390     7.8060     5.6520     7.7040    22.2520 
   84.1250     2.2900   -27.1360    92.9140     8.1870     5.8590     8.0110    22.1620 
   84.2500     2.2630   -27.1130    92.4190     8.5440     6.1160     8.5550    22.1330 
   84.3750     2.2340   -27.3890    91.4550     8.7380     6.3140     9.4580    22.0850 
   84.5000     2.2170   -27.9220    87.1080     8.7370     6.3920     9.5850    22.0460 
   84.6250     2.2160   -28.6560    81.0350     8.6070     6.3520     9.4670    22.0010 
   84.7500     2.2200   -29.4540    78.3720     8.4570     6.2480     9.1340    21.9870 
   84.8750     2.2210   -30.3040    77.8920     8.3720     6.1540     9.2770    22.1280 
   85.0000     2.2210   -31.2090    77.1320     8.4000     6.1200     9.6760    22.5570 
   85.1250     2.2190   -32.0620    75.8010     8.5900     6.1930    10.1800    23.1530 
   85.2500     2.2100   -32.9590    72.5410     9.0320     6.4390    10.6360    23.5510 
   85.3750     2.1940   -33.9260    68.1180     9.7030     6.8560    11.1170    23.7370 
   85.5000     2.1680   -34.8200    65.0660    10.5290     7.4240    11.7180    23.8870 
   85.6250     2.1360   -35.6440    65.0380    11.3380     8.0590    13.0290    24.1260 
   85.7500     2.1090   -36.4750    67.2270    11.8120     8.5620    17.0230    24.4280 
   85.8750     2.0970   -37.2310    67.6780    11.7940     8.7660    22.7960    24.7820 
   86.0000     2.0950   -37.9240    64.6250    11.2940     8.6100    22.5900    25.0210 
   86.1250     2.0930   -38.6110    60.8260    10.5170     8.1730    16.0210    25.1550 
   86.2500     2.0860   -39.1360    60.7450     9.7630     7.6350    13.0620    25.3410 
   86.3750     2.0790   -39.5110    60.9850     9.2180     7.1700    12.4260    25.6440 
   86.5000     2.0790   -39.8130    58.0100     8.9210     6.8420    12.4190    25.6950 
   86.6250     2.0910   -39.9540    56.6430     8.8420     6.6600    12.4650    25.2680 
   86.7500     2.1130   -39.9020    62.7050     8.9480     6.6300    12.3740    24.6030 
   86.8750     2.1330   -39.7640    69.5920     9.1750     6.7070    12.3310    24.2910 
   87.0000     2.1400   -39.5350    72.0500     9.4970     6.8770    12.3780    24.1890 
   87.1250     2.1390   -39.2760    71.7780     9.8620     7.1170    12.5920    24.1160 
   87.2500     2.1450   -39.1020    73.2900    10.1530     7.3640    12.8540    24.0080 
   87.3750     2.1630   -39.0320    75.5240    10.2670     7.5350    12.9330    23.8350 
   87.5000     2.1850   -39.0850    76.9950    10.1660     7.5750    12.7810    23.7160 
   87.6250     2.1950   -39.2520    76.6110     9.8950     7.4780    12.5010    23.8220 
   87.7500     2.1790   -39.4510    73.8570     9.5500     7.2740    12.3570    24.0130 
   87.8750     2.1540   -39.6510    70.9250     9.2310     7.0420    12.3570    24.0930 
   88.0000     2.1340   -39.8100    68.8560     8.9770     6.8280    12.3980    24.1050 
   88.1250     2.1250   -39.8920    68.0650     8.7950     6.6610    12.4040    24.1040 
   88.2500     2.1240   -39.9290    68.7370     8.6910     6.5540    12.3250    24.0570 
   88.3750     2.1280   -39.8770    70.4790     8.6380     6.4900    12.1280    23.9240 
   88.5000     2.1330   -39.7020    71.2280     8.6120     6.4570    11.8710    23.8490 
   88.6250     2.1370   -39.4960    69.9980     8.5890     6.4440    11.6710    23.9680 
   88.7500     2.1370   -39.2150    68.9160     8.5440     6.4400    11.5640    24.1760 
   88.8750     2.1350   -38.8430    69.8010     8.4680     6.4270    11.5530    24.2660 
   89.0000     2.1330   -38.4800    69.8490     8.3570     6.3940    11.5770    24.2540 
   89.1250     2.1330   -38.0920    66.2040     8.2160     6.3360    11.5730    24.2200 
   89.2500     2.1390   -37.6330    62.3140     8.0700     6.2610    11.2910    24.1930 
   89.3750     2.1460   -37.2130    62.7010     7.9610     6.1900    10.3890    24.2110 
   89.5000     2.1480   -36.7980    66.7570     7.9200     6.1400     9.2300    24.2830 
   89.6250     2.1420   -36.3830    70.2680     7.9560     6.1250     8.6880    24.3720 
   89.7500     2.1320   -35.9830    69.6000     8.0590     6.1590    10.0570    24.4230 
   89.8750     2.1260   -35.5710    69.3440     8.1850     6.2330    11.1320    24.4150 
   90.0000     2.1270   -35.1550    71.3660     8.3000     6.3310    11.5450    24.3890 
   90.1250     2.1370   -34.7110    74.2410     8.3780     6.4290    11.6410    24.3510 
   90.2500     2.1510   -34.1690    73.9940     8.3870     6.5000    11.7740    24.2420 
   90.3750     2.1620   -33.4720    71.4030     8.3320     6.5320    11.8800    24.0820 
   90.5000     2.1670   -32.5550    69.4350     8.2360     6.5280    12.0250    24.0160 
   90.6250     2.1650   -31.3720    68.9060     8.1610     6.5190    12.2590    24.2340 
   90.7500     2.1590   -29.9330    68.8310     8.2430     6.5890    12.4160    24.3830 
   90.8750     2.1600   -28.2620    68.8320     8.5320     6.7990    12.2570    24.2480 
   91.0000     2.1810   -26.3580    69.9350     8.9850     7.1520    11.9330    23.9280 
   91.1250     2.2290   -24.3530    72.5450     9.4500     7.5630    12.0700    23.7960 
   91.2500     2.3070   -22.3590    74.4380     9.6300     7.8140    13.3010    23.9320 
   91.3750     2.3860   -20.4930    75.8210     9.3740     7.7440    15.0300    24.0540 
   91.5000     2.4340   -18.8920    80.3790     8.7360     7.3390    13.1860    24.0840 
   91.6250     2.4280   -17.5600    88.8370     7.9740     6.7580     8.9690    24.0580 
   91.7500     2.3920   -16.6380    94.3140     7.4280     6.2460     6.9640    24.0240 
   91.8750     2.3710   -16.1740    91.4000     7.2070     5.9400     6.5900    24.0230 
   92.0000     2.3660   -16.1090    84.4450     7.2800     5.8610     7.2450    24.0380 
   92.1250     2.3610   -16.4000    80.1750     7.5250     5.9580     8.3590    24.0820 
   92.2500     2.3410   -17.1110    80.8020     7.7740     6.1340     8.6740    24.1240 
   92.3750     2.3080   -18.0850    82.0870     7.9400     6.2890     7.7920    24.1340 
   92.5000     2.2710   -19.2780    80.5060     8.0670     6.4230     7.3880    24.0990 
   92.6250     2.2400   -20.6120    75.9500     8.2980     6.6060     7.9320    24.0170 
   92.7500     2.2250   -21.9440    70.8560     8.9500     7.0400     9.1590    23.8290 
   92.8750     2.2320   -23.2510    68.5260    10.3090     7.9170    10.5970    23.6970 
   93.0000     2.2600   -24.4900    68.6100    12.6870     9.4880    11.9700    23.6170 
   93.1250     2.3040   -25.6530    69.8930    16.2560    11.9880    13.7440    23.5530 
   93.2500     2.3690   -26.6810    70.7800    20.8580    15.5900    17.5350    23.4580 
   93.3750     2.4510   -27.5880    69.9260    25.0580    19.3910    24.3040    23.3140 
   93.5000     2.5280   -28.4160    67.5230    26.8520    21.7540    30.7350    23.1770 
   93.6250     2.5540   -29.2050    65.9700    24.9190    21.2130    30.6580    23.1070 
   93.7500     2.4790   -29.9790    67.0500    20.2620    18.0590    21.8760    23.0750 
   93.8750     2.3600   -30.6460    68.1320    15.8990    14.6580    14.6510    23.0010 
