~V
VERS. 2.00: Ver 2.00
~W
STRT.M 62.0000:
STOP.M 217.0000:
STEP.M 0.1250:
NULL. -999.2500:
UWI. F11126:
~C
DEPT.M :
DEN.GM/CC :
SP.MV :
GR.API :
RML.OHMM :
RI. :
RXO.OHMM :
CALI.CM :
~A
# ...
  197.0000     2.2230   -18.4300    53.1640     7.5470     7.3390     8.3670    24.1640 
  197.1250     2.2220   -18.3160    53.8200     7.2280     6.9610     7.9190    24.2130 
  197.2500     2.2490   -17.9590    55.7560     6.8980     6.5880     7.2680    24.1950 
  197.3750     2.2980   -17.5410    57.7300     6.6280     6.2620     6.6230    24.0520 
  197.5000     2.3470   -17.2760    59.0270     6.5120     6.0560     6.2280    23.7350 
  197.6250     2.3840   -17.0870    59.7770     6.6210     6.0330     6.3190    23.4780 
  197.7500     2.4100   -17.0130    58.3170     7.0790     6.2940     6.7860    23.2990 
  197.8750     2.4270   -17.0600    54.4120     8.0380     6.9730     7.6020    23.2130 
  198.0000     2.4410   -17.2710    50.5570     9.7120     8.3070     9.6620    23.2110 
  198.1250     2.4480   -17.6220    47.0570    11.9040    10.2170    13.5410    23.3040 
  198.2500     2.4390   -18.1250    43.0860    14.2430    12.4650    18.7310    23.4590 
  198.3750     2.4120   -18.6120    39.6330    16.1260    14.5550    24.1030    23.6460 
  198.5000     2.3800   -18.8910    39.8930    16.6540    15.6150    26.2370    23.9150 
  198.6250     2.3560   -19.0150    43.6870    15.7890    15.2910    23.1830    24.1410 
  198.7500     2.3380   -18.9330    49.4850    13.9290    13.7490    16.7550    24.1810 
  198.8750     2.3300   -18.6250    56.7380    11.8880    11.6780    12.1920    24.2950 
  199.0000     2.3400   -18.2350    62.7620    10.4170     9.8800    10.0980    24.4470 
  199.1250     2.3590   -17.9060    63.5260     9.5340     8.6170     8.9680    24.5110 
  199.2500     2.3690   -17.5260    59.2540     8.7270     7.8560     8.3200    24.5120 
  199.3750     2.3590   -17.0700    54.3940     8.3160     7.4680     7.8220    24.5270 
  199.5000     2.3430   -16.5580    53.0020     8.1690     7.3290     7.7230    24.6000 
  199.6250     2.3430   -16.1700    53.9880     8.1050     7.2690     7.7660    24.5990 
  199.7500     2.3600   -15.9480    55.5510     8.0370     7.2050     7.8250    24.4820 
  199.8750     2.3740   -15.8510    56.2990     7.9170     7.0910     7.7710    24.1920 
  200.0000     2.3660   -15.7900    54.0760     7.7300     6.9150     7.4920    24.1250 
  200.1250     2.3460   -15.7020    49.4280     7.5170     6.7140     7.1810    24.3100 
  200.2500     2.3300   -15.6140    44.8840     7.3150     6.5240     6.9480    24.6180 
  200.3750     2.3290   -15.5650    42.5500     7.1560     6.3730     6.8040    24.7990 
  200.5000     2.3470   -15.6980    42.6140     7.0670     6.2900     6.7300    24.7650 
  200.6250     2.3740   -15.8160    43.5790     7.0380     6.2620     6.7120    24.5590 
  200.7500     2.3970   -15.7140    45.2960     7.0550     6.2780     6.7250    24.2580 
  200.8750     2.4070   -15.4260    48.4290     7.1020     6.3220     6.7980    24.0780 
  201.0000     2.4080   -15.1060    52.0710     7.1660     6.3830     6.9580    24.1060 
  201.1250     2.4090   -14.8380    55.1590     7.2410     6.4540     7.1230    24.2240 
  201.2500     2.4120   -14.6010    57.0600     7.3280     6.5350     7.2360    24.3080 
  201.3750     2.4150   -14.3590    57.3900     7.4280     6.6310     7.3400    24.3460 
  201.5000     2.4200   -14.0720    56.7670     7.5450     6.7410     7.4940    24.3420 
  201.6250     2.4240   -13.7980    56.6910     7.6670     6.8560     7.7500    24.3280 
  201.7500     2.4210   -13.6380    58.1700     7.7810     6.9630     8.1050    24.3400 
  201.8750     2.4140   -13.6160    59.8830     7.8710     7.0480     8.4970    24.4120 
  202.0000     2.4090   -13.6530    59.2970     7.9150     7.0900     8.7640    24.4560 
  202.1250     2.4090   -13.6130    57.4270     7.9140     7.0880     8.8870    24.4670 
  202.2500     2.4070   -13.4640    56.6610     7.8720     7.0490     8.7550    24.4720 
  202.3750     2.4020   -13.3300    57.4060     7.8010     6.9820     8.2860    24.5020 
  202.5000     2.3960   -13.2200    57.3310     7.7170     6.9030     7.9100    24.5570 
  202.6250     2.3950   -13.0500    56.2000     7.6350     6.8260     7.6980    24.5880 
  202.7500     2.3940   -12.7690    55.8650     7.5590     6.7540     7.6520    24.5760 
  202.8750     2.3900   -12.3430    56.2420     7.4770     6.6770     7.6660    24.5230 
  203.0000     2.3820   -11.7950    56.2130     7.3610     6.5670     7.6090    24.4390 
  203.1250     2.3730   -11.2020    57.7760     7.1890     6.4040     7.4320    24.3180 
  203.2500     2.3600   -10.6310    61.6810     6.9330     6.1830     7.1570    24.3060 
  203.3750     2.3450   -10.0430    65.2190     6.6120     5.9210     6.8270    24.3910 
  203.5000     2.3340    -9.3950    65.5660     6.2670     5.6680     6.4260    24.4750 
  203.6250     2.3360    -8.7310    64.3010     5.9660     5.4740     6.0620    24.4880 
  203.7500     2.3500    -8.1730    62.9110     5.8140     5.3690     5.8790    24.4340 
  203.8750     2.3690    -7.7920    61.5950     5.8880     5.3590     5.9390    24.3870 
  204.0000     2.3840    -7.5140    59.4550     6.0640     5.4380     6.1810    24.3690 
  204.1250     2.3890    -7.2740    56.2920     6.2940     5.5610     6.3830    24.3510 
  204.2500     2.3860    -7.0970    53.7040     6.4460     5.7030     6.5430    24.3410 
  204.3750     2.3780    -7.0120    54.0700     6.6010     5.8500     6.7130    24.3330 
  204.5000     2.3740    -7.0110    56.4590     6.7480     5.9890     6.9210    24.2810 
  204.6250     2.3730    -7.1770    58.1870     6.8800     6.1130     7.1090    24.1490 
  204.7500     2.3690    -7.4900    59.7620     6.9910     6.2180     7.2720    23.9850 
  204.8750     2.3630    -7.7700    61.5150     7.0720     6.3010     7.3830    23.9550 
  205.0000     2.3620    -7.9700    62.2580     7.1200     6.3660     7.5320    23.9240 
  205.1250     2.3690    -8.2220    62.3430     7.1290     6.4140     7.5380    23.8000 
  205.2500     2.3800    -8.5150    62.1220     7.0850     6.4380     7.3860    23.6410 
  205.3750     2.3920    -8.7170    61.0650     7.0050     6.4260     7.3590    23.6990 
  205.5000     2.4080    -8.8850    59.4090     6.8950     6.3650     7.4250    23.9550 
  205.6250     2.4280    -8.9190    59.4580     6.7980     6.2740     7.5090    24.1540 
  205.7500     2.4420    -8.7700    60.6500     6.7330     6.1800     7.5110    24.2730 
  205.8750     2.4480    -8.5900    61.1640     6.7180     6.1070     7.4350    24.3570 
  206.0000     2.4500    -8.5840    60.9250     6.7570     6.0830     7.1740    24.3610 
  206.1250     2.4520    -8.6700    62.1210     6.8430     6.1140     6.9040    24.2560 
  206.2500     2.4520    -8.5500    64.2340     6.9750     6.1890     6.8940    24.1990 
  206.3750     2.4450    -8.2560    64.1390     7.0900     6.2740     7.2140    24.2580 
  206.5000     2.4330    -7.8880    62.4870     7.1090     6.3120     7.5810    24.3470 
  206.6250     2.4150    -7.4780    62.3080     7.0430     6.2670     7.7000    24.3850 
  206.7500     2.3840    -7.0090    63.1650     6.9030     6.1350     7.5100    24.3750 
  206.8750     2.3430    -6.4870    63.3530     6.7020     5.9450     7.0840    24.4130 
  207.0000     2.3070    -5.8310    63.3530     6.4930     5.7480     6.6980    24.4390 
  207.1250     2.2900    -5.0470    63.3530     6.3050     5.5710     6.3780    24.4160 
  207.2500     2.2870    -4.4230    63.3530     6.1320     5.4080     6.0870    24.4150 
  207.3750     2.2880    -4.0290    63.3530     5.9500     5.2360     5.7360    24.3280 
  207.5000     2.2850    -3.8230    63.3530     5.7390     5.0370     5.4010    24.2710 
  207.6250     2.2820    -3.6630    63.3530     5.5200     4.8300     5.0820    24.2490 
  207.7500     2.2870    -3.5900    63.3530     5.3380     4.6580     4.8120    24.2560 
  207.8750     2.3090    -3.5840    63.3530     5.2510     4.5770     4.7690    24.2570 
  208.0000     2.3500    -3.5390    63.3530     5.3390     4.6600     5.1560    24.2560 
  208.1250     2.3980    -3.5090    63.3530     5.5830     4.8900     5.8920    24.2260 
