~V
VERS. 2.00: Ver 2.00
~W
STRT.M 51.0000:
STOP.M 249.0000:
STEP.M 0.1250:
NULL. -999.2500:
UWI. F11143:
~C
DEPT.M :
GR.API :
RML.OHMM :
RI. :
RXO.OHMM :
CALI.CM :
SP.MV :
DEN.GM/CC :
~A
# ...
  141.0000    88.6450     5.7210     4.3280     4.8970    24.1860   -11.1660     2.3550 
  141.1250    85.4790     5.6750     4.2930     4.8470    24.2570   -11.2120     2.3650 
  141.2500    82.9810     5.6630     4.2660     4.8470    24.3000   -11.2910     2.3730 
  141.3750    81.8430     5.6960     4.2580     4.8870    24.3090   -11.4300     2.3780 
  141.5000    82.8260     5.7630     4.2710     4.8980    24.2840   -11.5750     2.3760 
  141.6250    87.1560     5.8380     4.3020     4.9450    24.2020   -11.6580     2.3720 
  141.7500    92.4800     5.8930     4.3320     5.0300    24.1010   -11.6810     2.3680 
  141.8750    97.4020     5.9150     4.3520     5.1340    24.0540   -11.6950     2.3620 
  142.0000   102.0220     5.9050     4.3580     5.2100    24.0630   -11.7080     2.3510 
  142.1250   102.9790     5.8730     4.3570     5.1870    24.1180   -11.6870     2.3420 
  142.2500   100.1730     5.8510     4.3670     5.1050    24.1320   -11.6500     2.3420 
  142.3750    98.6200     5.8690     4.3970     5.0940    24.1080   -11.6130     2.3540 
  142.5000   101.0630     5.9500     4.4550     5.2000    24.0750   -11.6340     2.3710 
  142.6250   101.9980     6.0940     4.5420     5.4000    24.0610   -11.7360     2.3840 
  142.7500    97.0270     6.2570     4.6400     5.5160    24.0710   -11.8600     2.3950 
  142.8750    89.0960     6.3910     4.7220     5.5740    24.0860   -11.9420     2.4050 
  143.0000    84.2290     6.4570     4.7590     5.6070    24.1080   -11.9940     2.4120 
  143.1250    83.1720     6.4190     4.7240     5.5590    24.1320   -12.0940     2.4110 
  143.2500    82.3650     6.2990     4.6370     5.4050    24.1620   -12.2130     2.4040 
  143.3750    80.8140     6.1300     4.5250     5.1650    24.2320   -12.3230     2.3900 
  143.5000    80.2200     5.9560     4.4190     4.9470    24.3000   -12.3900     2.3680 
  143.6250    81.5020     5.8250     4.3440     4.8670    24.3560   -12.3910     2.3430 
  143.7500    84.3300     5.7510     4.2990     4.9040    24.4070   -12.3440     2.3310 
  143.8750    88.0670     5.7250     4.2780     5.0140    24.4060   -12.3190     2.3370 
  144.0000    90.6170     5.7230     4.2760     5.1090    24.3660   -12.3280     2.3540 
  144.1250    91.3790     5.7150     4.2820     5.1280    24.3100   -12.3250     2.3680 
  144.2500    92.6930     5.6880     4.2850     4.9880    24.2540   -12.3070     2.3800 
  144.3750    92.1640     5.6440     4.2830     4.8970    24.2010   -12.2380     2.3900 
  144.5000    88.6660     5.5940     4.2760     4.8570    24.1600   -12.1320     2.3940 
  144.6250    89.1960     5.5550     4.2710     4.8400    24.1200   -12.0300     2.3850 
  144.7500    93.2660     5.5320     4.2720     4.8030    24.0330   -11.9730     2.3730 
  144.8750    94.7170     5.5180     4.2770     4.7480    23.9160   -11.9530     2.3640 
  145.0000    93.7580     5.5050     4.2810     4.6770    23.8670   -11.9550     2.3590 
  145.1250    94.4810     5.4770     4.2690     4.6070    23.9570   -11.9740     2.3550 
  145.2500    93.7460     5.4180     4.2310     4.4300    24.0700   -12.0030     2.3490 
  145.3750    89.3080     5.3180     4.1650     4.2220    24.1420   -12.0690     2.3370 
  145.5000    85.0820     5.1730     4.0730     4.2480    24.1910   -12.1550     2.3210 
  145.6250    85.1510     5.0070     3.9710     4.3560    24.2430   -12.2700     2.3090 
  145.7500    87.2410     4.8670     3.8810     4.3930    24.1770   -12.4420     2.3100 
  145.8750    92.3140     4.7890     3.8200     4.3390    24.0800   -12.6280     2.3200 
  146.0000    97.3970     4.7800     3.7960     4.2890    24.0230   -12.7830     2.3280 
  146.1250    96.6200     4.8280     3.8170     4.2450    24.0090   -12.8930     2.3270 
  146.2500    93.0250     4.8890     3.8650     4.3130    24.0190   -13.0060     2.3220 
  146.3750    92.3180     4.9430     3.9270     4.4260    24.0370   -13.1460     2.3160 
  146.5000    94.9770     4.9820     3.9880     4.5680    24.0780   -13.3320     2.3130 
  146.6250    94.1920     5.0010     4.0360     4.6170    24.1120   -13.5500     2.3130 
  146.7500    91.0710     5.0070     4.0710     4.6350    24.1390   -13.7100     2.3110 
  146.8750    90.5760     5.0090     4.1010     4.6020    24.0840   -13.8020     2.3070 
  147.0000    93.5670     5.0190     4.1360     4.5940    23.9540   -13.8810     2.3030 
  147.1250    96.7630     5.0490     4.1850     4.6100    23.8290   -14.0040     2.3030 
  147.2500    97.0030     5.0980     4.2460     4.6930    23.7390   -14.1490     2.3050 
  147.3750    94.3460     5.1640     4.3120     4.8380    23.6690   -14.2890     2.3080 
  147.5000    89.2060     5.2410     4.3740     5.0190    23.6070   -14.3990     2.3110 
  147.6250    88.8660     5.3230     4.4220     5.1100    23.5620   -14.4610     2.3190 
  147.7500    93.8310     5.3990     4.4540     5.1570    23.5530   -14.5210     2.3290 
  147.8750    96.1620     5.4620     4.4760     5.1670    23.5580   -14.6070     2.3350 
  148.0000    91.4340     5.5050     4.4940     5.1930    23.5450   -14.7100     2.3330 
  148.1250    86.6080     5.5330     4.5160     5.3610    23.4430   -14.8100     2.3260 
  148.2500    86.9540     5.5840     4.5540     5.6460    23.2470   -14.8920     2.3200 
  148.3750    88.0990     5.7300     4.6440     6.0620    23.0420   -14.9790     2.3150 
  148.5000    87.8190     6.0800     4.8540     6.7070    22.9290   -15.1120     2.3050 
  148.6250    86.2150     6.8060     5.3140     7.3660    22.9070   -15.2920     2.2920 
  148.7500    83.4620     7.8890     6.0540     8.2380    22.7900   -15.4650     2.2860 
  148.8750    79.8420     9.2410     7.0570     9.9440    22.4790   -15.6300     2.2900 
  149.0000    75.8970    10.6820     8.2260    13.0600    22.1280   -15.7820     2.3010 
  149.1250    70.4880    12.0010     9.3970    16.9990    21.9350   -15.9300     2.3080 
  149.2500    66.1000    13.2180    10.5010    17.8880    21.9760   -16.1180     2.3070 
  149.3750    65.7770    14.5650    11.6490    16.2690    22.1600   -16.3280     2.3000 
  149.5000    67.8100    16.3750    13.0670    14.8920    22.3440   -16.5080     2.2880 
  149.6250    69.0690    19.0120    15.0930    15.7470    22.3840   -16.6390     2.2690 
  149.7500    67.8870    22.2260    17.7060    21.3450    22.3440   -16.7580     2.2440 
  149.8750    65.0520    25.4570    20.6290    29.0930    22.3020   -16.8810     2.2210 
  150.0000    62.9700    27.8880    23.2570    32.0090    22.3060   -17.0320     2.2110 
  150.1250    64.2080    28.6830    24.7430    28.7160    22.3410   -17.1890     2.2180 
  150.2500    66.3410    28.3490    25.1790    26.7790    22.3420   -17.2910     2.2310 
  150.3750    67.1920    27.6120    25.0320    26.2640    22.2540   -17.3110     2.2410 
  150.5000    68.3640    27.0170    24.7880    25.9410    22.1200   -17.2580     2.2450 
  150.6250    70.0640    26.6740    24.6550    25.8870    22.0260   -17.1890     2.2450 
  150.7500    71.6560    26.2880    24.4860    25.8720    21.9950   -17.1320     2.2470 
  150.8750    72.0380    25.6340    24.1010    25.4910    22.0120   -17.0710     2.2500 
  151.0000    70.8140    24.5910    23.3690    24.3290    22.0730   -16.9880     2.2520 
  151.1250    68.4880    23.0200    22.1150    23.4660    22.1900   -16.8490     2.2530 
  151.2500    66.5610    21.0420    20.4190    21.9220    22.2810   -16.6830     2.2600 
  151.3750    67.8870    18.8460    18.4430    20.1910    22.3640   -16.5210     2.2720 
  151.5000    70.9120    16.7170    16.4550    18.2470    22.4300   -16.3830     2.2840 
  151.6250    73.0150    15.0740    14.8220    14.9620    22.4410   -16.2490     2.2950 
  151.7500    74.9360    14.1020    13.7340    12.0170    22.4250   -16.1240     2.3140 
  151.8750    78.5670    13.8090    13.2410    11.0620    22.5280   -16.0530     2.3380 
  152.0000    81.1950    13.9970    13.2310    12.4520    22.8400   -16.0290     2.3560 
  152.1250    76.1180    14.3630    13.5020    15.3890    23.2470   -16.0500     2.3580 
