~V
VERS. 2.00: Ver 2.00
~W
STRT.M 63.0000:
STOP.M 219.0000:
STEP.M 0.1250:
NULL. -999.2500:
UWI. F11123:
~C
DEPT.M :
GR.API :
RML.OHMM :
RI. :
RXO.OHMM :
CALI.CM :
SP.MV :
DEN.GM/CC :
~A
# ...
  130.5000    45.7320    20.5860    18.3180    15.2810    24.5680     3.2240     2.4710 
  130.6250    43.9490    20.6790    18.2410    15.4630    24.6140     3.2830     2.4900 
  130.7500    44.4450    21.0770    18.4480    17.0170    24.7240     3.3160     2.5070 
  130.8750    46.6360    21.6220    18.8310    19.5740    24.8270     3.3000     2.5170 
  131.0000    47.9430    22.1310    19.2320    20.5790    24.8140     3.2370     2.5190 
  131.1250    45.6380    22.4290    19.4930    19.0910    24.8100     3.1220     2.5180 
  131.2500    43.3730    22.5240    19.5940    18.5130    24.7730     2.9820     2.5190 
  131.3750    42.9060    22.5010    19.5840    18.2040    24.7600     2.8270     2.5230 
  131.5000    42.5590    22.4630    19.5370    17.9330    24.7510     2.6570     2.5270 
  131.6250    41.3620    22.4600    19.5100    18.1560    24.7530     2.5110     2.5300 
  131.7500    41.3200    22.4300    19.4870    19.1350    24.7610     2.3760     2.5300 
  131.8750    42.6450    22.2580    19.4040    19.8230    24.7860     2.2510     2.5290 
  132.0000    42.6620    21.8460    19.1830    19.4910    24.8150     2.1300     2.5290 
  132.1250    41.1330    21.1080    18.7220    18.1930    24.8700     2.0020     2.5310 
  132.2500    40.9900    20.1440    18.0520    17.3670    24.8550     1.8790     2.5280 
  132.3750    41.8290    19.0670    17.2380    16.9710    24.8510     1.7600     2.5200 
  132.5000    41.2970    18.0290    16.3960    16.2480    24.8790     1.6490     2.5070 
  132.6250    39.9560    17.2220    15.6980    14.8430    24.8860     1.5710     2.4940 
  132.7500    41.1160    16.6860    15.2130    13.8020    24.8830     1.5090     2.4870 
  132.8750    45.3350    16.3860    14.9380    13.2740    24.8830     1.4700     2.4860 
  133.0000    49.2880    16.2140    14.7990    13.0460    24.8760     1.4560     2.4880 
  133.1250    49.9030    15.9880    14.6440    13.7740    24.8810     1.4430     2.4910 
  133.2500    50.4350    15.5510    14.3180    13.7770    24.8740     1.4450     2.4980 
  133.3750    52.4480    14.8570    13.7610    12.7810    24.8440     1.4330     2.5070 
  133.5000    55.0790    13.9990    13.0370    11.5270    24.8720     1.4050     2.5120 
  133.6250    58.2300    13.2280    12.3570    10.7760    24.8780     1.3560     2.5020 
  133.7500    61.3580    12.7920    11.9310    10.2930    24.8770     1.2810     2.4840 
  133.8750    63.2340    12.8530    11.8860     9.8220    24.8820     1.1650     2.4660 
  134.0000    64.1580    13.4850    12.2780    10.2600    24.8770     0.9980     2.4590 
  134.1250    66.1900    14.6990    13.1320    12.8820    24.8650     0.7640     2.4650 
  134.2500    69.4920    16.1430    14.2080    16.0690    24.8250     0.4740     2.4730 
  134.3750    73.0350    17.4570    15.2470    17.1400    24.8030     0.1480     2.4700 
  134.5000    77.0590    18.3080    15.9830    17.0450    24.8050    -0.1870     2.4550 
  134.6250    80.1210    18.5180    16.2200    17.5630    24.7480    -0.5180     2.4310 
  134.7500    80.9590    18.4710    16.1930    17.4020    24.7080    -0.8250     2.4110 
  134.8750    79.8540    18.5580    16.1890    17.0930    24.7000    -1.0890     2.4020 
  135.0000    76.4690    19.0450    16.4380    16.3490    24.6910    -1.3260     2.4050 
  135.1250    71.7840    20.0060    17.0570    17.1030    24.6920    -1.5150     2.4130 
  135.2500    69.3180    21.1300    17.8790    20.8800    24.7250    -1.6810     2.4180 
  135.3750    68.7460    22.1210    18.7070    25.7380    24.7510    -1.8060     2.4130 
  135.5000    67.4210    22.7510    19.3370    24.2110    24.7950    -1.8630     2.4020 
  135.6250    65.5370    22.9320    19.6310    20.3340    24.7390    -1.8420     2.3900 
  135.7500    64.9640    22.8870    19.7120    19.4170    24.7050    -1.7370     2.3810 
  135.8750    65.8320    22.7480    19.6790    20.9580    24.7320    -1.5600     2.3770 
  136.0000    67.2270    22.5470    19.5740    22.2230    24.7470    -1.3350     2.3740 
  136.1250    67.9440    22.1440    19.3100    21.8040    24.7230    -1.0720     2.3720 
  136.2500    66.6880    21.4220    18.8040    20.9640    24.6630    -0.8230     2.3740 
  136.3750    64.9070    20.3750    18.0450    19.0040    24.5840    -0.6000     2.3840 
  136.5000    65.1710    19.1320    17.1390    17.0770    24.5270    -0.4010     2.4010 
  136.6250    66.7420    17.8890    16.2390    15.8830    24.5530    -0.2350     2.4210 
  136.7500    66.2740    16.7610    15.4120    14.9080    24.6200    -0.0650     2.4380 
  136.8750    64.3030    15.7720    14.6500    13.5740    24.6570     0.0960     2.4510 
  137.0000    63.4050    14.9330    13.9310    12.2530    24.6110     0.2570     2.4560 
  137.1250    64.8450    14.2630    13.2530    11.2860    24.6930     0.4130     2.4550 
  137.2500    66.1120    13.7240    12.6230    10.9010    24.8340     0.5510     2.4550 
  137.3750    66.7910    13.3050    12.0800    11.0650    24.9120     0.6670     2.4560 
  137.5000    69.1170    13.0180    11.6850    11.1070    24.9240     0.7500     2.4630 
  137.6250    73.2950    12.9500    11.5430    11.1500    24.9030     0.7860     2.4730 
  137.7500    74.2690    13.1270    11.6540    11.0550    24.9120     0.7970     2.4770 
  137.8750    71.3220    13.5730    12.0100    11.5630    24.8940     0.7980     2.4700 
  138.0000    68.8440    14.2550    12.5660    14.5450    24.8680     0.8100     2.4540 
  138.1250    70.0670    15.0850    13.2570    16.9480    24.8260     0.8120     2.4430 
  138.2500    70.1730    15.9260    13.9770    17.6390    24.8170     0.8270     2.4470 
  138.3750    67.9640    16.6440    14.6360    15.7640    24.8210     0.8380     2.4680 
  138.5000    65.9860    17.0130    15.0650    15.0810    24.8160     0.8390     2.4980 
  138.6250    66.6680    16.5650    14.8710    15.4750    24.8130     0.8360     2.5190 
  138.7500    68.7680    15.1890    13.9050    16.6390    24.7620     0.8080     2.5160 
  138.8750    71.6210    13.0220    12.2380    15.5100    24.6260     0.7610     2.4870 
  139.0000    73.6700    10.5230    10.2130    11.4800    24.7050     0.7240     2.4400 
  139.1250    72.8950     8.3910     8.3520     7.3850    24.8420     0.7060     2.3900 
  139.2500    73.1400     6.9600     6.9650     5.6330    24.9660     0.7320     2.3510 
  139.3750    75.9500     6.2550     6.1310     5.2490    25.0090     0.7710     2.3300 
  139.5000    78.0220     6.1330     5.8100     5.3630    25.0020     0.8100     2.3250 
  139.6250    76.6010     6.4130     5.9370     5.6020    24.9870     0.8600     2.3240 
  139.7500    75.4180     6.8050     6.2600     5.9120    24.9520     0.9120     2.3190 
  139.8750    75.7840     7.1540     6.5970     6.2250    24.9390     0.9670     2.3070 
  140.0000    76.1620     7.3910     6.8250     6.4310    24.9420     1.0240     2.2950 
  140.1250    75.8880     7.5220     6.9130     6.3310    24.9420     1.0810     2.2900 
  140.2500    76.4610     7.6280     6.9510     5.9120    24.9390     1.1330     2.2910 
  140.3750    77.5280     7.7600     6.9980     5.7200    24.9440     1.1760     2.2970 
  140.5000    78.6870     7.9060     7.0600     6.1880    24.9430     1.1880     2.3010 
  140.6250    78.2220     7.9470     7.0620     7.1130    24.9410     1.1600     2.3020 
  140.7500    75.6400     7.7730     6.9260     6.9660    24.9510     1.1000     2.2990 
  140.8750    73.0420     7.3630     6.6380     6.0100    24.9780     1.0080     2.2960 
  141.0000    73.4570     6.8350     6.2640     5.1510    25.0030     0.8810     2.2940 
  141.1250    76.6150     6.4160     5.9370     4.7970    25.0000     0.7620     2.2980 
  141.2500    78.4880     6.2280     5.7470     4.8790    24.9780     0.6440     2.3080 
  141.3750    77.6440     6.2750     5.7170     5.1320    24.9460     0.5600     2.3180 
  141.5000    76.4490     6.4770     5.8060     5.4070    24.9420     0.5060     2.3270 
  141.6250    76.6830     6.7620     5.9370     5.4070    24.9430     0.4680     2.3280 
