~V
VERS. 2.00: Ver 2.00
~W
STRT.M 50.0000:
STOP.M 221.0000:
STEP.M 0.1250:
NULL. -999.2500:
UWI. F11120:
~C
DEPT.M :
DEN.GM/CC :
GR.API :
RML.OHMM :
RI. :
RXO.OHMM :
CALI.CM :
SP.MV :
~A
# ...
  207.5000     2.1210    62.1800    29.3030    28.7330    35.2880    25.2510   -29.2910 
  207.6250     2.1200    65.6230    26.9170    26.5960    32.1830    25.3080   -29.2800 
  207.7500     2.1340    67.1500    24.7810    24.6190    25.5270    25.3110   -29.2640 
  207.8750     2.1570    68.1830    23.2940    23.1650    22.4000    25.2690   -29.2400 
  208.0000     2.1780    67.3390    22.8070    22.5430    24.6520    25.2170   -29.2030 
  208.1250     2.1920    63.3730    23.8460    23.2290    27.0830    25.1890   -29.1410 
  208.2500     2.2110    59.4060    26.3290    25.2320    27.0960    25.1620   -29.0580 
  208.3750     2.2440    57.7270    30.0880    28.5280    26.9430    25.1140   -28.9500 
  208.5000     2.2930    57.5880    34.4080    32.6280    37.8160    25.0740   -28.8160 
  208.6250     2.3590    56.8680    37.2380    35.7740    60.0330    25.0940   -28.6400 
  208.7500     2.4320    56.0590    36.7220    35.9520    67.8610    25.1510   -28.4350 
  208.8750     2.4930    55.8550    32.5460    32.5280    50.2630    25.1780   -28.2110 
  209.0000     2.5190    57.0580    26.2810    26.8030    34.4380    25.1900   -27.9910 
  209.1250     2.5020    59.9870    20.2470    20.9920    26.5690    25.2200   -27.7920 
  209.2500     2.4650    63.6690    15.6210    16.3680    19.4140    25.2620   -27.6160 
  209.3750     2.4240    66.5680    12.5080    13.1020    14.0030    25.2880   -27.4640 
  209.5000     2.3850    66.4140    10.6290    10.9880     9.3040    25.2620   -27.3430 
  209.6250     2.3550    62.7190     9.7400     9.8550     8.1550    25.2430   -27.2630 
  209.7500     2.3380    59.6290     9.3980     9.3050     8.0230    25.2660   -27.2240 
  209.8750     2.3320    59.3950     9.4060     9.1630     8.5820    25.3450   -27.2260 
  210.0000     2.3290    60.8260     9.6140     9.2820     9.4440    25.4240   -27.2630 
  210.1250     2.3240    60.9830     9.9230     9.5580     9.6490    25.4450   -27.3360 
  210.2500     2.3250    59.9550    10.2580     9.8850     9.6380    25.3460   -27.4340 
  210.3750     2.3410    59.1730    10.5880    10.2120     9.8360    25.1550   -27.5510 
  210.5000     2.3700    59.1950    10.8630    10.4830    10.2870    25.0360   -27.6760 
  210.6250     2.3900    59.6960    10.9610    10.5860    10.7000    25.0560   -27.7960 
  210.7500     2.3860    60.3270    10.8390    10.4770    10.8820    25.1120   -27.8840 
  210.8750     2.3600    60.2990    10.5190    10.1740    10.8730    25.1210   -27.9220 
  211.0000     2.3290    59.8300    10.1130     9.7670    10.1770    25.1300   -27.8850 
  211.1250     2.3130    59.8300     9.7990     9.4070    11.0260    25.1040   -27.7540 
  211.2500     2.3160    59.8300     9.6930     9.2060    13.2000    25.0780   -27.5460 
  211.3750     2.3280    59.8300     9.8290     9.2080    13.4730    25.0830   -27.2650 
  211.5000     2.3370    59.8300    10.1770     9.3970    12.2880    25.0930   -26.9080 
  211.6250     2.3320    59.8300    10.6280     9.7060    11.0240    25.0970   -26.5060 
  211.7500     2.3210    59.8300    10.9570     9.9590    11.0270    25.1230   -26.1040 
  211.8750     2.3120    59.8300    10.9590     9.9860    11.3970    25.1820   -25.6670 
  212.0000     2.3060    59.8300    10.5360     9.6810    10.8960    25.1880   -25.2050 
  212.1250     2.2990    59.8300     9.7560     9.0670     9.9210    25.1470   -24.4660 
  212.2500     2.2910    59.8300     8.9400     8.3870     8.4140    25.0720   -23.5680 
  212.3750     2.2910    59.8300     8.3150     7.8230     7.3210    25.0440   -22.4220 
  212.5000     2.3040    59.8300     8.0160     7.4960     7.0830    25.0450   -21.2410 
  212.6250     2.3240    59.8300     8.1040     7.4710     7.8800    25.0530   -20.7940 
  212.7500     2.3400    59.8300     8.3810     7.6140     8.4770    25.0400   -20.1920 
  212.8750     2.3470    59.8300     8.6430     7.7750     8.3240    25.0260   -19.7100 
  213.0000     2.3490    59.8300     8.6970     7.8020     7.7130    25.0030   -19.2550 
  213.1250     2.3510    59.8300     8.4070     7.5740     7.0660    24.9650   -18.7610 
  213.2500     2.3590    59.8300     7.9140     7.1780     6.4810    24.9140   -18.6500 
  213.3750     2.3710    59.8300     7.3780     6.7230     6.0340    24.8670   -18.5090 
  213.5000     2.3760    59.8300     6.9250     6.3080     5.9880    24.8120   -18.4500 
  213.6250     2.3630    59.8300     6.6320     6.0080     6.1880    24.8490   -18.4000 
  213.7500     2.3420    59.8300     6.4760     5.8290     6.3830    24.9460   -18.3470 
  213.8750     2.3280    59.8300     6.4730     5.7890     6.2850    25.0660   -18.2920 
  214.0000     2.3270    59.8300     6.6620     5.9140     6.3460    25.1470   -18.2190 
  214.1250     2.3380    59.8300     7.0990     6.2400     6.7000    25.1600   -18.1490 
  214.2500     2.3540    59.8300     7.7020     6.6920     7.4280    25.1500   -18.0750 
  214.3750     2.3730    59.8300     8.3570     7.1760     8.8540    25.1480   -18.0150 
  214.5000     2.3890    59.8300     8.9170     7.5820    10.3360    25.1500   -18.0040 
  214.6250     2.3970    59.8300     9.2350     7.8050    10.5520    25.1670   -18.0060 
  214.7500     2.3950    59.8300     9.3630     7.8920     9.6390    25.1730   -17.9980 
  214.8750     2.3860    59.8300     9.3870     7.9120     8.3310    25.1760   -17.9770 
  215.0000     2.3700    59.8300     9.3740     7.9120     7.3050    25.1860   -17.9310 
  215.1250     2.3530    59.8300     9.3550     7.9090     7.1240    25.2220   -17.8740 
  215.2500     2.3330    59.8300     9.3410     7.9020     6.9520    25.3220   -17.8330 
  215.3750     2.3040    59.8300     9.3360     7.8950     6.6320    25.4950   -17.8330 
  215.5000     2.2680    59.8300     9.3410     7.8930     6.1370    25.6540   -17.8330 
  215.6250     2.2450    59.8300     9.3590     7.9000     6.0810    25.6290   -17.8330 
  215.7500     2.2510    59.8300     9.3860     7.9120     6.2870    25.4660   -17.8340 
  215.8750     2.2810    59.8300     9.4170     7.9260     6.5430    25.2980   -17.8340 
  216.0000     2.3170    59.8300     9.4440     7.9370     6.6970    25.2010   -17.8320 
  216.1250     2.3400    59.8300     9.4570     7.9430     6.8010    25.1780   -17.8290 
  216.2500     2.3500    59.8300     9.4590     7.9450     6.7860    25.1710   -17.8280 
  216.3750     2.3560    59.8300     9.4590     7.9450     6.7100    25.1650   -17.8430 
  216.5000     2.3580    59.8300     9.4580     7.9450     6.6770    25.1640   -17.8710 
  216.6250     2.3510    59.8300     9.4490     7.9440     6.6390    25.2310   -17.9270 
  216.7500     2.3380    59.8300     9.4320     7.9430     6.4880    25.3320   -17.9920 
  216.8750     2.3270    59.8300     9.4150     7.9420     6.2180    25.3720   -18.0070 
  217.0000     2.3260    59.8300     9.4120     7.9420     6.0590    25.3040   -17.9860 
  217.1250     2.3400    59.8300     9.4120     7.9420     5.9710    25.1840   -17.9520 
  217.2500     2.3570    59.8300     9.4120     7.9420     5.9330    25.1220   -17.8990 
  217.3750     2.3680    59.8300     9.4120     7.9420     5.9480    25.1050   -17.8340 
  217.5000     2.3710    59.8300     9.4120     7.9420     5.8610    25.1000   -17.8340 
  217.6250     2.3630    59.8300     9.4120     7.9420     5.8230    25.1230   -17.8300 
  217.7500     2.3540    59.8300     9.4120     7.9420     5.8090    25.2550   -17.8280 
  217.8750     2.3040    59.8300     9.4120     7.9420     5.7650    25.5380   -17.8260 
  218.0000     2.2630    59.8300     9.4120     7.9420     5.5110    25.7970   -17.8470 
  218.1250     2.2380    59.8300     9.4120     7.9420     5.2870    25.7470   -17.8800 
  218.2500     2.2420    59.8300     9.4120     7.9420     5.1590    25.5080   -17.9360 
  218.3750     2.2630    59.8300     9.4120     7.9420     4.9720    25.3140   -18.0090 
  218.5000     2.2710    59.8300     9.4120     7.9420     4.8300    25.2190   -18.0120 
  218.6250     2.2490    59.8300     9.4120     7.9420     4.7610    25.1140   -17.9970 
