~V
VERS. 2.00: Ver 2.00
~W
STRT.M 45.0000:
STOP.M 270.0000:
STEP.M 0.1250:
NULL. -999.2500:
UWI. F11186:
~C
DEPT.M :
SP.MV :
GR.API :
RI. :
RML.OHMM :
RXO.OHMM :
DEN.GM/CC :
~A
# ...
  238.1250    -7.3380   106.6440     1.3500     1.8240     3.2030     2.2470 
  238.2500    -7.2950   106.6110     1.3920     1.8710     3.0690     2.2620 
  238.3750    -7.2640   103.7950     1.4270     1.9110     3.1480     2.2830 
  238.5000    -7.2610   101.7720     1.4560     1.9440     3.3730     2.2990 
  238.6250    -7.3000   102.8660     1.4580     1.9420     3.5650     2.3050 
  238.7500    -7.3760   105.4440     1.4360     1.8930     3.6020     2.2980 
  238.8750    -7.4770   105.8900     1.3980     1.8150     3.2930     2.2840 
  239.0000    -7.5830   104.6070     1.3660     1.7590     2.9380     2.2730 
  239.1250    -7.6780   103.9670     1.3510     1.7320     2.9400     2.2690 
  239.2500    -7.7590   105.4520     1.3710     1.7890     3.2340     2.2710 
  239.3750    -7.8400   107.3580     1.4270     1.8930     3.4220     2.2790 
  239.5000    -7.9490   109.3860     1.4890     1.9960     3.4970     2.2940 
  239.6250    -8.1260   110.6290     1.5280     2.0540     3.6960     2.3040 
  239.7500    -8.4080   110.0720     1.5270     2.0310     3.7430     2.2990 
  239.8750    -8.8480   106.8840     1.4930     1.9530     3.5090     2.2760 
  240.0000    -9.4780   103.8810     1.5090     1.9470     3.3520     2.2450 
  240.1250   -10.3420   102.7650     1.6820     2.1560     3.6200     2.2260 
  240.2500   -11.4210   101.8420     2.0530     2.6560     4.8340     2.2370 
  240.3750   -12.6670    98.0540     2.7420     3.6180     8.3000     2.2870 
  240.5000   -13.9620    90.1660     3.7580     4.9570    11.6990     2.3250 
  240.6250   -15.1750    81.1050     4.8130     6.2900    11.2870     2.2950 
  240.7500   -16.2220    75.1630     5.7460     7.3660     9.9080     2.2150 
  240.8750   -17.0480    72.9950     6.3410     7.9240    10.4710     2.1450 
  241.0000   -17.6820    71.1920     6.7790     8.3290    11.6090     2.1160 
  241.1250   -18.1430    69.2400     7.4760     9.1040    12.7030     2.1150 
  241.2500   -18.4780    67.6600     8.4250    10.3120    13.3980     2.1120 
  241.3750   -18.7090    66.6780     9.6120    11.8330    14.0240     2.1020 
  241.5000   -18.8740    65.6500    10.6060    13.0790    15.9210     2.0920 
  241.6250   -19.0030    64.5740    11.0740    13.6120    17.2420     2.0930 
  241.7500   -19.1360    63.7750    10.8710    13.2630    15.5160     2.1000 
  241.8750   -19.3130    62.7940    10.0570    12.1540    12.2600     2.1100 
  242.0000   -19.5540    62.3270     9.0870    10.9290    10.6810     2.1190 
  242.1250   -19.8590    62.4960     8.2700     9.8940    11.0050     2.1170 
  242.2500   -20.1900    64.8110     7.7500     9.2900    11.4910     2.1030 
  242.3750   -20.4980    68.5400     7.5240     9.0320    11.5520     2.0900 
  242.5000   -20.7420    70.4030     7.4470     8.9360    11.1860     2.0920 
  242.6250   -20.8930    69.0850     7.4620     8.9070    10.6930     2.1050 
  242.7500   -20.9590    66.3120     7.5030     8.8850    10.5520     2.1080 
  242.8750   -20.9510    64.4160     7.4960     8.8120    11.0030     2.0970 
  243.0000   -20.8960    63.6920     7.4400     8.6650    11.4500     2.0870 
  243.1250   -20.8020    63.9580     7.4320     8.6040    11.0700     2.0910 
  243.2500   -20.6800    64.9340     7.5310     8.6630    10.5470     2.0980 
  243.3750   -20.5290    66.1640     7.8100     8.9430    11.3800     2.0990 
  243.5000   -20.3560    66.5900     8.2860     9.4760    13.2360     2.0940 
  243.6250   -20.1670    65.6070     8.9690    10.2750    14.4870     2.0950 
  243.7500   -19.9750    64.1230     9.6580    11.0780    14.7230     2.1000 
  243.8750   -19.7930    63.1650    10.0720    11.5060    14.5770     2.1020 
  244.0000   -19.6340    61.2890    10.1340    11.5060    14.4910     2.1010 
  244.1250   -19.5140    59.6820     9.6690    10.8470    14.2130     2.1010 
  244.2500   -19.4390    60.4120     8.9760    10.0000    13.5860     2.1070 
  244.3750   -19.4120    63.8590     8.2720     9.1540    12.2270     2.1160 
  244.5000   -19.4180    68.1900     7.5610     8.3630    10.6810     2.1200 
  244.6250   -19.4410    71.0460     6.9870     7.7250    10.4650     2.1180 
  244.7500   -19.4590    71.3510     6.4970     7.1950    10.7760     2.1160 
  244.8750   -19.4540    69.7810     6.1280     6.7870    10.4290     2.1230 
  245.0000   -19.4200    68.5520     5.8740     6.4910    10.0340     2.1390 
  245.1250   -19.3620    70.1150     5.8040     6.4040    10.0800     2.1490 
  245.2500   -19.2960    72.2990     5.8750     6.4620    10.3370     2.1460 
  245.3750   -19.2380    73.2600     6.0720     6.6510    10.8900     2.1360 
  245.5000   -19.1940    73.2460     6.3050     6.8700    11.6740     2.1290 
  245.6250   -19.1550    73.8470     6.5180     7.0390    12.0430     2.1260 
  245.7500   -19.1040    74.3590     6.6470     7.1030    11.7400     2.1260 
  245.8750   -19.0300    75.0090     6.6590     7.0580    11.4320     2.1250 
  246.0000   -18.9350    76.9260     6.5510     6.9030    12.0210     2.1220 
  246.1250   -18.8180    77.8890     6.3600     6.6850    12.6340     2.1240 
  246.2500   -18.6720    75.5840     6.1110     6.4090    11.6310     2.1370 
  246.3750   -18.4900    73.4490     5.8240     6.0970     9.9490     2.1540 
  246.5000   -18.2760    75.0930     5.5310     5.7820     9.2640     2.1590 
  246.6250   -18.0460    77.7580     5.2600     5.4980     9.2910     2.1450 
  246.7500   -17.8160    77.7990     5.0770     5.3170     9.4930     2.1340 
  246.8750   -17.5950    76.6670     4.9520     5.1810     9.4700     2.1390 
  247.0000   -17.3840    76.5970     4.8990     5.1200     9.1370     2.1520 
  247.1250   -17.1740    76.9590     5.0520     5.2830     8.8190     2.1620 
  247.2500   -16.9510    75.8820     5.5260     5.8250     9.3290     2.1630 
  247.3750   -16.7010    73.2200     6.2510     6.6300    11.3590     2.1610 
  247.5000   -16.4280    70.4750     6.9210     7.3540    14.4480     2.1530 
  247.6250   -16.1490    68.7740     7.4960     7.9280    17.3490     2.1590 
  247.7500   -15.8900    68.3980     7.5710     7.8620    17.4820     2.2030 
  247.8750   -15.6740    68.7210     7.1830     7.3210    19.8580     2.2820 
  248.0000   -15.5060    69.3960     6.5820     6.5930    25.0190     2.3580 
  248.1250   -15.3970    69.8690     6.0370     6.0350    21.5230     2.3960 
  248.2500   -15.3380    69.8280     5.9270     5.9920    14.2670     2.3900 
  248.3750   -15.3140    72.3120     6.0440     6.1980    13.2780     2.3430 
  248.5000   -15.2960    78.5670     6.3280     6.5520    14.1040     2.2800 
  248.6250   -15.2690    85.0730     6.5800     6.8040    13.4660     2.2370 
  248.7500   -15.2390    85.6090     6.9990     7.2200    12.8680     2.2220 
  248.8750   -15.2230    78.4180     7.6520     7.8620    12.9850     2.2250 
  249.0000   -15.2290    69.7830     8.6470     8.9130    15.4990     2.2310 
  249.1250   -15.2490    64.9030    10.4050    10.8410    19.7150     2.2360 
  249.2500   -15.2660    64.2600    12.7780    13.3830    24.3430     2.2380 
  249.3750   -15.2840    64.9860    14.7750    15.3980    35.4790     2.2400 
  249.5000   -15.3200    65.2930    15.8920    16.4330    51.0810     2.2630 
  249.6250   -15.3760    66.9910    15.6560    15.9980    48.2170     2.3180 
  249.7500   -15.4180    70.3990    14.6790    14.8900    28.6690     2.3850 
  249.8750   -15.3980    72.6010    13.7310    13.9260    21.3000     2.4470 
  250.0000   -15.3070    70.7110    13.1070    13.3790    26.2080     2.4960 
  250.1250   -15.1770    66.2500    12.9560    13.3760    33.4080     2.5180 
  250.2500   -15.0570    63.1990    13.3210    13.9230    38.3220     2.5170 
  250.3750   -14.9670    62.7380    13.9780    14.7020    36.5960     2.5240 
  250.5000   -14.8880    63.4940    14.7450    15.5410    35.3520     2.5510 
  250.6250   -14.7910    64.9300    15.7000    16.5690    35.0230     2.5590 
  250.7500   -14.6650    68.4060    16.9150    17.8350    34.0640     2.5230 
  250.8750   -14.5150    72.0620    18.3390    19.3160    32.8550     2.4640 
