~V
VERS. 2.00: Ver 2.00
~W
STRT.M 52.0000:
STOP.M 216.0000:
STEP.M 0.1250:
NULL. -999.2500:
UWI. F11106:
~C
DEPT.M :
DEN.GM/CC :
GR.API :
RML.OHMM :
RI. :
RXO.OHMM :
CALI.CM :
SP.MV :
~A
# ...
  153.2500     2.2280    44.2530   103.8950    99.6970   133.7480    29.3810   -29.3330 
  153.3750     2.2240    43.9080   100.8800    96.8540   121.2040    29.4350   -29.3190 
  153.5000     2.2220    47.7560    96.0990    91.9720   106.0660    29.5630   -29.2620 
  153.6250     2.2210    49.6450    91.7260    86.9150    87.3660    29.7310   -29.1870 
  153.7500     2.2230    47.5100    89.6510    83.5900    76.0330    29.9360   -29.0870 
  153.8750     2.2250    46.0520    91.0540    83.2010    69.9470    30.1430   -28.9600 
  154.0000     2.2280    47.7540    96.5960    86.4670    73.9690    30.0300   -28.7970 
  154.1250     2.2280    48.3430   107.0200    94.1440    93.4150    29.7510   -28.5940 
  154.2500     2.2270    47.4780   120.7760   104.9010   125.6840    29.5160   -28.3780 
  154.3750     2.2250    47.7950   136.0380   117.2170   165.8400    29.2420   -28.1440 
  154.5000     2.2250    48.3560   149.9830   128.7660   187.7940    28.9930   -27.8980 
  154.6250     2.2260    48.4890   158.6400   136.3030   181.0710    29.0210   -27.6520 
  154.7500     2.2300    50.0480   161.5430   139.1670   168.6820    29.0770   -27.4610 
  154.8750     2.2340    52.4750   159.9160   137.9800   161.0310    29.1850   -27.2840 
  155.0000     2.2380    52.7240   156.0330   134.3030   148.4120    29.1900   -27.1340 
  155.1250     2.2420    50.7310   152.3370   130.0260   156.4910    29.1430   -27.0520 
  155.2500     2.2450    49.7940   150.5540   126.9380   166.2850    29.0120   -26.9080 
  155.3750     2.2490    49.7050   151.8300   126.2360   172.3750    28.7780   -26.7830 
  155.5000     2.2510    48.8170   157.0710   128.8460   155.6920    28.5510   -26.7180 
  155.6250     2.2490    48.6910   167.2530   135.7720   146.0750    28.4060   -26.6050 
  155.7500     2.2410    51.3600   180.1720   145.4220   159.4040    28.3150   -26.4830 
  155.8750     2.2280    53.8840   191.9770   155.0540   216.0180    28.2390   -26.3460 
  156.0000     2.2130    51.8690   197.1210   160.5510   309.5240    28.1500   -26.1740 
  156.1250     2.2050    47.9460   189.8500   156.9400   327.5420    28.1090   -25.9890 
  156.2500     2.2060    47.7350   174.3500   145.9320   281.3310    28.0260   -25.8100 
  156.3750     2.2150    49.9860   156.4630   131.3520   233.5540    27.9450   -25.6360 
  156.5000     2.2290    51.8250   140.9990   117.4660   197.6430    27.8270   -25.4830 
  156.6250     2.2430    54.5970   131.0040   107.7620   146.7380    27.6980   -25.3210 
  156.7500     2.2530    58.0400   125.7830   102.4700   110.0410    27.5320   -25.1410 
  156.8750     2.2560    58.9220   124.4710   101.1260   101.1200    27.4860   -24.9790 
  157.0000     2.2520    54.9850   125.6020   102.5830   108.5170    27.6510   -24.7740 
  157.1250     2.2430    49.0860   126.2240   104.6800   145.9730    27.9250   -24.5420 
  157.2500     2.2360    45.5380   122.4250   104.0530   238.8640    27.7590   -24.3890 
  157.3750     2.2340    47.0340   111.6650    98.0780   289.5630    27.3520   -24.2180 
  157.5000     2.2400    52.5750    94.4760    86.0820   181.7480    26.9920   -24.0040 
  157.6250     2.2550    58.6210    74.6090    69.9380    98.6340    26.5030   -23.8640 
  157.7500     2.2730    62.3080    56.6190    53.9510    75.8640    26.2030   -23.7380 
  157.8750     2.2900    63.4040    42.1550    40.3550    72.3910    26.2810   -23.6700 
  158.0000     2.3060    62.9640    31.3440    29.9410    60.3390    26.3780   -23.6850 
  158.1250     2.3190    62.0760    24.0320    22.8890    37.0220    26.3520   -23.7270 
  158.2500     2.3310    63.8340    19.0320    18.0430    21.0120    26.2130   -23.7790 
  158.3750     2.3430    69.6760    15.8830    14.8970    13.4490    26.0730   -23.8720 
  158.5000     2.3550    76.7150    14.1680    13.0650    11.1900    25.9050   -23.9770 
  158.6250     2.3650    78.3310    13.6380    12.3720    11.1930    25.6450   -24.0650 
  158.7500     2.3710    74.5660    13.7690    12.3700    11.4430    25.4290   -24.1750 
  158.8750     2.3680    69.9220    14.2890    12.8230    11.8570    25.3660   -24.2290 
  159.0000     2.3560    68.3570    14.9530    13.4860    12.4760    25.4050   -24.2750 
  159.1250     2.3340    71.2920    15.5090    14.0930    13.1570    25.8430   -24.3540 
  159.2500     2.3100    75.2310    15.8500    14.5020    13.5510    26.7490   -24.3780 
  159.3750     2.2900    76.9410    15.9870    14.6910    13.6430    26.8920   -24.3980 
  159.5000     2.2790    74.7090    16.0020    14.7140    13.5160    26.7260   -24.4510 
  159.6250     2.2790    70.2690    15.9940    14.6480    13.4290    26.5620   -24.5010 
  159.7500     2.2880    66.8100    16.0270    14.5780    13.5430    26.2890   -24.5420 
  159.8750     2.3040    65.3860    16.0970    14.5250    13.7960    25.4490   -24.5640 
  160.0000     2.3230    66.2270    16.1590    14.4810    14.0060    25.0320   -24.5720 
  160.1250     2.3410    70.3780    16.1540    14.4160    13.9050    25.0280   -24.5420 
  160.2500     2.3540    75.2390    16.1060    14.3200    13.4410    24.9070   -24.4950 
  160.3750     2.3610    77.5260    16.0490    14.2090    13.3510    24.8260   -24.4060 
  160.5000     2.3620    77.1810    16.0130    14.1060    13.8450    25.0650   -24.2710 
  160.6250     2.3590    74.9030    16.0490    14.0550    13.9380    25.3110   -24.1570 
  160.7500     2.3550    73.1370    16.1970    14.0870    13.5480    25.6430   -24.0660 
  160.8750     2.3500    71.9660    16.5140    14.2450    13.1170    25.9020   -23.9900 
  161.0000     2.3470    70.8880    17.0700    14.5740    12.9180    25.6870   -23.8980 
  161.1250     2.3470    68.8020    17.9610    15.1430    13.1840    25.5950   -23.8690 
  161.2500     2.3490    66.7610    19.0550    15.8860    14.7840    25.6000   -23.8940 
  161.3750     2.3500    66.2490    20.1340    16.6740    17.4270    25.5940   -23.9380 
  161.5000     2.3490    66.2080    20.9330    17.2980    18.9870    25.7930   -24.0190 
  161.6250     2.3470    67.0200    21.2680    17.5570    18.0130    25.9440   -24.0730 
  161.7500     2.3430    71.8240    21.4710    17.6090    17.1760    26.0360   -24.1280 
  161.8750     2.3400    78.7010    22.1620    17.8280    17.0020    26.0570   -24.2100 
  162.0000     2.3360    82.6980    24.1860    18.7650    16.6480    26.0470   -24.2980 
  162.1250     2.3280    80.4840    29.0120    21.4500    18.9790    26.1510   -24.3530 
  162.2500     2.3150    77.0990    37.2720    26.6540    25.9240    26.2470   -24.3960 
  162.3750     2.2960    73.6510    49.4710    35.3880    40.9510    26.4580   -24.4470 
  162.5000     2.2720    67.5340    64.8660    48.0160    89.3150    26.5400   -24.5110 
  162.6250     2.2480    59.7710    78.5370    61.9570   153.5090    26.5200   -24.5780 
  162.7500     2.2290    53.8670    82.2350    69.7060   176.0550    26.4550   -24.5990 
  162.8750     2.2200    50.0450    72.3270    65.7070   136.2460    26.4370   -24.5920 
  163.0000     2.2230    49.1740    54.6420    52.3530    89.0230    26.3460   -24.5950 
  163.1250     2.2400    55.7410    38.8010    37.9410    48.9140    26.1500   -24.5510 
  163.2500     2.2640    66.2010    28.0070    27.4280    27.2480    26.0100   -24.5150 
  163.3750     2.2920    72.2440    21.4740    20.8850    18.4660    25.9030   -24.4980 
  163.5000     2.3190    70.6290    17.7530    17.1010    16.0680    25.9310   -24.4290 
  163.6250     2.3380    68.6680    15.8490    15.1200    15.8010    25.9840   -24.3880 
  163.7500     2.3490    72.5200    14.7800    13.9860    14.6290    26.0750   -24.3770 
  163.8750     2.3560    78.6400    14.2670    13.4070    12.7450    26.1120   -24.3750 
  164.0000     2.3600    80.7360    14.2890    13.2850    11.2770    26.1630   -24.4040 
  164.1250     2.3640    77.7920    15.2020    13.8230    10.6360    25.9960   -24.4490 
  164.2500     2.3650    75.8190    17.2540    15.2230    11.0810    25.8460   -24.4580 
  164.3750     2.3620    74.6410    20.7060    17.8030    13.0250    25.8460   -24.4670 
