~V
VERS. 2.00: Ver 2.00
~W
STRT.M 62.0000:
STOP.M 219.0000:
STEP.M 0.1250:
NULL. -999.2500:
UWI. F11127:
~C
DEPT.M :
SP.MV :
DEN.GM/CC :
GR.API :
RML.OHMM :
RI. :
RXO.OHMM :
CALI.CM :
~A
# ...
  118.2500    -9.4070     2.4370    82.3010    14.0980    11.5470    27.9950    23.5210 
  118.3750   -10.0340     2.4830    82.7260    14.2340    12.1750    32.9320    23.7250 
  118.5000   -10.7090     2.4590    81.4680    13.1810    11.7340    28.7800    23.7990 
  118.6250   -11.3800     2.3660    78.2600    11.4090    10.4530    17.7510    23.7390 
  118.7500   -11.9960     2.2610    76.0330     9.8110     9.0440    11.4790    23.6080 
  118.8750   -12.5300     2.1890    75.4690     8.9040     8.0820     9.8070    23.5460 
  119.0000   -12.9120     2.1480    75.8120     8.6960     7.6810    10.0750    23.5750 
  119.1250   -13.1380     2.1220    76.5330     8.9590     7.7500    11.1280    23.6740 
  119.2500   -13.1620     2.1060    77.4330     9.4170     8.1350    12.1670    23.7850 
  119.3750   -13.0430     2.0980    78.0280     9.8370     8.6040    12.6640    23.7960 
  119.5000   -12.8550     2.0990    79.1060    10.2690     9.0710    12.5160    23.7360 
  119.6250   -12.5790     2.1040    81.0490    10.8030     9.5580    12.0740    23.6560 
  119.7500   -12.1930     2.1140    81.4090    11.7260    10.2110    12.0820    23.5930 
  119.8750   -11.7130     2.1250    79.7280    13.0170    11.0770    12.8310    23.5510 
  120.0000   -11.1300     2.1380    77.2380    14.2440    12.0530    14.3440    23.5140 
  120.1250   -10.3910     2.1510    75.0270    14.9760    12.8580    16.0270    23.4670 
  120.2500    -9.5380     2.1690    73.6750    14.8260    12.9800    16.9540    23.4130 
  120.3750    -8.6240     2.1950    74.1890    13.7490    12.2590    16.1740    23.3850 
  120.5000    -7.7530     2.2300    76.8910    12.0390    10.8520    13.7350    23.4440 
  120.6250    -7.0280     2.2720    81.4650    10.3240     9.2630    10.6830    23.6050 
  120.7500    -6.4540     2.3100    87.9450     9.4730     8.1920     8.3950    23.8310 
  120.8750    -5.9450     2.3420    93.4460     9.8180     7.9630     7.9740    23.9370 
  121.0000    -5.5330     2.3760    93.5930    11.4650     8.7460     9.9280    23.9140 
  121.1250    -5.3310     2.4160    86.2220    14.2850    10.5970    14.1210    23.8260 
  121.2500    -5.3770     2.4650    73.4590    17.8770    13.4770    19.8450    23.8010 
  121.3750    -5.5420     2.5080    61.8670    21.2740    16.6850    25.2410    23.8030 
  121.5000    -5.6670     2.5320    54.7570    23.6300    19.4630    28.1090    23.8000 
  121.6250    -5.7710     2.5300    52.4530    24.3960    21.0670    26.7640    23.8060 
  121.7500    -5.8650     2.5060    53.4840    23.6550    21.0810    23.7340    23.8260 
  121.8750    -5.9390     2.4800    56.1980    22.7880    20.5060    21.6400    23.8090 
  122.0000    -5.9550     2.4640    60.7310    22.8520    20.3040    21.2950    23.7540 
  122.1250    -5.9360     2.4680    64.9720    24.3910    21.0980    23.0550    23.6850 
  122.2500    -5.8790     2.4980    65.2900    27.5820    23.2530    27.0380    23.6210 
  122.3750    -5.8040     2.5360    61.4980    31.6120    26.2940    32.3590    23.5390 
  122.5000    -5.6880     2.5610    55.7710    35.6930    29.6660    37.7480    23.4890 
  122.6250    -5.5300     2.5630    50.9890    39.0010    32.6790    39.8310    23.4710 
  122.7500    -5.3710     2.5570    48.7600    40.6860    34.5360    37.8620    23.5050 
  122.8750    -5.2800     2.5640    48.4550    40.9740    35.2380    35.8340    23.5910 
  123.0000    -5.2800     2.5860    49.3020    40.3610    35.0900    35.0310    23.6920 
  123.1250    -5.2730     2.6130    50.2310    39.4450    34.5560    35.0840    23.7750 
  123.2500    -5.2720     2.6270    50.1450    38.6710    34.0330    34.7590    23.8110 
  123.3750    -5.2920     2.6250    49.1240    38.0970    33.6610    34.0880    23.8040 
  123.5000    -5.3120     2.6150    48.1810    37.5930    33.3820    34.4010    23.7790 
  123.6250    -5.2980     2.6070    47.6310    36.9440    33.0390    34.6960    23.8150 
  123.7500    -5.2380     2.5990    47.7540    35.8870    32.4010    34.6690    23.8910 
  123.8750    -5.2000     2.5910    49.0410    34.4350    31.4270    34.7530    23.9910 
  124.0000    -5.2370     2.5820    50.3090    32.7120    30.1770    33.7040    24.0190 
  124.1250    -5.2830     2.5680    50.3220    30.9210    28.7930    29.9980    23.9860 
  124.2500    -5.2600     2.5510    49.3260    29.2740    27.4430    26.6220    23.9420 
  124.3750    -5.2310     2.5420    48.7410    27.8060    26.1950    25.1850    23.9230 
  124.5000    -5.3440     2.5450    49.8160    26.4700    25.0320    24.4910    23.9180 
  124.6250    -5.5150     2.5550    51.9630    25.2270    23.9320    23.8420    23.9110 
  124.7500    -5.6720     2.5640    53.2870    24.1200    22.9320    22.3740    23.8710 
  124.8750    -5.7740     2.5710    52.7840    23.1980    22.0720    20.8160    23.8060 
  125.0000    -5.8810     2.5780    52.6930    22.5100    21.3950    20.0540    23.7840 
  125.1250    -6.0640     2.5820    54.5950    22.0540    20.9140    20.2220    23.8370 
  125.2500    -6.2420     2.5820    56.0390    21.7920    20.6230    20.7420    23.8740 
  125.3750    -6.3350     2.5780    55.1900    21.6160    20.4400    20.8380    23.8390 
  125.5000    -6.3490     2.5730    52.9880    21.5130    20.3380    20.2500    23.7580 
  125.6250    -6.3750     2.5710    50.6270    21.5330    20.3380    19.3690    23.6880 
  125.7500    -6.4470     2.5730    47.8630    21.8160    20.5350    19.2260    23.6490 
  125.8750    -6.4700     2.5790    45.5210    22.3830    20.9700    19.9050    23.6820 
  126.0000    -6.3710     2.5850    45.4690    23.1820    21.6380    21.0080    23.7730 
  126.1250    -6.2470     2.5900    47.9380    24.0530    22.4430    22.6590    23.8870 
  126.2500    -6.1510     2.5960    49.6710    24.7020    23.1480    24.7740    23.9890 
  126.3750    -6.0730     2.6030    49.9730    24.9240    23.5180    26.4290    24.0890 
  126.5000    -5.9970     2.6090    51.0620    24.6420    23.4210    26.5750    24.1360 
  126.6250    -5.9780     2.6080    53.0470    23.9300    22.8700    25.2530    24.1080 
  126.7500    -6.0060     2.5940    53.2310    22.9920    22.0060    22.8900    23.9950 
  126.8750    -6.0420     2.5700    52.1960    22.1310    21.1280    21.1890    23.8830 
  127.0000    -6.0910     2.5440    52.1250    21.5100    20.4170    20.5970    23.8140 
  127.1250    -6.1220     2.5230    54.2980    21.1820    19.9620    20.1840    23.7620 
  127.2500    -6.2030     2.5180    56.9500    21.1400    19.8050    20.0170    23.7540 
  127.3750    -6.4030     2.5290    58.0950    21.2400    19.8380    19.6000    23.7570 
  127.5000    -6.6120     2.5490    58.1580    21.3930    19.9800    19.6730    23.7790 
  127.6250    -6.7020     2.5680    58.8830    21.5360    20.1510    20.2940    23.8530 
  127.7500    -6.7370     2.5770    59.2720    21.6300    20.2810    20.9040    23.9160 
  127.8750    -6.8360     2.5780    56.7060    21.6910    20.3520    21.1740    23.9020 
  128.0000    -6.9670     2.5790    52.9140    21.7630    20.3980    20.9970    23.8420 
  128.1250    -7.0590     2.5830    51.8190    21.9030    20.4860    21.0440    23.7130 
  128.2500    -7.1090     2.5760    53.5840    22.1390    20.6910    21.9060    23.5620 
  128.3750    -7.1470     2.5440    54.8830    22.3680    20.9520    23.1670    23.4300 
  128.5000    -7.1550     2.4890    54.6640    22.4200    21.1260    24.8750    23.4280 
  128.6250    -7.1140     2.4340    53.2620    22.1070    21.0170    26.4830    23.6470 
  128.7500    -7.0130     2.4000    52.3310    21.2610    20.4160    26.6090    23.8920 
  128.8750    -6.8730     2.3860    52.9350    20.0820    19.4450    24.0140    23.8920 
  129.0000    -6.7490     2.3820    55.1040    18.8260    18.3160    20.0970    23.7340 
  129.1250    -6.6440     2.3880    57.3970    17.7550    17.2730    17.0490    23.5090 
  129.2500    -6.4880     2.4100    58.2350    17.0920    16.5450    15.7620    23.3120 
  129.3750    -6.2560     2.4370    58.2860    16.7620    16.1180    15.7790    23.3120 
