~V
VERS. 2.00: Ver 2.00
~W
STRT.M 50.0000:
STOP.M 245.0000:
STEP.M 0.1250:
NULL. -999.2500:
UWI. F11135:
~C
DEPT.M :
GR.API :
RML.OHMM :
RI. :
RXO.OHMM :
CALI.CM :
SP.MV :
DEN.GM/CC :
~A
   50.0000  -999.2500  -999.2500  -999.2500  -999.2500  -999.2500  -999.2500  -999.2500 
   50.1250  -999.2500  -999.2500  -999.2500  -999.2500  -999.2500  -999.2500  -999.2500 
   50.2500  -999.2500  -999.2500  -999.2500  -999.2500  -999.2500  -999.2500  -999.2500 
   50.3750  -999.2500  -999.2500  -999.2500  -999.2500  -999.2500  -999.2500  -999.2500 
   50.5000  -999.2500  -999.2500  -999.2500  -999.2500  -999.2500  -999.2500  -999.2500 
   50.6250  -999.2500  -999.2500  -999.2500  -999.2500  -999.2500  -999.2500  -999.2500 
   50.7500  -999.2500  -999.2500  -999.2500  -999.2500  -999.2500  -999.2500  -999.2500 
   50.8750  -999.2500  -999.2500  -999.2500  -999.2500  -999.2500  -999.2500  -999.2500 
   51.0000  -999.2500  -999.2500  -999.2500  -999.2500  -999.2500  -999.2500  -999.2500 
   51.1250  -999.2500  -999.2500  -999.2500  -999.2500  -999.2500  -999.2500  -999.2500 
   51.2500  -999.2500  -999.2500  -999.2500  -999.2500  -999.2500  -999.2500  -999.2500 
   51.3750  -999.2500  -999.2500  -999.2500  -999.2500  -999.2500  -999.2500  -999.2500 
   51.5000  -999.2500  -999.2500  -999.2500  -999.2500  -999.2500  -999.2500  -999.2500 
   51.6250  -999.2500  -999.2500  -999.2500  -999.2500  -999.2500  -999.2500  -999.2500 
   51.7500  -999.2500  -999.2500  -999.2500  -999.2500  -999.2500  -999.2500  -999.2500 
   51.8750  -999.2500  -999.2500  -999.2500  -999.2500  -999.2500  -999.2500  -999.2500 
   52.0000  -999.2500  -999.2500  -999.2500  -999.2500  -999.2500  -999.2500  -999.2500 
   52.1250  -999.2500  -999.2500  -999.2500  -999.2500  -999.2500  -999.2500  -999.2500 
   52.2500    34.9020     0.9610     0.2430     1.1320    25.3680  -999.2500  -999.2500 
   52.3750    34.9020     0.9610     0.2430     1.1320    25.3680  -999.2500  -999.2500 
   52.5000    36.0280     1.1450     0.2430     1.1230    25.3680  -999.2500  -999.2500 
   52.6250    38.7980     1.1770     0.2440     1.1110    25.3680  -999.2500  -999.2500 
   52.7500    41.3610     0.9550     0.2500     1.1040    25.3680  -999.2500  -999.2500 
   52.8750    41.6910     0.6210     0.2580     1.1000    25.3680  -999.2500  -999.2500 
   53.0000    37.9080     0.3200     0.2670     1.1060    25.3680  -999.2500  -999.2500 
   53.1250    34.8090     0.1350     0.2730     1.1220    25.3680  -999.2500  -999.2500 
   53.2500    37.1190     0.0520     0.2750     1.1190    25.3680  -999.2500  -999.2500 
   53.3750    41.4860     0.0430     0.2750     1.0910    25.3680  -999.2500  -999.2500 
   53.5000    41.9780     0.0770     0.2750     1.0500    25.3680  -999.2500  -999.2500 
   53.6250    39.2250     0.1740     0.2770     1.0160    25.3680  -999.2500  -999.2500 
   53.7500    39.3040     0.3440     0.2790     0.9990    25.3680  -999.2500  -999.2500 
   53.8750    40.5650     0.5410     0.2820     0.9850    25.3680  -999.2500  -999.2500 
   54.0000    38.6940     0.6870     0.2830     0.9690    25.3680  -999.2500  -999.2500 
   54.1250    35.2880     0.7050     0.2800     0.9810    25.3670  -999.2500  -999.2500 
   54.2500    36.1490     0.6290     0.2750     1.0170    25.3630  -999.2500  -999.2500 
   54.3750    40.9440     0.5200     0.2700     1.0350    25.3590  -999.2500  -999.2500 
   54.5000    44.3880     0.4480     0.2660     1.0040    25.3660  -999.2500  -999.2500 
   54.6250    42.6710     0.4750     0.2620     0.9620    25.3660  -999.2500  -999.2500 
   54.7500    40.6000     0.5950     0.2590     0.9730    25.3590  -999.2500  -999.2500 
   54.8750    41.6870     0.8230     0.2590     1.0120    25.3620  -999.2500  -999.2500 
   55.0000    43.2720     1.1340     0.2640     1.0610    25.3580  -999.2500  -999.2500 
   55.1250    41.3760     1.3200     0.2710     1.0760    25.3520  -999.2500  -999.2500 
   55.2500    39.6510     1.2070     0.2740     1.0690    25.3100  -999.2500  -999.2500 
   55.3750    41.2870     0.8770     0.2730     1.0500    25.2740  -999.2500  -999.2500 
   55.5000    44.3050     0.5340     0.2690     1.0320    25.2770  -999.2500  -999.2500 
   55.6250    42.8070     0.3090     0.2700     1.0140    25.2690  -999.2500  -999.2500 
   55.7500    38.6840     0.1830     0.2750     0.9970    25.2390  -999.2500  -999.2500 
   55.8750    36.2220     0.1220     0.2810     0.9850    25.2180  -999.2500  -999.2500 
   56.0000    37.1270     0.0880     0.2850     0.9750    25.2060  -999.2500  -999.2500 
   56.1250    38.3750     0.0750     0.2860     0.9770    25.2050  -999.2500  -999.2500 
   56.2500    37.8710     0.0860     0.2860     1.0040    25.2040    73.2240  -999.2500 
   56.3750    38.3390     0.1150     0.2850     1.0500    25.2030    73.2240  -999.2500 
   56.5000    41.2730     0.1560     0.2820     1.0810    25.1950   113.1710  -999.2500 
   56.6250    42.8870     0.2150     0.2770     1.0780    25.1880   113.0730  -999.2500 
   56.7500    40.1720     0.2740     0.2710     1.0700    25.1480   112.8330  -999.2500 
   56.8750    36.7380     0.2890     0.2630     1.0670    25.1220   112.4160     1.8810 
   57.0000    36.2290     0.2360     0.2550     1.0660    25.1170   111.8420     1.8810 
   57.1250    37.4750     0.1630     0.2480     1.0560    25.1170   111.2120     1.8810 
   57.2500    37.1390     0.1140     0.2460     1.0530    25.1170   110.6160     1.8810 
   57.3750    35.5720     0.0860     0.2490     1.0570    25.1170   110.0060     1.8830 
   57.5000    34.0240     0.0650     0.2550     1.0640    25.1170   109.3650     1.8890 
   57.6250    33.8700     0.0430     0.2620     1.0690    25.1170   108.7870     1.9030 
   57.7500    35.0290     0.0210     0.2660     1.0600    25.1170   108.3310     1.9210 
   57.8750    36.5130     0.0130     0.2700     1.0430    25.1180   107.9760     1.9370 
   58.0000    36.7090     0.0620     0.2760     1.0300    25.1190   107.7430     1.9490 
   58.1250    36.0640     0.2150     0.2840     1.0330    25.1270   107.5650     1.9570 
   58.2500    36.1140     0.4280     0.2880     1.0460    25.1280   107.3590     1.9640 
   58.3750    36.5210     0.6010     0.2850     1.0510    25.1280   107.1990     1.9740 
   58.5000    38.7800     0.6120     0.2800     1.0600    25.1280   107.1770     1.9870 
   58.6250    44.2740     0.4530     0.2860     1.0800    25.1250   107.2730     2.0000 
   58.7500    49.0820     0.3140     0.3090     1.0990    25.1180   107.4060     2.0130 
   58.8750    51.6180     0.2780     0.3450     1.1070    25.1170   107.5250     2.0240 
   59.0000    53.2830     0.3350     0.3800     1.1220    25.1170   107.5870     2.0340 
   59.1250    53.9810     0.4160     0.4000     1.1250    25.1170   107.5580     2.0420 
   59.2500    52.8480     0.4550     0.4000     1.1070    25.1170   107.4740     2.0450 
   59.3750    51.4300     0.4420     0.3850     1.0840    25.1170   107.2990     2.0430 
   59.5000    50.2170     0.4030     0.3610     1.0700    25.1140   106.9470     2.0340 
   59.6250    47.8700     0.3920     0.3390     1.0600    25.0960   106.3830     2.0200 
   59.7500    45.4910     0.4190     0.3260     1.0460    25.0570   105.7330     2.0120 
   59.8750    46.2270     0.4780     0.3240     1.0400    25.0460   104.9960     2.0160 
   60.0000    48.0410     0.5930     0.3300     1.0380    25.0440   104.0860     2.0410 
   60.1250    46.5770     0.8210     0.3380     1.0400    25.0560   103.0440     2.0860 
   60.2500    42.5370     1.1850     0.3480     1.0330    25.0720   101.9650     2.1360 
   60.3750    38.2790     1.7230     0.3600     1.0210    25.0830   100.8460     2.1760 
   60.5000    37.1120     2.3940     0.3740     1.0180    25.0840    99.6740     2.1900 
   60.6250    38.4220     2.7160     0.3890     1.0230    25.0840    98.4680     2.1680 
   60.7500    38.5660     2.3600     0.4050     1.0310    25.0840    97.1940     2.1250 
   60.8750    36.7910     1.7560     0.4160     1.0420    25.0810    95.8920     2.0730 
   61.0000    34.9430     1.2520     0.4190     1.0490    25.0630    94.5670     2.0280 
   61.1250    35.1080     0.8900     0.4080     1.0580    25.0450    93.1160     2.0000 
