~V
VERS. 2.00: Ver 2.00
~W
STRT.M 45.0000:
STOP.M 264.0000:
STEP.M 0.1250:
NULL. -999.2500:
UWI. F11189:
~C
DEPT.M :
SP.MV :
GR.API :
RI. :
RML.OHMM :
RXO.OHMM :
DEN.GM/CC :
~A
# ...
  238.1250     4.1300   107.2320     4.9530     5.7590     8.5620     2.2780 
  238.2500     3.7700    94.9530     6.7200     8.0670    28.3930     2.2570 
  238.3750     3.3660    82.1520     9.9160    12.0870    47.7050     2.2120 
  238.5000     2.9510    73.5230    13.8010    16.6170    38.7790     2.1720 
  238.6250     2.5650    68.7750    16.9960    20.0360    23.4290     2.1560 
  238.7500     2.2340    65.2730    19.0820    21.9940    19.9970     2.1540 
  238.8750     1.9740    61.8560    19.5040    22.0290    20.6610     2.1520 
  239.0000     1.7730    60.6890    19.4090    21.7170    21.1080     2.1460 
  239.1250     1.6270    62.7900    19.3170    21.5380    20.3310     2.1410 
  239.2500     1.5270    66.3020    19.1760    21.3360    19.4480     2.1420 
  239.3750     1.4790    69.9650    18.9250    21.0600    18.7330     2.1510 
  239.5000     1.4870    72.8080    18.6690    20.8080    18.4560     2.1630 
  239.6250     1.5650    73.2780    18.4270    20.5450    18.9640     2.1700 
  239.7500     1.7110    71.5700    18.1410    20.1950    19.6210     2.1630 
  239.8750     1.9300    70.2570    17.7660    19.6660    18.9960     2.1470 
  240.0000     2.2080    72.2790    17.2260    18.8850    17.5310     2.1450 
  240.1250     2.5270    75.7960    16.5910    17.9910    16.7070     2.1580 
  240.2500     2.8540    77.6540    15.9750    17.1280    16.6310     2.1680 
  240.3750     3.1600    75.9400    15.5930    16.5660    16.4080     2.1690 
  240.5000     3.4340    73.7180    15.5980    16.4680    16.0230     2.1680 
  240.6250     3.6770    74.4720    15.9620    16.7860    16.2600     2.1730 
  240.7500     3.8980    75.8740    16.6450    17.4660    17.3740     2.1780 
  240.8750     4.0890    75.1720    17.4940    18.3040    19.0120     2.1770 
  241.0000     4.2460    73.2020    18.2380    18.9890    20.3300     2.1720 
  241.1250     4.3590    72.0650    18.5500    19.1620    20.8430     2.1760 
  241.2500     4.4360    72.0020    18.3770    18.8030    20.3920     2.1860 
  241.3750     4.4820    72.0060    17.7370    17.9670    19.0780     2.1910 
  241.5000     4.5070    74.6410    16.9330    17.0190    17.8420     2.1880 
  241.6250     4.5060    79.6770    16.3080    16.3450    17.3370     2.1840 
  241.7500     4.4770    84.2380    16.1190    16.1900    17.1170     2.1810 
  241.8750     4.4150    85.3360    16.6000    16.7740    16.8070     2.1820 
  242.0000     4.3360    82.4550    17.4700    17.7440    17.2280     2.1870 
  242.1250     4.2550    77.1450    18.4890    18.8440    19.3780     2.1930 
  242.2500     4.1910    72.3330    19.3900    19.7790    21.6790     2.2000 
  242.3750     4.1640    70.3680    20.0370    20.3900    21.5950     2.2040 
  242.5000     4.1920    70.0100    20.6650    20.9810    19.6890     2.1980 
  242.6250     4.3040    70.1720    21.3580    21.6630    18.2460     2.1850 
  242.7500     4.5020    71.0060    22.3570    22.7250    18.8600     2.1810 
  242.8750     4.7780    72.2030    23.9770    24.4870    22.9170     2.1920 
  243.0000     5.0860    72.3770    25.9150    26.5500    27.0340     2.2000 
  243.1250     5.3750    69.8500    27.6190    28.3010    26.8080     2.1950 
  243.2500     5.6120    66.2010    28.7760    29.4560    25.2790     2.1800 
  243.3750     5.7870    64.9520    29.3290    29.9780    24.9080     2.1700 
  243.5000     5.9200    66.6050    29.5050    30.0830    24.6350     2.1650 
  243.6250     6.0240    69.7080    29.3130    29.7820    24.3210     2.1570 
  243.7500     6.1080    69.9550    28.9210    29.2260    25.0070     2.1450 
  243.8750     6.1640    67.5850    28.1700    28.2810    26.3630     2.1410 
  244.0000     6.1920    66.4970    27.2660    27.2080    25.2980     2.1500 
  244.1250     6.1990    68.9920    26.3650    26.1770    23.4770     2.1600 
  244.2500     6.2010    71.1170    25.6100    25.3270    24.2780     2.1660 
  244.3750     6.2060    69.0630    25.1800    24.8250    25.1340     2.1700 
  244.5000     6.2190    65.9900    25.2400    24.8070    24.2910     2.1690 
  244.6250     6.2460    66.6390    25.6690    25.1430    23.7950     2.1600 
  244.7500     6.2960    69.4350    26.2990    25.6820    24.7190     2.1550 
  244.8750     6.3760    70.2240    27.1590    26.4780    25.6710     2.1560 
  245.0000     6.4620    67.8700    28.1030    27.3590    25.8220     2.1530 
  245.1250     6.5020    65.4830    28.9110    28.1100    25.7930     2.1420 
  245.2500     6.4690    64.5040    29.4940    28.6410    25.9440     2.1400 
  245.3750     6.3830    64.7700    29.6280    28.7490    25.9570     2.1440 
  245.5000     6.3150    65.3490    29.3990    28.5190    25.9520     2.1420 
  245.6250     6.3360    65.2520    28.9750    28.1210    26.0480     2.1390 
  245.7500     6.4490    64.3870    28.6920    27.8660    25.3990     2.1390 
  245.8750     6.6190    64.5320    28.7700    27.9500    23.4940     2.1430 
  246.0000     6.7800    67.2680    29.2240    28.3940    22.3140     2.1460 
  246.1250     6.8820    69.4360    30.4560    29.6360    24.2470     2.1450 
  246.2500     6.9240    68.9950    32.5340    31.7610    27.1730     2.1460 
  246.3750     6.9380    68.0790    34.2510    33.2450    32.6690     2.1650 
  246.5000     6.9710    69.0190    34.3270    33.0880    39.8240     2.2040 
  246.6250     7.0410    70.6150    32.6270    31.1230    39.3790     2.2300 
  246.7500     7.1270    71.0980    29.9240    28.2510    32.7620     2.2200 
  246.8750     7.2060    71.7660    27.7230    26.0860    25.6540     2.1950 
  247.0000     7.2780    73.1370    26.2830    24.6580    22.9880     2.1870 
  247.1250     7.3600    73.5570    25.4570    23.9130    30.3560     2.1960 
  247.2500     7.4460    72.5000    25.4470    23.9680    36.2600     2.1980 
  247.3750     7.5110    71.6610    25.9920    24.4910    30.3300     2.1830 
  247.5000     7.5550    71.2860    26.7520    25.1560    23.4160     2.1660 
  247.6250     7.6220    70.7160    27.5690    25.8550    22.8170     2.1570 
  247.7500     7.7580    69.9180    28.7060    26.9490    24.8390     2.1560 
  247.8750     7.9580    69.4930    30.6410    28.8890    27.5430     2.1560 
  248.0000     8.1470    68.8990    33.1590    31.4070    31.0920     2.1540 
  248.1250     8.2260    67.7850    35.5180    33.7440    34.9440     2.1520 
  248.2500     8.1670    66.2260    37.1700    35.3630    36.2840     2.1510 
  248.3750     8.0030    64.5860    38.0150    36.1910    34.6180     2.1500 
  248.5000     7.8210    63.5300    38.3160    36.5320    32.8830     2.1460 
  248.6250     7.6870    63.6490    38.5350    36.9050    32.1340     2.1390 
  248.7500     7.6160    63.8580    38.9300    37.5200    34.0920     2.1320 
  248.8750     7.5910    63.3920    39.4500    38.2500    38.4200     2.1380 
  249.0000     7.5860    63.1640    39.8420    38.7780    39.3140     2.1560 
  249.1250     7.5850    62.9340    40.3070    39.2930    35.8680     2.1730 
  249.2500     7.5850    62.3190    40.5520    39.5150    33.6940     2.1840 
  249.3750     7.5850    61.4430    40.8580    39.7850    36.3090     2.2040 
  249.5000     7.5850    61.7630    41.7810    40.6580    36.7450     2.2450 
  249.6250     7.5850    63.0000    43.4430    42.2210    33.3360     2.2960 
  249.7500     7.5850    63.9750    45.4790    44.1110    38.6200     2.3320 
  249.8750     7.5850    64.3350    47.0810    45.6100    58.4890     2.3500 
  250.0000     7.5850    64.3260    47.0590    45.5300    70.3460     2.3660 
  250.1250     7.5850    64.2530    45.6130    44.1920    52.6960     2.3870 
  250.2500     7.5850    64.3250    44.1830    42.8600    35.2390     2.4040 
  250.3750     7.5850    64.2410    43.0070    41.7360    37.2590     2.4080 
  250.5000     7.5850    63.6220    43.8470    42.5420    45.5450     2.4120 
  250.6250     7.5850    62.5330    47.4520    46.0950    53.3680     2.4150 
  250.7500     7.5850    62.4860    53.8700    52.5370    61.3710     2.4090 
  250.8750     7.5850    63.7550    62.3010    61.1180   106.4650     2.4000 
