~V
VERS. 2.00: Ver 2.00
~W
STRT.M 45.0000:
STOP.M 268.0000:
STEP.M 0.1250:
NULL. -999.2500:
UWI. F11184:
~C
DEPT.M :
SP.MV :
GR.API :
RI. :
RML.OHMM :
RXO.OHMM :
DEN.GM/CC :
~A
# ...
  212.3750    -7.0030    71.1270     5.3300     5.7970     7.7550     2.3390 
  212.5000    -7.0150    70.9250     6.2070     6.7170     9.8910     2.3980 
  212.6250    -6.9160    67.6230     7.0440     7.5970    11.9040     2.4440 
  212.7500    -6.7240    64.8380     7.2650     7.8290    13.3040     2.4730 
  212.8750    -6.4420    64.8740     6.4770     7.0010    14.3330     2.4630 
  213.0000    -6.0870    67.5040     4.9940     5.4440    12.9040     2.4070 
  213.1250    -5.6750    68.6420     3.3360     3.7030     7.7770     2.3410 
  213.2500    -5.2450    66.5080     2.1580     2.4660     3.2860     2.3110 
  213.3750    -4.8430    62.7210     1.5490     1.8260     2.0890     2.3190 
  213.5000    -4.5060    59.4670     1.2700     1.5340     2.0830     2.3250 
  213.6250    -4.2610    58.7400     1.2000     1.4600     2.0690     2.3160 
  213.7500    -4.0960    58.1860     1.2250     1.4860     2.0440     2.3090 
  213.8750    -3.9940    56.5440     1.2810     1.5450     2.0480     2.3140 
  214.0000    -3.9290    55.8670     1.3160     1.5810     2.0480     2.3220 
  214.1250    -3.8900    59.5570     1.3270     1.5930     2.0280     2.3210 
  214.2500    -3.8770    65.7130     1.3240     1.5900     1.9780     2.3150 
  214.3750    -3.9040    69.5150     1.3050     1.5710     1.9060     2.3080 
  214.5000    -3.9830    70.7140     1.2850     1.5490     1.8910     2.3030 
  214.6250    -4.1350    71.5840     1.2800     1.5440     1.9090     2.3120 
  214.7500    -4.3640    72.6910     1.2910     1.5560     1.9580     2.3360 
  214.8750    -4.6810    73.1280     1.3110     1.5770     2.1150     2.3580 
  215.0000    -5.0750    73.1410     1.3250     1.5920     2.2750     2.3580 
  215.1250    -5.5520    72.4900     1.3150     1.5810     2.3220     2.3410 
  215.2500    -6.1080    71.6500     1.2850     1.5500     2.3070     2.3200 
  215.3750    -6.7640    72.5040     1.2550     1.5180     2.2170     2.3040 
  215.5000    -7.5290    75.6920     1.2420     1.5040     2.1880     2.2970 
  215.6250    -8.4260    77.8430     1.2800     1.5440     2.3020     2.3070 
  215.7500    -9.4500    78.1220     1.3780     1.6470     2.4850     2.3260 
  215.8750   -10.6040    77.7910     1.5780     1.8570     2.8940     2.3400 
  216.0000   -11.8570    77.5350     1.8730     2.1670     3.5660     2.3390 
  216.1250   -13.1790    74.0880     2.2370     2.5480     5.0010     2.3130 
  216.2500   -14.5130    68.7980     2.6870     3.0220     6.7740     2.2640 
  216.3750   -15.7870    64.5940     3.2570     3.6190     7.2960     2.2260 
  216.5000   -16.9360    62.1310     3.9780     4.3770     6.9550     2.2430 
  216.6250   -17.8980    60.5330     4.7010     5.1360     8.5390     2.3030 
  216.7500   -18.6690    58.5190     5.3000     5.7650    12.1190     2.3320 
  216.8750   -19.2510    56.4710     5.6020     6.0820    12.8120     2.2900 
  217.0000   -19.6930    54.0380     5.6000     6.0800    10.0080     2.2200 
  217.1250   -20.0250    52.2700     5.4070     5.8770     7.9840     2.1780 
  217.2500   -20.2870    53.0550     5.1600     5.6180     7.5750     2.1700 
  217.3750   -20.5000    56.7000     5.1090     5.5640     7.4370     2.1760 
  217.5000   -20.6800    59.1920     5.3000     5.7650     7.4600     2.1830 
  217.6250   -20.8310    58.3490     5.7670     6.2550     8.0230     2.1840 
  217.7500   -20.9520    57.0360     6.4390     6.9610     8.9340     2.1740 
  217.8750   -21.0420    57.6480     7.2770     7.8410     9.8320     2.1500 
  218.0000   -21.1030    57.5860     8.2490     8.8610    10.7540     2.1240 
  218.1250   -21.1410    55.4700     9.2020     9.8620    11.7340     2.1110 
  218.2500   -21.1670    54.2610     9.9860    10.6850    12.1690     2.1080 
  218.3750   -21.1930    53.9790    10.5210    11.2470    12.0610     2.1080 
  218.5000   -21.2290    53.1290    10.7880    11.5280    12.1520     2.1060 
  218.6250   -21.2820    53.4250    10.8470    11.5900    12.4800     2.1110 
  218.7500   -21.3530    54.5920    10.7720    11.5110    12.2400     2.1220 
  218.8750   -21.4370    55.5620    10.6500    11.3820    11.2340     2.1290 
  219.0000   -21.5230    55.9930    10.5590    11.2870    10.5750     2.1240 
  219.1250   -21.6060    58.0110    10.5770    11.3060    10.7180     2.1130 
  219.2500   -21.6850    60.4930    10.7300    11.4660    11.2730     2.1040 
  219.3750   -21.7690    61.0690    10.9820    11.7310    11.6830     2.0960 
  219.5000   -21.8680    59.7120    11.2220    11.9830    11.9350     2.0950 
  219.6250   -21.9950    58.2670    11.3280    12.0950    12.1180     2.1090 
  219.7500   -22.1490    58.6000    11.2280    11.9900    11.8910     2.1280 
  219.8750   -22.3270    59.7260    10.9010    11.6460    11.3030     2.1340 
  220.0000   -22.5180    59.3420    10.3690    11.0880    10.6060     2.1240 
  220.1250   -22.7110    60.4860     9.7180    10.4040    10.1160     2.1170 
  220.2500   -22.8940    62.9640     8.9010     9.5460     9.4030     2.1200 
  220.3750   -23.0480    63.2480     8.0820     8.6860     8.2780     2.1270 
  220.5000   -23.1600    59.7480     7.4290     8.0010     7.3400     2.1280 
  220.6250   -23.2060    56.9180     7.0110     7.5610     6.7620     2.1190 
  220.7500   -23.1820    57.8070     6.8800     7.4240     7.0150     2.1060 
  220.8750   -23.0850    60.7450     6.9210     7.4670     8.1090     2.1000 
  221.0000   -22.9380    61.4130     6.9960     7.5450     8.7450     2.1050 
  221.1250   -22.7630    59.7300     7.0300     7.5820     8.6510     2.1200 
  221.2500   -22.5850    58.7820     6.9790     7.5280     8.7440     2.1350 
  221.3750   -22.4230    58.5300     6.8470     7.3900     9.0850     2.1370 
  221.5000   -22.2840    56.6310     6.7550     7.2930     9.1080     2.1260 
  221.6250   -22.1740    55.3960     6.7650     7.3030     9.1810     2.1160 
  221.7500   -22.0930    55.4090     6.8860     7.4300     9.8320     2.1110 
  221.8750   -22.0400    54.9800     7.1270     7.6830    10.2420     2.1060 
  222.0000   -22.0110    54.9060     7.4570     8.0300    10.1180     2.1030 
  222.1250   -22.0020    57.0870     7.8680     8.4610    10.1640     2.1030 
  222.2500   -22.0050    59.0860     8.2290     8.8410    10.3480     2.0990 
  222.3750   -22.0180    58.5640     8.4720     9.0960    10.7720     2.0930 
  222.5000   -22.0360    58.2410     8.5680     9.1970    11.1800     2.0910 
  222.6250   -22.0550    59.2770     8.5220     9.1480    10.8270     2.0910 
  222.7500   -22.0650    59.8520     8.4010     9.0210    10.4080     2.0900 
  222.8750   -22.0520    60.6070     8.2310     8.8420    10.5630     2.0910 
  223.0000   -22.0060    61.4430     8.0860     8.6900    10.7420     2.0960 
  223.1250   -21.9200    61.7830     7.9600     8.5580    10.4660     2.1070 
  223.2500   -21.8020    60.1160     7.8640     8.4570    10.0750     2.1160 
  223.3750   -21.6610    59.1920     7.7950     8.3850    10.1830     2.1180 
  223.5000   -21.5110    60.4720     7.7530     8.3410    10.2830     2.1190 
  223.6250   -21.3630    61.5850     7.7480     8.3350     9.8960     2.1400 
  223.7500   -21.2220    60.1400     7.7550     8.3430    10.1430     2.1670 
  223.8750   -21.0890    59.4500     7.7470     8.3340    10.7600     2.1760 
  224.0000   -20.9630    62.0390     7.6850     8.2690    10.5410     2.1660 
  224.1250   -20.8420    64.2180     7.5670     8.1450    10.1710     2.1570 
  224.2500   -20.7230    62.8890     7.3990     7.9690    10.0210     2.1510 
  224.3750   -20.6060    60.4720     7.1890     7.7490     9.8630     2.1450 
  224.5000   -20.4900    59.3570     7.0080     7.5580     9.7640     2.1360 
  224.6250   -20.3760    58.8200     6.8740     7.4180     9.5670     2.1320 
  224.7500   -20.2630    58.3420     6.8580     7.4000     9.5610     2.1320 
  224.8750   -20.1550    59.7320     6.9700     7.5180     9.9410     2.1320 
  225.0000   -20.0540    60.4130     7.1820     7.7410    10.1420     2.1300 
  225.1250   -19.9640    60.5030     7.5570     8.1350    10.0460     2.1270 
