~V
VERS. 2.00: Ver 2.00
~W
STRT.M 50.0000:
STOP.M 243.0000:
STEP.M 0.1250:
NULL. -999.2500:
UWI. F11115:
~C
DEPT.M :
DEN.GM/CC :
GR.API :
RML.OHMM :
RI. :
RXO.OHMM :
CALI.CM :
SP.MV :
~A
# ...
  151.2500     2.4470    44.0480    12.4570     9.7980    11.3430    26.5980   -21.9160 
  151.3750     2.4420    44.0120    12.2610     9.6800    11.1940    26.6570   -21.9620 
  151.5000     2.4450    44.3430    12.0600     9.5740    10.8300    26.6940   -21.9690 
  151.6250     2.4530    43.8710    11.8790     9.4920    10.7820    26.8010   -21.9690 
  151.7500     2.4580    44.4970    11.7300     9.4230    11.0870    26.9930   -22.0050 
  151.8750     2.4590    46.0800    11.6460     9.3530    11.0200    27.2160   -22.0660 
  152.0000     2.4570    46.8820    11.6610     9.2710    10.6410    27.3960   -22.1260 
  152.1250     2.4560    45.9920    11.7620     9.1730    10.4690    27.5000   -22.1790 
  152.2500     2.4430    45.1860    11.8600     9.0840    10.7970    27.5830   -22.2460 
  152.3750     2.4040    46.0160    11.9090     9.0230    11.1780    27.6720   -22.3310 
  152.5000     2.3450    49.0110    11.9030     8.9970    10.9740    27.7580   -22.4230 
  152.6250     2.2900    52.6700    11.8480     8.9940    11.0760    27.8600   -22.4740 
  152.7500     2.2640    54.1510    11.7580     8.9840    13.1040    28.0280   -22.5020 
  152.8750     2.2780    54.0740    11.6370     8.9590    16.3100    28.1910   -22.5310 
  153.0000     2.3210    53.4560    11.5060     8.9360    17.3370    28.2080   -22.5340 
  153.1250     2.3610    52.4810    11.4360     8.9570    14.2530    28.0600   -22.4470 
  153.2500     2.3800    51.8940    11.4820     9.0370    12.0270    27.9400   -22.3080 
  153.3750     2.3860    52.5680    11.6440     9.1660    11.1690    27.9040   -22.1440 
  153.5000     2.3910    52.9870    11.8730     9.3190    10.9580    27.8840   -21.9590 
  153.6250     2.3970    52.7370    12.0940     9.4600    11.1550    27.8410   -21.7500 
  153.7500     2.4000    53.4970    12.2580     9.5690    11.4270    27.7890   -21.5380 
  153.8750     2.4020    54.6240    12.3550     9.6470    11.3900    27.7420   -21.3490 
  154.0000     2.4080    55.4110    12.3910     9.6980    11.2930    27.6940   -21.2050 
  154.1250     2.4190    55.9790    12.3470     9.7040    11.5210    27.6390   -21.0940 
  154.2500     2.4330    56.2210    12.2190     9.6500    11.9040    27.5990   -20.9750 
  154.3750     2.4380    55.7790    12.0140     9.5290    11.6360    27.5970   -20.8500 
  154.5000     2.4240    54.9510    11.7660     9.3640    11.1380    27.6270   -20.7590 
  154.6250     2.3910    53.0510    11.5330     9.2100    10.6790    27.6550   -20.7290 
  154.7500     2.3570    49.7460    11.3710     9.1230    10.4170    27.6530   -20.7320 
  154.8750     2.3410    47.5500    11.3160     9.1300    10.5080    27.5620   -20.7630 
  155.0000     2.3570    49.6040    11.3680     9.2320    10.8490    27.2760   -20.8530 
  155.1250     2.4070    52.7380    11.4890     9.4060    11.2600    26.7810   -21.0580 
  155.2500     2.4660    53.3960    11.5880     9.5850    11.2090    26.3340   -21.3310 
  155.3750     2.5100    52.1690    11.6090     9.7140    11.1100    26.1200   -21.6340 
  155.5000     2.5310    50.7170    11.5190     9.7520    10.9110    26.1330   -21.9560 
  155.6250     2.5310    50.2220    11.2930     9.6580    10.7070    26.2370   -22.2810 
  155.7500     2.5220    50.8970    10.9600     9.4620    10.6640    26.3410   -22.5960 
  155.8750     2.5080    50.7890    10.5430     9.1920    10.4870    26.4610   -22.8890 
  156.0000     2.4910    48.4030    10.0790     8.8690    10.0900    26.6130   -23.1420 
  156.1250     2.4720    45.4590     9.6150     8.4960     9.5770    26.7860   -23.3420 
  156.2500     2.4550    46.9380     9.1620     8.0800     9.1610    26.9550   -23.5260 
  156.3750     2.4420    53.0540     8.7030     7.6340     8.7500    27.1200   -23.6910 
  156.5000     2.4280    58.1180     8.2690     7.2170     8.1910    27.3060   -23.8380 
  156.6250     2.4000    57.5870     8.0670     7.0000     7.8160    27.5420   -23.9870 
  156.7500     2.3460    54.6380     8.3770     7.1400     7.5630    27.7910   -24.1470 
  156.8750     2.2610    52.8420     9.5710     7.8170     8.3510    28.0000   -24.3090 
  157.0000     2.1590    52.6170    12.1070     9.2550    11.8260    28.2430   -24.4900 
  157.1250     2.0690    53.2710    16.9000    11.9820    21.0780    28.7580   -24.7300 
  157.2500     2.0360    54.6740    24.1940    16.1880    32.9570    29.5220   -25.0200 
  157.3750     2.0370    56.3670    34.2580    22.0350    46.4730    30.3280   -25.3220 
  157.5000     2.0380    56.5210    46.8480    29.2360    62.9770    29.8450   -25.6040 
  157.6250     2.0360    55.8360    57.7440    36.8440    77.5200    29.5230   -25.8430 
  157.7500     2.0360    55.1300    60.8800    43.7050    93.5450    29.5030   -26.0540 
  157.8750     2.0340    54.2230    71.5900    49.3980   116.5350    29.7860   -26.2350 
  158.0000     2.0300    53.6580    81.2150    53.8880   140.4480    30.3650   -26.3650 
  158.1250     2.0260    52.8690    88.5380    56.8640   144.0410    30.3940   -26.4490 
  158.2500     2.0230    52.3630    92.7830    58.4060   126.3130    30.4000   -26.5490 
  158.3750     2.0230    52.7250    93.8140    58.6430   112.0380    30.3930   -26.6830 
  158.5000     2.0230    54.1460    92.4620    57.9430   107.6120    30.4310   -26.8300 
  158.6250     2.0210    56.0050    89.7600    58.3040   113.1660    30.5680   -26.9690 
  158.7500     2.0170    56.9750    86.5920    61.6190   118.9470    30.7440   -27.1090 
  158.8750     2.0110    56.8040    83.0630    59.9510   124.8300    30.8750   -27.2580 
  159.0000     2.0060    56.1810    79.1950    58.2490   133.6600    30.9330   -27.4000 
  159.1250     2.0050    56.0410    75.2120    56.5750   126.6220    30.9330   -27.5210 
  159.2500     2.0050    55.1810    71.5000    55.0140   113.6280    30.8510   -27.6210 
  159.3750     2.0050    52.8280    68.2600    53.6230   109.9870    30.7000   -27.6990 
  159.5000     2.0060    50.6940    65.4410    52.3900   108.9730    30.5660   -27.7430 
  159.6250     2.0090    51.2780    62.6790    51.1600   102.3150    30.5260   -27.7660 
  159.7500     2.0140    52.1170    59.3850    49.6260    93.3420    30.5310   -27.7800 
  159.8750     2.0190    52.0700    55.1090    47.4980    83.9790    30.5340   -27.7710 
  160.0000     2.0210    52.1190    49.7420    44.6150    75.5450    30.5330   -27.7450 
  160.1250     2.0200    53.2550    43.6050    40.9930    64.0600    30.5330   -27.7220 
  160.2500     2.0180    55.4930    37.5390    37.1050    53.2120    30.5360   -27.7140 
  160.3750     2.0170    57.5550    32.1210    33.3360    41.0830    30.5280   -27.7220 
  160.5000     2.0180    57.9930    27.7430    30.0230    30.6130    30.4790   -27.7430 
  160.6250     2.0180    55.8680    24.8570    27.5830    25.1150    30.3760   -27.7700 
  160.7500     2.0190    51.9890    23.3700    26.1070    22.7460    30.3070   -27.8170 
  160.8750     2.0200    49.5600    23.3370    25.7270    21.1440    30.3380   -27.9090 
  161.0000     2.0210    50.8820    24.7900    26.5170    20.0540    30.4430   -28.0090 
  161.1250     2.0220    53.1860    27.9290    28.6300    20.4250    30.5190   -28.0780 
  161.2500     2.0220    52.4590    32.2700    31.6420    24.3130    30.5380   -28.1410 
  161.3750     2.0210    51.0120    37.2860    35.1070    30.7980    30.5340   -28.2220 
  161.5000     2.0240    53.6060    42.1800    38.4240    34.0010    30.5320   -28.2990 
  161.6250     2.0360    57.3680    45.9310    40.8830    31.0190    30.5340   -28.3520 
  161.7500     2.0530    57.1980    48.4810    42.4660    29.0230    30.5610   -28.3930 
  161.8750     2.0660    55.1250    50.3850    43.4980    29.9850    30.6120   -28.4230 
  162.0000     2.0720    54.7850    52.4820    44.4710    34.6780    30.6590   -28.4370 
  162.1250     2.0700    55.7290    55.5060    45.7960    35.8810    30.6500   -28.4360 
  162.2500     2.0630    56.5490    59.2890    47.4350    34.7350    30.6010   -28.4230 
  162.3750     2.0520    57.0850    63.4810    49.2120    36.1640    30.5520   -28.4030 
