~V
VERS. 2.00: Ver 2.00
~W
STRT.M 52.0000:
STOP.M 239.0000:
STEP.M 0.1250:
NULL. -999.2500:
UWI. F11118:
~C
DEPT.M :
DEN.GM/CC :
GR.API :
RML.OHMM :
RI. :
RXO.OHMM :
CALI.CM :
SP.MV :
~A
# ...
  187.0000     2.1890    67.6770    62.2760    56.6730    53.3350    25.6560   -29.1640 
  187.1250     2.1920    65.2730    69.0380    62.3310    59.1810    25.6410   -28.5020 
  187.2500     2.2300    63.5720    77.2600    69.4320    65.6820    25.5270   -27.8240 
  187.3750     2.3030    64.0720    86.2260    77.1610    74.3630    24.9340   -27.1460 
  187.5000     2.3970    64.0080    95.0260    84.5830    86.4920    24.3920   -26.4900 
  187.6250     2.4820    60.5070   102.4130    90.6760   106.1940    24.2830   -25.8790 
  187.7500     2.5360    58.2640   107.8420    95.2880   131.4810    24.5670   -25.3080 
  187.8750     2.5610    58.6900   111.2830    98.5740   143.0590    25.1900   -24.7690 
  188.0000     2.5720    59.5210   113.1580   100.7750   132.5980    25.3920   -24.2670 
  188.1250     2.5880    59.4140   112.9470   101.2300   134.1850    25.2670   -23.7700 
  188.2500     2.6120    59.0030   109.1630    98.6800   148.2090    25.1800   -23.3110 
  188.3750     2.6390    58.5240   100.3200    91.8820   159.3620    25.1040   -22.8740 
  188.5000     2.6610    59.2030    87.1740    81.2190   152.7070    25.0750   -22.4590 
  188.6250     2.6650    62.9830    73.2060    69.1510   126.1220    25.1530   -22.0560 
  188.7500     2.6540    67.2620    62.0360    58.8440    93.0730    25.2310   -21.6650 
  188.8750     2.6350    68.8710    54.7790    51.5510    65.7410    25.3200   -21.2970 
  189.0000     2.6210    67.8700    50.5800    46.9190    48.6540    25.4020   -20.9560 
  189.1250     2.6250    66.6280    46.8750    43.0810    49.0220    25.1580   -20.6840 
  189.2500     2.6410    66.6000    40.9150    37.6120    55.0100    24.8950   -20.4490 
  189.3750     2.6550    66.6270    32.2090    29.9960    55.9780    24.6210   -20.2590 
  189.5000     2.6460    68.2880    22.5860    21.7160    38.2030    24.2080   -20.0940 
  189.6250     2.5980    75.5680    15.0230    15.1170    17.6900    23.9620   -19.9820 
  189.7500     2.5280    84.2130    10.2430    10.6860     8.5750    23.8660   -19.9100 
  189.8750     2.4580    87.1370     7.8180     8.0920     5.6580    23.8580   -19.8840 
  190.0000     2.4040    83.5600     6.9950     6.8240     5.3780    23.8730   -19.9340 
  190.1250     2.3790    80.7140     7.1990     6.5720     6.2170    23.9020   -20.0970 
  190.2500     2.3740    80.4200     7.7770     6.8560     7.1630    23.6570   -20.3820 
  190.3750     2.3820    80.3820     8.4210     7.3970     7.8220    23.4400   -20.8000 
  190.5000     2.3940    80.5960     8.9040     7.9210     7.8450    23.4550   -21.3670 
  190.6250     2.4000    83.2670     9.0590     8.2020     7.4140    24.0600   -22.0810 
  190.7500     2.3950    90.7180     8.9830     8.2670     7.1030    24.8610   -22.9500 
  190.8750     2.3730    98.9460     8.8080     8.2080     7.1200    25.6270   -23.9430 
  191.0000     2.3400   102.5400     8.6760     8.1150     7.3120    26.2830   -25.0160 
  191.1250     2.3100   100.5810     8.6880     8.0270     7.4820    26.8170   -26.0990 
  191.2500     2.2940    98.0700     8.7980     7.9310     7.5370    26.8090   -27.1360 
  191.3750     2.2950    96.6360     8.9150     7.8060     7.5560    26.1020   -28.1000 
  191.5000     2.3070    94.8010     8.9370     7.6530     7.6590    25.9180   -28.9570 
  191.6250     2.3190    94.1760     8.8330     7.5220     7.5860    25.9280   -29.7050 
  191.7500     2.3260    95.0240     8.6990     7.4580     7.5670    26.0560   -30.3360 
  191.8750     2.3320    93.2920     8.6390     7.4780     7.6970    26.0780   -30.8530 
  192.0000     2.3410    87.3260     8.7490     7.5920     7.8970    26.1490   -31.2390 
  192.1250     2.3560    82.4720     9.0700     7.8060     8.3720    25.9450   -31.5020 
  192.2500     2.3700    83.4120     9.4840     8.0550     9.0510    25.7740   -31.6620 
  192.3750     2.3780    85.5480     9.8580     8.2520     9.3480    25.5980   -31.7120 
  192.5000     2.3800    84.4180    10.0790     8.3040     9.3010    25.5890   -31.6770 
  192.6250     2.3780    83.6750    10.0600     8.1310     8.7840    25.5810   -31.4810 
  192.7500     2.3760    85.4480     9.8460     7.8090     8.1940    25.5030   -31.1670 
  192.8750     2.3760    85.7160     9.5240     7.4390     7.4170    25.3420   -30.7190 
  193.0000     2.3750    85.3760     9.2230     7.1080     6.7770    25.4710   -30.1860 
  193.1250     2.3700    90.2290     9.0920     6.8710     6.4820    25.5860   -29.5710 
  193.2500     2.3620    94.7300     9.1610     6.7340     6.5380    25.7200   -28.9410 
  193.3750     2.3550    92.0200     9.3830     6.7340     7.1390    25.8640   -28.3150 
  193.5000     2.3540    84.0950     9.6770     6.9320     7.8280    26.2000   -27.7380 
  193.6250     2.3670    80.3310    10.0630     7.4460     8.1810    26.0590   -27.2950 
  193.7500     2.3900    79.9990    10.6960     8.2820     9.0650    25.7390   -26.9470 
  193.8750     2.4140    78.8600    11.8090     9.4530    10.8150    25.3830   -26.6850 
  194.0000     2.4260    74.3320    13.5300    10.9270    13.5020    25.2960   -26.4670 
  194.1250     2.4170    68.5370    15.8060    12.6470    16.5410    24.7730   -26.2790 
  194.2500     2.3980    66.4480    18.2370    14.4510    20.2570    24.0380   -26.0820 
  194.3750     2.3870    69.6390    20.5980    16.2380    23.7220    23.2700   -25.8890 
  194.5000     2.3970    73.8940    22.7350    17.9070    25.4180    22.6980   -25.6540 
  194.6250     2.4270    73.6000    24.2220    19.1860    25.0370    22.5480   -25.3220 
  194.7500     2.4600    69.9610    24.5500    19.7330    26.3710    23.0120   -24.9080 
  194.8750     2.4740    69.0010    23.2670    19.1300    30.0470    23.8900   -24.4260 
  195.0000     2.4580    74.2340    20.4100    17.2230    26.5490    24.7030   -23.8890 
  195.1250     2.4150    80.6260    16.6690    14.3540    18.3470    24.8170   -23.2810 
  195.2500     2.3650    79.0090    13.1540    11.4900    10.8140    24.7110   -22.6090 
  195.3750     2.3220    69.0070    10.2950     9.1410     7.3340    24.6490   -21.8510 
  195.5000     2.2940    58.1380     8.1580     7.4670     6.0710    24.3720   -21.0120 
  195.6250     2.2820    54.4340     6.8270     6.4890     5.7970    24.1780   -20.1160 
  195.7500     2.2790    56.6280     6.1730     5.9480     5.7800    24.0170   -19.2020 
  195.8750     2.2800    61.5560     6.1230     5.7010     5.8590    23.9030   -18.2880 
  196.0000     2.2800    66.6180     6.4880     5.6380     6.1600    23.9250   -17.4040 
  196.1250     2.2790    72.3990     6.9940     5.7040     7.6750    24.0900   -16.5870 
  196.2500     2.2770    80.5350     7.3810     5.8530     9.4550    24.1610   -15.8740 
  196.3750     2.2780    89.0430     7.5410     6.0650     8.9540    24.2710   -15.2940 
  196.5000     2.2820    92.9710     7.4800     6.3050     7.2290    24.4370   -14.8330 
  196.6250     2.2900    90.1160     7.2820     6.4910     6.4700    24.5260   -14.5110 
  196.7500     2.3010    87.8790     7.0590     6.5620     6.2980    24.5480   -14.2830 
  196.8750     2.3120    88.5430     6.8490     6.4820     6.1200    24.5920   -14.1330 
  197.0000     2.3220    87.7980     6.6550     6.2720     6.0900    24.6380   -14.0570 
  197.1250     2.3250    84.6120     6.4790     6.0050     6.0020    24.8060   -14.0660 
  197.2500     2.3210    84.3600     6.3950     5.7810     5.9720    25.0300   -14.0900 
  197.3750     2.3080    87.3850     6.5360     5.6670     6.0120    25.1140   -14.1140 
  197.5000     2.2910    89.3090     7.0170     5.6970     6.1260    25.1280   -14.1710 
  197.6250     2.2760    88.1270     7.8320     5.8870     6.4450    25.1330   -14.2320 
  197.7500     2.2700    89.4000     8.7660     6.1980     7.0650    25.1420   -14.3050 
  197.8750     2.2750    92.4300     9.7220     6.6460     8.2160    25.0750   -14.4050 
  198.0000     2.2860    93.3560    10.7040     7.2760     9.2740    24.9720   -14.5360 
  198.1250     2.3000    91.1590    11.8340     8.1790    10.5100    24.9430   -14.6610 
