~V
VERS. 2.00: Ver 2.00
~W
STRT.M 59.0000:
STOP.M 221.0000:
STEP.M 0.1250:
NULL. -999.2500:
UWI. F11122:
~C
DEPT.M :
GR.API :
RML.OHMM :
RI. :
RXO.OHMM :
CALI.CM :
SP.MV :
DEN.GM/CC :
~A
# ...
  115.2500    87.6920     8.2240     7.0480     9.0230    25.2960    -8.8510     2.1290 
  115.3750    86.7310     8.0010     6.8510     8.6480    25.3020    -8.2910     2.1180 
  115.5000    89.2200     7.7750     6.6380     8.2030    25.1610    -7.6670     2.1270 
  115.6250    93.8090     7.5940     6.4570     7.6660    24.9110    -7.0140     2.1560 
  115.7500    94.8740     7.4780     6.3330     7.4090    24.6050    -6.3940     2.1890 
  115.8750    92.4840     7.4370     6.2780     7.5680    24.2270    -5.8570     2.2140 
  116.0000    91.0480     7.4670     6.2940     8.1820    23.8370    -5.4510     2.2260 
  116.1250    93.6520     7.5640     6.3810     8.4300    23.5860    -5.2390     2.2240 
  116.2500    97.6770     7.7000     6.5100     8.2460    23.4150    -5.1610     2.2160 
  116.3750    99.5590     7.8500     6.6610     7.9600    23.2920    -5.1800     2.2060 
  116.5000    97.2260     7.9880     6.8080     8.0410    23.2570    -5.2380     2.1990 
  116.6250    92.4950     8.0750     6.9100     8.0820    23.3300    -5.2500     2.1970 
  116.7500    89.5270     8.1080     6.9560     8.3420    23.4190    -5.1860     2.2000 
  116.8750    88.4500     8.1040     6.9550     8.3900    23.4320    -5.0030     2.2100 
  117.0000    88.8190     8.0940     6.9370     8.1370    23.3480    -4.6580     2.2280 
  117.1250    90.2200     8.0950     6.9280     7.6260    23.2470    -4.1040     2.2490 
  117.2500    91.2710     8.1050     6.9290     7.4800    23.2330    -3.3970     2.2650 
  117.3750    90.0390     8.1410     6.9450     7.9800    23.2960    -2.5720     2.2700 
  117.5000    86.5060     8.2850     7.0200     8.6920    23.3530    -1.6430     2.2710 
  117.6250    85.7630     8.7660     7.3080     8.9950    23.3160    -0.6480     2.2850 
  117.7500    89.1200     9.7230     7.9480     8.8770    23.3640     0.3500     2.3230 
  117.8750    91.3980    11.1730     9.0330     9.0910    23.4910     1.3070     2.3860 
  118.0000    87.6800    12.8550    10.4750    13.3880    23.6510     2.1780     2.4620 
  118.1250    79.1650    14.0630    11.8060    23.9850    23.7280     2.9110     2.5280 
  118.2500    73.6580    14.2350    12.4340    27.7630    23.7460     3.5000     2.5700 
  118.3750    72.7730    13.2560    12.0840    22.2330    23.8180     3.9280     2.5790 
  118.5000    75.3400    11.5250    10.9410    14.6000    24.0160     4.1740     2.5590 
  118.6250    80.0850     9.7550     9.5310    10.4180    24.2070     4.2090     2.5140 
  118.7500    83.8690     8.4220     8.3520     8.8910    24.1640     4.1100     2.4610 
  118.8750    83.6550     7.5670     7.5200     8.7330    24.0060     3.9330     2.4100 
  119.0000    82.0630     7.0640     6.9790     8.4100    23.8430     3.7100     2.3670 
  119.1250    84.3330     6.8360     6.6840     7.5280    23.8150     3.4550     2.3380 
  119.2500    86.4810     6.8400     6.6000     6.2080    23.8360     3.1910     2.3190 
  119.3750    85.1700     7.1250     6.7790     5.2960    23.8860     2.9370     2.3090 
  119.5000    81.1290     7.6890     7.2540     5.1890    23.9080     2.7030     2.3130 
  119.6250    77.4140     8.4110     7.9730     5.9410    23.8720     2.4760     2.3390 
  119.7500    73.9860     8.9820     8.6460     8.9840    23.8260     2.2030     2.3810 
  119.8750    70.9800     9.1500     8.9850    12.6280    23.8360     1.8560     2.4190 
  120.0000    72.1820     8.8280     8.8250    11.1600    23.8750     1.4400     2.4350 
  120.1250    78.0650     8.1840     8.2220     7.3600    23.9190     1.0000     2.4110 
  120.2500    82.7350     7.6660     7.5920     5.4640    24.0450     0.5880     2.3690 
  120.3750    82.6170     7.6090     7.2680     5.0150    24.2740     0.2400     2.3320 
  120.5000    78.8420     8.2330     7.4890     5.5460    24.5550    -0.0250     2.3260 
  120.6250    75.1670     9.7560     8.5180     7.3050    24.7370    -0.1670     2.3650 
  120.7500    72.1320    11.9630    10.2600    10.6040    24.7900    -0.1500     2.4310 
  120.8750    69.3500    14.5920    12.5740    15.0130    24.7730     0.0540     2.5030 
  121.0000    65.1740    17.2420    15.1430    17.3570    24.7690     0.4810     2.5600 
  121.1250    62.8920    19.3640    17.4220    18.4110    24.7710     1.0570     2.5830 
  121.2500    62.6620    20.7530    19.0500    18.6500    24.7630     1.5220     2.5740 
  121.3750    63.2360    21.4270    19.9350    18.6080    24.7420     1.8500     2.5440 
  121.5000    62.3440    21.5620    20.2080    18.2430    24.7470     2.1290     2.5090 
  121.6250    58.3220    21.3420    20.0430    18.4620    24.7740     2.3870     2.4900 
  121.7500    54.7300    20.9870    19.6870    18.8160    24.8170     2.5810     2.4870 
  121.8750    55.6160    20.6230    19.2620    19.4220    24.8450     2.6650     2.4900 
  122.0000    60.1830    20.4040    18.9130    18.1680    24.8550     2.5810     2.4860 
  122.1250    63.4750    20.5620    18.8720    16.4670    24.8750     2.3660     2.4720 
  122.2500    62.5490    21.1250    19.2260    15.1890    24.8900     2.2090     2.4680 
  122.3750    60.0600    21.9850    19.9500    16.5860    24.8860     2.1020     2.4910 
  122.5000    60.5700    22.8610    20.8460    20.0760    24.8810     1.9770     2.5460 
  122.6250    63.2750    23.2620    21.4870    23.8240    24.8710     1.8270     2.6120 
  122.7500    64.3740    22.9680    21.5500    25.6760    24.9300     1.6990     2.6560 
  122.8750    62.3440    22.0210    20.9610    22.6370    25.0060     1.5850     2.6600 
  123.0000    59.4630    20.7260    19.9220    18.3350    25.1450     1.4700     2.6290 
  123.1250    58.5220    19.5610    18.8430    14.7510    25.3380     1.3770     2.5830 
  123.2500    58.7180    18.8240    18.0730    14.5870    25.4100     1.3210     2.5480 
  123.3750    58.0360    18.5780    17.7320    15.7160    25.4130     1.2920     2.5360 
  123.5000    56.8150    18.7530    17.7990    16.7720    25.3200     1.2690     2.5430 
  123.6250    57.5330    19.2620    18.2220    17.8880    25.1090     1.2830     2.5630 
  123.7500    59.8670    19.9360    18.8580    17.7980    24.9460     1.3270     2.5870 
  123.8750    61.5760    20.9020    19.6600    15.9160    24.8660     1.3800     2.6120 
  124.0000    61.5830    22.2820    20.5730    15.0240    24.7950     1.4340     2.6330 
  124.1250    61.3530    23.7190    21.4510    18.9650    24.7210     1.4840     2.6410 
  124.2500    60.9650    24.5280    22.0610    25.3340    24.6790     1.5130     2.6280 
  124.3750    59.2450    24.4490    22.1980    27.0360    24.6800     1.5140     2.5920 
  124.5000    56.1990    23.6900    21.7840    24.1140    24.6780     1.4950     2.5410 
  124.6250    57.0820    22.5680    20.8970    20.2300    24.6310     1.4520     2.4950 
  124.7500    61.8910    21.4330    19.8950    16.6220    24.5600     1.3910     2.4760 
  124.8750    65.5170    20.5080    19.0110    14.9760    24.4590     1.3570     2.4930 
  125.0000    65.9500    19.8640    18.3540    15.5110    24.2860     1.3660     2.5340 
  125.1250    65.1570    19.4640    17.9310    15.3730    23.9390     1.3910     2.5740 
  125.2500    64.3310    19.1560    17.6180    14.0860    23.5260     1.4310     2.5900 
  125.3750    62.4960    18.8730    17.3510    13.3640    23.1280     1.4980     2.5820 
  125.5000    60.5630    18.6000    17.1030    12.7200    22.7980     1.5560     2.5650 
  125.6250    58.5530    18.3710    16.8960    11.8600    22.6820     1.5720     2.5560 
  125.7500    56.3540    18.2150    16.7540    11.1170    22.6450     1.5500     2.5600 
  125.8750    55.0240    18.1490    16.6900    11.3600    22.6190     1.4760     2.5660 
  126.0000    54.6040    18.1810    16.7070    11.9660    22.6940     1.3480     2.5680 
  126.1250    54.6010    18.3400    16.8250    13.1910    23.1160     1.1470     2.5620 
  126.2500    56.6410    18.6270    17.0490    14.4400    23.6510     0.8780     2.5550 
  126.3750    59.5780    19.0520    17.4010    15.4070    24.0240     0.5500     2.5520 
