~V
VERS. 2.00: Ver 2.00
~W
STRT.M 20.0000:
STOP.M 279.0000:
STEP.M 0.1250:
NULL. -999.2500:
UWI. F11153:
~C
DEPT.M :
DEN.GM/CC :
GR.API :
RML.OHMM :
RI. :
RXO.OHMM :
CALI.CM :
SP.MV :
~A
# ...
   53.7500  -999.2500  -999.2500  -999.2500  -999.2500  -999.2500  -999.2500    91.8960 
   53.8750  -999.2500  -999.2500  -999.2500  -999.2500  -999.2500  -999.2500    91.1290 
   54.0000  -999.2500  -999.2500  -999.2500  -999.2500  -999.2500  -999.2500    90.3990 
   54.1250  -999.2500  -999.2500  -999.2500  -999.2500  -999.2500  -999.2500    89.6540 
   54.2500  -999.2500  -999.2500  -999.2500  -999.2500  -999.2500  -999.2500    88.9330 
   54.3750  -999.2500  -999.2500  -999.2500  -999.2500  -999.2500  -999.2500    88.2620 
   54.5000  -999.2500  -999.2500  -999.2500  -999.2500  -999.2500  -999.2500    87.7040 
   54.6250  -999.2500  -999.2500  -999.2500  -999.2500  -999.2500  -999.2500    87.3330 
   54.7500  -999.2500    38.2260     0.1760     0.1410     4.1840    25.2440    87.1050 
   54.8750  -999.2500    38.2260     0.1760     0.1410     4.1840    25.2440    86.9860 
   55.0000  -999.2500    38.2260     0.1760     0.1410     4.1840    25.2440    86.9990 
   55.1250  -999.2500    38.0400     0.1450     0.1420     2.3680    25.2380    87.1660 
   55.2500  -999.2500    37.3360     0.1110     0.1450     1.0250    25.2370    87.3700 
   55.3750  -999.2500    36.9750     0.0920     0.1470     0.6310    25.2360    87.5970 
   55.5000  -999.2500    38.2150     0.0990     0.1460     0.8260    25.2360    87.8200 
   55.6250  -999.2500    39.0690     0.1270     0.1390     1.0700    25.2360    87.9870 
   55.7500  -999.2500    38.3120     0.1560     0.1320     1.1870    25.2360    88.1150 
   55.8750  -999.2500    37.4710     0.1810     0.1250     1.1180    25.2360    88.2100 
   56.0000  -999.2500    37.8750     0.2040     0.1200     1.3270    25.2360    88.2630 
   56.1250  -999.2500    38.8300     0.2220     0.1230     1.0330    25.2360    88.2760 
   56.2500  -999.2500    38.1440     0.2260     0.1310     2.2060    25.2380    88.2730 
   56.3750  -999.2500    35.7020     0.2140     0.1390     4.5320    25.2410    88.2530 
   56.5000     0.0000    33.1900     0.1890     0.1430     9.8930    25.2440    88.2660 
   56.6250     0.0000    32.8370     0.1620     0.1470    12.2420    25.2450    88.3540 
   56.7500     0.0000    34.8070     0.1400     0.1510    14.2200    25.2450    88.4470 
   56.8750     0.0000    36.3120     0.1270     0.1570    14.8500    25.2450    88.4730 
   57.0000     0.0000    35.9400     0.1200     0.1640    16.0200    25.2450    88.3910 
   57.1250     0.0000    34.5380     0.1230     0.1690     8.5050    25.2450    88.2590 
   57.2500     0.9920    35.5550     0.1330     0.1690     3.9420    25.2440    88.0960 
   57.3750     1.9850    38.9560     0.1420     0.1670     3.1100    25.2430    87.8290 
   57.5000     1.9880    40.9460     0.1420     0.1630     2.5110    25.2410    87.4420 
   57.6250     1.9890    38.7790     0.1320     0.1590     1.9970    25.2430    86.9910 
   57.7500     1.9890    36.0720     0.1170     0.1560     1.9210    25.2440    86.4970 
   57.8750     1.9940    36.1960     0.1040     0.1560     1.9760    25.2470    86.0080 
   58.0000     2.0080    40.9070     0.1050     0.1610     2.6080    25.2550    85.5950 
   58.1250     2.0240    47.1020     0.1230     0.1680     3.2790    25.2700    85.2480 
   58.2500     2.0360    49.2450     0.1500     0.1770     1.8110    25.2700    84.9440 
   58.3750     2.0420    47.3250     0.1780     0.1860     1.1610    25.2540    84.7130 
   58.5000     2.0440    45.5770     0.2120     0.1950     3.2470    25.2440    84.5240 
   58.6250     2.0370    47.7130     0.2600     0.2000     9.6390    25.2470    84.3980 
   58.7500     2.0240    49.9980     0.3150     0.2030     9.0020    25.2520    84.3980 
   58.8750     2.0110    49.5740     0.3560     0.2040     2.2480    25.2530    84.4980 
   59.0000     2.0030    47.0420     0.3480     0.2030     0.4830    25.2480    84.6310 
   59.1250     2.0060    44.0000     0.2770     0.1990     0.6380    25.2480    84.8100 
   59.2500     2.0110    42.3710     0.1910     0.1970     1.3890    25.2510    85.0630 
   59.3750     2.0090    41.7180     0.1230     0.1960     1.5640    25.2550    85.3750 
   59.5000     2.0020    40.5940     0.0840     0.1990     2.8730    25.2490    85.7020 
   59.6250     1.9940    38.9550     0.0690     0.2050     3.3000    25.2570    85.9590 
   59.7500     1.9820    39.7400     0.0630     0.2110     2.7940    25.2760    86.1160 
   59.8750     1.9630    44.4800     0.0590     0.2150     2.7590    25.2950    86.1850 
   60.0000     1.9440    50.4000     0.0660     0.2180     2.8930    25.2920    86.1750 
   60.1250     1.9360    53.0280     0.0840     0.2210     2.7430    25.2640    86.0220 
   60.2500     1.9410    51.3680     0.0990     0.2240     2.5190    25.2440    85.7500 
   60.3750     1.9540    47.7570     0.1050     0.2260     2.5170    25.2330    85.4450 
   60.5000     1.9690    45.6150     0.1010     0.2240     2.7870    25.2310    85.1960 
   60.6250     1.9790    46.9130     0.0920     0.2200     1.9890    25.2300    85.0090 
   60.7500     1.9850    48.9930     0.0820     0.2160     2.2030    25.2350    84.8490 
   60.8750     1.9880    50.3420     0.0750     0.2170     1.8210    25.2390    84.7360 
   61.0000     1.9850    50.1810     0.0750     0.2220     1.1900    25.2380    84.7040 
   61.1250     1.9830    48.3150     0.0830     0.2290     2.3470    25.2370    84.7310 
   61.2500     1.9860    46.9280     0.1010     0.2310     4.8550    25.2380    84.7090 
   61.3750     1.9960    48.8790     0.1230     0.2270     3.4920    25.2410    84.5450 
   61.5000     2.0080    51.8510     0.1360     0.2180     1.3730    25.2410    84.1830 
   61.6250     2.0100    49.7690     0.1290     0.2070     0.7390    25.2380    83.5060 
   61.7500     2.0040    45.3930     0.1070     0.2010     1.7740    25.2370    82.5210 
   61.8750     2.0000    42.9230     0.0780     0.2030     5.7600    25.2390    81.1830 
   62.0000     2.0010    44.1420     0.0500     0.2110    14.1600    25.2430    79.4070 
   62.1250     2.0010    48.4550     0.0340     0.2210    10.4980    25.2440    76.9990 
   62.2500     1.9970    52.2010     0.0270     0.2230    16.6830    25.2390    73.9640 
   62.3750     1.9930    53.6800     0.0270     0.2130    39.4820    25.2370    70.2280 
   62.5000     2.0000    53.2760     0.0260     0.1900    29.4630    25.2340    65.6640 
   62.6250     2.0300    53.3930     0.0200     0.1600    18.4780    25.2300    59.9950 
   62.7500     2.0770    52.9450     0.0130     0.1330     7.7170    25.2260    53.2360 
   62.8750     2.1420    50.1640     0.0070     0.1110     3.5500    25.2300    45.2870 
   63.0000     2.2270    45.9750     0.0050     0.0960     2.4410    25.2340    36.1940 
   63.1250     2.3280    44.8840     0.0170     0.1020     1.5190    25.2270    26.2700 
   63.2500     2.4090    47.2910     0.0680     0.1610     1.6820    25.2120    16.2950 
   63.3750     2.4230    51.3380     0.2050     0.3320     2.6780    25.2260     6.7820 
   63.5000     2.3550    54.7710     0.5100     0.6960     4.2480    25.3030    -1.8220 
   63.6250     2.2530    55.7930     1.1370     1.4020     4.9370    25.3950    -8.9360 
   63.7500     2.1810    55.1710     1.9930     2.3850     5.3240    25.4630   -14.5860 
   63.8750     2.1570    55.5010     2.7810     3.4120     5.6130    25.5810   -18.7570 
   64.0000     2.1690    60.2920     3.2410     4.2070     5.9500    25.8250   -21.5330 
   64.1250     2.1960    69.6970     3.4650     4.6820     6.1530    26.1140   -23.0230 
   64.2500     2.2150    79.7900     3.7220     5.0250     6.4350    26.2500   -23.9300 
   64.3750     2.2180    87.0400     4.0320     5.3130     7.0110    26.2710   -24.6960 
   64.5000     2.2090    88.0530     4.3380     5.5690     7.9270    26.2780   -25.5950 
   64.6250     2.2090    82.8760     4.6330     5.9060     8.2160    26.3310   -26.7680 
   64.7500     2.2250    77.4860     5.0020     6.4970     8.3770    26.3970   -28.1910 
   64.8750     2.2520    74.2510     5.5400     7.5000     8.5140    26.4410   -29.7970 
