~V
VERS. 2.00: Ver 2.00
~W
STRT.M 45.0000:
STOP.M 250.0000:
STEP.M 0.1250:
NULL. -999.2500:
UWI. F11133:
~C
DEPT.M :
SP.MV :
DEN.GM/CC :
GR.API :
RML.OHMM :
RI. :
RXO.OHMM :
CALI.CM :
~A
# ...
   67.5000   -37.5270     2.1640    59.6510    13.3100     9.5230    11.0560    23.6520 
   67.6250   -37.6040     2.1780    59.4100    12.5660     9.1590    10.6170    23.6620 
   67.7500   -37.7140     2.1900    61.3200    11.6220     8.5930    10.1030    23.6830 
   67.8750   -37.8780     2.1950    63.6130    10.8140     8.0570     9.8680    23.7070 
   68.0000   -38.1110     2.1900    65.4820    10.2940     7.6910     9.8500    23.7190 
   68.1250   -38.4130     2.1820    67.1920    10.0560     7.5280     9.8590    23.7320 
   68.2500   -38.7710     2.1800    67.4370    10.0290     7.5410     9.8750    23.7540 
   68.3750   -39.1610     2.1830    65.3120    10.1140     7.6600     9.9990    23.7770 
   68.5000   -39.5550     2.1850    62.2420    10.2200     7.8030    10.2290    23.7850 
   68.6250   -39.9220     2.1830    59.5800    10.3010     7.9230    10.4790    23.7870 
   68.7500   -40.2350     2.1820    58.7360    10.3160     7.9910    10.5480    23.7840 
   68.8750   -40.4840     2.1790    60.0100    10.2550     7.9990    10.3920    23.7530 
   69.0000   -40.6630     2.1700    61.5470    10.1670     7.9710    10.3490    23.6490 
   69.1250   -40.7710     2.1590    61.9060    10.1150     7.9300    10.4340    23.4590 
   69.2500   -40.7860     2.1490    61.2610    10.1410     7.8980    10.5030    23.2880 
   69.3750   -40.6910     2.1440    60.4140    10.2370     7.8890    10.4700    23.2620 
   69.5000   -40.5020     2.1430    60.2450    10.3380     7.8970    10.4140    23.3160 
   69.6250   -40.2380     2.1470    62.4220    10.3860     7.9000    10.4550    23.3360 
   69.7500   -39.9010     2.1600    66.3480    10.3410     7.8690    10.4950    23.3170 
   69.8750   -39.4940     2.1820    68.0480    10.1980     7.7830    10.2340    23.2880 
   70.0000   -39.0410     2.2070    66.2130     9.9790     7.6410     9.7850    23.2630 
   70.1250   -38.5520     2.2290    64.9770     9.6880     7.4450     9.4290    23.2250 
   70.2500   -38.0650     2.2470    68.3020     9.3300     7.2000     9.3350    23.1790 
   70.3750   -37.6290     2.2600    74.4410     8.9430     6.9300     9.2710    23.1480 
   70.5000   -37.2790     2.2640    79.4890     8.6230     6.6870     8.8590    23.1210 
   70.6250   -37.0430     2.2560    82.2590     8.5000     6.5470     8.6090    23.0460 
   70.7500   -36.9440     2.2430    81.1320     8.7560     6.6260     8.8410    22.8840 
   70.8750   -36.9950     2.2350    75.2290     9.5090     7.0120     9.7820    22.7440 
   71.0000   -37.1710     2.2390    67.4540    10.6610     7.6770    11.4850    22.8150 
   71.1250   -37.4370     2.2600    61.3570    11.9660     8.4980    14.0020    23.0360 
   71.2500   -37.7490     2.2960    58.2550    12.9630     9.2070    18.2900    23.2130 
   71.3750   -38.0870     2.3290    57.8660    13.2110     9.5010    21.4910    23.2180 
   71.5000   -38.4280     2.3280    59.7140    12.6930     9.3010    18.7230    23.1160 
   71.6250   -38.7470     2.2880    62.4610    11.7440     8.7640    13.4220    23.0220 
   71.7500   -39.0240     2.2410    63.6650    10.8590     8.1700    11.1840    22.9880 
   71.8750   -39.2320     2.2220    63.0200    10.3810     7.7400    10.9880    22.9860 
   72.0000   -39.3640     2.2280    63.5380    10.3290     7.5370    11.1600    22.9870 
   72.1250   -39.4470     2.2430    66.5310    10.5700     7.5200    11.4860    22.9860 
   72.2500   -39.5140     2.2530    69.8010    10.8810     7.5900    12.1570    22.9860 
   72.3750   -39.5770     2.2440    70.3150    11.0750     7.6450    12.8860    22.9850 
   72.5000   -39.6460     2.2220    68.0770    11.1040     7.6410    13.0100    22.9860 
   72.6250   -39.7240     2.2030    65.2210    11.0030     7.5810    12.4690    22.9870 
   72.7500   -39.7940     2.1950    64.1750    10.8270     7.4810    11.6050    22.9870 
   72.8750   -39.8530     2.1940    65.7290    10.6120     7.3550    10.9620    22.9870 
   73.0000   -39.9030     2.1930    68.0920    10.3770     7.2080    10.6720    22.9870 
   73.1250   -39.9380     2.1920    69.9100    10.1250     7.0430    10.5790    22.9870 
   73.2500   -39.9530     2.1890    70.7610     9.8660     6.8690    10.8080    22.9870 
   73.3750   -39.9460     2.1810    69.5130     9.6280     6.7020    11.3030    22.9870 
   73.5000   -39.9240     2.1750    66.1250     9.4440     6.5630    11.7210    22.9870 
   73.6250   -39.8790     2.1750    63.8130     9.3440     6.4710    12.0060    22.9870 
   73.7500   -39.8080     2.1850    65.2280     9.3610     6.4450    12.1200    22.9890 
   73.8750   -39.7070     2.2010    67.1710     9.4940     6.4940    12.0900    23.0060 
   74.0000   -39.5780     2.2170    65.4290     9.6890     6.6000    12.0880    23.0540 
   74.1250   -39.4170     2.2310    62.0610     9.8860     6.7330    12.2510    23.1280 
   74.2500   -39.2340     2.2430    61.2120    10.0230     6.8530    12.5360    23.1850 
   74.3750   -39.0590     2.2470    63.3700    10.0720     6.9250    12.8880    23.2060 
   74.5000   -38.9030     2.2350    66.5250    10.0670     6.9500    13.0150    23.2090 
   74.6250   -38.7750     2.2130    69.6850    10.0560     6.9410    12.7110    23.2100 
   74.7500   -38.6870     2.1970    70.6600    10.0890     6.9260    12.3990    23.2320 
   74.8750   -38.6470     2.1940    68.0160    10.1810     6.9280    12.3210    23.2900 
   75.0000   -38.6400     2.1940    64.0240    10.3160     6.9490    12.5620    23.3600 
   75.1250   -38.6790     2.1910    61.8200    10.4760     6.9830    12.9660    23.3910 
   75.2500   -38.7730     2.1860    62.7840    10.6270     7.0150    13.2990    23.3670 
   75.3750   -38.8820     2.1800    65.4780    10.7300     7.0320    13.4040    23.3180 
   75.5000   -38.9640     2.1720    67.1410    10.7540     7.0270    13.2990    23.2930 
   75.6250   -38.9900     2.1620    67.6010    10.6870     7.0040    12.9680    23.2970 
   75.7500   -38.9530     2.1560    68.4920    10.5430     6.9700    12.5540    23.3260 
   75.8750   -38.8620     2.1560    69.5590    10.3720     6.9360    12.2150    23.3660 
   76.0000   -38.7400     2.1600    68.8030    10.2380     6.9110    11.9410    23.3930 
   76.1250   -38.5950     2.1650    66.7340    10.1740     6.9040    11.8320    23.3960 
   76.2500   -38.4440     2.1670    65.9050    10.1870     6.9180    11.8970    23.3660 
   76.3750   -38.3090     2.1680    67.3760    10.2570     6.9500    12.0010    23.3120 
   76.5000   -38.1990     2.1720    69.3120    10.3480     6.9940    12.1600    23.2640 
   76.6250   -38.1210     2.1780    69.3910    10.4540     7.0570    12.5470    23.2700 
   76.7500   -38.0650     2.1810    66.7620    10.6120     7.1590    13.0970    23.3680 
   76.8750   -38.0180     2.1770    63.6670    10.8620     7.3180    13.5300    23.5390 
   77.0000   -37.9880     2.1710    62.2070    11.1600     7.5070    13.7670    23.7020 
   77.1250   -37.9720     2.1710    61.0130    11.3630     7.6590    14.2100    23.8110 
   77.2500   -37.9220     2.1770    59.3080    11.2410     7.6510    14.9370    23.8580 
   77.3750   -37.7720     2.1880    59.0980    10.6690     7.4050    15.2170    23.8810 
   77.5000   -37.5100     2.1990    62.1120     9.8180     6.9840    14.1050    23.9050 
   77.6250   -37.1590     2.2070    67.1120     9.0010     6.5340    11.9520    23.9230 
   77.7500   -36.7550     2.2130    70.9760     8.5690     6.2390    10.4030    23.9300 
   77.8750   -36.3090     2.2140    71.9420     8.6790     6.2050    10.5650    23.9340 
   78.0000   -35.8030     2.2110    71.1710     9.1630     6.3900    12.4720    23.9580 
   78.1250   -35.2220     2.2100    70.8020     9.7240     6.6740    15.6130    24.0250 
   78.2500   -34.5890     2.2120    73.5700     9.9480     6.8530    18.0490    24.1270 
   78.3750   -33.9740     2.2140    79.3970     9.5770     6.7640    16.4370    24.2110 
   78.5000   -33.4540     2.2110    84.6620     8.7790     6.4380    11.8370    24.2570 
   78.6250   -33.0770     2.2050    86.7950     7.9120     6.0350     9.0430    24.2930 
