~V
VERS. 2.00: Ver 2.00
~W
STRT.M 53.0000:
STOP.M 252.0000:
STEP.M 0.1250:
NULL. -999.2500:
UWI. F11141:
~C
DEPT.M :
SP.MV :
DEN.GM/CC :
GR.API :
RML.OHMM :
RI. :
RXO.OHMM :
CALI.CM :
~A
# ...
  221.7500   -22.4090     2.2440    62.2670    69.3800    65.6610    68.6880    24.3140 
  221.8750   -22.6820     2.2300    59.8600    85.6600    82.2320    99.3640    24.2990 
  222.0000   -22.9610     2.2140    59.0600    97.4960    95.0740   128.3910    24.2660 
  222.1250   -23.1930     2.2070    59.2840    95.9380    95.8240   131.3450    24.2520 
  222.2500   -23.3860     2.2170    60.5170    82.9970    85.1310   114.7390    24.2670 
  222.3750   -23.4770     2.2470    64.5050    65.5230    68.3820    93.2540    24.2750 
  222.5000   -23.4440     2.2890    69.9770    49.8820    52.0520    58.2200    24.2660 
  222.6250   -23.2570     2.3310    73.4870    39.6340    40.7000    36.0290    24.2300 
  222.7500   -23.0620     2.3610    72.5190    33.8780    33.9850    25.7530    24.1950 
  222.8750   -22.9540     2.3810    68.0850    31.7640    31.0100    25.6480    24.1740 
  223.0000   -22.8820     2.3980    62.0750    32.5360    30.9440    27.8540    24.1820 
  223.1250   -22.8770     2.4160    57.5000    35.7230    33.4430    33.6060    24.1690 
  223.2500   -22.8940     2.4300    56.0140    39.8690    37.2290    40.0430    24.0850 
  223.3750   -22.9890     2.4340    58.3970    43.7150    41.1010    37.5030    24.0340 
  223.5000   -23.1930     2.4240    62.7090    46.1320    43.8380    37.4170    24.1120 
  223.6250   -23.4890     2.4000    64.4270    46.4220    44.5420    46.4360    24.3320 
  223.7500   -23.8800     2.3710    65.4410    45.5710    43.9650    43.6130    24.3970 
  223.8750   -24.2390     2.3430    68.5750    44.6780    43.0630    39.8850    24.3440 
  224.0000   -24.5730     2.3190    72.5120    44.7780    42.8120    40.9210    24.2530 
  224.1250   -24.9560     2.3000    71.0690    46.8970    44.2130    40.1430    24.1910 
  224.2500   -25.2930     2.2850    65.9380    51.1060    47.4660    43.2630    24.0960 
  224.3750   -25.6030     2.2790    63.0030    57.4700    52.7280    48.7660    23.9750 
  224.5000   -25.8850     2.2880    64.0960    65.6810    59.8260    54.4140    23.8750 
  224.6250   -26.0850     2.3240    65.3910    74.4660    67.7950    65.0470    23.8900 
  224.7500   -26.2480     2.3740    64.2570    81.1610    74.3490    83.7440    23.9200 
  224.8750   -26.3560     2.4150    60.6250    83.3820    77.3920    99.8880    24.0180 
  225.0000   -26.4280     2.4220    58.8100    80.4550    76.0240   115.8920    24.1280 
  225.1250   -26.4240     2.3880    62.6160    74.2730    71.2580    95.5040    24.1910 
  225.2500   -26.3490     2.3470    66.6030    68.8980    66.5650    65.2950    24.2220 
  225.3750   -26.2370     2.3380    65.9510    65.9500    63.7450    51.0410    24.2240 
  225.5000   -25.8910     2.3830    63.4770    64.5340    62.4460    51.7400    24.1530 
  225.6250   -25.3890     2.4680    64.3140    61.0440    59.5160    58.7190    24.0500 
  225.7500   -24.7620     2.5440    64.8190    52.9950    52.1690    71.0780    24.0110 
  225.8750   -24.0110     2.5750    62.2780    41.2670    40.8610    80.4950    24.1290 
  226.0000   -23.2300     2.5530    59.7460    29.2320    28.9710    56.7210    24.2520 
  226.1250   -22.3600     2.4950    57.9100    20.3740    20.2200    26.2340    24.2810 
  226.2500   -21.5240     2.4410    54.2310    14.8030    14.7260    12.9470    24.3180 
  226.3750   -20.6970     2.4110    50.3950    11.7520    11.6600     9.7410    24.3660 
  226.5000   -20.0680     2.4030    50.0360    10.3490    10.1570     8.8670    24.4140 
  226.6250   -19.6760     2.4020    53.0000     9.9690     9.6950     8.8660    24.3900 
  226.7500   -19.3820     2.3930    54.5310     9.8630     9.6140     9.2880    24.3660 
  226.8750   -19.1700     2.3720    54.2190     9.6840     9.5490     9.8380    24.3390 
  227.0000   -19.0060     2.3460    55.7890     9.3310     9.3240     8.6690    24.3220 
  227.1250   -19.0290     2.3300    59.6770     8.9310     9.0030     7.7440    24.3120 
  227.2500   -19.1800     2.3360    61.1510     8.6760     8.7780     7.1960    24.2790 
  227.3750   -19.5560     2.3640    60.1910     8.6640     8.7590     7.0210    24.2700 
  227.5000   -20.0440     2.4040    61.7310     8.9140     8.9780     7.6150    24.2780 
  227.6250   -20.6100     2.4300    69.1960     9.3750     9.4110     8.5030    24.1530 
  227.7500   -21.2220     2.4270    77.6250     9.8710     9.8950     9.4870    24.0770 
  227.8750   -21.9070     2.3970    82.5460    10.2800    10.2940     9.7770    24.1460 
  228.0000   -22.6010     2.3600    83.8110    10.5340    10.5140     9.6730    24.3460 
  228.1250   -23.1870     2.3440    84.0240    10.6040    10.4870     9.6990    24.5830 
  228.2500   -23.6600     2.3520    89.0650    10.5580    10.2830     9.7980    24.5230 
  228.3750   -23.9460     2.3770   100.5410    10.4340     9.9590     9.7400    24.3340 
  228.5000   -24.1450     2.4010   112.6500    10.2590     9.5690     9.4910    24.2010 
  228.6250   -24.2930     2.4110   118.2820    10.0920     9.1950     9.4320    24.1450 
  228.7500   -24.5150     2.4050   117.6870    10.0640     8.9600     9.5890    24.1260 
  228.8750   -24.8550     2.3880   116.4600    10.3690     9.0170     9.7240    24.1190 
  229.0000   -25.3540     2.3630   118.1110    11.2310     9.5300     9.8300    24.1360 
  229.1250   -25.9990     2.3370   118.2090    13.0170    10.7910    10.9260    24.2200 
  229.2500   -26.7550     2.3180   111.8660    15.7020    12.8480    14.2930    24.3290 
  229.3750   -27.5600     2.3080   100.2180    19.1020    15.6780    21.3020    24.3610 
  229.5000   -28.3320     2.3080    89.8990    22.6180    18.9000    28.4120    24.2640 
  229.6250   -28.9860     2.3120    84.9730    24.9940    21.4180    30.7040    24.1570 
  229.7500   -29.5100     2.3130    83.2010    25.6070    22.3990    31.2750    24.0900 
  229.8750   -29.8710     2.3060    84.9390    24.7050    21.8900    31.7560    24.1710 
  230.0000   -30.1270     2.2910    87.8390    23.2310    20.6720    29.9750    24.3260 
  230.1250   -30.2840     2.2720    86.7730    22.3580    19.7310    24.2270    24.4280 
  230.2500   -30.4020     2.2570    82.8370    22.5890    19.5600    20.4400    24.3370 
  230.3750   -30.5050     2.2450    79.7000    23.9710    20.2880    23.0310    24.1690 
  230.5000   -30.5720     2.2300    77.1800    26.2550    21.8380    28.7050    24.0690 
  230.6250   -30.6880     2.2030    75.3460    28.9300    23.9730    30.0280    23.9060 
  230.7500   -30.8380     2.1650    76.1060    31.2590    26.1000    28.7040    23.8500 
  230.8750   -31.0150     2.1280    77.0100    32.8290    27.7940    28.3080    24.1120 
  231.0000   -31.1340     2.1060    75.8700    33.6570    28.9190    28.4250    24.5430 
  231.1250   -31.2260     2.1080    72.8120    34.2170    29.7320    28.7940    24.6690 
  231.2500   -31.2440     2.1250    70.9080    35.1510    30.7360    29.5850    24.5650 
  231.3750   -31.2350     2.1480    71.0290    36.7540    32.1990    30.3640    24.3850 
  231.5000   -31.2260     2.1730    71.5510    39.0390    34.1860    31.4560    24.2310 
  231.6250   -31.1540     2.2000    71.6190    41.6260    36.5060    36.0080    24.1810 
  231.7500   -30.9600     2.2240    69.7600    43.5450    38.4350    43.9890    24.1570 
  231.8750   -30.6200     2.2430    68.3380    43.7250    39.0600    50.3710    24.1830 
  232.0000   -30.1700     2.2560    69.1480    41.4320    37.6040    44.7950    24.2360 
  232.1250   -29.4780     2.2740    70.2520    36.6770    33.7940    38.7600    24.2950 
  232.2500   -28.5060     2.3070    73.7080    31.1880    29.0380    33.4670    24.3850 
  232.3750   -27.3190     2.3530    81.6380    26.1690    24.4510    27.5350    24.4290 
  232.5000   -26.0310     2.3990    91.2440    22.2470    20.7040    21.7630    24.4050 
  232.6250   -24.7020     2.4280    93.7560    19.6410    18.1040    17.6940    24.3160 
  232.7500   -23.4470     2.4330    89.4070    17.8790    16.3170    16.5180    24.2780 
  232.8750   -22.3330     2.4200    84.1170    16.7240    15.1680    16.1060    24.2620 
