~V
VERS. 2.00: Ver 2.00
~W
STRT.M 20.0000:
STOP.M 279.0000:
STEP.M 0.1250:
NULL. -999.2500:
UWI. F11153:
~C
DEPT.M :
DEN.GM/CC :
GR.API :
RML.OHMM :
RI. :
RXO.OHMM :
CALI.CM :
SP.MV :
~A
# ...
  256.2500     2.3550    61.4580     8.1090     6.4650     4.9180    28.6690   -12.5130 
  256.3750     2.3670    62.0110     8.1550     6.5560     5.0130    28.2260   -12.6500 
  256.5000     2.3780    60.8540     8.3070     6.7160     5.2260    27.3920   -12.7870 
  256.6250     2.3890    60.4790     8.6500     6.9710     5.6350    26.4920   -12.9140 
  256.7500     2.3920    61.9120     9.2250     7.3460     6.2930    25.8260   -13.0230 
  256.8750     2.3800    63.8040     9.9950     7.8550     7.1860    25.7600   -13.1170 
  257.0000     2.3650    63.0140    10.7570     8.4050     8.5050    25.9070   -13.2380 
  257.1250     2.3810    60.9160    11.2980     8.8630    11.0870    25.8100   -13.3930 
  257.2500     2.4220    58.9750    11.4330     9.0730    15.5960    25.3920   -13.5340 
  257.3750     2.4510    57.2630    11.0620     8.8940    15.7600    25.0570   -13.6330 
  257.5000     2.4310    55.0730    10.4580     8.4750    11.8330    24.9210   -13.7560 
  257.6250     2.3850    54.0850     9.8870     8.0050     8.3510    24.8550   -13.9150 
  257.7500     2.3630    55.3220     9.5700     7.6650     7.0850    24.7410   -14.0610 
  257.8750     2.3730    59.2380     9.6570     7.6110     7.4180    24.6330   -14.1970 
  258.0000     2.3950    64.3500    10.0400     7.8100     8.2310    24.6520   -14.3430 
  258.1250     2.4170    68.4120    10.5900     8.1940     9.1960    24.7590   -14.4370 
  258.2500     2.4390    69.9000    11.1530     8.6580    10.3260    24.8200   -14.4850 
  258.3750     2.4600    70.1900    11.5890     9.0830    11.9350    24.8550   -14.5120 
  258.5000     2.4680    71.4020    11.9060     9.4210    13.8630    24.9490   -14.5250 
  258.6250     2.4580    72.0080    12.1670     9.6870    14.1660    25.0210   -14.4610 
  258.7500     2.4470    70.4010    12.4440     9.9280    12.7860    25.0310   -14.3380 
  258.8750     2.4390    68.3440    12.7580    10.1830    12.6420    24.9490   -14.1670 
  259.0000     2.4250    67.1360    13.0420    10.4340    14.0290    24.8140   -13.9260 
  259.1250     2.4040    66.2360    13.2020    10.6250    16.8840    24.6760   -13.6560 
  259.2500     2.3960    63.9980    13.1580    10.6830    18.4490    24.5460   -13.3710 
  259.3750     2.4070    60.3450    12.8520    10.5330    16.7620    24.4890   -13.0960 
  259.5000     2.4240    58.3000    12.4000    10.2310    14.2050    24.4890   -12.7790 
  259.6250     2.4270    59.2040    11.9100     9.8530    12.8920    24.4580   -12.5110 
  259.7500     2.4220    62.2390    11.4750     9.4880    12.0230    24.5000   -12.3120 
  259.8750     2.4180    62.7800    11.1430     9.2180    11.2030    24.7510   -12.1400 
  260.0000     2.4170    62.1620    10.8850     9.0410    10.6120    25.0510   -12.0560 
  260.1250     2.4230    61.9400    10.6650     8.9300    10.3110    25.1570   -12.0410 
  260.2500     2.4380    62.5520    10.4500     8.8460    10.2140    25.0630   -12.0630 
  260.3750     2.4540    63.8470    10.2200     8.7520     9.8340    25.0090   -12.1010 
  260.5000     2.4570    64.6300     9.9860     8.6440     9.0940    25.0540   -12.1610 
  260.6250     2.4460    66.2740     9.7760     8.5380     8.3120    25.1190   -12.2460 
  260.7500     2.4360    67.3480     9.6280     8.4540     7.9620    25.0940   -12.3400 
  260.8750     2.4360    65.8870     9.5770     8.4110     8.2450    24.9750   -12.4520 
  261.0000     2.4470    64.4310     9.5840     8.3980     8.6970    24.8740   -12.5620 
  261.1250     2.4590    64.4460     9.6040     8.4040     9.0230    24.8100   -12.6550 
  261.2500     2.4630    64.0510     9.5980     8.4110     9.0530    24.7860   -12.7470 
  261.3750     2.4610    62.2400     9.5360     8.3960     8.5660    24.7790   -12.8270 
  261.5000     2.4550    60.6110     9.4340     8.3520     7.9030    24.7720   -12.9480 
  261.6250     2.4540    60.5450     9.3120     8.2750     7.4570    24.7540   -13.0300 
  261.7500     2.4590    63.0200     9.1740     8.1770     7.4360    24.7350   -13.0520 
  261.8750     2.4620    66.8320     9.0260     8.0790     7.8000    24.7280   -13.0860 
  262.0000     2.4640    66.8990     8.8880     8.0030     7.9680    24.7130   -13.0810 
  262.1250     2.4680    61.7420     8.7880     7.9550     7.6540    24.6720   -13.0510 
  262.2500     2.4730    57.6310     8.7370     7.9240     7.5420    24.6290   -13.0170 
  262.3750     2.4720    58.7560     8.7240     7.8800     7.8410    24.5760   -12.9670 
  262.5000     2.4620    60.8250     8.7080     7.7960     7.9470    24.4850   -12.8320 
  262.6250     2.4510    62.6100     8.6640     7.6660     7.4960    24.3730   -12.6970 
  262.7500     2.4440    63.7440     8.5880     7.5070     7.0530    24.3530   -12.6220 
  262.8750     2.4410    62.2560     8.5040     7.3600     7.0630    24.4550   -12.5490 
  263.0000     2.4430    59.9490     8.4440     7.2610     7.3170    24.4730   -12.4880 
  263.1250     2.4500    59.5750     8.4480     7.2480     7.6470    24.4000   -12.4840 
  263.2500     2.4570    60.4770     8.5740     7.3570     8.0160    24.4060   -12.4750 
  263.3750     2.4610    60.2770     8.9310     7.6560     8.6070    24.4820   -12.5100 
  263.5000     2.4650    58.8790     9.5300     8.1420     9.3570    24.4530   -12.6040 
  263.6250     2.4730    56.1390    10.3370     8.8030    10.0630    24.3840   -12.7100 
  263.7500     2.4830    53.1490    11.2290     9.5740     9.5400    24.4220   -12.8160 
  263.8750     2.4920    50.9120    11.9610    10.2910     8.8540    24.5180   -12.9160 
  264.0000     2.4990    49.2440    12.3390    10.7670     9.0380    24.5280   -13.0540 
  264.1250     2.5010    48.2260    12.2860    10.8780    10.6320    24.4890   -13.1580 
  264.2500     2.5020    49.1440    11.8570    10.6100    11.6960    24.4420   -13.2760 
  264.3750     2.5000    50.9930    11.1970    10.0450    10.8420    24.4330   -13.3640 
  264.5000     2.4970    49.9920    10.5360     9.4080     9.9610    24.4520   -13.4230 
  264.6250     2.4920    47.7850    10.0000     8.8310     9.5920    24.4740   -13.4970 
  264.7500     2.4820    48.3320     9.6630     8.4100     9.6960    24.4550   -13.5530 
  264.8750     2.4690    51.3650     9.6080     8.2400     9.9660    24.4120   -13.5810 
  265.0000     2.4580    54.2150     9.7980     8.3080    10.4790    24.3850   -13.5630 
  265.1250     2.4500    55.9420    10.1950     8.5940    10.8640    24.3860   -13.5430 
  265.2500     2.4420    55.9840    10.7230     9.0350    11.3380    24.3930   -13.5450 
  265.3750     2.4400    54.5880    11.2470     9.5330    10.9200    24.4000   -13.5470 
  265.5000     2.4490    53.1580    11.6200     9.9550    10.1910    24.3930   -13.5570 
  265.6250     2.4590    51.9830    11.7410    10.2140     9.6570    24.3790   -13.5610 
  265.7500     2.4550    51.0900    11.5840    10.2680     9.3100    24.3750   -13.5330 
  265.8750     2.4390    51.0040    11.2080    10.1100     8.7280    24.4150   -13.5080 
  266.0000     2.4230    52.0950    10.7960     9.8600     7.9090    24.5230   -13.5070 
  266.1250     2.4160    53.1140    10.4830     9.6250     7.2610    24.6420   -13.4820 
  266.2500     2.4110    53.2170    10.3670     9.4990     7.5320    24.7280   -13.4200 
  266.3750     2.4090    52.9010    10.5200     9.5660     8.8350    24.7440   -13.3700 
  266.5000     2.4120    53.4290    10.8270     9.7790    10.5100    24.7370   -13.3050 
  266.6250     2.4260    54.6500    11.1170    10.0320    11.6870    24.7100   -13.2340 
  266.7500     2.4430    55.1070    11.1770    10.1590    12.2370    24.6670   -13.2050 
  266.8750     2.4600    53.1330    10.8160     9.9500    12.2010    24.5920   -13.1840 
  267.0000     2.4740    50.3030    10.1820     9.4490    11.6240    24.5220   -13.1590 
  267.1250     2.4820    48.1830     9.5040     8.8150    10.0000    24.4730   -13.1610 
  267.2500     2.4840    47.7410     9.0260     8.2710     8.0960    24.4530   -13.1590 
  267.3750     2.4840    48.8450     8.9830     8.0630     6.8160    24.4690   -13.1380 
