~V
VERS. 2.00: Ver 2.00
~W
STRT.M 45.0000:
STOP.M 250.0000:
STEP.M 0.1250:
NULL. -999.2500:
UWI. F11133:
~C
DEPT.M :
SP.MV :
DEN.GM/CC :
GR.API :
RML.OHMM :
RI. :
RXO.OHMM :
CALI.CM :
~A
# ...
  146.2500   -18.2460     2.3670    83.2120     5.4700     4.8260     4.7240    24.4040 
  146.3750   -18.2650     2.3740    85.6280     5.4400     4.8150     4.7210    24.4490 
  146.5000   -18.2760     2.3800    84.8170     5.4080     4.8130     4.7340    24.4730 
  146.6250   -18.2680     2.3810    79.6950     5.3510     4.8040     4.7490    24.4700 
  146.7500   -18.2160     2.3780    74.5610     5.2720     4.7810     4.7510    24.4480 
  146.8750   -18.1380     2.3730    74.0130     5.1970     4.7500     4.7300    24.4200 
  147.0000   -18.0860     2.3670    77.9440     5.1480     4.7250     4.7100    24.3910 
  147.1250   -18.0700     2.3640    84.7100     5.1240     4.7130     4.7230    24.3630 
  147.2500   -18.0740     2.3650    92.7990     5.1050     4.7160     4.7830    24.3480 
  147.3750   -18.0740     2.3680    98.8200     5.0750     4.7330     4.8690    24.3540 
  147.5000   -18.0700     2.3700    99.1230     5.0410     4.7630     4.9150    24.3830 
  147.6250   -18.0790     2.3710    93.9240     5.0240     4.8070     4.8910    24.4320 
  147.7500   -18.1110     2.3700    86.6110     5.0480     4.8750     4.8140    24.4760 
  147.8750   -18.1680     2.3650    81.4030     5.1240     4.9670     4.7750    24.5030 
  148.0000   -18.2490     2.3510    80.4440     5.2330     5.0730     4.8030    24.5270 
  148.1250   -18.3520     2.3320    81.7080     5.3390     5.1750     4.8650    24.5490 
  148.2500   -18.4690     2.3140    81.8350     5.3820     5.2340     4.9350    24.5600 
  148.3750   -18.5900     2.2990    80.3130     5.3190     5.2230     4.9920    24.5620 
  148.5000   -18.7070     2.2880    79.0720     5.1690     5.1450     5.0000    24.5620 
  148.6250   -18.8290     2.2830    78.8300     4.9910     5.0280     4.9450    24.5610 
  148.7500   -18.9700     2.2820    79.5580     4.8430     4.9100     4.9060    24.5610 
  148.8750   -19.1170     2.2810    80.7700     4.7360     4.8060     5.0270    24.5640 
  149.0000   -19.2450     2.2760    81.1970     4.6240     4.7000     5.2840    24.5650 
  149.1250   -19.3520     2.2680    80.4970     4.4960     4.5950     5.4910    24.5660 
  149.2500   -19.4670     2.2600    79.7270     4.4660     4.5660     5.6240    24.5670 
  149.3750   -19.6140     2.2550    78.3090     4.7600     4.7680     5.9040    24.5650 
  149.5000   -19.7950     2.2640    74.3600     5.5930     5.3650     6.8020    24.5450 
  149.6250   -19.9870     2.2880    68.6420     7.1120     6.5070     9.7340    24.4820 
  149.7500   -20.1710     2.3110    63.5570     9.5740     8.3270    17.4890    24.3840 
  149.8750   -20.3490     2.3040    60.2590    12.7210    10.7900    28.2680    24.3250 
  150.0000   -20.5200     2.2600    57.9800    15.7780    13.5910    32.7600    24.3300 
  150.1250   -20.6760     2.2070    57.4360    18.8320    16.4480    29.0040    24.3230 
  150.2500   -20.7910     2.1730    59.1270    21.9220    19.2250    24.4560    24.2370 
  150.3750   -20.8500     2.1660    60.3290    25.1230    21.9230    23.9220    24.1210 
  150.5000   -20.8470     2.1720    59.0400    28.0120    24.3090    26.0950    24.0830 
  150.6250   -20.7760     2.1840    57.5490    29.4710    25.5770    27.8070    24.1570 
  150.7500   -20.6400     2.2000    58.8340    28.0640    24.5290    25.6420    24.2760 
  150.8750   -20.4590     2.2230    62.9960    23.7170    20.9800    19.4100    24.3230 
  151.0000   -20.2620     2.2510    67.6910    18.3410    16.4560    12.9850    24.2570 
  151.1250   -20.0650     2.2770    71.2320    13.5780    12.3530     8.3630    24.1270 
  151.2500   -19.8860     2.2940    73.6380    10.2340     9.3840     5.9570    24.0220 
  151.3750   -19.7330     2.2990    75.7810     8.2250     7.5280     5.2220    23.9870 
  151.5000   -19.6190     2.2990    77.2170     6.9980     6.3750     5.2330    23.9910 
  151.6250   -19.5730     2.2990    76.6050     6.2290     5.6850     5.6320    24.0170 
  151.7500   -19.6120     2.3020    74.6480     5.7350     5.3130     6.1430    24.0420 
  151.8750   -19.7340     2.3050    72.8880     5.4630     5.1900     6.2750    24.0500 
  152.0000   -19.9090     2.3070    72.1570     5.4630     5.3040     6.2150    24.0420 
  152.1250   -20.1140     2.3060    72.2940     5.8850     5.7510     6.8690    24.0130 
  152.2500   -20.3370     2.3040    71.1470     6.9700     6.7300     8.4870    23.9640 
  152.3750   -20.5620     2.2990    66.8560     8.9420     8.4740    10.9420    23.9240 
  152.5000   -20.7640     2.2890    61.9020    11.8690    11.1270    14.9780    23.9090 
  152.6250   -20.9100     2.2760    59.6970    15.7350    14.7900    21.4610    23.9070 
  152.7500   -20.9800     2.2640    60.2320    20.2710    19.3090    29.5390    23.9230 
  152.8750   -20.9850     2.2540    61.0210    24.8660    24.0530    37.5760    24.0000 
  153.0000   -20.9490     2.2490    61.0130    28.6740    27.9970    42.1140    24.1850 
  153.1250   -20.8610     2.2500    60.7780    30.8630    30.1800    40.1400    24.4540 
  153.2500   -20.7030     2.2540    61.7130    30.7450    29.9100    34.9600    24.6630 
  153.3750   -20.4890     2.2560    64.9270    28.6110    27.5530    31.1740    24.6820 
  153.5000   -20.2440     2.2530    68.8770    25.8860    24.5490    27.8810    24.5410 
  153.6250   -19.9910     2.2480    70.3640    23.6690    21.9350    22.0590    24.3310 
  153.7500   -19.7580     2.2480    68.8410    22.3450    20.1240    16.0350    24.1720 
  153.8750   -19.5570     2.2500    67.2110    21.4300    18.8180    14.6740    24.1450 
  154.0000   -19.3690     2.2470    67.1970    20.0530    17.3440    17.5890    24.2580 
  154.1250   -19.1910     2.2460    67.6600    17.8540    15.3790    19.3800    24.3980 
  154.2500   -19.0430     2.2520    68.4230    15.1240    13.0940    15.7300    24.4010 
  154.3750   -18.9420     2.2680    71.1550    12.4600    10.9140    10.5770    24.2560 
  154.5000   -18.8990     2.2880    75.7620    10.2660     9.1300     8.5290    24.0780 
  154.6250   -18.9220     2.3060    80.2760     8.7140     7.8610     8.1060    23.9380 
  154.7500   -18.9990     2.3200    83.3750     8.0090     7.2450     8.0840    23.8630 
  154.8750   -19.1220     2.3260    83.6160     8.3350     7.4120     8.1330    23.8460 
  155.0000   -19.2900     2.3270    80.3720     9.7020     8.4090     9.0500    23.8680 
  155.1250   -19.5020     2.3250    75.3610    12.0920    10.3200    12.0150    23.9180 
  155.2500   -19.7340     2.3190    70.3600    15.2320    13.1030    18.3540    23.9670 
  155.3750   -19.9500     2.3080    66.3420    18.4050    16.2730    26.5660    23.9880 
  155.5000   -20.1150     2.3000    64.9290    20.6880    18.9050    30.7790    23.9820 
  155.6250   -20.2110     2.3010    68.2070    21.6330    20.3360    27.7350    23.9700 
  155.7500   -20.2420     2.3060    73.2310    21.3970    20.4620    21.4620    23.9980 
  155.8750   -20.2140     2.3060    73.3470    20.4850    19.6660    16.8380    24.1050 
  156.0000   -20.1320     2.2960    69.1320    19.3040    18.4030    15.4410    24.2850 
  156.1250   -20.0020     2.2830    65.8100    17.9380    16.8400    16.6570    24.4850 
  156.2500   -19.8320     2.2730    64.2240    16.4650    15.1430    16.8230    24.6070 
  156.3750   -19.6360     2.2720    62.5580    15.0670    13.5470    14.3380    24.6110 
  156.5000   -19.4510     2.2790    62.1470    13.9530    12.2560    11.9150    24.5890 
  156.6250   -19.3070     2.2860    64.8010    13.2340    11.3610    11.9280    24.6010 
  156.7500   -19.2020     2.2880    67.3920    12.9380    10.8850    13.1290    24.6470 
  156.8750   -19.1110     2.2860    66.5320    13.0230    10.7950    13.4370    24.6880 
  157.0000   -19.0240     2.2820    65.7070    13.4100    11.0210    13.4540    24.7050 
  157.1250   -18.9430     2.2770    68.4990    14.1110    11.5580    13.8190    24.7190 
  157.2500   -18.8800     2.2700    72.8870    15.2190    12.4660    14.5330    24.7410 
  157.3750   -18.8520     2.2610    74.3290    16.8120    13.8090    16.0850    24.7620 
