~V
VERS. 2.00: Ver 2.00
~W
STRT.M 50.0000:
STOP.M 221.0000:
STEP.M 0.1250:
NULL. -999.2500:
UWI. F11120:
~C
DEPT.M :
DEN.GM/CC :
GR.API :
RML.OHMM :
RI. :
RXO.OHMM :
CALI.CM :
SP.MV :
~A
# ...
  128.7500     2.4180    42.0740    22.7010    22.6860    21.8580    26.2820   -16.8070 
  128.8750     2.4070    44.4510    22.3570    22.3120    21.3520    26.2500   -16.8750 
  129.0000     2.3910    49.7360    21.9400    21.8680    21.7030    26.2240   -16.9150 
  129.1250     2.3830    52.9240    21.4970    21.3790    21.6590    26.1950   -16.9380 
  129.2500     2.3870    53.2960    21.0420    20.8600    21.2700    26.1920   -16.9580 
  129.3750     2.3970    53.1370    20.5680    20.3290    20.5910    26.2320   -16.9830 
  129.5000     2.4090    53.5710    20.1160    19.8370    19.6240    26.2880   -17.0100 
  129.6250     2.4190    52.4650    19.8180    19.5020    17.0580    26.3120   -17.0210 
  129.7500     2.4240    49.3410    19.7680    19.3780    16.1700    26.3270   -17.0080 
  129.8750     2.4220    46.7030    19.9880    19.4870    16.8540    26.3460   -16.9780 
  130.0000     2.4170    47.4630    20.4170    19.7920    18.1700    26.3680   -16.9470 
  130.1250     2.4200    50.7180    20.9160    20.1880    19.1730    26.3870   -16.9280 
  130.2500     2.4300    52.9430    21.3360    20.5290    19.4740    26.4370   -16.9130 
  130.3750     2.4380    52.8540    21.6530    20.7790    20.0940    26.4960   -16.8970 
  130.5000     2.4370    52.1120    21.9390    21.0000    21.0620    26.5540   -16.8720 
  130.6250     2.4320    52.0440    22.3020    21.3120    21.4440    26.5770   -16.8460 
  130.7500     2.4360    50.9410    22.7580    21.7450    22.4080    26.6190   -16.8270 
  130.8750     2.4500    48.1260    23.2030    22.2200    24.6560    26.7160   -16.8080 
  131.0000     2.4690    45.7730    23.3950    22.5100    25.4350    26.8340   -16.7760 
  131.1250     2.4810    46.8450    22.9190    22.1860    24.7660    26.9800   -16.7180 
  131.2500     2.4780    47.9860    21.7650    21.1820    22.2750    27.2000   -16.6410 
  131.3750     2.4530    47.2380    20.1450    19.6690    19.5920    27.5210   -16.5470 
  131.5000     2.4060    46.6640    18.4480    18.0120    16.8420    27.8710   -16.4410 
  131.6250     2.3460    48.2950    17.1470    16.6710    14.3480    28.0450   -16.3210 
  131.7500     2.2950    50.0160    16.4120    15.8430    12.7290    28.0310   -16.1900 
  131.8750     2.2740    48.8240    16.2470    15.5490    12.5160    27.8670   -16.0500 
  132.0000     2.2940    45.7660    16.5460    15.6920    13.4660    27.6240   -15.9070 
  132.1250     2.3450    45.1890    17.1640    16.1260    14.3680    27.4680   -15.7770 
  132.2500     2.3930    45.8430    17.8180    16.6010    15.4380    27.4150   -15.6690 
  132.3750     2.4200    44.9660    18.3210    16.9760    16.4170    27.3850   -15.5820 
  132.5000     2.4310    43.6870    18.5780    17.1940    16.9140    27.3340   -15.5110 
  132.6250     2.4380    45.2910    18.5710    17.2550    16.5220    27.2850   -15.4550 
  132.7500     2.4440    46.7290    18.4370    17.2310    16.2950    27.2660   -15.4190 
  132.8750     2.4490    44.5060    18.2840    17.1470    16.4650    27.2550   -15.4110 
  133.0000     2.4490    41.0640    18.1930    17.0300    16.5320    27.2410   -15.4340 
  133.1250     2.4470    40.1420    18.1560    16.8940    16.3500    27.2200   -15.4650 
  133.2500     2.4460    40.5540    18.0390    16.7110    15.9940    27.2210   -15.4770 
  133.3750     2.4470    41.8270    17.7050    16.4070    16.1220    27.2260   -15.4630 
  133.5000     2.4530    46.0690    17.0800    15.9060    15.6410    27.2150   -15.4340 
  133.6250     2.4590    52.1820    16.1770    15.1630    14.5830    27.1630   -15.4160 
  133.7500     2.4590    56.0490    15.2150    14.3060    12.9080    27.1180   -15.4330 
  133.8750     2.4510    57.5090    14.3850    13.4940    11.7790    27.1140   -15.4820 
  134.0000     2.4410    58.1260    13.8380    12.8800    11.3650    27.1030   -15.5420 
  134.1250     2.4370    57.7640    13.7140    12.6060    11.6280    27.1090   -15.5940 
  134.2500     2.4360    55.3930    13.9380    12.6280    11.9030    27.0710   -15.6380 
  134.3750     2.4340    53.0680    14.4190    12.8940    12.7550    27.0430   -15.6670 
  134.5000     2.4340    53.8090    15.0130    13.3040    14.0200    27.0260   -15.6750 
  134.6250     2.4370    56.2120    15.5300    13.7060    14.7350    27.0120   -15.6430 
  134.7500     2.4400    56.5010    15.8700    13.9810    13.8230    27.0060   -15.5620 
  134.8750     2.4370    52.8720    16.0150    14.0810    13.5390    27.0070   -15.4320 
  135.0000     2.4350    46.8740    15.9990    14.0150    13.9780    26.9850   -15.2700 
  135.1250     2.4420    42.7500    15.8630    13.8270    14.3030    26.9690   -15.0910 
  135.2500     2.4570    42.8270    15.7130    13.6310    14.1990    26.9740   -14.9220 
  135.3750     2.4750    46.4260    15.6540    13.5170    14.2790    27.0000   -14.7840 
  135.5000     2.4880    50.7940    15.7900    13.5530    14.6180    27.0150   -14.6900 
  135.6250     2.5000    53.6150    16.2450    13.8260    14.9950    27.0010   -14.6450 
  135.7500     2.5140    55.4880    16.9760    14.3190    16.2210    26.9920   -14.6320 
  135.8750     2.5250    57.1870    17.8840    14.9940    17.5220    27.0080   -14.6420 
  136.0000     2.5260    59.0460    18.7970    15.7480    19.4420    27.0140   -14.6770 
  136.1250     2.5160    59.0400    19.4510    16.4010    20.0990    26.9920   -14.7460 
  136.2500     2.5070    56.7210    19.7160    16.8170    20.6630    26.9680   -14.8280 
  136.3750     2.5000    54.3690    19.5170    16.9130    20.7600    26.9430   -14.9060 
  136.5000     2.4910    54.3420    18.8060    16.6110    18.8800    26.9100   -14.9650 
  136.6250     2.4760    56.2820    17.4530    15.7310    16.8580    26.8790   -15.0020 
  136.7500     2.4580    58.6260    15.5990    14.3390    15.5160    26.8400   -15.0350 
  136.8750     2.4380    62.1350    13.4360    12.5800    14.7570    26.7990   -15.0780 
  137.0000     2.4160    66.8750    11.2610    10.7230    12.5180    26.7460   -15.1280 
  137.1250     2.3860    70.7970     9.4580     9.1260     8.9430    26.6870   -15.1720 
  137.2500     2.3590    72.9450     8.1480     7.9310     6.8940    26.6230   -15.2050 
  137.3750     2.3480    75.4300     7.3020     7.1440     6.4680    26.5780   -15.2260 
  137.5000     2.3480    79.2870     6.8060     6.6780     6.3360    26.5180   -15.2370 
  137.6250     2.3390    81.4310     6.5330     6.4350     6.2650    26.4490   -15.2310 
  137.7500     2.3260    81.6340     6.3250     6.2690     6.0720    26.4060   -15.1940 
  137.8750     2.3240    81.8970     6.1380     6.1270     5.6390    26.4090   -15.1090 
  138.0000     2.3340    83.1640     6.0070     6.0170     4.9830    26.4470   -14.9810 
  138.1250     2.3450    83.3160     6.0400     6.0050     5.1750    26.4560   -14.8410 
  138.2500     2.3530    82.4570     6.2480     6.1090     6.0700    26.4010   -14.7220 
  138.3750     2.3570    83.9930     6.5660     6.3040     6.9590    26.3240   -14.6380 
  138.5000     2.3500    86.4940     6.8570     6.5110     6.3570    26.3000   -14.5930 
  138.6250     2.3260    84.8200     6.9240     6.5930     5.9050    26.3070   -14.5810 
  138.7500     2.3030    80.3550     6.7370     6.5090     5.8730    26.3280   -14.5870 
  138.8750     2.2930    79.4350     6.3750     6.3010     5.9270    26.3660   -14.6110 
  139.0000     2.2960    82.4280     5.9820     6.0570     5.5810    26.4230   -14.6520 
  139.1250     2.3050    83.5810     5.7410     5.8890     5.2500    26.4490   -14.6970 
  139.2500     2.3040    82.3560     5.7540     5.8700     5.7260    26.4570   -14.7240 
  139.3750     2.2880    81.6820     6.0700     6.0440     6.7130    26.4550   -14.7240 
  139.5000     2.2630    82.2110     6.6620     6.4170     7.1550    26.4520   -14.6960 
  139.6250     2.2430    82.8820     7.4160     6.9490     6.9330    26.4450   -14.6610 
  139.7500     2.2340    83.9850     8.0910     7.4770     8.1850    26.4350   -14.6480 
  139.8750     2.2340    83.7060     8.4840     7.8350     9.5250    26.4180   -14.6700 
