~V
VERS. 2.00: Ver 2.00
~W
STRT.M 60.0000:
STOP.M 281.0000:
STEP.M 0.1250:
NULL. -999.2500:
UWI. F11154:
~C
DEPT.M :
DEN.GM/CC :
GR.API :
RML.OHMM :
RI. :
RXO.OHMM :
CALI.CM :
SP.MV :
~A
# ...
   93.7500     2.2790    68.3750    12.4280     9.4060    13.8800    24.1830   -16.6580 
   93.8750     2.3080    66.5600    13.0340     9.9270    14.8540    24.3260   -17.0680 
   94.0000     2.3210    65.4320    13.0640    10.0820    13.7750    24.3640   -17.4050 
   94.1250     2.2990    65.3100    12.4960     9.7980    11.8970    24.2920   -17.6650 
   94.2500     2.2660    65.2720    11.7100     9.2970    11.0920    24.2580   -17.8570 
   94.3750     2.2420    66.0200    10.9910     8.7670    10.9980    24.2690   -18.0220 
   94.5000     2.2310    67.1320    10.5120     8.3480    10.9830    24.2960   -18.1440 
   94.6250     2.2310    67.7780    10.3600     8.1330    10.7920    24.3010   -18.2000 
   94.7500     2.2470    66.7180    10.4340     8.0930    10.3580    24.3050   -18.2540 
   94.8750     2.2790    63.5980    10.6610     8.1920     9.8900    24.3330   -18.3480 
   95.0000     2.3180    60.2250    10.9640     8.3810     9.7590    24.3770   -18.4550 
   95.1250     2.3490    59.4240    11.2500     8.5950    10.2290    24.3780   -18.5890 
   95.2500     2.3610    61.0450    11.4400     8.7670    10.8380    24.3380   -18.7360 
   95.3750     2.3360    62.7960    11.4900     8.8570    11.3170    24.3060   -18.8820 
   95.5000     2.2750    62.7680    11.3950     8.8510    11.5400    24.2980   -19.0590 
   95.6250     2.2100    60.6770    11.1900     8.7530    11.5580    24.3280   -19.3220 
   95.7500     2.1720    58.0770    10.9670     8.6190    11.4870    24.3680   -19.6090 
   95.8750     2.1570    54.9220    10.7830     8.4830    11.4320    24.3980   -19.8270 
   96.0000     2.1530    52.4480    10.6620     8.3690    11.3880    24.4140   -20.0050 
   96.1250     2.1530    52.3020    10.5980     8.2860    11.3480    24.4250   -20.1470 
   96.2500     2.1570    53.6680    10.5520     8.2210    11.3210    24.4330   -20.2830 
   96.3750     2.1630    55.1590    10.5020     8.1650    11.2820    24.4300   -20.4330 
   96.5000     2.1720    56.3300    10.4420     8.1130    11.2420    24.4340   -20.6030 
   96.6250     2.1810    58.3200    10.3870     8.0730    11.2410    24.4500   -20.7550 
   96.7500     2.1840    59.8740    10.3480     8.0500    11.2680    24.4560   -20.8690 
   96.8750     2.1800    59.9020    10.3300     8.0510    11.3050    24.4500   -21.0060 
   97.0000     2.1720    58.7790    10.3310     8.0770    11.3640    24.4360   -21.1470 
   97.1250     2.1660    57.2700    10.3490     8.1270    11.5010    24.4170   -21.2860 
   97.2500     2.1620    56.2050    10.3800     8.1870    11.6500    24.4140   -21.4180 
   97.3750     2.1590    55.9240    10.4170     8.2480    11.8610    24.4110   -21.5100 
   97.5000     2.1590    55.9390    10.4500     8.2990    12.0470    24.4010   -21.5430 
   97.6250     2.1660    55.3320    10.4490     8.3200    12.1390    24.3890   -21.5220 
   97.7500     2.1730    53.3160    10.3940     8.2990    12.0830    24.3650   -21.4520 
   97.8750     2.1730    51.0120    10.2710     8.2260    11.9470    24.3150   -21.2900 
   98.0000     2.1640    50.6900    10.0890     8.1050    11.8150    24.2660   -21.0000 
   98.1250     2.1550    54.8380     9.8800     7.9540    11.6030    24.2810   -20.5710 
   98.2500     2.1550    59.7950     9.7020     7.8160    11.3750    24.3350   -20.0420 
   98.3750     2.1650    62.0170     9.6000     7.7210    11.1990    24.3900   -19.4440 
   98.5000     2.1800    60.9820     9.5920     7.6900    11.0760    24.4230   -18.8330 
   98.6250     2.1930    59.5550     9.6780     7.7330    10.9900    24.4420   -18.2670 
   98.7500     2.1970    58.5070     9.7980     7.8160    11.0420    24.4380   -17.7900 
   98.8750     2.1950    57.6210     9.8990     7.9040    11.0530    24.4190   -17.4040 
   99.0000     2.1900    57.3890     9.9360     7.9610    10.9160    24.4030   -17.0940 
   99.1250     2.1870    59.3200     9.8680     7.9510    10.6110    24.3980   -16.8560 
   99.2500     2.1870    62.3530     9.7030     7.8690    10.1500    24.3960   -16.7120 
   99.3750     2.1900    63.8210     9.4380     7.7150     9.6600    24.3840   -16.6650 
   99.5000     2.1910    62.6870     9.0810     7.4940     9.2630    24.3530   -16.6670 
   99.6250     2.1910    60.7880     8.6610     7.2290     8.9700    24.3010   -16.6380 
   99.7500     2.1900    60.8220     8.2750     6.9830     8.6600    24.2620   -16.5260 
   99.8750     2.1930    63.6000     8.0220     6.8220     8.3920    24.2530   -16.3600 
  100.0000     2.2010    66.8760     7.9720     6.7950     8.2330    24.2900   -16.2030 
  100.1250     2.2130    67.2190     8.1660     6.9390     8.6480    24.2890   -16.0620 
  100.2500     2.2230    65.0980     8.4770     7.1780     9.3890    24.1880   -15.8340 
  100.3750     2.2260    63.4350     8.7630     7.4220     9.8180    24.0520   -15.4860 
  100.5000     2.2280    63.9970     8.8840     7.5620     9.2520    23.9750   -15.0370 
  100.6250     2.2360    65.9410     8.7140     7.4840     8.2600    23.9910   -14.4790 
  100.7500     2.2500    69.0650     8.3130     7.2030     7.3420    24.0630   -13.8770 
  100.8750     2.2710    72.3310     7.7670     6.7750     6.5850    24.1620   -13.2580 
  101.0000     2.2970    74.1890     7.1750     6.2790     5.9610    24.2610   -12.6140 
  101.1250     2.3160    75.6920     6.6300     5.7990     5.5380    24.4100   -11.9690 
  101.2500     2.3200    77.8430     6.1940     5.4040     5.3080    24.6270   -11.4210 
  101.3750     2.3110    79.3910     5.9480     5.1570     5.1580    24.8490   -11.0510 
  101.5000     2.2960    79.2260     6.0010     5.1330     5.2090    25.0080   -10.9050 
  101.6250     2.2830    78.1830     6.5640     5.4760     5.6770    25.0200   -11.0790 
  101.7500     2.2730    76.0480     7.6550     6.2150     6.8110    24.8860   -11.4910 
  101.8750     2.2680    71.2710     9.2400     7.3610     8.6030    24.7770   -12.0450 
  102.0000     2.2770    65.0290    11.1070     8.8180    10.7860    24.8220   -12.7120 
  102.1250     2.3190    60.6190    12.7760    10.2980    12.3850    24.8350   -13.4670 
  102.2500     2.3870    58.3340    13.7600    11.3880    13.1960    24.6650   -14.2650 
  102.3750     2.4410    57.5880    13.7800    11.7820    13.3450    24.4060   -15.0580 
  102.5000     2.4200    58.4770    12.8970    11.4080    12.6360    24.2580   -15.7760 
  102.6250     2.3130    59.9050    11.5320    10.4900    11.6830    24.2480   -16.3770 
  102.7500     2.2180    59.8530    10.3160     9.5430    11.0080    24.2630   -16.8990 
  102.8750     2.1730    58.7040     9.5190     8.8170    10.6680    24.2250   -17.4110 
  103.0000     2.1650    58.5820     9.1850     8.3950    10.6800    24.1170   -17.8940 
  103.1250     2.1680    59.3190     9.2430     8.2840    10.9490    23.9870   -18.3220 
  103.2500     2.1720    60.6470     9.4500     8.3340    11.1910    23.9050   -18.6990 
  103.3750     2.1770    63.0290     9.6580     8.4440    11.3390    23.8430   -19.0120 
  103.5000     2.1790    65.0530     9.7660     8.5270    11.4160    23.7760   -19.2910 
  103.6250     2.1730    64.1380     9.7140     8.5210    11.2520    23.7310   -19.5280 
  103.7500     2.1600    61.7190     9.5600     8.4420    10.9420    23.6980   -19.7150 
  103.8750     2.1480    59.9900     9.3730     8.3260    10.5070    23.6820   -19.8530 
  104.0000     2.1390    59.2500     9.2220     8.2220    10.0490    23.6850   -19.9810 
  104.1250     2.1370    59.4040     9.1780     8.1790     9.9740    23.6820   -20.1060 
  104.2500     2.1340    60.9840     9.2340     8.2050    10.2470    23.6700   -20.2100 
  104.3750     2.1290    63.0250     9.3620     8.2860    10.5520    23.6550   -20.2910 
  104.5000     2.1260    63.7310     9.5180     8.3950    10.6500    23.6250   -20.3170 
  104.6250     2.1310    61.9890     9.6510     8.4950    10.6000    23.5580   -20.2560 
  104.7500     2.1390    60.0850     9.7400     8.5610    10.4880    23.4610   -20.0820 
  104.8750     2.1470    59.5110     9.7940     8.5880    10.2410    23.3950   -19.7430 
