~V
VERS. 2.00: Ver 2.00
~W
STRT.M 59.0000:
STOP.M 221.0000:
STEP.M 0.1250:
NULL. -999.2500:
UWI. F11122:
~C
DEPT.M :
GR.API :
RML.OHMM :
RI. :
RXO.OHMM :
CALI.CM :
SP.MV :
DEN.GM/CC :
~A
# ...
  160.2500    75.1760   287.4990   260.7050   279.7900    25.3470   -17.1490     2.1120 
  160.3750    74.2430   278.3020   252.4950   303.0230    25.3610   -16.8850     2.1070 
  160.5000    75.3820   270.2050   244.4970   301.2580    25.5560   -16.5960     2.1010 
  160.6250    77.5790   264.7590   238.7010   288.9380    25.7030   -16.3550     2.1020 
  160.7500    79.0530   261.4150   235.0260   296.2240    25.7510   -16.1350     2.1140 
  160.8750    79.9670   259.5560   233.0120   294.8920    25.7650   -15.9570     2.1340 
  161.0000    80.1630   258.5970   232.1080   285.3020    25.7880   -15.8330     2.1570 
  161.1250    78.9950   258.2980   232.0920   269.4720    25.8540   -15.7190     2.1760 
  161.2500    77.5480   258.5370   232.8470   266.3920    26.0280   -15.5920     2.1880 
  161.3750    76.7030   259.2090   234.4110   268.7500    26.2670   -15.5620     2.1970 
  161.5000    75.4630   259.6380   236.3780   250.8280    26.4170   -15.6750     2.2050 
  161.6250    73.5780   257.6540   237.1310   254.7580    26.4470   -15.8240     2.2120 
  161.7500    73.6100   251.2500   234.7050   298.3380    26.4710   -15.8940     2.2190 
  161.8750    75.6640   238.9830   227.4410   329.6800    26.5340   -15.8550     2.2230 
  162.0000    78.7970   220.8190   214.6550   315.0670    26.6420   -15.7840     2.2240 
  162.1250    82.7160   197.9700   196.4310   269.3910    26.7780   -15.8000     2.2250 
  162.2500    87.5410   174.0950   175.7540   224.5170    26.8240   -15.9340     2.2280 
  162.3750    91.8530   151.7860   155.0500   197.3060    26.8260   -16.0680     2.2340 
  162.5000    93.7930   132.9590   136.5120   175.7870    26.8370   -16.0830     2.2450 
  162.6250    94.0390   119.4900   122.4590   147.4250    26.6540   -16.0010     2.2610 
  162.7500    93.8390   110.7860   112.9580   117.8360    26.2740   -15.9460     2.2720 
  162.8750    93.1460   106.3290   107.8050    50.5430    25.6390   -15.9830     2.2650 
  163.0000    90.9990   105.0740   106.1090    90.5720    24.9620   -16.0900     2.2300 
  163.1250    87.9050   105.6830   106.5360    84.6680    24.5740   -16.1400     2.1670 
  163.2500    85.4510   106.4930   107.1710    72.4540    24.3340   -16.0620     2.1030 
  163.3750    85.0070   107.1330   107.3840    57.1940    24.1100   -15.8700     2.0640 
  163.5000    87.1170   108.2980   107.6710    43.1020    23.8570   -15.6560     2.0650 
  163.6250    88.6820   112.0980   110.0650    32.4650    23.5900   -15.5040     2.1000 
  163.7500    86.7100   119.8380   116.1990    27.2650    23.3660   -15.3820     2.1420 
  163.8750    81.8980   131.9700   126.8620    30.5060    23.1830   -15.2270     2.1740 
  164.0000    79.5180   147.3690   141.2160    48.5100    23.1870   -14.9910     2.1910 
  164.1250    84.1480   162.7000   156.1510    72.9170    23.3150   -14.6700     2.2000 
  164.2500    89.9400   174.1490   167.5840    75.4710    23.3870   -14.3560     2.2110 
  164.3750    91.5400   180.2240   173.6100    67.4460    23.4590   -14.1610     2.2240 
  164.5000    89.8750   182.2300   175.1110    76.8920    23.6090   -14.0510     2.2380 
  164.6250    87.7580   183.3310   175.1230   119.1390    23.7690   -13.9670     2.2440 
  164.7500    84.5380   185.4410   176.1230   133.0660    23.8500   -13.8220     2.2420 
  164.8750    81.1020   187.3210   177.4220   113.8280    23.8830   -13.5990     2.2320 
  165.0000    80.3030   186.3620   176.6690   112.3170    23.9620   -13.3730     2.2180 
  165.1250    81.8470   180.1850   171.2840   140.3120    24.1230   -13.3200     2.2030 
  165.2500    82.0560   171.0400   162.7870   147.7090    24.2740   -13.4010     2.1940 
  165.3750    82.3070   162.2990   154.1070   102.4790    24.3130   -13.4860     2.1930 
  165.5000    84.6560   157.3510   148.5850    63.4010    24.2580   -13.5500     2.1980 
  165.6250    86.4440   159.3060   149.6830    61.6320    24.3330   -13.5670     2.2020 
  165.7500    86.2570   167.0470   156.8860    89.2930    24.6530   -13.6120     2.2030 
  165.8750    86.5280   178.5920   168.6850   144.1840    25.1030   -13.7380     2.2020 
  166.0000    87.8000   190.5490   182.0850   218.6170    25.4160   -13.9660     2.2060 
  166.1250    88.6510   197.4630   192.0180   217.0880    25.4880   -14.2040     2.2180 
  166.2500    88.6560   196.2330   194.7610   189.3980    25.4800   -14.3590     2.2360 
  166.3750    89.1750   185.8940   188.4730   141.7290    25.4020   -14.4460     2.2560 
  166.5000    89.1660   168.0510   173.7570    96.8210    25.2150   -14.4780     2.2750 
  166.6250    86.6860   146.0770   153.0330    80.0140    25.0230   -14.5590     2.2890 
  166.7500    83.8130   124.7590   131.4030    88.0150    25.0750   -14.7010     2.2940 
  166.8750    82.4040   106.7530   112.0140    94.0630    25.2420   -14.8520     2.2840 
  167.0000    84.6890    93.5420    96.8780    70.2570    25.4450   -14.9360     2.2550 
  167.1250    90.3970    86.6010    87.8590    59.2330    25.5740   -14.9680     2.2140 
  167.2500    95.2240    84.9580    84.2520    39.0210    25.6500   -15.0640     2.1790 
  167.3750    95.4350    88.1710    85.7950    27.7460    25.5440   -15.2610     2.1630 
  167.5000    90.6100    95.4200    91.8500    26.4480    25.0780   -15.6010     2.1670 
  167.6250    85.0010   105.5030   101.4240    40.4960    24.3720   -15.9830     2.1780 
  167.7500    82.4090   115.8020   111.6870    53.6570    24.1740   -16.3280     2.1790 
  167.8750    81.1900   124.4240   120.4180    58.8820    24.6710   -16.6720     2.1680 
  168.0000    78.3760   130.3640   126.1740    53.3710    25.1440   -17.0910     2.1560 
  168.1250    76.2920   133.9040   128.7150    39.8210    25.0040   -17.5850     2.1530 
  168.2500    77.5750   137.3140   130.2910    31.1140    24.5010   -18.0090     2.1590 
  168.3750    80.1610   142.3610   132.7720    29.1500    24.0040   -18.3010     2.1710 
  168.5000    79.6890   150.0490   137.3550    34.8130    23.6650   -18.4390     2.1840 
  168.6250    77.8310   160.7460   144.5630    44.4410    23.4650   -18.5720     2.2010 
  168.7500    78.4560   173.0840   153.2970    48.2160    23.4010   -18.7930     2.2210 
  168.8750    79.8850   185.8020   162.5600    48.5120    23.6460   -18.9780     2.2410 
  169.0000    79.5860   197.2980   171.1250    69.2960    24.2260   -18.9760     2.2540 
  169.1250    76.8810   204.7320   176.8060   211.5560    24.9340   -18.7640     2.2560 
  169.2500    75.2980   206.7090   178.2980   308.7760    25.4070   -18.5430     2.2480 
  169.3750    76.2080   202.9410   175.0800   253.2620    25.6540   -18.4000     2.2370 
  169.5000    78.7080   195.0900   168.1830   209.7090    25.8020   -18.3230     2.2280 
  169.6250    80.5350   186.6090   160.2390   203.9830    25.8360   -18.1100     2.2260 
  169.7500    81.1800   180.8360   154.3490   173.8860    25.7930   -17.7040     2.2290 
  169.8750    80.9190   178.8860   151.8690   160.0940    25.7180   -17.2520     2.2330 
  170.0000    79.6930   179.8850   152.3950   194.8710    25.6780   -16.8340     2.2380 
  170.1250    79.0010   181.0090   153.7020   215.5100    25.6580   -16.5120     2.2400 
  170.2500    80.0680   179.1460   152.8100   201.6030    25.6400   -16.2600     2.2390 
  170.3750    81.1010   172.9550   148.1940   178.5840    25.6570   -15.9950     2.2350 
  170.5000    79.6100   163.1250   140.0530   167.3220    25.7270   -15.6380     2.2300 
  170.6250    76.7940   152.2810   130.3270   142.9350    25.8710   -15.3010     2.2290 
  170.7500    76.0930   143.4990   121.9350   117.1610    26.0000   -15.0920     2.2350 
  170.8750    78.7310   138.0340   116.3040    99.9850    26.0490   -14.9790     2.2470 
  171.0000    82.9080   135.6470   113.5180    95.6150    26.0020   -14.8990     2.2580 
  171.1250    83.8610   135.3130   112.8530   112.8730    25.9280   -14.7470     2.2650 
  171.2500    79.7200   135.4700   112.8740   139.5200    25.8940   -14.5150     2.2670 
  171.3750    74.3100   135.5440   113.0500   182.6450    25.8920   -14.2920     2.2680 
