~V
VERS. 2.00: Ver 2.00
~W
STRT.M 62.0000:
STOP.M 277.0000:
STEP.M 0.1250:
NULL. -999.2500:
UWI. F11155:
~C
DEPT.M :
SP.MV :
DEN.GM/CC :
GR.API :
RML.OHMM :
RI. :
RXO.OHMM :
CALI.CM :
~A
# ...
   73.2500   -32.8670     2.1280    61.9970     9.1060     7.4980    12.4450    25.0440 
   73.3750   -32.8400     2.1300    60.3490     9.1020     7.5010    12.2400    25.1400 
   73.5000   -32.7480     2.1300    61.2680     9.0910     7.4980    12.0230    25.1960 
   73.6250   -32.6050     2.1280    64.2360     9.0470     7.4640    11.9580    25.2040 
   73.7500   -32.4110     2.1300    66.3370     8.9470     7.3820    11.9470    25.1750 
   73.8750   -32.2020     2.1390    69.2240     8.8220     7.2730    11.6730    25.1610 
   74.0000   -31.9980     2.1500    71.5580     8.7130     7.1660    11.2090    25.1640 
   74.1250   -31.8300     2.1540    70.1070     8.6600     7.0920    10.9560    25.1950 
   74.2500   -31.7090     2.1460    68.9780     8.6940     7.0750    11.0140    25.3380 
   74.3750   -31.6440     2.1280    72.6700     8.7640     7.1050    11.2870    25.5850 
   74.5000   -31.6050     2.1050    73.2070     8.8140     7.1580    11.5500    25.7290 
   74.6250   -31.5670     2.0870    66.5640     8.7970     7.2060    11.5800    25.5070 
   74.7500   -31.5600     2.0880    61.3250     8.6880     7.2140    11.4490    24.9170 
   74.8750   -31.5950     2.1050    62.3700     8.5500     7.1810    11.2990    24.4140 
   75.0000   -31.6620     2.1280    64.7370     8.4420     7.1270    11.1800    24.1680 
   75.1250   -31.7320     2.1440    63.8890     8.4050     7.0800    11.1590    24.1180 
   75.2500   -31.7750     2.1490    62.6090     8.4620     7.0650    11.3280    24.1110 
   75.3750   -31.7990     2.1490    62.7780     8.5590     7.0700    11.4860    24.0420 
   75.5000   -31.8240     2.1500    63.2400     8.6530     7.0770    11.6140    23.9260 
   75.6250   -31.8850     2.1550    62.5380     8.7170     7.0660    11.7440    23.8500 
   75.7500   -31.9720     2.1580    61.9770     8.7370     7.0230    11.8600    23.8210 
   75.8750   -32.0280     2.1570    63.9300     8.7360     6.9570    11.7900    23.7960 
   76.0000   -32.0530     2.1560    65.8770     8.7280     6.8770    11.5520    23.7070 
   76.1250   -32.0560     2.1620    65.0090     8.7230     6.7960    11.4590    23.6320 
   76.2500   -32.0130     2.1730    62.9970     8.7170     6.7360    11.6580    23.6950 
   76.3750   -31.8910     2.1760    62.7050     8.6970     6.7070    11.9480    23.8930 
   76.5000   -31.6770     2.1660    63.6230     8.6630     6.7010    12.0770    24.1700 
   76.6250   -31.3720     2.1490    62.2500     8.6240     6.7040    12.0790    24.4820 
   76.7500   -30.9360     2.1360    59.3920     8.6460     6.7330    12.0370    24.7240 
   76.8750   -30.4080     2.1270    60.6650     8.7900     6.8210    11.9070    24.8170 
   77.0000   -29.8020     2.1190    67.3310     9.0700     6.9980    11.8370    24.6620 
   77.1250   -29.1200     2.1080    72.5650     9.4520     7.2630    12.3910    24.1290 
   77.2500   -28.4300     2.0880    70.1420     9.8170     7.5630    15.8190    23.3420 
   77.3750   -27.7770     2.0550    66.0190    10.0300     7.7940    22.8420    22.9100 
   77.5000   -27.1930     2.0170    64.8200    10.0320     7.8880    25.3630    22.9470 
   77.6250   -26.6720     1.9980    65.8070     9.8410     7.8330    18.1180    22.9670 
   77.7500   -26.2210     2.0180    66.0220     9.5510     7.6720    12.7210    22.5880 
   77.8750   -25.7930     2.0600    66.3000     9.2780     7.4980    11.0060    22.1890 
   78.0000   -25.3710     2.0990    67.1180     9.0670     7.3630    10.7050    22.0810 
   78.1250   -24.9690     2.1150    67.3970     8.9290     7.2900    10.6020    22.0710 
   78.2500   -24.5640     2.1140    67.2170     8.8560     7.2880    10.0460    22.0320 
   78.3750   -24.1390     2.1130    68.4810     8.8350     7.3390     9.3710    22.0090 
   78.5000   -23.6460     2.1140    71.2310     8.8760     7.4480     9.2730    22.0300 
   78.6250   -23.0470     2.1120    72.3680     8.9620     7.6070     9.9740    22.0810 
   78.7500   -22.3190     2.1040    69.6960     9.0290     7.7610    10.6260    22.1950 
   78.8750   -21.4720     2.0980    66.5450     8.9760     7.8190    11.0820    22.3690 
   79.0000   -20.4880     2.1020    65.2800     8.7350     7.7060    11.0790    22.6890 
   79.1250   -19.3730     2.1180    67.6950     8.2930     7.3840    10.5840    23.2380 
   79.2500   -18.1530     2.1530    76.7960     7.6790     6.8620     9.1270    23.8620 
   79.3750   -16.9250     2.2010    88.5590     7.0120     6.2530     7.4400    24.2530 
   79.5000   -15.7840     2.2510    97.8760     6.3620     5.6320     6.3980    24.5000 
   79.6250   -14.8130     2.2920   104.0830     5.7740     5.0520     5.8780    24.6510 
   79.7500   -14.1220     2.3180   109.1310     5.3230     4.5770     5.4920    24.7280 
   79.8750   -13.7390     2.3390   109.0760     5.0690     4.2540     5.1700    24.7660 
   80.0000   -13.6900     2.3570   102.8010     5.0960     4.1430     5.0280    24.8020 
   80.1250   -13.9710     2.3710    97.7620     5.4620     4.2900     5.1690    24.8160 
   80.2500   -14.6100     2.3780    98.5410     6.2400     4.7630     5.8490    24.7840 
   80.3750   -15.4940     2.3790    95.8330     7.3070     5.4870     8.0350    24.7170 
   80.5000   -16.5370     2.3720    85.1560     8.4720     6.3640    12.0890    24.6720 
   80.6250   -17.6510     2.3430    72.7890     9.4470     7.2100    14.2320    24.7010 
   80.7500   -18.7740     2.2780    66.8140     9.8840     7.7600    11.3950    24.8190 
   80.8750   -19.8420     2.2070    64.7700     9.8770     7.9880     9.8070    24.9380 
   81.0000   -20.7920     2.1630    64.2800     9.6690     8.0070     9.5550    25.0420 
   81.1250   -21.5760     2.1470    65.3470     9.5120     7.9850     9.9250    25.1300 
   81.2500   -22.1760     2.1450    67.1040     9.5680     8.0580    10.3590    25.1780 
   81.3750   -22.6130     2.1460    67.0300     9.7530     8.2120    10.6860    25.0920 
   81.5000   -22.8960     2.1540    65.8040     9.9320     8.3700    10.8970    24.8530 
   81.6250   -23.0530     2.1660    67.3040    10.0170     8.4670    11.1430    24.6740 
   81.7500   -23.0480     2.1690    72.6040     9.9770     8.4780    11.3690    24.6350 
   81.8750   -22.9400     2.1670    76.5420     9.8730     8.4460    11.3940    24.6210 
   82.0000   -22.7770     2.1670    74.6290     9.7760     8.4130    11.2210    24.6420 
   82.1250   -22.5830     2.1710    69.0450     9.7640     8.4300    11.2900    24.6660 
   82.2500   -22.2990     2.1710    66.3180     9.9520     8.5680    11.6100    24.6750 
   82.3750   -21.9210     2.1650    68.0350    10.3320     8.8300    11.6540    24.6900 
   82.5000   -21.4550     2.1540    68.9740    10.8330     9.1810    11.6940    24.7650 
   82.6250   -20.8860     2.1430    64.8570    11.2770     9.5000    12.3620    24.9550 
   82.7500   -20.1580     2.1300    60.0310    11.2900     9.5130    13.2620    25.3510 
   82.8750   -19.2720     2.1080    58.9540    10.6940     9.0560    13.1010    25.7710 
   83.0000   -18.2390     2.0830    62.1860     9.4970     8.1160    11.7460    25.9320 
   83.1250   -17.1200     2.0800    67.9710     7.9470     6.8710     9.5840    25.6810 
   83.2500   -16.0130     2.1260    73.4380     6.5430     5.6610     7.4200    25.1710 
   83.3750   -15.0120     2.2030    77.4560     5.6900     4.7780     5.7920    24.9750 
   83.5000   -14.1940     2.2820    81.9110     5.6340     4.3910     5.0810    25.0100 
   83.6250   -13.6170     2.3400    87.0720     6.5720     4.6310     5.2480    24.9700 
   83.7500   -13.4090     2.3820    87.1040     8.8990     5.8190     7.2750    24.7390 
   83.8750   -13.5620     2.4280    81.0140    12.4530     8.0170    12.9810    24.6270 
   84.0000   -14.0670     2.4820    73.8730    16.7160    11.1630    25.0770    24.6170 
   84.1250   -14.8560     2.5250    68.0020    20.1980    14.4720    37.7500    24.6110 
   84.2500   -15.8230     2.5200    64.5810    20.2150    15.7710    34.1120    24.5280 
   84.3750   -16.8000     2.4660    64.1920    17.2710    14.5510    21.9460    24.4190 
