~V
VERS. 2.00: Ver 2.00
~W
STRT.M 50.0000:
STOP.M 170.0000:
STEP.M 0.1250:
NULL. -999.2500:
UWI. F11116:
~C
DEPT.M :
SP.MV :
DEN.GM/CC :
GR.API :
RML.OHMM :
RI. :
RXO.OHMM :
CALI.CM :
~A
# ...
   61.2500   -21.3800     1.8630    58.2310     3.6790     4.3120     6.7270    26.0250 
   61.3750   -23.9660     1.9120    61.1840     4.0420     5.4850     7.2240    25.8310 
   61.5000   -25.6240     1.9890    61.0860     4.6520     6.6710     7.2720    26.0080 
   61.6250   -26.5870     2.0270    58.7410     5.7170     7.7140     7.2830    26.0180 
   61.7500   -27.2510     2.0310    56.1710     7.0360     8.4350     7.2180    25.7260 
   61.8750   -27.7630     2.0440    55.5480     8.1840     8.7050     6.9560    25.3550 
   62.0000   -28.2080     2.0970    57.7520     8.6750     8.5240     6.6740    25.0770 
   62.1250   -28.6260     2.1720    61.3550     8.3330     8.0050     6.7310    24.9130 
   62.2500   -29.0240     2.2130    63.4540     7.7390     7.4050     7.0100    24.8450 
   62.3750   -29.3910     2.2030    62.7120     7.2370     6.8690     6.9880    24.9420 
   62.5000   -29.7110     2.1620    59.6770     6.9400     6.4780     6.9100    25.1750 
   62.6250   -29.9420     2.1210    59.7760     6.8670     6.2710     6.8070    25.4090 
   62.7500   -30.0870     2.0950    62.7120     6.9120     6.1780     6.6670    25.5210 
   62.8750   -30.1590     2.0850    64.7690     6.9960     6.1450     6.8210    25.4750 
   63.0000   -30.1620     2.0900    64.0280     7.0630     6.1280     7.2020    25.3320 
   63.1250   -30.1100     2.1090    63.1040     7.0790     6.1000     7.4060    25.2000 
   63.2500   -30.0710     2.1290    63.6420     7.0540     6.0570     7.2510    25.2290 
   63.3750   -30.0840     2.1390    63.3240     7.0180     6.0110     7.0520    25.5370 
   63.5000   -30.1760     2.1300    61.1930     7.0070     5.9880     6.8890    26.0270 
   63.6250   -30.3660     2.1110    58.8480     7.0710     6.0210     6.9480    26.2510 
   63.7500   -30.6010     2.1010    58.1690     7.2350     6.1110     7.2110    26.0710 
   63.8750   -30.8420     2.1110    58.0630     7.4900     6.2470     7.4070    25.7890 
   64.0000   -31.0610     2.1380    56.8970     7.7820     6.4000     7.5720    25.8010 
   64.1250   -31.2150     2.1660    55.6750     7.9850     6.5080     7.8560    26.1890 
   64.2500   -31.2850     2.1800    55.7750     8.0050     6.5210     8.0860    26.5920 
   64.3750   -31.2700     2.1780    57.2070     7.8210     6.4210     7.8290    26.8030 
   64.5000   -31.1930     2.1630    60.4780     7.5040     6.2320     7.4280    26.8330 
   64.6250   -31.0660     2.1430    65.0330     7.1940     6.0180     7.3580    26.7240 
   64.7500   -30.9160     2.1280    68.1870     6.9980     5.8510     7.1710    26.4980 
   64.8750   -30.7660     2.1280    68.9460     6.9390     5.7650     7.0630    26.2300 
   65.0000   -30.6330     2.1460    69.0550     6.9970     5.7650     7.4950    26.1070 
   65.1250   -30.5440     2.1750    69.9470     7.1290     5.8370     7.8580    26.3200 
   65.2500   -30.5220     2.1960    70.0260     7.2750     5.9400     7.8710    26.6990 
   65.3750   -30.5620     2.1970    67.8210     7.4120     6.0510     7.7280    26.9720 
   65.5000   -30.6560     2.1850    64.3510     7.5450     6.1570     7.9060    26.9790 
   65.6250   -30.8020     2.1760    63.0540     7.6950     6.2530     8.2760    26.8530 
   65.7500   -30.9760     2.1810    64.2310     7.8780     6.3430     8.4970    26.8500 
   65.8750   -31.1570     2.1910    65.3020     8.0880     6.4270     8.6430    27.0270 
   66.0000   -31.3270     2.1870    65.6320     8.2890     6.4960     8.7860    27.3690 
   66.1250   -31.4800     2.1540    66.4090     8.4170     6.5290     8.5020    27.5680 
   66.2500   -31.6180     2.1120    67.3490     8.4400     6.5140     8.0830    27.1840 
   66.3750   -31.7580     2.0840    67.2290     8.3450     6.4420     7.7710    26.2810 
   66.5000   -31.9210     2.0850    65.9940     8.1520     6.3110     7.8690    25.4730 
   66.6250   -32.1220     2.1180    64.6200     7.9130     6.1370     7.9150    25.3310 
   66.7500   -32.3620     2.1580    64.6600     7.7000     5.9620     7.9780    25.5250 
   66.8750   -32.6250     2.1880    66.8240     7.5510     5.8180     8.0560    25.7260 
   67.0000   -32.9030     2.2050    69.0070     7.4770     5.7220     7.9650    25.8550 
   67.1250   -33.1940     2.2070    67.1280     7.4640     5.6820     7.7880    26.0950 
   67.2500   -33.4940     2.1960    63.2660     7.4600     5.6730     7.6880    26.6140 
   67.3750   -33.7930     2.1710    60.5230     7.4350     5.6690     7.6950    27.2510 
   67.5000   -34.0660     2.1400    60.6010     7.3790     5.6550     8.0360    27.6930 
   67.6250   -34.3030     2.1200    61.8500     7.2980     5.6210     8.2480    27.8480 
   67.7500   -34.5080     2.1180    60.6840     7.2080     5.5710     8.2570    27.9800 
   67.8750   -34.6840     2.1170    57.9280     7.1170     5.5130     8.1370    28.1980 
   68.0000   -34.8190     2.0890    55.9100     7.0350     5.4560     8.2690    28.5040 
   68.1250   -34.8740     2.0280    55.1330     6.9750     5.4150     8.3500    28.9560 
   68.2500   -34.8540     1.9670    54.0440     6.9450     5.3950     8.4110    29.4150 
   68.3750   -34.7500     1.9300    54.0850     6.9440     5.3960     8.0980    29.4660 
   68.5000   -34.5710     1.9230    56.5310     6.9600     5.4130     7.7320    28.7410 
   68.6250   -34.2790     1.9410    58.7570     6.9590     5.4270     7.7200    27.4390 
   68.7500   -33.8900     1.9680    59.0960     6.9160     5.4130     7.8260    26.4050 
   68.8750   -33.4150     1.9980    59.8830     6.8360     5.3560     7.7600    25.9620 
   69.0000   -32.8740     2.0430    62.5690     6.7490     5.2570     7.6130    25.8950 
   69.1250   -32.2930     2.1160    65.6120     6.6950     5.1400     7.2320    25.7620 
   69.2500   -31.6990     2.1970    67.3320     6.6830     5.0370     6.6880    25.4060 
   69.3750   -31.1240     2.2590    68.9670     6.7030     4.9680     6.5870    24.9280 
   69.5000   -30.5650     2.2860    71.2490     6.7330     4.9310     7.1040    24.5510 
   69.6250   -29.9970     2.2700    71.2530     6.7300     4.9050     7.2130    24.5100 
   69.7500   -29.3920     2.2240    68.8640     6.6760     4.8610     6.9280    24.7330 
   69.8750   -28.7410     2.1610    67.8690     6.6030     4.8070     7.3220    25.0730 
   70.0000   -28.0400     2.0980    69.9820     6.6110     4.7920     7.9640    25.3620 
   70.1250   -27.2440     2.0600    71.7890     6.9020     4.9330     8.0550    25.3990 
   70.2500   -26.3570     2.0600    70.1130     7.5410     5.2780     7.7650    25.2410 
   70.3750   -25.3790     2.1100    66.5480     8.4760     5.8250     8.1410    25.0320 
   70.5000   -24.3390     2.2050    64.4480     9.4800     6.4810    10.6740    24.8690 
   70.6250   -23.2890     2.3080    67.2170    10.0870     7.0150    13.7270    24.7440 
   70.7500   -22.2750     2.3630    74.1670    10.0570     7.2350    12.2350    24.5950 
   70.8750   -21.3210     2.3560    81.9320     9.4830     7.1100     8.3390    24.4290 
   71.0000   -20.4690     2.3100    87.0920     8.7250     6.7780     6.0530    24.2430 
   71.1250   -19.7890     2.2640    88.3890     8.1810     6.4490     5.7130    24.0510 
   71.2500   -19.2500     2.2370    86.7980     7.9030     6.2220     5.7120    23.9970 
   71.3750   -18.8090     2.2270    83.5890     7.7420     6.0600     5.6830    24.1450 
   71.5000   -18.4120     2.2260    81.5260     7.4820     5.8600     5.9960    24.3690 
   71.6250   -18.0160     2.2300    84.1070     6.9700     5.5280     6.2320    24.4720 
   71.7500   -17.5950     2.2410    89.4890     6.3760     5.1360     5.3020    24.4820 
   71.8750   -17.1650     2.2640    95.3680     5.9320     4.8150     4.1660    24.4770 
   72.0000   -16.7570     2.3080   100.5730     5.8030     4.6750     3.6340    24.4750 
   72.1250   -16.4280     2.3720   103.2650     6.0650     4.7910     3.9140    24.4710 
   72.2500   -16.2180     2.4310   102.6630     6.5430     5.0700     4.9440    24.4650 
   72.3750   -16.1490     2.4540   100.6700     7.0330     5.3940     6.5790    24.4750 
