~V
VERS. 2.00: Ver 2.00
~W
STRT.M 50.0000:
STOP.M 253.0000:
STEP.M 0.1250:
NULL. -999.2500:
UWI. F11132:
~C
DEPT.M :
DEN.GM/CC :
GR.API :
RML.OHMM :
RI. :
RXO.OHMM :
CALI.CM :
SP.MV :
~A
# ...
  173.7500     2.2210    51.6820   128.1930   129.5460    79.6710    25.2760   -36.8960 
  173.8750     2.2340    50.3630   118.1620   118.1800    64.7870    25.2760   -36.8220 
  174.0000     2.2550    49.5950   113.8050   112.3290    60.2300    25.2760   -36.8330 
  174.1250     2.2770    47.5590   115.2120   112.4680    68.0800    25.2750   -36.8340 
  174.2500     2.2890    47.1200   119.6190   115.9160    83.1280    25.2690   -36.8240 
  174.3750     2.2880    49.8760   124.8870   120.5550    95.5660    25.2510   -36.9000 
  174.5000     2.2790    52.1070   129.1940   124.5440   101.7070    25.2230   -37.0590 
  174.6250     2.2670    51.2820   131.6800   126.8500    97.7520    25.2100   -37.2400 
  174.7500     2.2540    50.2640   133.6620   128.4450    92.1860    25.2070   -37.3740 
  174.8750     2.2490    49.7320   136.4320   130.4750    90.9910    25.2070   -37.4310 
  175.0000     2.2500    48.2250   140.3830   133.3850   102.5750    25.2070   -37.4450 
  175.1250     2.2520    46.0850   144.3840   136.2090   111.5320    25.2050   -37.4910 
  175.2500     2.2470    46.4700   146.6530   137.3560   110.5240    25.1920   -37.5430 
  175.3750     2.2410    48.8360   146.3940   136.0560   104.7830    25.1630   -37.5030 
  175.5000     2.2370    50.2660   144.2000   132.7600   101.6740    25.1430   -37.3600 
  175.6250     2.2330    51.7500   142.0250   129.1240   100.5210    25.1350   -37.1910 
  175.7500     2.2280    53.1040   141.7370   126.9810    99.4220    25.1360   -37.0130 
  175.8750     2.2230    52.0430   144.0580   127.1260   100.7580    25.1410   -36.8390 
  176.0000     2.2200    48.4520   148.8300   129.4920   105.2140    25.1580   -36.5980 
  176.1250     2.2180    46.3450   155.4010   133.5590   113.7350    25.1890   -36.2470 
  176.2500     2.2200    47.5410   162.3300   138.0980   120.8260    25.2030   -35.8570 
  176.3750     2.2240    49.6210   168.6830   142.3000   124.8800    25.2070   -35.4660 
  176.5000     2.2290    50.7430   173.8290   145.5590   127.0660    25.2070   -35.0480 
  176.6250     2.2350    49.5680   177.2620   147.3140   128.5020    25.1940   -34.5470 
  176.7500     2.2400    47.8980   179.2300   147.7390   127.6120    25.1660   -34.0050 
  176.8750     2.2430    47.8460   179.7190   146.9130   129.3250    25.1570   -33.4590 
  177.0000     2.2470    47.9990   178.6070   144.9130   129.4840    25.1970   -32.9680 
  177.1250     2.2540    47.9610   175.4740   141.6310   124.8650    25.2960   -32.4970 
  177.2500     2.2590    48.0510   170.6750   137.3610   116.9680    25.3350   -31.9740 
  177.3750     2.2590    48.5120   164.5140   132.3080   110.5320    25.3240   -31.4050 
  177.5000     2.2560    48.6450   157.4830   126.8150   105.7140    25.2750   -30.8630 
  177.6250     2.2530    49.5590   150.2140   121.3520   101.8830    25.2240   -30.3720 
  177.7500     2.2470    51.1700   143.3040   116.2960    98.1490    25.1990   -29.9020 
  177.8750     2.2370    51.5640   136.6530   111.5810    96.6070    25.1950   -29.4370 
  178.0000     2.2280    51.1070   129.0570   106.3260    96.6340    25.2090   -28.9290 
  178.1250     2.2290    50.7780   117.7280    98.2770    98.0040    25.2590   -28.3890 
  178.2500     2.2410    50.6070   102.0500    86.5110    96.4880    25.2680   -27.8610 
  178.3750     2.2640    51.2210    83.5490    71.8270    85.6650    25.2040   -27.3790 
  178.5000     2.2920    52.6630    65.2820    56.6530    64.7320    25.1030   -26.9280 
  178.6250     2.3230    55.3490    50.5850    44.0590    44.3220    25.0280   -26.4800 
  178.7500     2.3500    58.3870    39.8530    34.7640    33.3820    25.0360   -26.0220 
  178.8750     2.3670    61.0090    32.5920    28.4280    26.7260    25.0500   -25.5550 
  179.0000     2.3760    62.5510    27.9070    24.2890    24.0860    25.0560   -25.1590 
  179.1250     2.3800    62.0780    25.0970    21.7930    21.9310    25.0510   -24.8830 
  179.2500     2.3790    61.5750    23.1360    20.1210    19.7430    25.0180   -24.6650 
  179.3750     2.3790    64.1190    21.5890    18.9110    18.2060    24.9450   -24.4650 
  179.5000     2.3870    68.5170    20.2220    17.9280    16.7130    24.8740   -24.2930 
  179.6250     2.3990    69.4620    19.0170    17.1020    15.7030    24.8450   -24.2180 
  179.7500     2.4050    67.4300    18.0020    16.4260    15.6380    24.8370   -24.2260 
  179.8750     2.4030    65.7400    17.2200    15.9380    14.7970    24.8320   -24.2800 
  180.0000     2.3990    65.3070    16.6970    15.6690    13.9470    24.8360   -24.3180 
  180.1250     2.3980    64.8480    16.4820    15.6640    13.6890    24.8800   -24.3580 
  180.2500     2.4030    64.3180    16.4930    15.8500    14.0030    24.8890   -24.4500 
  180.3750     2.4080    63.7740    16.6470    16.1480    14.3340    24.8350   -24.6010 
  180.5000     2.4080    61.9920    16.8120    16.4330    14.1590    24.7810   -24.7650 
  180.6250     2.4020    60.7660    16.8070    16.5200    13.6480    24.8080   -24.8820 
  180.7500     2.3920    61.1730    16.5640    16.3450    13.3700    24.8600   -24.9790 
  180.8750     2.3790    61.8110    16.0890    15.9020    13.0710    24.9810   -25.1160 
  181.0000     2.3660    61.6580    15.4490    15.2420    12.2260    25.1060   -25.3330 
  181.1250     2.3650    61.3830    14.7730    14.4790    11.6800    25.0260   -25.5800 
  181.2500     2.3840    63.8200    14.2290    13.7970    11.5020    24.8420   -25.8370 
  181.3750     2.4180    68.3130    13.9560    13.3320    10.9360    24.8150   -26.1070 
  181.5000     2.4430    71.4040    14.0580    13.1840    10.3620    24.9480   -26.4450 
  181.6250     2.4540    70.3750    14.6440    13.4580    11.5750    25.0780   -26.8920 
  181.7500     2.4570    66.8860    15.5650    14.0440    14.0900    25.1290   -27.3880 
  181.8750     2.4450    63.7990    16.6520    14.8200    16.2840    25.1380   -27.8800 
  182.0000     2.4190    61.8540    17.7300    15.6390    17.4730    25.1380   -28.3740 
  182.1250     2.3940    60.0060    18.7050    16.3940    17.7580    25.1380   -28.9070 
  182.2500     2.3790    58.7370    19.7170    17.1400    18.7930    25.1380   -29.4240 
  182.3750     2.3730    58.9770    21.0350    18.0560    19.6690    25.1430   -29.9560 
  182.5000     2.3660    61.7840    23.0040    19.3970    20.6690    25.1580   -30.4990 
  182.6250     2.3560    63.7610    26.2640    21.6440    23.2150    25.1820   -30.9910 
  182.7500     2.3440    62.7490    31.1950    25.1200    29.0610    25.1790   -31.4730 
  182.8750     2.3310    61.3340    38.4840    30.4170    35.1220    25.1510   -32.0010 
  183.0000     2.3140    61.0380    49.0700    38.4390    41.6020    25.1200   -32.5080 
  183.1250     2.2940    58.7550    65.0360    51.3190    56.8200    25.0860   -32.9540 
  183.2500     2.2780    53.2800    86.7850    69.6850    82.9500    25.0710   -33.4120 
  183.3750     2.2630    48.7660   114.4750    93.5930   116.1330    25.0670   -33.8600 
  183.5000     2.2460    47.4020   146.5530   121.2730   137.9990    25.0670   -34.2540 
  183.6250     2.2300    47.0000   178.8380   148.7430   143.3310    25.0760   -34.5920 
  183.7500     2.2230    46.2510   207.1780   172.6280   140.7410    25.1050   -34.8770 
  183.8750     2.2250    45.4050   231.2800   192.8130   137.1770    25.1480   -35.1080 
  184.0000     2.2230    44.8410   252.7950   210.7680   139.3750    25.1650   -35.3050 
  184.1250     2.2100    44.3720   268.4370   224.6020   157.5620    25.1700   -35.4620 
  184.2500     2.1930    44.0420   269.3990   228.4730   184.5950    25.1630   -35.5950 
  184.3750     2.1850    43.7320   248.7620   216.6740   192.9550    25.1470   -35.7190 
  184.5000     2.1890    44.5450   211.3780   190.2340   173.9490    25.1380   -35.8370 
  184.6250     2.2020    48.4570   172.1200   158.1030   134.4770    25.1380   -35.9580 
  184.7500     2.2160    53.2480   141.4240   130.7390   100.4800    25.1380   -36.1090 
  184.8750     2.2270    55.9170   120.6250   111.4010    87.0960    25.1380   -36.2880 
