~V
VERS. 2.00: Ver 2.00
~W
STRT.M 52.0000:
STOP.M 216.0000:
STEP.M 0.1250:
NULL. -999.2500:
UWI. F11106:
~C
DEPT.M :
DEN.GM/CC :
GR.API :
RML.OHMM :
RI. :
RXO.OHMM :
CALI.CM :
SP.MV :
~A
# ...
  108.2500     2.3390    62.2510     8.3720     7.6900     8.2340    23.7600   -18.0380 
  108.3750     2.3040    64.6210     7.8980     7.2450     7.9020    24.0350   -18.9330 
  108.5000     2.2710    66.0700     7.6980     7.0350     7.8430    24.2210   -19.8740 
  108.6250     2.2440    64.0910     7.6680     7.0130     7.9820    24.2010   -20.8090 
  108.7500     2.2190    57.7840     7.6480     7.0450     7.9120    24.0780   -21.6440 
  108.8750     2.1980    49.7590     7.5870     7.0490     7.5480    23.9150   -22.3360 
  109.0000     2.1790    45.2130     7.5050     6.9950     7.2380    23.6480   -22.8880 
  109.1250     2.1620    48.4620     7.4560     6.8880     7.1610    23.6180   -23.3110 
  109.2500     2.1480    54.0890     7.4490     6.7600     7.0870    23.6760   -23.5830 
  109.3750     2.1370    56.6040     7.4560     6.6330     7.0830    23.7250   -23.6870 
  109.5000     2.1320    57.6780     7.4370     6.5190     7.1170    23.6610   -23.6380 
  109.6250     2.1360    61.4640     7.3550     6.4220     7.0800    23.5660   -23.5280 
  109.7500     2.1470    65.0090     7.2370     6.3400     7.0400    23.8810   -23.4080 
  109.8750     2.1610    65.1180     7.1230     6.2780     7.2360    24.2040   -23.2710 
  110.0000     2.1720    63.3510     7.0420     6.2410     7.7520    24.2600   -23.1180 
  110.1250     2.1770    62.3450     7.0170     6.2280     8.1420    24.2490   -22.9330 
  110.2500     2.1760    61.1440     7.0290     6.2260     8.1950    24.2670   -22.7570 
  110.3750     2.1750    59.9000     7.0470     6.2200     8.0940    24.2170   -22.5810 
  110.5000     2.1730    60.6510     7.0440     6.1950     8.1040    24.2810   -22.3600 
  110.6250     2.1730    63.2060     7.0060     6.1340     8.1290    24.2920   -22.0530 
  110.7500     2.1740    64.9000     6.9520     6.0550     7.9830    24.2970   -21.7250 
  110.8750     2.1760    64.8650     6.9080     5.9950     7.6930    24.2970   -21.3960 
  111.0000     2.1800    63.8440     6.9030     5.9950     7.5430    24.2970   -21.0280 
  111.1250     2.1860    62.9620     6.9730     6.1090     7.9200    24.2740   -20.5910 
  111.2500     2.1960    61.8240     7.1000     6.3060     8.0850    24.1650   -20.1390 
  111.3750     2.2120    59.7530     7.2440     6.5350     7.8970    24.0510   -19.7380 
  111.5000     2.2370    57.6960     7.3650     6.7290     7.7980    24.1170   -19.4340 
  111.6250     2.2660    59.4820     7.4140     6.8140     7.7140    24.1020   -19.2140 
  111.7500     2.2870    64.6750     7.3920     6.8030     7.9280    24.0520   -19.0240 
  111.8750     2.2880    69.0320     7.3280     6.7420     8.0040    23.9870   -18.8670 
  112.0000     2.2650    69.3890     7.2800     6.6850     7.7720    23.8420   -18.7130 
  112.1250     2.2260    67.2010     7.3170     6.6840     7.7200    23.7720   -18.5340 
  112.2500     2.1850    66.4350     7.4240     6.7280     7.8150    23.7580   -18.3000 
  112.3750     2.1530    66.6660     7.5320     6.7640     7.7800    23.7560   -17.9930 
  112.5000     2.1340    66.9700     7.5230     6.7200     7.6410    23.7490   -17.5880 
  112.6250     2.1330    66.9330     7.2680     6.5230     7.4750    23.6990   -17.0540 
  112.7500     2.1440    66.1030     6.8660     6.2220     7.2360    23.6100   -16.4620 
  112.8750     2.1680    63.5000     6.5120     5.9180     6.7420    23.6400   -15.8600 
  113.0000     2.2000    61.4730     6.4290     5.7500     6.0750    23.9360   -15.3050 
  113.1250     2.2350    63.2160     6.8420     5.9130     6.2750    23.9070   -14.8190 
  113.2500     2.2690    66.5880     7.6760     6.4370     7.5640    23.7490   -14.3520 
  113.3750     2.3010    65.9110     8.7560     7.2730    10.4080    23.9080   -13.8570 
  113.5000     2.3330    60.1190     9.7170     8.2000    15.2330    24.3370   -13.3930 
  113.6250     2.3630    58.9590     9.9290     8.7110    18.6490    24.5300   -13.0690 
  113.7500     2.3830    66.7550     9.3360     8.5710    14.4710    24.4990   -12.7580 
  113.8750     2.3870    76.7370     8.3840     7.9870     8.8210    24.4670   -12.4090 
  114.0000     2.3790    79.7230     7.7120     7.4270     6.4830    24.4440   -12.0610 
  114.1250     2.3720    73.5580     7.8060     7.3620     6.8100    24.3240   -11.7480 
  114.2500     2.3810    67.7240     8.4890     7.8230     9.2420    24.0610   -11.4660 
  114.3750     2.4070    63.5510     9.3870     8.6210    15.8320    23.8310   -11.2750 
  114.5000     2.4400    59.6290     9.9200     9.2990    22.7840    23.7010   -11.1750 
  114.6250     2.4580    58.0400     9.4410     9.2110    16.7590    23.7640   -11.1380 
  114.7500     2.4480    60.9290     8.3380     8.4660     9.1670    24.0550   -11.2170 
  114.8750     2.4170    65.1100     7.2730     7.5480     6.1400    24.6130   -11.3650 
  115.0000     2.3790    67.7250     6.6800     6.8990     6.0660    24.9030   -11.5280 
  115.1250     2.3500    67.7400     6.6520     6.7250     7.0760    24.7580   -11.6910 
  115.2500     2.3310    66.2250     6.8640     6.8190     7.5620    24.6930   -11.8910 
  115.3750     2.3190    64.2380     7.0640     6.9750     6.9490    24.6030   -12.0900 
  115.5000     2.3070    62.4900     7.1080     7.0530     6.3630    24.4130   -12.2410 
  115.6250     2.2980    59.7780     7.0250     7.0470     6.2110    24.1540   -12.2960 
  115.7500     2.2940    56.7470     6.9620     7.0530     7.0010    24.0140   -12.3110 
  115.8750     2.2980    57.4780     6.9580     7.0980     8.1480    23.9910   -12.3300 
  116.0000     2.3030    62.7140     6.9800     7.1430     9.1280    23.9880   -12.3440 
  116.1250     2.3020    68.3090     7.0340     7.1570     7.1980    23.9880   -12.3480 
  116.2500     2.2920    70.3230     7.2200     7.2260     6.2040    23.9880   -12.3090 
  116.3750     2.2790    68.9200     7.7060     7.5090     6.2850    23.9880   -12.2570 
  116.5000     2.2720    66.4810     8.6720     8.1780     7.4570    23.9960   -12.2200 
  116.6250     2.2810    63.5230    10.3270     9.4490     9.1450    24.0610   -12.1990 
  116.7500     2.3060    59.1150    12.4320    11.2120    11.1370    24.2820   -12.0980 
  116.8750     2.3450    53.9490    14.5520    13.1770    12.4150    24.4360   -11.9190 
  117.0000     2.3920    50.9920    16.0540    14.7820    14.2100    24.4610   -11.7370 
  117.1250     2.4370    50.4530    16.1850    15.2310    18.5880    24.4330   -11.5640 
  117.2500     2.4670    49.7000    15.2110    14.5790    21.7890    24.3020   -11.3860 
  117.3750     2.4760    50.1710    13.7810    13.3170    16.9210    24.1060   -11.1980 
  117.5000     2.4660    52.9330    12.7310    12.1470    10.4170    23.9370   -10.9970 
  117.6250     2.4570    55.5950    13.3100    11.8400     9.8130    24.0490   -10.8030 
  117.7500     2.4620    55.6330    16.1030    12.6660    13.2550    24.0520   -10.6120 
  117.8750     2.4850    52.0020    19.4830    14.7680    19.8480    24.0550   -10.4400 
  118.0000     2.5210    47.3800    23.9510    17.9960    24.9230    24.0600   -10.2880 
  118.1250     2.5560    45.4260    28.1960    21.5650    24.4340    24.0860   -10.1660 
  118.2500     2.5780    46.1540    30.7350    24.1630    22.8150    24.1250   -10.0590 
  118.3750     2.5850    46.5020    31.3210    25.3260    22.4700    24.1390    -9.9650 
  118.5000     2.5810    43.9620    30.8990    25.5650    24.3180    24.1710    -9.8900 
  118.6250     2.5720    40.9480    30.5070    25.5940    26.0040    24.3290    -9.8520 
  118.7500     2.5630    40.0970    30.3150    25.6310    26.1850    24.4840    -9.8740 
  118.8750     2.5540    40.8230    30.0450    25.5060    25.2220    24.5880    -9.9290 
  119.0000     2.5490    40.9880    29.4800    25.0980    24.1920    24.6060    -9.9690 
  119.1250     2.5460    40.2830    28.6310    24.4550    23.9330    24.5980    -9.9990 
  119.2500     2.5460    41.2490    27.7610    23.8040    23.0560    24.5530   -10.0870 
  119.3750     2.5480    42.8730    27.0320    23.2740    22.1120    24.4640   -10.1930 
