~V
VERS. 2.00: Ver 2.00
~W
STRT.M 55.0000:
STOP.M 210.0000:
STEP.M 0.1250:
NULL. -999.2500:
UWI. F11105:
~C
DEPT.M :
DEN.GM/CC :
GR.API :
RML.OHMM :
RI. :
RXO.OHMM :
CALI.CM :
SP.MV :
~A
# ...
   77.5000     2.1070    54.4150     7.2530     6.0140     6.6570    25.7500   -31.5420 
   77.6250     2.1120    56.2190     7.2050     5.9690     6.5730    25.6810   -31.5250 
   77.7500     2.1220    60.6250     7.1170     5.9080     6.6790    25.5200   -31.4690 
   77.8750     2.1300    64.0840     7.0310     5.8500     6.7540    26.0310   -31.3860 
   78.0000     2.1310    65.1250     6.9820     5.8140     6.7540    26.2630   -31.2200 
   78.1250     2.1200    64.3520     6.9990     5.8330     6.7150    26.4410   -30.9510 
   78.2500     2.1020    62.3130     7.0810     5.9140     6.6220    26.4600   -30.6260 
   78.3750     2.0840    58.9130     7.2270     6.0590     6.5980    26.0380   -30.2600 
   78.5000     2.0730    56.2870     7.4390     6.2560     6.6560    25.2180   -29.8670 
   78.6250     2.0750    56.2400     7.7030     6.4730     6.7810    25.3820   -29.4600 
   78.7500     2.0860    56.1560     7.9350     6.6450     6.9410    25.5160   -29.0230 
   78.8750     2.0990    53.9540     8.0290     6.7110     7.0920    25.6890   -28.5530 
   79.0000     2.1110    54.0600     7.8980     6.6200     7.2160    25.7000   -28.0930 
   79.1250     2.1180    59.2420     7.4910     6.3250     6.9340    26.0070   -27.6390 
   79.2500     2.1240    63.4310     6.9250     5.8990     6.2210    26.1530   -27.2060 
   79.3750     2.1310    65.1810     6.3110     5.4150     5.1680    26.3890   -26.8100 
   79.5000     2.1390    69.0950     5.7700     4.9610     4.3100    26.7330   -26.4720 
   79.6250     2.1470    77.6520     5.4580     4.6490     4.2650    26.5970   -26.2080 
   79.7500     2.1540    83.0530     5.4020     4.5170     4.6220    26.2930   -26.0000 
   79.8750     2.1600    80.7930     5.6040     4.5830     5.0720    25.8810   -25.8100 
   80.0000     2.1650    73.1280     6.0420     4.8500     5.5690    25.3730   -25.6310 
   80.1250     2.1690    64.7490     6.7110     5.3360     5.9780    24.1550   -25.4660 
   80.2500     2.1750    60.0230     7.5020     5.9620     6.4900    23.6690   -25.3000 
   80.3750     2.1860    59.4720     8.2810     6.6290     6.8730    24.1660   -25.1070 
   80.5000     2.2030    60.1830     8.8370     7.1720     7.6750    25.1200   -24.8830 
   80.6250     2.2200    59.9100     8.8070     7.3120     8.8480    25.4150   -24.6130 
   80.7500     2.2280    60.0390     8.1690     6.9850     8.8720    25.2510   -24.2890 
   80.8750     2.2250    62.6720     7.1280     6.2880     7.3200    24.9930   -23.9320 
   81.0000     2.2130    69.6910     6.0720     5.4620     5.7060    25.6300   -23.5600 
   81.1250     2.2070    78.9920     5.4300     4.8180     4.5680    26.2090   -23.2480 
   81.2500     2.2150    85.9280     5.3090     4.5090     4.3890    26.3400   -23.0490 
   81.3750     2.2400    88.9780     5.7080     4.5880     4.6680    26.3090   -23.0230 
   81.5000     2.2720    87.3470     6.5350     5.0340     5.5590    26.1970   -23.1600 
   81.6250     2.2970    83.0020     7.5770     5.7540     7.9630    25.8490   -23.4870 
   81.7500     2.3000    79.5580     8.4340     6.4660    11.2590    25.3160   -23.9720 
   81.8750     2.2790    78.7990     8.8150     6.9310    11.3480    24.6480   -24.5770 
   82.0000     2.2420    79.9340     8.6660     7.0200     8.9150    24.3790   -25.2430 
   82.1250     2.2060    79.4490     8.1970     6.7710     7.5990    24.5000   -25.8940 
   82.2500     2.1820    79.1740     7.7680     6.4390     7.1170    24.8080   -26.4830 
   82.3750     2.1720    78.5590     7.5180     6.1740     7.0060    25.1450   -26.9440 
   82.5000     2.1720    75.4830     7.4430     6.0370     7.1250    25.3760   -27.2840 
   82.6250     2.1740    72.0070     7.4690     6.0240     7.1850    25.3190   -27.4860 
   82.7500     2.1720    70.6090     7.5060     6.0630     7.1880    25.1940   -27.6230 
   82.8750     2.1680    70.4070     7.5400     6.1130     7.0910    24.9440   -27.7150 
   83.0000     2.1600    69.5250     7.5780     6.1540     7.0290    24.6550   -27.7860 
   83.1250     2.1520    70.5800     7.6210     6.1750     7.0520    24.3210   -27.8390 
   83.2500     2.1430    76.2670     7.6560     6.1780     7.1110    23.8440   -27.8360 
   83.3750     2.1340    82.4910     7.6710     6.1650     7.0470    23.4240   -27.7740 
   83.5000     2.1260    82.8400     7.6760     6.1460     6.8740    23.1310   -27.6420 
   83.6250     2.1190    77.5430     7.7240     6.1530     6.7350    22.9950   -27.4380 
   83.7500     2.1160    74.2350     7.8780     6.2270     6.6760    23.0090   -27.1510 
   83.8750     2.1160    74.7040     8.1810     6.4040     6.6910    22.9710   -26.7920 
   84.0000     2.1190    75.3470     8.6320     6.6940     6.6920    23.2390   -26.3800 
   84.1250     2.1220    74.8000     9.1480     7.0690     6.5950    23.7540   -25.8900 
   84.2500     2.1250    76.5460     9.5330     7.4070     6.4640    24.5860   -25.3500 
   84.3750     2.1290    80.0370     9.6040     7.5710     6.4520    25.0380   -24.7970 
   84.5000     2.1360    80.8750     9.2620     7.4570     6.6390    24.5860   -24.2160 
   84.6250     2.1470    80.4100     8.5240     7.0180     6.8580    24.2160   -23.6000 
   84.7500     2.1610    81.4960     7.6740     6.4270     6.5680    24.6220   -22.9530 
   84.8750     2.1710    82.6470     6.9360     5.8460     5.7610    25.3240   -22.3020 
   85.0000     2.1720    82.2910     6.4730     5.4130     5.3110    26.2760   -21.6790 
   85.1250     2.1610    83.9000     6.4050     5.2400     5.2610    26.5450   -21.1760 
   85.2500     2.1420    87.6400     6.6220     5.2870     5.4370    26.4140   -20.8010 
   85.3750     2.1250    88.4060     6.9910     5.4890     5.7730    25.8130   -20.5220 
   85.5000     2.1150    83.4860     7.3250     5.7370     6.2120    25.1550   -20.3140 
   85.6250     2.1190    77.4240     7.4160     5.8860     6.2980    25.1080   -20.1550 
   85.7500     2.1310    78.3110     7.2550     5.8710     6.0660    25.5310   -20.0520 
   85.8750     2.1470    85.7390     6.9260     5.7090     5.5840    26.2180   -19.9900 
   86.0000     2.1630    90.6360     6.5570     5.4680     5.3710    26.8340   -19.9430 
   86.1250     2.1760    87.7860     6.2620     5.2340     5.4240    27.3230   -19.8690 
   86.2500     2.1870    86.7580     6.0680     5.0560     5.4750    27.4200   -19.7640 
   86.3750     2.1980    90.0900     5.9690     4.9440     5.4170    27.4540   -19.6600 
   86.5000     2.2110    92.3320     5.9430     4.8890     5.3150    27.4970   -19.6040 
   86.6250     2.2250    91.6470     5.9670     4.8780     5.2370    27.4910   -19.6350 
   86.7500     2.2340    93.0520     6.0140     4.8890     5.2260    27.5160   -19.7630 
   86.8750     2.2290    95.4200     6.0790     4.9100     5.2690    27.5640   -20.0020 
   87.0000     2.2060    91.9740     6.1590     4.9380     5.3970    27.6730   -20.3560 
   87.1250     2.1650    83.2160     6.2520     4.9760     5.6030    27.8130   -20.8540 
   87.2500     2.1240    79.0360     6.3500     5.0310     5.7880    27.8720   -21.4470 
   87.3750     2.0940    80.2530     6.4560     5.1120     5.9830    27.5150   -22.1170 
   87.5000     2.0810    80.9070     6.5780     5.2230     6.3570    27.0350   -22.8730 
   87.6250     2.0850    77.8490     6.7280     5.3600     6.4610    26.4940   -23.7100 
   87.7500     2.0950    76.5850     6.9110     5.5050     6.4350    25.9460   -24.5590 
   87.8750     2.1040    77.5350     7.1150     5.6430     6.3410    25.2320   -25.3710 
   88.0000     2.1110    77.7340     7.3090     5.7630     6.2420    25.0550   -26.1100 
   88.1250     2.1180    74.6280     7.4510     5.8560     6.1240    25.3240   -26.6950 
   88.2500     2.1230    70.0870     7.5310     5.9250     6.0410    25.3850   -27.1270 
   88.3750     2.1280    67.4950     7.5480     5.9710     5.9570    25.3290   -27.4270 
   88.5000     2.1290    69.5870     7.5050     5.9900     5.8680    25.6010   -27.5830 
   88.6250     2.1280    73.0580     7.3900     5.9680     5.8600    25.9520   -27.5410 
