~V
VERS. 2.00: Ver 2.00
~W
STRT.M 52.0000:
STOP.M 240.0000:
STEP.M 0.1250:
NULL. -999.2500:
UWI. F11139:
~C
DEPT.M :
GR.API :
RML.OHMM :
RI. :
RXO.OHMM :
CALI.CM :
SP.MV :
DEN.GM/CC :
~A
# ...
  198.2500    81.1350    17.4930    15.1630    26.1580    23.5110   -23.4040     2.4610 
  198.3750    82.1850    16.8260    14.9290    26.3460    23.5130   -22.5170     2.4600 
  198.5000    83.4790    15.1690    13.7820    23.8320    23.4690   -21.5090     2.4650 
  198.6250    84.3550    12.9770    11.9890    19.1670    23.5140   -20.4070     2.4440 
  198.7500    83.6120    11.0080    10.2210    14.1670    23.7450   -19.2840     2.3950 
  198.8750    82.4880     9.6470     8.8600    10.4100    24.1210   -18.1840     2.3510 
  199.0000    84.2980     9.0200     8.0800     8.9100    24.3750   -17.2000     2.3430 
  199.1250    89.4500     9.1920     8.0070     9.0100    24.4720   -16.3420     2.3740 
  199.2500    94.3800     9.9030     8.4820     9.6270    24.4850   -15.5910     2.4140 
  199.3750    96.4620    10.9340     9.3740    10.6090    24.4780   -14.9460     2.4510 
  199.5000    94.7250    11.9590    10.4390    12.0490    24.4410   -14.3680     2.4800 
  199.6250    89.8430    12.4650    11.2300    14.3470    24.3910   -13.7710     2.4950 
  199.7500    85.7230    12.1880    11.3790    16.2320    24.3520   -13.1410     2.5010 
  199.8750    84.8470    11.1070    10.7280    16.4700    24.3170   -12.4190     2.5010 
  200.0000    86.7000     9.5170     9.4410    15.2930    24.3240   -11.6090     2.4940 
  200.1250    87.1010     7.9480     7.9630    11.3240    24.3510   -10.7500     2.4750 
  200.2500    83.5940     6.7690     6.7330     7.6810    24.4620    -9.9120     2.4550 
  200.3750    78.5530     6.0460     5.8820     5.8980    24.5860    -9.0970     2.4440 
  200.5000    76.2430     5.6900     5.3900     5.4590    24.6890    -8.3310     2.4450 
  200.6250    78.0600     5.5880     5.1920     5.4560    24.7290    -7.6900     2.4460 
  200.7500    80.1480     5.5780     5.1340     5.4560    24.7230    -7.1470     2.4380 
  200.8750    81.0700     5.5930     5.1390     5.4420    24.7020    -6.7370     2.4230 
  201.0000    81.6370     5.6040     5.1590     5.3760    24.6730    -6.4150     2.4090 
  201.1250    82.7150     5.6060     5.1780     5.2790    24.6340    -6.1970     2.4040 
  201.2500    83.3270     5.6070     5.1980     5.2110    24.6010    -6.0490     2.4090 
  201.3750    83.1440     5.6110     5.2230     5.2200    24.5890    -6.0100     2.4150 
  201.5000    82.4840     5.6240     5.2460     5.3070    24.5840    -6.0360     2.4160 
  201.6250    82.6560     5.6550     5.2570     5.4130    24.5410    -6.1510     2.4100 
  201.7500    85.0790     5.7120     5.2600     5.4740    24.4830    -6.3200     2.3980 
  201.8750    89.3850     5.8040     5.2710     5.4650    24.4130    -6.5490     2.3810 
  202.0000    94.2160     5.9460     5.3150     5.4410    24.2530    -6.8360     2.3650 
  202.1250    95.9160     6.1710     5.4390     5.5900    24.0230    -7.2050     2.3560 
  202.2500    96.4780     6.4820     5.6560     5.9510    23.8350    -7.5530     2.3510 
  202.3750   100.0230     6.8810     5.9640     6.4910    23.7450    -7.8600     2.3480 
  202.5000   105.2330     7.3520     6.3450     7.0590    23.7460    -8.1420     2.3440 
  202.6250   106.0380     7.8730     6.7770     7.6940    23.4600    -8.3860     2.3360 
  202.7500   104.2360     8.4260     7.2310     8.4130    23.2850    -8.5390     2.3270 
  202.8750   106.1040     9.0290     7.7120     9.1550    23.2040    -8.5680     2.3170 
  203.0000   111.9180     9.7380     8.2600     9.8350    23.2690    -8.5020     2.3070 
  203.1250   115.7450    10.6670     8.9720    10.9340    23.4910    -8.4030     2.2950 
  203.2500   115.2750    11.8640     9.9120    12.4230    23.8100    -8.3130     2.2830 
  203.3750   110.5390    13.3770    11.1420    14.3850    24.0990    -8.2410     2.2750 
  203.5000   103.0030    15.2180    12.6950    17.1240    24.2520    -8.1970     2.2690 
  203.6250    96.6600    17.3720    14.5830    20.4710    24.3030    -8.1820     2.2620 
  203.7500    93.3950    19.6410    16.6370    23.3890    24.3180    -8.2310     2.2570 
  203.8750    90.3340    21.8130    18.6810    25.7740    24.3050    -8.3850     2.2520 
  204.0000    85.2750    23.6460    20.5140    27.3690    24.2720    -8.6360     2.2470 
  204.1250    80.1340    24.8400    21.8810    27.8500    24.2270    -8.9190     2.2390 
  204.2500    78.1680    25.4810    22.8000    27.7300    24.1710    -9.2190     2.2310 
  204.3750    79.6170    25.7740    23.3810    27.6900    24.1140    -9.4650     2.2300 
  204.5000    82.0830    26.0150    23.8290    27.8020    24.2290    -9.6310     2.2380 
  204.6250    80.6600    26.4570    24.3550    28.8850    24.3830    -9.7020     2.2620 
  204.7500    76.0740    26.9570    24.9310    30.9620    24.3410    -9.7530     2.3020 
  204.8750    71.9830    27.0780    25.2610    33.7270    24.0060    -9.7690     2.3580 
  205.0000    70.7570    26.2460    24.8650    36.4030    23.8930    -9.7530     2.4160 
  205.1250    71.3710    23.7820    23.0520    36.5940    24.0480    -9.6480     2.4440 
  205.2500    71.9520    20.0850    19.9800    34.0420    24.1580    -9.4570     2.4370 
  205.3750    73.7580    15.9210    16.1960    26.5460    24.2100    -9.2390     2.4130 
  205.5000    78.1370    12.1800    12.5100    17.3340    24.2150    -8.9840     2.3850 
  205.6250    83.6350     9.5540     9.6890    11.3110    24.2070    -8.6470     2.3500 
  205.7500    86.4380     7.8880     7.7630     7.8920    24.1870    -8.2890     2.3150 
  205.8750    84.2700     6.9730     6.6040     6.3490    24.1280    -7.9890     2.2960 
  206.0000    78.3520     6.5860     6.0230     5.8770    24.0600    -7.6970     2.3030 
  206.1250    72.0620     6.5630     5.8910     5.9470    24.0860    -7.4370     2.3310 
  206.2500    67.3970     6.6890     5.9790     6.1580    24.2100    -7.2420     2.3570 
  206.3750    64.6620     6.8590     6.1670     6.4030    24.2890    -7.1560     2.3680 
  206.5000    63.5890     7.0000     6.3570     6.6040    24.3260    -7.1780     2.3650 
  206.6250    64.0240     7.0570     6.4700     6.7010    24.2940    -7.3180     2.3620 
  206.7500    65.0840     7.0300     6.4890     6.6100    24.2510    -7.4800     2.3670 
  206.8750    66.5090     6.9310     6.4130     6.3530    24.2000    -7.5820     2.3710 
  207.0000    68.5440     6.7870     6.2630     6.1490    24.1200    -7.6660     2.3630 
  207.1250    71.2990     6.6490     6.0730     6.0310    24.0410    -7.7740     2.3380 
  207.2500    73.7570     6.5590     5.9010     5.9030    23.9320    -7.9220     2.3090 
  207.3750    74.9540     6.5370     5.7850     5.7600    23.6800    -8.0660     2.2870 
  207.5000    75.9700     6.5750     5.7450     5.7050    23.4180    -8.2030     2.2780 
  207.6250    79.6240     6.6410     5.7850     5.9420    23.3140    -8.3480     2.2810 
  207.7500    83.9000     6.7000     5.8650     6.2870    23.3240    -8.4690     2.2880 
  207.8750    84.6730     6.7320     5.9520     6.5710    23.3370    -8.6070     2.2960 
  208.0000    81.4830     6.7490     6.0200     6.7100    23.2460    -8.7710     2.3000 
  208.1250    78.6990     6.7680     6.0500     6.7210    23.0620    -8.9600     2.2960 
  208.2500    78.6970     6.7830     6.0510     6.7120    22.9000    -9.1030     2.2970 
  208.3750    79.6640     6.7740     6.0330     6.7120    22.8040    -9.1870     2.3090 
  208.5000    79.6020     6.7500     6.0060     6.6150    22.8080    -9.1860     2.3270 
  208.6250    78.7040     6.7170     5.9750     6.4190    22.9380    -9.1450     2.3290 
  208.7500    78.2410     6.6800     5.9360     6.2450    23.1990    -9.0880     2.3160 
  208.8750    78.2240     6.6430     5.8850     6.1110    23.5740    -8.9900     2.2990 
  209.0000    77.6410     6.6060     5.8250     6.0900    23.9650    -8.8380     2.2930 
  209.1250    76.1400     6.5750     5.7730     6.1740    24.2050    -8.6910     2.2990 
  209.2500    74.8690     6.5580     5.7500     6.1480    24.3070    -8.5880     2.3060 
  209.3750    74.1720     6.5700     5.7700     6.1300    24.3070    -8.5430     2.3120 
