~V
VERS. 2.00: Ver 2.00
~W
STRT.M 55.0000:
STOP.M 207.0000:
STEP.M 0.1250:
NULL. -999.2500:
UWI. F11112:
~C
DEPT.M :
SP.MV :
RML.OHMM :
RI. :
RXO.OHMM :
CALI.CM :
DEN.GM/CC :
GR.API :
~A
# ...
   88.7500   -32.5020     7.3670     5.9100     8.5650    30.3330     1.8860    65.6140 
   88.8750   -32.9580     7.3180     5.8910     8.6610    29.8410     1.9110    67.0830 
   89.0000   -33.3450     7.2770     5.8790     8.7210    29.3980     1.9500    68.3240 
   89.1250   -33.6440     7.2520     5.8720     8.7620    29.3610     1.9830    69.4120 
   89.2500   -33.8240     7.2410     5.8660     8.7470    29.5880     1.9900    68.5930 
   89.3750   -33.8940     7.2340     5.8560     8.8020    29.6920     1.9860    65.8960 
   89.5000   -33.9090     7.2210     5.8360     8.9000    29.5070     1.9900    63.1840 
   89.6250   -33.8260     7.1960     5.8010     8.9980    29.2860     2.0030    62.6500 
   89.7500   -33.6090     7.1620     5.7540     9.0000    29.1820     2.0130    67.0090 
   89.8750   -33.2880     7.1300     5.7030     8.9800    29.0670     2.0150    72.3060 
   90.0000   -32.9220     7.1140     5.6590     8.9340    28.8140     2.0190    74.9380 
   90.1250   -32.4700     7.1210     5.6300     9.0020    28.3790     2.0290    74.8830 
   90.2500   -31.9310     7.1500     5.6230     9.0750    28.0420     2.0420    73.6430 
   90.3750   -31.3220     7.1880     5.6330     9.0160    27.8920     2.0520    72.4090 
   90.5000   -30.5940     7.2230     5.6520     8.9130    27.8650     2.0560    71.7530 
   90.6250   -29.7400     7.2530     5.6780     8.8240    27.9360     2.0560    71.6540 
   90.7500   -28.7650     7.2910     5.7120     8.6960    27.9940     2.0480    72.4580 
   90.8750   -27.7260     7.3470     5.7570     8.6800    27.8140     2.0400    74.3340 
   91.0000   -26.6400     7.4240     5.8160     8.7840    27.4600     2.0460    78.1810 
   91.1250   -25.6070     7.5090     5.8830     8.9000    27.2050     2.0710    82.7290 
   91.2500   -24.6940     7.5740     5.9440     9.0360    27.0940     2.1040    86.3850 
   91.3750   -23.9070     7.5970     5.9860     9.2000    27.0120     2.1280    89.1150 
   91.5000   -23.3110     7.5740     6.0040     9.3050    26.9250     2.1400    88.6120 
   91.6250   -22.9690     7.5150     5.9990     9.1240    26.8620     2.1400    83.2640 
   91.7500   -22.8150     7.4400     5.9770     8.7890    26.8650     2.1290    77.6310 
   91.8750   -22.7400     7.3690     5.9490     8.5600    26.9850     2.1100    76.0480 
   92.0000   -22.6510     7.3030     5.9130     8.5260    27.2110     2.0830    77.1160 
   92.1250   -22.5100     7.2310     5.8650     8.5210    27.3930     2.0490    77.7470 
   92.2500   -22.2750     7.1400     5.7970     8.4490    27.3490     2.0230    77.4910 
   92.3750   -21.9940     7.0280     5.7120     8.3130    27.0990     2.0220    77.6730 
   92.5000   -21.6620     6.9060     5.6170     8.1430    26.7560     2.0510    78.6230 
   92.6250   -21.2520     6.7900     5.5250     7.9280    26.5100     2.0970    79.9530 
   92.7500   -20.8100     6.7020     5.4540     7.7640    26.3700     2.1330    80.8420 
   92.8750   -20.4610     6.6660     5.4130     7.7100    26.2800     2.1490    81.0440 
   93.0000   -20.2890     6.6930     5.4040     7.6800    26.2200     2.1550    80.2800 
   93.1250   -20.2920     6.7890     5.4250     7.7020    26.1840     2.1600    80.0910 
   93.2500   -20.4460     6.9460     5.4790     7.8120    26.1490     2.1670    82.1020 
   93.3750   -20.6460     7.1260     5.5590     7.9770    26.1120     2.1720    83.5680 
   93.5000   -20.7950     7.2030     5.6620     8.1140    26.0840     2.1740    82.8510 
   93.6250   -20.8530     7.2960     5.7790     8.1560    26.0630     2.1720    80.2870 
   93.7500   -20.8510     7.3880     5.8970     8.0950    26.0320     2.1660    77.5970 
   93.8750   -20.7120     7.4600     5.9930     7.9620    25.9940     2.1560    75.1330 
   94.0000   -20.3890     7.4940     6.0500     7.8570    25.9630     2.1420    73.7390 
   94.1250   -19.8630     7.4820     6.0550     7.7320    25.9440     2.1290    74.2710 
   94.2500   -19.1760     7.4120     5.9960     7.6200    25.9200     2.1240    75.1610 
   94.3750   -18.4060     7.2990     5.8880     7.5030    25.8770     2.1290    75.8940 
   94.5000   -17.6600     7.1540     5.7430     7.3920    25.8250     2.1400    75.9480 
   94.6250   -16.9870     7.0090     5.5820     7.3110    25.7860     2.1490    74.3110 
   94.7500   -16.4340     6.9710     5.4640     7.2890    25.7800     2.1530    72.6120 
   94.8750   -16.0670     7.2030     5.4880     7.3930    25.7920     2.1570    72.0190 
   95.0000   -15.8570     7.9290     5.7990     7.8690    25.8190     2.1700    71.8450 
   95.1250   -15.7830     9.3870     6.5790     9.5610    25.8560     2.1960    71.6240 
   95.2500   -15.8880    11.8930     8.1490    14.5000    25.8580     2.2470    71.4200 
   95.3750   -16.1520    15.1710    10.4700    22.5600    25.8330     2.3220    71.4230 
   95.5000   -16.5340    18.7150    13.3390    32.0250    25.7920     2.4180    71.8930 
   95.6250   -17.0390    21.7070    16.2330    39.9280    25.7390     2.5080    72.6270 
   95.7500   -17.6220    22.9170    18.1630    39.4420    25.6720     2.5440    72.1260 
   95.8750   -18.2350    22.1710    18.5810    31.0010    25.5730     2.5240    70.2200 
   96.0000   -18.8620    20.0190    17.5680    23.8280    25.4610     2.4750    69.0770 
   96.1250   -19.5530    17.6130    15.9010    20.4810    25.3910     2.4300    69.2670 
   96.2500   -20.2540    16.1060    14.5730    18.2370    25.4030     2.4020    70.2560 
   96.3750   -20.9340    15.5440    13.9010    17.1130    25.4730     2.3820    72.2600 
   96.5000   -21.5460    15.5610    13.7500    18.2750    25.6100     2.3670    74.1150 
   96.6250   -22.1210    15.6420    13.7890    20.8070    25.7770     2.3650    73.0870 
   96.7500   -22.6850    15.2240    13.5700    22.1960    25.8350     2.3860    70.0680 
   96.8750   -23.2310    14.1760    12.8680    19.6490    25.6930     2.4180    69.0670 
   97.0000   -23.8280    12.6460    11.7090    14.3550    25.4150     2.4380    69.7970 
   97.1250   -24.4640    10.9850    10.3280    11.0200    25.1520     2.4240    68.6150 
   97.2500   -25.1030     9.6170     9.0660    10.2930    25.0360     2.3620    64.6870 
   97.3750   -25.7140     8.6760     8.1010    10.1880    24.9930     2.2770    61.2600 
   97.5000   -26.3260     8.1300     7.4610    10.1570    24.9780     2.1970    59.4150 
   97.6250   -26.8730     7.8690     7.0930    10.0650    24.9730     2.1450    59.2970 
   97.7500   -27.3440     7.7890     6.9390     9.9490    24.9500     2.1310    61.8560 
   97.8750   -27.7450     7.7720     6.8880     9.8530    24.9200     2.1350    66.2970 
   98.0000   -28.0690     7.7750     6.8900     9.7650    24.9320     2.1430    69.7220 
   98.1250   -28.2640     7.7730     6.9120     9.6580    25.0280     2.1460    69.3570 
   98.2500   -28.3020     7.7530     6.9280     9.6070    25.1950     2.1410    65.5260 
   98.3750   -28.1990     7.7130     6.9220     9.6140    25.2970     2.1350    62.5420 
   98.5000   -27.9960     7.6550     6.8880     9.6560    25.3400     2.1310    61.4400 
   98.6250   -27.7070     7.5770     6.8220     9.7150    25.3450     2.1290    61.9990 
   98.7500   -27.3090     7.4800     6.7200     9.7990    25.3520     2.1290    62.9770 
   98.8750   -26.8210     7.3690     6.5930     9.8500    25.3670     2.1320    63.8720 
   99.0000   -26.2380     7.2520     6.4490     9.7990    25.3850     2.1380    64.2030 
   99.1250   -25.6430     7.1370     6.2970     9.6580    25.4070     2.1430    63.9070 
   99.2500   -25.1340     7.0360     6.1490     9.4190    25.4480     2.1440    64.4000 
   99.3750   -24.7850     6.9640     6.0170     9.1210    25.4840     2.1420    66.1920 
   99.5000   -24.5720     6.9420     5.9210     8.8880    25.5010     2.1380    68.2660 
   99.6250   -24.4760     6.9990     5.8860     8.7560    25.4940     2.1310    68.8510 
   99.7500   -24.4300     7.1850     5.9580     8.7330    25.4520     2.1240    68.0080 
   99.8750   -24.4270     7.4950     6.1450     8.8060    25.3700     2.1180    67.8780 
