~V
VERS. 2.00: Ver 2.00
~W
STRT.M 50.0000:
STOP.M 264.0000:
STEP.M 0.1250:
NULL. -999.2500:
UWI. F11182:
~C
DEPT.M :
SP.MV :
GR.API :
RI. :
RML.OHMM :
RXO.OHMM :
DEN.GM/CC :
~A
# ...
  165.8750   -11.0720    54.2980     2.9420     3.3090     5.7760     2.3800 
  166.0000   -11.1630    53.5820     2.9500     3.3230     5.9820     2.3900 
  166.1250   -11.3170    51.7560     2.9550     3.3390     6.1960     2.4060 
  166.2500   -11.4160    51.0720     2.9520     3.3390     6.3470     2.4000 
  166.3750   -11.5290    50.9820     2.9430     3.3290     6.1990     2.3820 
  166.5000   -11.5680    51.0270     2.9350     3.3160     5.8300     2.3840 
  166.6250   -11.5620    48.0510     2.9170     3.2900     5.8190     2.4060 
  166.7500   -11.5140    45.6840     2.9040     3.2710     6.0910     2.4150 
  166.8750   -11.3860    44.9100     2.8930     3.2530     6.0820     2.4100 
  167.0000   -11.2750    46.3290     2.9010     3.2570     5.7190     2.4050 
  167.1250   -11.0920    46.6380     2.9410     3.2930     5.3420     2.4110 
  167.2500   -10.9750    46.0240     2.9820     3.3420     5.7550     2.4190 
  167.3750   -10.8360    47.1910     3.0780     3.4570     6.8150     2.4280 
  167.5000   -10.7760    48.3650     3.1530     3.5420     6.9590     2.4300 
  167.6250   -10.7400    48.7450     3.2300     3.6210     6.4540     2.4320 
  167.7500   -10.7440    48.4730     3.2360     3.6180     6.4380     2.4340 
  167.8750   -10.7730    50.1220     3.1830     3.5410     6.9450     2.4270 
  168.0000   -10.7950    52.1810     3.1300     3.4700     6.8910     2.4170 
  168.1250   -10.8170    53.8060     3.0490     3.3680     6.0670     2.4140 
  168.2500   -10.8240    53.4120     3.0110     3.3210     5.8570     2.4200 
  168.3750   -10.8320    52.7540     2.9970     3.3110     6.1000     2.4310 
  168.5000   -10.8440    54.1660     3.0220     3.3490     6.0350     2.4380 
  168.6250   -10.8830    56.4710     3.0900     3.4350     5.8150     2.4500 
  168.7500   -10.9220    55.9100     3.1230     3.4710     5.9790     2.4590 
  168.8750   -10.9780    53.6830     3.1200     3.4430     6.5130     2.4690 
  169.0000   -10.9960    52.8000     3.0710     3.3660     6.4480     2.4670 
  169.1250   -10.9710    53.0310     2.9590     3.1910     5.7720     2.4570 
  169.2500   -10.9170    53.3530     2.8770     3.0700     5.4360     2.4500 
  169.3750   -10.7970    53.6850     2.7630     2.9160     4.9300     2.4460 
  169.5000   -10.7010    53.4720     2.7320     2.8730     4.6660     2.4390 
  169.6250   -10.5490    53.5680     2.7580     2.9030     4.9000     2.4250 
  169.7500   -10.4420    54.0020     2.8020     2.9530     5.1520     2.4250 
  169.8750   -10.2780    54.0110     2.8580     3.0190     5.5130     2.4310 
  170.0000   -10.1670    53.5460     2.8680     3.0110     5.7820     2.4260 
  170.1250   -10.0000    55.3300     2.8390     2.9730     5.5660     2.3960 
  170.2500    -9.8840    58.0340     2.7980     2.9250     5.2390     2.3730 
  170.3750    -9.6850    61.5030     2.7150     2.8280     4.9600     2.3480 
  170.5000    -9.5210    62.1640     2.6410     2.7720     4.7810     2.3350 
  170.6250    -9.2030    60.4840     2.5900     2.7700     4.8960     2.3060 
  170.7500    -8.9340    57.6310     2.6740     2.8760     5.0640     2.2710 
  170.8750    -8.4460    53.6800     3.0090     3.2860     4.6490     2.1920 
  171.0000    -8.0750    53.5660     3.4180     3.7820     4.9720     2.1300 
  171.1250    -7.4820    56.5170     4.4210     4.9200     7.6470     2.0510 
  171.2500    -7.0850    57.9710     5.4660     5.9680     9.3280     2.0230 
  171.3750    -6.5330    57.4830     7.3150     7.8490     9.9610     2.0230 
  171.5000    -6.2190    56.7020     8.5640     9.1610     9.8790     2.0400 
  171.6250    -5.8570    55.8650    10.2890    10.9900    10.8410     2.0650 
  171.7500    -5.6900    54.8210    11.2730    12.0060    11.7040     2.0770 
  171.8750    -5.5280    53.3190    12.4640    13.2030    11.2920     2.0870 
  172.0000    -5.4610    53.1850    13.0260    13.7250    10.9830     2.0920 
  172.1250    -5.3990    52.7240    13.4340    14.4060    12.2180     2.0970 
  172.2500    -5.3790    53.7710    13.4930    14.4680    13.3430     2.1040 
  172.3750    -5.3850    55.8310    13.6060    14.5860    14.0340     2.1070 
  172.5000    -5.4170    56.1700    13.7750    14.7640    14.1240     2.0980 
  172.6250    -5.5050    56.4110    14.1380    15.1450    14.8490     2.0760 
  172.7500    -5.5870    57.9420    14.4140    15.4340    15.6390     2.0730 
  172.8750    -5.7380    59.6140    14.6670    15.7010    17.9030     2.0870 
  173.0000    -5.8530    57.4500    14.5780    15.6070    18.1430     2.1010 
  173.1250    -6.0490    55.4860    13.7060    14.6910    14.3990     2.1060 
  173.2500    -6.1970    57.2560    12.7440    13.6810    11.9540     2.0920 
  173.3750    -6.4370    59.4410    10.9900    11.8400     7.9870     2.0190 
  173.5000    -6.5940    58.6730     9.8770    10.6700     5.0200     1.9290 
  173.6250    -6.7880    56.5510     8.6890     9.4230     2.8440     1.7890 
  173.7500    -6.8700    54.6060     8.3320     9.0480     2.1060     1.7620 
  173.8750    -6.9050    51.0320     8.5140     9.2400     1.3070     1.8560 
  174.0000    -6.8770    49.7050     9.0340     9.7860     1.4340     1.9580 
  174.1250    -6.7900    51.4950    10.3040    11.1190     2.4860     2.0720 
  174.2500    -6.7210    53.2130    11.3720    12.2400     4.0850     2.0960 
  174.3750    -6.6270    52.3260    13.0590    14.0120     8.9430     2.0470 
  174.5000    -6.5760    50.1700    14.0460    15.0490    11.4420     1.9880 
  174.6250    -6.5140    49.2370    15.1080    16.1630    12.2760     1.9420 
  174.7500    -6.4780    51.2400    15.7040    16.7890    12.3640     1.9550 
  174.8750    -6.4200    54.6470    16.7780    17.9170    10.8870     1.9810 
  175.0000    -6.3750    55.2630    17.7070    18.8930     9.9170     1.9720 
  175.1250    -6.3070    53.5060    19.3220    20.5880     9.1240     1.9150 
  175.2500    -6.2680    52.0750    20.3190    21.6350     8.2410     1.8700 
  175.3750    -6.2310    51.7310    21.4670    22.8400     9.2010     1.8410 
  175.5000    -6.2230    52.0700    21.8780    23.2720    10.9160     1.8630 
  175.6250    -6.2300    52.3860    21.7200    23.1060     9.5810     1.9400 
  175.7500    -6.2370    52.7090    20.9740    22.3220     6.5570     1.9750 
  175.8750    -6.2290    54.9900    19.2940    20.5590     4.2240     1.9330 
  176.0000    -6.1970    56.6240    18.1050    19.3100     5.3380     1.8660 
  176.1250    -6.0840    57.3200    17.1020    18.2570     9.3060     1.8070 
  176.2500    -5.9570    58.3540    17.3060    18.4720    11.3490     1.8090 
  176.3750    -5.6910    59.5640    19.1610    20.4190    13.1660     1.8430 
  176.5000    -5.4790    59.5630    21.8720    23.2660    14.5440     1.8880 
  176.6250    -5.1500    55.8230    27.7380    29.4250    16.3380     1.9950 
  176.7500    -4.9480    52.3750    32.1320    34.0390    16.6910     2.0520 
  176.8750    -4.6950    49.5490    38.2640    40.4770    17.2880     2.0710 
  177.0000    -4.5600    49.8980    41.1580    43.5150    18.2620     2.0630 
  177.1250    -4.4020    49.8470    43.4100    45.8810    18.6500     2.0680 
  177.2500    -4.3250    49.4990    44.0030    46.5030    17.9640     2.0780 
  177.3750    -4.2510    50.1240    43.5080    45.9830    16.5190     2.0850 
  177.5000    -4.2310    51.8620    42.7050    45.1410    15.6270     2.0820 
  177.6250    -4.2360    54.0910    40.8800    43.2240    15.2130     2.0760 
  177.7500    -4.2530    54.5440    39.5410    41.8180    15.5090     2.0750 
  177.8750    -4.2820    53.5280    37.3210    39.4870    16.4460     2.0770 
  178.0000    -4.3020    52.3630    35.8410    37.9330    17.3420     2.0840 
  178.1250    -4.3390    50.4170    33.7350    35.7210    18.5680     2.1000 
  178.2500    -4.3800    50.3930    32.1130    34.0190    19.4410     2.1120 
  178.3750    -4.4750    53.4350    29.6070    31.3870    20.0810     2.1230 
  178.5000    -4.5620    55.2540    27.8880    29.5820    19.3190     2.1250 
  178.6250    -4.7160    55.6500    25.3060    26.8710    18.0330     2.1330 
