~V
VERS. 2.00: Ver 2.00
~W
STRT.M 51.0000:
STOP.M 277.0000:
STEP.M 0.1250:
NULL. -999.2500:
UWI. F11147:
~C
DEPT.M :
DEN.GM/CC :
GR.API :
RML.OHMM :
RI. :
RXO.OHMM :
CALI.CM :
SP.MV :
~A
# ...
  253.5000     2.4050    62.5650    10.7630     8.8550     8.7250    25.3950   -12.4050 
  253.6250     2.3680    63.6900    10.6260     8.7940     8.8170    25.4730   -12.4040 
  253.7500     2.3390    63.0430    10.5450     8.7410     8.6960    25.3680   -12.4150 
  253.8750     2.3420    63.1120    10.5550     8.7330     8.3360    25.2100   -12.3530 
  254.0000     2.3720    63.4160    10.6100     8.7840     8.0540    25.0590   -12.3110 
  254.1250     2.4120    63.6460    10.6520     8.8860     8.0780    24.9610   -12.3000 
  254.2500     2.4460    63.8060    10.6360     9.0120     8.2480    24.9220   -12.2680 
  254.3750     2.4640    64.3350    10.5490     9.1230     8.2580    24.8590   -12.2130 
  254.5000     2.4680    63.0270    10.4300     9.2040     8.4650    24.7140   -12.1950 
  254.6250     2.4580    60.2410    10.3220     9.2530     8.9150    24.5350   -12.1670 
  254.7500     2.4380    60.7260    10.2600     9.2690     8.9670    24.3110   -12.0970 
  254.8750     2.4190    64.2630    10.2770     9.2360     8.8750    23.9430   -12.1440 
  255.0000     2.4110    65.7180    10.3520     9.1650     8.7900    23.5390   -12.2410 
  255.1250     2.4120    65.2650    10.4570     9.0830     8.8700    23.4330   -12.2770 
  255.2500     2.4130    63.6220    10.5750     9.0370     9.5100    23.5960   -12.3170 
  255.3750     2.4060    60.8540    10.7060     9.0800    11.2300    24.1020   -12.4070 
  255.5000     2.3940    59.8090    10.8640     9.2040    13.2090    24.5350   -12.4330 
  255.6250     2.3840    61.5420    11.0600     9.3870    14.7150    24.7470   -12.4310 
  255.7500     2.3850    63.0940    11.2760     9.5880    16.1080    24.7410   -12.4390 
  255.8750     2.3980    62.1130    11.4590     9.7560    18.0050    24.5970   -12.3370 
  256.0000     2.4080    62.7630    11.5570     9.8680    19.5790    24.4320   -12.2130 
  256.1250     2.4060    65.0230    11.5440     9.9130    20.7210    24.3260   -12.1400 
  256.2500     2.4020    65.7730    11.4420     9.8910    20.7670    24.3190   -12.0420 
  256.3750     2.3990    63.2420    11.2890     9.8000    20.2540    24.3340   -11.9640 
  256.5000     2.3930    60.9060    11.1390     9.6700    19.1460    24.3570   -11.9380 
  256.6250     2.3860    61.7120    11.0100     9.5330    18.4130    24.3360   -11.9080 
  256.7500     2.3880    62.6820    10.8930     9.4300    17.0670    24.2700   -11.9020 
  256.8750     2.4050    61.3450    10.7890     9.4070    15.2050    24.1780   -11.9140 
  257.0000     2.4250    60.3060    10.7310     9.4460    13.7830    24.0920   -11.9320 
  257.1250     2.4410    61.3540    10.7490     9.5170    12.9040    24.0780   -11.9090 
  257.2500     2.4560    62.8750    10.8310     9.5910    11.7190    24.0740   -11.8960 
  257.3750     2.4710    62.5920    10.8870     9.6260    10.5170    23.9510   -11.8610 
  257.5000     2.4830    62.8540    10.8240     9.5990     9.2140    23.7970   -11.7830 
  257.6250     2.4900    65.2920    10.6210     9.5100     8.7840    23.7390   -11.7230 
  257.7500     2.4930    68.0140    10.3450     9.3880     9.1540    23.7830   -11.6640 
  257.8750     2.4910    68.2540    10.1300     9.2790     9.3850    23.9610   -11.6680 
  258.0000     2.4890    66.3350    10.0400     9.2140     8.9470    24.1700   -11.6820 
  258.1250     2.4900    65.0560    10.0650     9.1960     8.3260    24.3120   -11.6910 
  258.2500     2.4970    64.6260    10.1440     9.1940     7.9650    24.3530   -11.7190 
  258.3750     2.5040    63.9860    10.1680     9.1470     8.1410    24.3000   -11.7460 
  258.5000     2.5040    64.7620    10.0770     9.0260     8.4380    24.1830   -11.8130 
  258.6250     2.4920    66.9410     9.8840     8.8460     8.4380    24.1400   -11.9120 
  258.7500     2.4730    67.6940     9.6680     8.6610     8.1640    24.1620   -11.9750 
  258.8750     2.4560    65.1910     9.5730     8.5720     8.4700    24.1810   -11.9640 
  259.0000     2.4440    63.7270     9.6860     8.6530     9.8110    24.1880   -11.9510 
  259.1250     2.4380    63.6500    10.0330     8.9380    11.4530    24.1970   -11.9370 
  259.2500     2.4390    62.6830    10.5580     9.4040    12.3720    24.2050   -11.8960 
  259.3750     2.4470    61.5740    11.1280     9.9750    12.6780    24.2070   -11.8930 
  259.5000     2.4560    62.3720    11.5970    10.5110    13.4880    24.1910   -11.8840 
  259.6250     2.4600    64.8030    11.8950    10.9100    14.7040    24.1730   -11.8380 
  259.7500     2.4580    65.7010    12.0140    11.1060    17.1160    24.1480   -11.8530 
  259.8750     2.4500    64.4320    11.9630    11.0730    20.0750    24.0900   -11.9060 
  260.0000     2.4430    63.4180    11.7950    10.8940    19.4910    24.0250   -11.9630 
  260.1250     2.4350    62.6690    11.5430    10.6240    16.1900    23.9860   -12.0330 
  260.2500     2.4300    62.1940    11.2660    10.3290    13.9510    23.9460   -12.1400 
  260.3750     2.4290    60.6150    11.0520    10.0770    12.8420    23.9170   -12.2340 
  260.5000     2.4270    59.3460    10.9310     9.8900    11.9550    23.9060   -12.3350 
  260.6250     2.4180    61.4960    10.8760     9.7740    11.6110    23.8730   -12.4820 
  260.7500     2.4050    65.6610    10.8630     9.7310    11.3050    23.7970   -12.5850 
  260.8750     2.4070    66.2910    10.9250     9.7880    11.0460    23.7050   -12.6820 
  261.0000     2.4280    61.7680    11.1010     9.9610    11.4110    23.6690   -12.7470 
  261.1250     2.4570    57.4690    11.4080    10.2640    12.1310    23.6680   -12.7990 
  261.2500     2.4800    57.5370    11.8010    10.6710    12.8140    23.6820   -12.8420 
  261.3750     2.4850    58.9160    12.1550    11.1050    13.0340    23.7010   -12.8270 
  261.5000     2.4830    60.0890    12.3480    11.4340    13.1840    23.6870   -12.8140 
  261.6250     2.4800    61.2210    12.3190    11.5350    13.5650    23.6570   -12.8070 
  261.7500     2.4840    60.9720    12.0800    11.3340    14.1590    23.6080   -12.8050 
  261.8750     2.4900    58.0380    11.6390    10.8170    14.4510    23.5860   -12.7790 
  262.0000     2.4860    56.5690    11.0790    10.1630    12.6290    23.5980   -12.7900 
  262.1250     2.4690    58.8270    10.4600     9.5120     9.7980    23.6680   -12.8100 
  262.2500     2.4460    62.6240     9.8560     8.9810     8.0910    23.7910   -12.7990 
  262.3750     2.4250    63.9800     9.3920     8.6660     7.8530    23.9340   -12.8450 
  262.5000     2.4090    62.7730     9.1440     8.5400     8.1640    24.0220   -12.8910 
  262.6250     2.4100    62.1040     9.1390     8.5840     8.0020    24.0210   -12.8540 
  262.7500     2.4340    63.0200     9.3400     8.7630     7.2740    23.9820   -12.8420 
  262.8750     2.4710    64.2420     9.6620     9.0220     6.7800    23.9760   -12.8540 
  263.0000     2.4980    64.3010     9.9830     9.2700     7.1470    23.9180   -12.8330 
  263.1250     2.5100    63.0430    10.2230     9.4560     7.7710    23.8590   -12.8340 
  263.2500     2.5140    60.8890    10.3290     9.5570     8.3600    23.8500   -12.8300 
  263.3750     2.5150    59.5120    10.2790     9.5750     8.4070    23.8870   -12.8390 
  263.5000     2.5180    60.6500    10.1570     9.5570     8.1000    23.8950   -12.8660 
  263.6250     2.5200    62.3720    10.0600     9.5400     7.7880    23.8790   -12.9390 
  263.7500     2.5210    62.2170    10.0700     9.5510     7.6520    23.8950   -12.9940 
  263.8750     2.5190    61.4320    10.2180     9.6120     7.8590    23.9500   -13.0290 
  264.0000     2.5170    61.2300    10.4170     9.7190     8.3650    24.0070   -13.1040 
  264.1250     2.5100    61.3930    10.6000     9.8630     9.2020    24.0390   -13.1560 
  264.2500     2.4970    62.4450    10.7340    10.0260    10.0790    24.0760   -13.2450 
  264.3750     2.4830    64.1260    10.8260    10.1780    10.8360    24.0750   -13.3270 
  264.5000     2.4800    64.6140    10.9020    10.2980    11.2740    23.9760   -13.3760 
  264.6250     2.4900    64.6140    10.9700    10.3710    11.3410    23.8210   -13.4250 
