~V
VERS. 2.00: Ver 2.00
~W
STRT.M 50.0000:
STOP.M 253.0000:
STEP.M 0.1250:
NULL. -999.2500:
UWI. F11132:
~C
DEPT.M :
DEN.GM/CC :
GR.API :
RML.OHMM :
RI. :
RXO.OHMM :
CALI.CM :
SP.MV :
~A
# ...
  128.7500     2.6360    38.4290    21.8680    20.3850    21.1220    25.0800    -1.0010 
  128.8750     2.6400    39.7800    21.8260    20.3430    21.3970    25.0640    -0.9840 
  129.0000     2.6390    38.3230    21.6390    20.1870    19.7960    25.0740    -0.9490 
  129.1250     2.6320    35.7340    21.4690    20.0510    19.3160    25.0790    -0.9370 
  129.2500     2.6190    34.7250    21.4600    20.0580    19.5790    25.0770    -0.9770 
  129.3750     2.6050    36.0010    21.6650    20.2650    20.3420    25.0720    -1.0310 
  129.5000     2.5940    38.5840    22.0580    20.6570    20.7420    25.0840    -1.0480 
  129.6250     2.5900    41.6900    22.5440    21.1570    20.8720    25.0950    -1.0520 
  129.7500     2.5920    42.7820    23.0020    21.6350    20.7800    25.0910    -1.0880 
  129.8750     2.5970    40.3080    23.4110    22.0450    21.6690    25.0960    -1.1730 
  130.0000     2.5970    36.5250    23.8070    22.4080    22.8050    25.1280    -1.2740 
  130.1250     2.5950    35.2600    24.1920    22.7370    23.7420    25.1440    -1.3420 
  130.2500     2.5980    36.5640    24.4890    22.9960    22.8700    25.1500    -1.3600 
  130.3750     2.6030    38.3640    24.5880    23.1060    22.4000    25.1580    -1.3880 
  130.5000     2.5990    39.0030    24.3890    22.9830    22.6630    25.1930    -1.4580 
  130.6250     2.5780    37.7610    23.8600    22.5730    22.0780    25.2820    -1.5390 
  130.7500     2.5420    36.4220    23.2350    22.0500    20.2850    25.3800    -1.5900 
  130.8750     2.5030    36.3410    22.7370    21.5990    19.8770    25.4220    -1.5990 
  131.0000     2.4780    37.3420    22.5420    21.3790    20.8780    25.4070    -1.5810 
  131.1250     2.4780    37.5620    22.7760    21.5310    21.3990    25.3490    -1.5720 
  131.2500     2.5020    36.4260    23.2850    21.9610    22.1830    25.3070    -1.5940 
  131.3750     2.5320    34.2400    23.8760    22.5180    24.2270    25.3060    -1.6430 
  131.5000     2.5440    33.0820    24.3480    23.0210    24.9290    25.3370    -1.6740 
  131.6250     2.5380    36.1550    24.5550    23.3120    24.6500    25.3300    -1.6490 
  131.7500     2.5230    40.7890    24.5880    23.4340    23.6220    25.2860    -1.6190 
  131.8750     2.5050    43.4650    24.5800    23.4890    22.6020    25.2410    -1.6210 
  132.0000     2.4900    43.1900    24.6340    23.5730    22.9720    25.2130    -1.6680 
  132.1250     2.4820    42.1780    24.7360    23.6840    22.9060    25.1880    -1.7360 
  132.2500     2.4870    42.3850    24.7510    23.7020    24.3150    25.1660    -1.7720 
  132.3750     2.5000    43.5960    24.5690    23.5200    26.7080    25.1700    -1.7680 
  132.5000     2.5120    44.6910    24.1570    23.1020    27.5050    25.2090    -1.7730 
  132.6250     2.5220    44.2330    23.5890    22.5140    26.2790    25.2480    -1.8260 
  132.7500     2.5280    42.7010    23.0610    21.9510    22.1360    25.2930    -1.9010 
  132.8750     2.5230    41.3370    22.6910    21.5360    20.5230    25.3330    -1.9540 
  133.0000     2.5070    39.8840    22.5120    21.3140    21.2240    25.3570    -1.9630 
  133.1250     2.4920    38.8150    22.4770    21.2560    21.3590    25.3780    -1.9460 
  133.2500     2.4860    40.1360    22.4390    21.2230    20.8850    25.4150    -1.9660 
  133.3750     2.4890    42.2900    22.3080    21.1260    20.3830    25.4720    -2.0230 
  133.5000     2.4960    42.1790    22.0640    20.9240    20.3080    25.5430    -2.0740 
  133.6250     2.5120    39.5900    21.7310    20.6200    19.7010    25.5730    -2.0940 
  133.7500     2.5330    38.0070    21.3590    20.2630    19.0080    25.5820    -2.0920 
  133.8750     2.5390    39.0590    20.9580    19.8610    19.4870    25.5870    -2.0910 
  134.0000     2.5310    40.3180    20.5270    19.4180    20.8150    25.6060    -2.1050 
  134.1250     2.5200    39.5660    20.1170    18.9740    20.1030    25.6360    -2.1480 
  134.2500     2.5160    37.2870    19.8280    18.6250    17.5540    25.6420    -2.1970 
  134.3750     2.5180    35.5170    19.7460    18.4560    16.4240    25.6100    -2.2320 
  134.5000     2.5220    35.9250    19.8980    18.5000    16.2370    25.5380    -2.2580 
  134.6250     2.5250    36.8210    20.2560    18.7440    17.5280    25.4710    -2.2800 
  134.7500     2.5300    37.1450    20.6360    19.0380    18.7890    25.4150    -2.3290 
  134.8750     2.5380    37.4010    20.8520    19.2160    19.4890    25.4260    -2.4050 
  135.0000     2.5440    38.2130    20.7360    19.1180    19.2490    25.5340    -2.4970 
  135.1250     2.5420    39.3200    20.1630    18.6100    18.2930    25.6580    -2.5430 
  135.2500     2.5330    40.2030    19.2940    17.8220    17.3160    25.6990    -2.5530 
  135.3750     2.5300    41.2920    18.3140    16.9160    16.7310    25.6850    -2.5710 
  135.5000     2.5340    42.1250    17.4400    16.0800    15.5280    25.7010    -2.6080 
  135.6250     2.5340    41.4120    16.8930    15.5050    14.6060    25.7820    -2.6610 
  135.7500     2.5250    38.8170    16.6900    15.2120    14.1150    25.8490    -2.7000 
  135.8750     2.5190    35.8180    16.7950    15.1820    14.8430    25.8500    -2.7060 
  136.0000     2.5270    33.9560    17.0970    15.3450    16.1320    25.7700    -2.7000 
  136.1250     2.5430    32.5460    17.4160    15.5770    16.4200    25.6720    -2.7390 
  136.2500     2.5540    31.7450    17.5810    15.7200    15.5250    25.6310    -2.7950 
  136.3750     2.5470    33.5600    17.5120    15.6800    15.3930    25.6580    -2.8150 
  136.5000     2.5320    36.8520    17.2200    15.4330    15.7230    25.6870    -2.7990 
  136.6250     2.5190    37.3330    16.7910    15.0290    15.1890    25.6860    -2.7870 
  136.7500     2.5120    35.8020    16.3950    14.6130    14.3040    25.6910    -2.7930 
  136.8750     2.5110    35.1600    16.1330    14.2850    13.3560    25.7190    -2.8360 
  137.0000     2.5120    34.2540    16.0560    14.1070    12.9810    25.7490    -2.8850 
  137.1250     2.5140    31.3270    16.2110    14.1330    13.2890    25.7820    -2.9130 
  137.2500     2.5200    28.7210    16.5130    14.3050    14.1050    25.7730    -2.9220 
  137.3750     2.5270    28.8440    16.8350    14.5230    14.5280    25.7080    -2.9500 
  137.5000     2.5360    31.3450    16.9940    14.6360    14.6960    25.5900    -3.0140 
  137.6250     2.5390    35.6430    16.7500    14.4420    15.2320    25.4610    -3.0920 
  137.7500     2.5330    41.0000    16.1130    13.9310    15.4590    25.3320    -3.1670 
  137.8750     2.5310    45.4950    15.1980    13.1820    14.3430    25.2660    -3.2240 
  138.0000     2.5390    47.2680    14.2170    12.3470    12.0110    25.3780    -3.2530 
  138.1250     2.5470    45.9740    13.4390    11.6220    10.7450    25.5530    -3.2710 
  138.2500     2.5430    44.1000    12.9750    11.1180    10.6430    25.6450    -3.3390 
  138.3750     2.5350    43.3460    12.8550    10.8870    11.0840    25.6160    -3.4020 
  138.5000     2.5370    43.7380    13.0540    10.9360    11.5880    25.5440    -3.4250 
  138.6250     2.5420    43.4380    13.5240    11.2610    11.6240    25.5130    -3.4370 
  138.7500     2.5360    41.5770    14.0680    11.7020    12.1680    25.5110    -3.4710 
  138.8750     2.5190    40.0740    14.4460    12.0580    13.1600    25.5280    -3.5320 
  139.0000     2.5040    39.5670    14.3540    12.0560    12.7510    25.5530    -3.6330 
  139.1250     2.4960    40.1810    13.4160    11.3620    12.3070    25.5340    -3.7550 
  139.2500     2.4880    43.2000    11.8270    10.1220    11.6720    25.4830    -3.8260 
  139.3750     2.4670    50.6760     9.9670     8.6320    10.6860    25.4470    -3.9010 
  139.5000     2.4360    61.2260     8.2900     7.2370     7.9110    25.4370    -4.0180 
  139.6250     2.4040    67.5050     7.1840     6.2360     6.1110    25.4310    -4.1280 
  139.7500     2.3740    68.2740     6.6020     5.6280     5.5860    25.4730    -4.1990 
  139.8750     2.3490    67.7610     6.4280     5.3590     5.6590    25.5450    -4.2330 
