~V
VERS. 2.00: Ver 2.00
~W
STRT.M 40.0000:
STOP.M 232.0000:
STEP.M 0.1250:
NULL. -999.2500:
UWI. F11121:
~C
DEPT.M :
SP.MV :
DEN.GM/CC :
GR.API :
RML.OHMM :
RI. :
RXO.OHMM :
CALI.CM :
~A
# ...
  118.7500     5.0960     2.2410    72.6040     5.8090     5.2410     5.7550    24.8060 
  118.8750     5.0120     2.2500    75.0170     5.9370     5.3330     5.8710    24.8130 
  119.0000     4.8790     2.2580    74.6000     6.1880     5.5270     5.8180    24.8110 
  119.1250     4.7410     2.2680    70.0490     6.6160     5.8700     6.3390    24.8090 
  119.2500     4.6130     2.2810    67.5570     7.1180     6.2980     7.3670    24.8060 
  119.3750     4.5020     2.3020    69.2670     7.5400     6.6900     9.4730    24.7990 
  119.5000     4.4140     2.3270    71.8210     7.7060     6.8990    11.3240    24.7730 
  119.6250     4.3430     2.3410    71.5960     7.4470     6.7600    11.8180    24.7510 
  119.7500     4.2660     2.3350    72.7470     6.9220     6.3610     8.2460    24.7620 
  119.8750     4.1810     2.3110    75.8780     6.3800     5.8820     6.1630    24.7920 
  120.0000     4.0950     2.2780    77.4990     6.0910     5.5430     5.9580    24.8190 
  120.1250     4.0200     2.2560    77.6610     6.3110     5.5780     6.0120    24.8200 
  120.2500     3.9600     2.2580    76.9910     7.0100     6.0040     6.2160    24.7740 
  120.3750     3.9050     2.2890    72.4050     8.1210     6.7920     7.9750    24.6640 
  120.5000     3.8550     2.3390    62.5250     9.4810     7.8360    13.2960    24.5330 
  120.6250     3.8180     2.3890    54.6370    10.8430     8.9650    16.9510    24.4440 
  120.7500     3.8060     2.4240    52.7530    12.0900    10.0420    13.9900    24.3930 
  120.8750     3.8250     2.4470    51.9910    13.3790    11.1130    11.1050    24.3610 
  121.0000     3.8850     2.4730    49.0620    15.0000    12.3500    13.2030    24.3260 
  121.1250     3.9930     2.5100    47.1580    17.2280    13.9880    20.6420    24.2820 
  121.2500     4.1190     2.5460    48.5070    19.7940    15.9300    24.8930    24.2480 
  121.3750     4.2590     2.5660    50.2210    22.1970    17.8600    26.7960    24.2170 
  121.5000     4.4080     2.5630    48.5930    23.8530    19.3170    27.5310    24.1610 
  121.6250     4.5540     2.5390    45.8550    24.4290    19.9310    26.0470    24.0790 
  121.7500     4.6730     2.5070    45.0470    24.5970    20.1150    22.7180    24.0330 
  121.8750     4.7730     2.4810    46.3700    24.9460    20.2980    20.6700    24.0420 
  122.0000     4.8520     2.4760    48.1040    25.7140    20.7000    21.0700    24.0770 
  122.1250     4.8920     2.5070    48.5630    26.7010    21.2620    25.6910    24.1070 
  122.2500     4.9030     2.5530    47.2480    27.3910    21.6960    30.6160    24.1290 
  122.3750     4.8920     2.5780    45.1820    27.3960    21.7590    30.6730    24.1490 
  122.5000     4.8570     2.5570    44.6020    26.5950    21.3580    26.1950    24.1590 
  122.6250     4.8220     2.4910    46.4170    25.2140    20.6050    22.8100    24.1400 
  122.7500     4.8070     2.4230    47.5810    23.8430    19.8330    19.9190    24.0810 
  122.8750     4.8030     2.3830    45.4520    22.8040    19.2250    17.8150    24.0020 
  123.0000     4.8010     2.3890    41.1490    22.2130    18.8550    18.0590    23.9450 
  123.1250     4.7620     2.4350    39.4490    22.0690    18.7540    19.4130    23.9560 
  123.2500     4.6960     2.4830    41.9650    22.1970    18.8440    20.7670    24.0200 
  123.3750     4.6210     2.5120    46.3690    22.5600    19.1180    19.2000    24.1020 
  123.5000     4.5370     2.5190    49.3520    23.1670    19.5890    18.9330    24.1670 
  123.6250     4.4330     2.5160    49.2740    23.9950    20.2430    20.9420    24.2220 
  123.7500     4.3160     2.5200    47.9840    24.7960    20.9090    23.8920    24.2990 
  123.8750     4.2050     2.5290    47.1280    25.2790    21.3880    25.8390    24.3830 
  124.0000     4.1140     2.5410    47.7720    25.2290    21.5000    24.5210    24.4500 
  124.1250     4.0730     2.5540    48.1730    24.6120    21.1570    22.5960    24.5070 
  124.2500     4.0620     2.5660    47.0480    23.8360    20.6260    21.1510    24.5620 
  124.3750     4.0600     2.5740    44.2130    23.2120    20.1540    19.9660    24.5980 
  124.5000     4.0580     2.5770    41.8300    22.8990    19.8960    19.7020    24.6020 
  124.6250     4.0730     2.5740    42.8270    22.8810    19.8840    21.1360    24.5970 
  124.7500     4.0940     2.5700    45.5960    22.8960    19.9380    23.2440    24.5960 
  124.8750     4.1010     2.5660    48.1070    22.7170    19.8790    24.1100    24.5960 
  125.0000     4.0750     2.5620    49.0400    22.2100    19.5740    21.3690    24.5940 
  125.1250     4.0290     2.5560    48.3990    21.3560    18.9660    18.2520    24.5900 
  125.2500     3.9980     2.5460    47.0760    20.3830    18.2280    17.2220    24.5900 
  125.3750     3.9990     2.5310    45.6790    19.4890    17.5240    16.8890    24.5910 
  125.5000     4.0370     2.5090    45.3710    18.8390    17.0080    16.1150    24.5930 
  125.6250     4.1080     2.4840    45.3590    18.5780    16.8200    15.8590    24.5900 
  125.7500     4.2010     2.4670    44.2700    18.6330    16.9120    16.8210    24.5870 
  125.8750     4.2980     2.4650    43.9210    18.9630    17.2320    17.4400    24.5870 
  126.0000     4.3900     2.4770    45.4140    19.5110    17.7130    17.7300    24.5850 
  126.1250     4.4550     2.4900    48.2770    20.1700    18.2620    18.3950    24.5820 
  126.2500     4.4590     2.4960    50.2010    20.7810    18.7590    18.3120    24.5800 
  126.3750     4.4040     2.4910    51.0570    21.2800    19.1640    18.3190    24.5830 
  126.5000     4.3090     2.4760    50.6190    21.6710    19.4920    18.9020    24.5870 
  126.6250     4.1760     2.4580    47.9420    21.9990    19.7780    18.8170    24.5870 
  126.7500     4.0400     2.4460    45.4660    22.3440    20.0690    18.4110    24.5850 
  126.8750     3.9170     2.4400    44.6060    22.7560    20.3920    20.1510    24.5860 
  127.0000     3.8130     2.4370    44.1920    23.2650    20.7780    22.7310    24.5890 
  127.1250     3.7350     2.4320    43.3320    23.9280    21.2810    21.9200    24.5940 
  127.2500     3.6960     2.4240    43.0640    24.7370    21.9120    19.8900    24.5930 
  127.3750     3.6720     2.4180    43.7810    25.6150    22.6310    20.0860    24.5640 
  127.5000     3.6530     2.4230    44.6560    26.3750    23.3050    22.0800    24.4960 
  127.6250     3.6250     2.4440    45.8370    26.6670    23.6680    23.9040    24.4170 
  127.7500     3.5880     2.4660    48.0520    26.3620    23.5780    23.9270    24.3880 
  127.8750     3.5560     2.4740    50.2660    25.5030    23.0280    23.1130    24.4320 
  128.0000     3.5300     2.4630    51.5960    24.3400    22.1850    22.1000    24.5160 
  128.1250     3.5320     2.4430    51.3140    23.2420    21.3260    20.9680    24.5710 
  128.2500     3.5650     2.4270    51.7600    22.4230    20.6520    19.4920    24.5880 
  128.3750     3.6400     2.4210    53.5860    21.8920    20.1980    19.7810    24.5900 
  128.5000     3.7480     2.4180    54.2610    21.5460    19.9030    20.5130    24.5840 
  128.6250     3.8850     2.4150    52.4380    21.2690    19.6850    18.9320    24.5610 
  128.7500     4.0220     2.4130    51.8580    21.0070    19.4880    17.0980    24.5410 
  128.8750     4.1450     2.4180    54.9300    20.8040    19.3360    16.6200    24.5350 
  129.0000     4.2530     2.4310    58.8190    20.7190    19.2730    17.5280    24.5300 
  129.1250     4.3260     2.4400    59.4630    20.7640    19.3190    18.5370    24.5240 
  129.2500     4.3470     2.4370    57.2510    20.8210    19.3860    19.0720    24.5310 
  129.3750     4.3220     2.4210    55.7150    20.7630    19.3740    19.0780    24.5390 
  129.5000     4.2520     2.4010    57.5140    20.4970    19.1930    18.9670    24.5310 
  129.6250     4.1450     2.3920    59.5110    19.9830    18.7880    18.8510    24.5160 
  129.7500     4.0070     2.3980    58.0460    19.3690    18.2700    17.9530    24.5110 
  129.8750     3.8650     2.4140    54.2550    18.7990    17.7560    17.5060    24.5130 
