~V
VERS. 2.00: Ver 2.00
~W
STRT.M 50.0000:
STOP.M 264.0000:
STEP.M 0.1250:
NULL. -999.2500:
UWI. F11182:
~C
DEPT.M :
SP.MV :
GR.API :
RI. :
RML.OHMM :
RXO.OHMM :
DEN.GM/CC :
~A
# ...
  230.2500    11.7130    77.9390     2.0750     2.4790     3.5900     2.3080 
  230.3750    11.2150    89.0300     2.4800     2.9040     4.2130     2.3360 
  230.5000    10.8750    89.0370     2.7760     3.2140     4.4940     2.3330 
  230.6250    10.4330    82.3110     3.1890     3.6490     4.6260     2.3240 
  230.7500    10.2120    79.4560     3.3690     3.8370     4.6350     2.3250 
  230.8750    10.0000    79.5910     3.4950     3.9700     4.5690     2.3290 
  231.0000     9.9240    80.9980     3.5290     4.0060     4.5320     2.3320 
  231.1250     9.8730    86.9070     3.5520     4.0300     4.7690     2.3370 
  231.2500     9.8600    94.5410     3.5600     4.0380     5.1630     2.3330 
  231.3750     9.8480   105.8090     3.5490     4.0270     5.4780     2.3180 
  231.5000     9.8380   109.2020     3.5320     4.0090     5.3860     2.3150 
  231.6250     9.8180   106.6970     3.4900     3.9650     5.2280     2.3250 
  231.7500     9.8040   103.1770     3.4620     3.9350     5.1620     2.3330 
  231.8750     9.7860   101.4030     3.4530     3.9250     5.1090     2.3310 
  232.0000     9.7800   104.5680     3.4660     3.9390     5.0880     2.3220 
  232.1250     9.7820   108.2320     3.5030     3.9780     4.9960     2.3070 
  232.2500     9.7940   106.2680     3.5170     3.9930     5.0300     2.3040 
  232.3750     9.8340    98.1140     3.4960     3.9700     5.2430     2.3160 
  232.5000     9.8780    95.8600     3.4540     3.9270     5.3050     2.3240 
  232.6250     9.9700    98.7670     3.3780     3.8470     4.9050     2.3240 
  232.7500    10.0460   100.6000     3.3420     3.8100     4.4720     2.3180 
  232.8750    10.1670    98.6130     3.3600     3.8280     4.3020     2.3110 
  233.0000    10.2370    96.3910     3.4140     3.8840     4.5540     2.3100 
  233.1250    10.3020    96.3790     3.5350     4.0120     5.1060     2.3150 
  233.2500    10.3070    98.9880     3.6150     4.0960     5.3640     2.3240 
  233.3750    10.2540   104.4210     3.7010     4.1870     5.4710     2.3370 
  233.5000    10.1830   108.3270     3.7800     4.2690     5.3400     2.3360 
  233.6250    10.0340   113.6730     3.9280     4.4240     5.0360     2.3350 
  233.7500     9.9100   116.0560     4.0390     4.5410     5.1490     2.3430 
  233.8750     9.6840   117.5850     4.1730     4.6810     6.3130     2.3450 
  234.0000     9.5060   116.4090     4.1590     4.6670     6.7690     2.3280 
  234.1250     9.1910   114.2570     4.0210     4.5220     5.8430     2.2970 
  234.2500     8.9470   111.8520     3.8800     4.3740     5.3790     2.2920 
  234.3750     8.5170   109.8910     3.7420     4.2290     5.3520     2.2950 
  234.5000     8.1790   109.4240     3.8320     4.3240     5.3930     2.2970 
  234.6250     7.5840   108.4280     4.5420     5.0690     5.6520     2.3050 
  234.7500     7.1260   106.0940     5.6640     6.2480    11.9930     2.3030 
  234.8750     6.3540    97.4550     9.7500    10.5370    38.8230     2.2870 
  235.0000     5.8000    88.7720    14.9060    15.9510    55.2930     2.2770 
  235.1250     4.9500    75.3520    29.3320    31.0990    60.6160     2.2640 
  235.2500     4.3970    69.3490    40.0000    42.3000    61.0900     2.2450 
  235.3750     3.6250    64.1060    52.5990    55.5290    69.6350     2.2010 
  235.5000     3.1630    60.9600    56.6390    59.7710    75.5650     2.1810 
  235.6250     2.5530    59.0570    56.6560    59.7890    76.9030     2.1730 
  235.7500     2.1970    59.3290    55.4770    58.5510    73.8840     2.1730 
  235.8750     1.7300    58.4370    54.4630    57.4860    70.9380     2.1710 
  236.0000     1.4590    57.3590    54.4520    57.4750    70.8780     2.1700 
  236.1250     1.1080    60.2620    55.3230    58.3890    73.4410     2.1690 
  236.2500     0.9080    63.2530    56.1820    59.2910    78.7190     2.1670 
  236.3750     0.6460    64.2110    57.2790    60.4430    84.1630     2.1700 
  236.5000     0.4880    61.3860    57.5910    60.7700    81.0690     2.1740 
  236.6250     0.2640    58.8230    56.7510    59.8890    73.1160     2.1790 
  236.7500     0.1200    60.8750    55.1420    58.1990    70.9920     2.1810 
  236.8750    -0.0870    65.0800    52.0530    54.9550    68.6860     2.1880 
  237.0000    -0.2150    65.6070    49.8830    52.6780    63.5700     2.1880 
  237.1250    -0.3900    63.7500    47.1710    49.8300    55.5370     2.1820 
  237.2500    -0.4980    63.3820    45.3920    47.9610    53.7530     2.1810 
  237.3750    -0.6550    62.7220    43.3160    45.7820    53.6080     2.1930 
  237.5000    -0.7610    61.8370    42.7060    45.1420    52.1020     2.1980 
  237.6250    -0.9250    61.0800    43.5670    46.0450    47.1250     2.1860 
  237.7500    -1.0360    61.0300    45.2550    47.8170    47.8450     2.1700 
  237.8750    -1.2000    62.3220    48.7730    51.5120    61.4590     2.1580 
  238.0000    -1.3000    62.6800    51.3170    54.1830    70.4620     2.1650 
  238.1250    -1.4260    59.5340    54.1330    57.1400    71.0060     2.1800 
  238.2500    -1.4910    56.6510    54.9150    57.9610    66.3810     2.1800 
  238.3750    -1.5590    55.4130    55.0480    58.1010    61.5120     2.1730 
  238.5000    -1.5880    56.7630    54.7570    57.7940    59.9830     2.1780 
  238.6250    -1.6080    58.6500    54.6580    57.6910    61.1230     2.1920 
  238.7500    -1.6070    60.1600    54.9980    58.0480    66.6870     2.1960 
  238.8750    -1.5860    60.8910    56.0410    59.1430    71.7070     2.1880 
  239.0000    -1.5620    59.5700    56.9260    60.0730    68.2520     2.1770 
  239.1250    -1.5190    56.6090    58.3760    61.5950    67.0450     2.1660 
  239.2500    -1.4880    56.2810    59.3320    62.5990    71.8030     2.1630 
  239.3750    -1.4370    57.0080    60.2270    63.5380    75.6990     2.1730 
  239.5000    -1.3950    57.9200    60.2720    63.5860    74.4690     2.1940 
  239.6250    -1.3110    60.6730    59.1080    62.3630    71.4760     2.2620 
  239.7500    -1.2360    62.9570    57.3180    60.4840    66.7530     2.3170 
  239.8750    -1.0890    66.6040    54.4400    57.4620    54.7570     2.3550 
  240.0000    -0.9660    69.0570    52.8140    55.7550    49.3710     2.3340 
  240.1250    -0.7430    73.1610    51.3520    54.2200    49.5490     2.2810 
  240.2500    -0.5700    73.8910    50.9040    53.7500    52.1930     2.2640 
  240.3750    -0.2910    73.0030    51.2980    54.1630    52.6890     2.2670 
  240.5000    -0.1040    72.4220    52.1610    55.0690    51.6460     2.2740 
  240.6250     0.1540    73.9160    53.4360    56.4080    61.7920     2.2730 
  240.7500     0.3030    74.6070    53.7850    56.7740    70.8900     2.2690 
  240.8750     0.4890    74.9980    53.2780    56.2420    70.7630     2.2600 
  241.0000     0.5910    75.4450    52.1050    55.0100    65.4560     2.2600 
  241.1250     0.7270    75.0740    49.5530    52.3310    52.2380     2.2410 
  241.2500     0.8140    72.4540    47.9270    50.6230    46.7560     2.2100 
  241.3750     0.9530    69.4770    46.0650    48.6680    50.9660     2.1670 
  241.5000     1.0550    70.2240    45.7450    48.3320    50.8280     2.1610 
  241.6250     1.2260    70.0120    46.3110    48.9270    49.0290     2.1710 
  241.7500     1.3540    66.5820    47.1950    49.8550    51.7700     2.1760 
  241.8750     1.5680    60.5230    48.9250    51.6710    54.3780     2.1750 
  242.0000     1.7240    59.9330    50.2240    53.0360    55.8820     2.1740 
  242.1250     1.9730    61.8200    52.4950    55.4200    60.2380     2.1800 
  242.2500     2.1480    61.6890    54.2590    57.2720    63.2780     2.1880 
  242.3750     2.4290    61.2440    57.7880    60.9770    67.2410     2.1870 
  242.5000     2.6330    62.8560    61.6990    65.0840    73.2900     2.1780 
  242.6250     2.9730    64.7940    70.5260    74.3520    85.5080     2.1740 
  242.7500     3.2220    63.4540    77.4600    81.6330    93.7190     2.1860 
  242.8750     3.6180    59.6910    87.0570    91.7100   110.5910     2.2110 
  243.0000     3.8920    58.6690    90.5490    95.3760   123.1920     2.2200 
