~V
VERS. 2.00: Ver 2.00
~W
STRT.M 14.0000:
STOP.M 209.0000:
STEP.M 0.1250:
NULL. -999.2500:
UWI. F11100:
~C
DEPT.M :
GR.API :
RML.OHMM :
RI. :
RXO.OHMM :
CALI.CM :
SP.MV :
DEN.GM/CC :
~A
# ...
  182.7500    91.5160     9.3310     7.8200     7.7250    23.9020   -12.7210     2.4020 
  182.8750    90.9790     9.5080     7.8390     7.0200    23.8170   -12.0950     2.3930 
  183.0000    91.3140    10.1920     8.2190     8.6120    23.7440   -11.5700     2.4010 
  183.1250    92.8420    10.9380     8.7130    10.7020    23.6470   -11.1370     2.4080 
  183.2500    94.2710    11.3020     9.0450    10.8990    23.5010   -10.7280     2.3960 
  183.3750    94.5340    10.9600     8.9710     9.6260    23.3060   -10.3080     2.3610 
  183.5000    91.6400     9.8770     8.3760     8.4010    23.1300    -9.8480     2.3220 
  183.6250    85.1370     8.5930     7.5500     7.4520    23.0680    -9.3080     2.2920 
  183.7500    75.1100     7.4640     6.7340     6.6360    23.1570    -8.7000     2.2770 
  183.8750    64.1620     6.6550     6.0800     5.8710    23.3780    -8.0530     2.2710 
  184.0000    55.1630     6.2110     5.6640     5.4350    23.7010    -7.4030     2.2640 
  184.1250    50.6840     5.9970     5.4180     5.1290    24.0340    -6.7860     2.2570 
  184.2500    51.5550     5.9290     5.2920     4.7850    24.2730    -6.2400     2.2560 
  184.3750    53.4370     5.9340     5.2330     4.5390    24.3720    -5.7750     2.2640 
  184.5000    53.6940     5.9470     5.1940     4.4170    24.4300    -5.3710     2.2700 
  184.6250    54.6290     5.9320     5.1440     4.2720    24.5650    -5.0260     2.2680 
  184.7500    57.3340     5.8840     5.0830     4.1410    24.6820    -4.7350     2.2600 
  184.8750    60.0740     5.8110     5.0200     4.1020    24.6370    -4.5020     2.2550 
  185.0000    63.2800     5.7310     4.9710     4.1060    24.4390    -4.3240     2.2550 
  185.1250    69.0880     5.6660     4.9430     4.1720    24.2530    -4.2280     2.2580 
  185.2500    76.4060     5.6410     4.9390     4.2480    24.1810    -4.2090     2.2570 
  185.3750    81.5690     5.6750     4.9650     4.2950    24.2600    -4.2680     2.2530 
  185.5000    80.6060     5.7860     5.0300     4.3670    24.4380    -4.3940     2.2470 
  185.6250    76.4180     5.9420     5.1220     4.4970    24.5850    -4.5640     2.2410 
  185.7500    74.2190     6.0950     5.2190     4.6400    24.7500    -4.7250     2.2370 
  185.8750    75.5400     6.1840     5.2840     4.7270    24.9560    -4.8450     2.2480 
  186.0000    75.6200     6.1260     5.2590     4.8510    24.9900    -4.9070     2.2780 
  186.1250    71.9300     5.9290     5.1390     4.9920    24.8030    -4.9170     2.3170 
  186.2500    66.8560     5.6360     4.9430     4.9050    24.5930    -4.9010     2.3360 
  186.3750    62.7360     5.3290     4.7190     4.4720    24.6540    -4.9030     2.3110 
  186.5000    58.8230     5.1130     4.5340     4.1840    24.9950    -4.9830     2.2620 
  186.6250    55.2830     5.0320     4.4280     4.0810    25.1710    -5.2020     2.2170 
  186.7500    54.2010     5.0960     4.4220     4.0830    25.0000    -5.5550     2.1980 
  186.8750    55.0120     5.2870     4.5140     4.1960    24.6840    -6.0400     2.2130 
  187.0000    56.9280     5.5760     4.7010     4.4800    24.5900    -6.6260     2.2360 
  187.1250    60.7170     5.9010     4.9390     4.7980    24.6200    -7.2570     2.2490 
  187.2500    65.4370     6.2180     5.1910     5.2360    24.5950    -7.8530     2.2530 
  187.3750    68.2420     6.4730     5.4130     5.9240    24.5310    -8.3600     2.2550 
  187.5000    70.4560     6.5980     5.5540     6.5440    24.4800    -8.7350     2.2540 
  187.6250    75.1350     6.6030     5.6130     6.7590    24.4720    -8.9400     2.2520 
  187.7500    79.1560     6.5380     5.6110     6.7320    24.4710    -9.0190     2.2550 
  187.8750    79.4620     6.4770     5.5890     6.5690    24.4270    -8.9650     2.2730 
  188.0000    78.2870     6.5030     5.5980     6.2790    24.3430    -8.7750     2.3030 
  188.1250    79.4160     6.6220     5.6600     6.0840    24.2860    -8.4600     2.3350 
  188.2500    82.0750     6.7960     5.7690     6.0200    24.2770    -8.0760     2.3570 
  188.3750    83.7240     6.9690     5.8970     5.7470    24.2820    -7.6460     2.3650 
  188.5000    84.3740     7.0850     6.0070     5.7790    24.2790    -7.1910     2.3670 
  188.6250    84.9610     7.1480     6.0850     5.7310    24.2780    -6.7400     2.3660 
  188.7500    84.1950     7.1920     6.1410     5.6250    24.2790    -6.3320     2.3580 
  188.8750    80.0340     7.2570     6.2020     5.4720    24.2790    -6.0050     2.3370 
  189.0000    75.7620     7.3710     6.2960     5.4790    24.2760    -5.7770     2.3100 
  189.1250    75.8920     7.5310     6.4330     5.8700    24.2770    -5.6450     2.2860 
  189.2500    77.2030     7.7550     6.6250     6.1670    24.2800    -5.5490     2.2740 
  189.3750    77.2530     8.0640     6.8830     5.8740    24.2850    -5.4740     2.2780 
  189.5000    77.8070     8.4530     7.2050     5.9110    24.2880    -5.3960     2.2900 
  189.6250    79.2160     8.8310     7.5290     6.5220    24.2870    -5.2930     2.3080 
  189.7500    79.6210     9.0750     7.7770     7.8250    24.2850    -5.1700     2.3310 
  189.8750    78.9290     9.0620     7.8580     8.7830    24.2850    -5.0520     2.3600 
  190.0000    80.2870     8.7050     7.6810     7.5910    24.2860    -4.9520     2.3880 
  190.1250    83.5150     8.1700     7.3210     6.5240    24.2850    -4.8920     2.4020 
  190.2500    86.5620     7.6210     6.8760     6.6750    24.2830    -4.8980     2.3970 
  190.3750    86.3280     7.1840     6.4550     7.0170    24.2870    -4.9710     2.3800 
  190.5000    83.3830     6.9910     6.1860     6.8340    24.2930    -5.0970     2.3670 
  190.6250    82.3680     7.0920     6.1380     6.5350    24.2960    -5.2740     2.3640 
  190.7500    83.0480     7.5880     6.3880     6.4130    24.3060    -5.4860     2.3730 
  190.8750    83.3490     8.6190     7.0210     6.3250    24.3340    -5.7100     2.3930 
  191.0000    82.2720    10.4750     8.2260     7.8620    24.3070    -5.9260     2.4140 
  191.1250    79.8710    13.0930     9.9750    12.1330    24.1160    -6.1350     2.4240 
  191.2500    77.7260    16.2730    12.1730    17.7290    23.8500    -6.3320     2.4170 
  191.3750    77.8450    19.4920    14.5170    19.9910    23.7620    -6.5230     2.3930 
  191.5000    80.1280    21.8030    16.4190    20.9790    23.9740    -6.7050     2.3650 
  191.6250    80.6570    22.8760    17.5710    20.7780    24.2060    -6.8610     2.3400 
  191.7500    79.9610    23.0310    18.0660    20.4810    24.2550    -6.9830     2.3220 
  191.8750    78.7610    22.9980    18.2950    24.0700    24.1520    -7.0750     2.3090 
  192.0000    76.1860    23.4580    18.6760    22.9010    24.1120    -7.1400     2.2950 
  192.1250    75.2210    24.2680    19.2200    22.2860    24.2260    -7.1600     2.2790 
  192.2500    78.4000    24.7630    19.5700    24.9040    24.4060    -7.1530     2.2620 
  192.3750    82.9860    24.0370    19.1660    30.5310    24.5030    -7.1330     2.2480 
  192.5000    83.0400    21.2780    17.4160    32.3420    24.4650    -7.1050     2.2410 
  192.6250    78.8260    17.3750    14.7910    25.0100    24.3940    -7.0550     2.2420 
  192.7500    73.4780    13.4320    11.9700    15.1180    24.3300    -6.9750     2.2510 
  192.8750    67.4230    10.2650     9.5410     8.6190    24.2900    -6.8620     2.2720 
  193.0000    61.2750     8.2990     7.8870     6.7600    24.2760    -6.7100     2.2970 
  193.1250    57.4730     7.2300     6.8730     6.0870    24.2720    -6.5300     2.3200 
  193.2500    57.0100     6.8420     6.3750     5.8660    24.2710    -6.3530     2.3310 
  193.3750    58.8110     6.9130     6.2430     5.8870    24.2750    -6.1980     2.3230 
  193.5000    60.2420     7.2130     6.3300     6.6280    24.2800    -6.0950     2.3030 
  193.6250    60.4970     7.4710     6.4460     6.6810    24.2800    -6.0820     2.2810 
  193.7500    60.1760     7.5570     6.5040     6.2550    24.2750    -6.1360     2.2680 
  193.8750    60.7120     7.4590     6.4780     5.9220    24.2690    -6.2480     2.2710 
