~V
VERS. 2.00: Ver 2.00
~W
STRT.M 50.0000:
STOP.M 201.0000:
STEP.M 0.1250:
NULL. -999.2500:
UWI. F11102:
~C
DEPT.M :
GR.API :
RML.OHMM :
RI. :
RXO.OHMM :
CALI.CM :
SP.MV :
DEN.GM/CC :
~A
# ...
  173.7500    46.1500    30.9530    35.3340   130.9940    23.1740   -16.6920     2.6490 
  173.8750    48.7750    15.7920    17.7110    46.3670    22.9470   -16.4030     2.6040 
  174.0000    52.7650     8.9030     9.5930    14.6210    22.4030   -16.1260     2.5510 
  174.1250    53.0730     6.5080     6.5880     7.5560    22.3600   -15.8860     2.5030 
  174.2500    51.5230     5.9490     5.5220     6.4680    22.3600   -15.6720     2.4690 
  174.3750    48.3240     6.5890     5.6590     7.7290    22.3820   -15.4750     2.4530 
  174.5000    42.8570     8.1350     6.7390    10.8800    22.6790   -15.3160     2.4520 
  174.6250    38.0420     9.2140     8.5370    14.9210    24.0130   -15.1600     2.4560 
  174.7500    37.4840    10.3550    10.2190    17.5690    25.3170   -14.9870     2.4540 
  174.8750    40.7070    10.5420    10.9570    18.2750    25.9030   -14.7910     2.4410 
  175.0000    45.1930     9.6660    10.4380    16.4640    26.3200   -14.5360     2.4140 
  175.1250    47.9990     8.1460     9.0530    10.7230    26.6690   -14.1960     2.3720 
  175.2500    48.6240     6.7280     7.5990     7.4940    26.9270   -13.8140     2.3190 
  175.3750    49.1290     5.6600     6.3930     6.2620    27.5050   -13.3950     2.2610 
  175.5000    50.2810     4.9730     5.5330     5.6460    27.5290   -12.9940     2.2020 
  175.6250    50.8240     4.6580     5.0560     4.9620    28.0190   -12.6480     2.1510 
  175.7500    51.0710     4.5850     4.8430     4.5070    28.4800   -12.3660     2.1160 
  175.8750    52.6040     4.6840     4.8320     4.0480    28.2600   -12.1570     2.1010 
  176.0000    53.1370     4.8890     4.9620     3.7920    28.8890   -12.0500     2.1070 
  176.1250    48.9190     5.1390     5.1770     3.8940    27.7600   -12.0610     2.1330 
  176.2500    44.6150     5.3810     5.4030     4.2950    24.7120   -12.1690     2.1640 
  176.3750    44.9130     5.5970     5.6020     5.0110    23.8200   -12.3650     2.1900 
  176.5000    49.7940     5.7850     5.7560     5.6800    23.5340   -12.6310     2.2050 
  176.6250    53.8910     5.9360     5.8590     5.5810    23.5520   -12.9500     2.2070 
  176.7500    54.7470     6.0550     5.9320     5.3320    23.6100   -13.3280     2.2040 
  176.8750    53.4100     6.1460     5.9850     5.5580    23.5320   -13.7420     2.1970 
  177.0000    51.4360     6.2130     6.0230     6.4350    23.8800   -14.2140     2.1890 
  177.1250    52.2710     6.2620     6.0430     6.8840    23.4900   -14.7440     2.1840 
  177.2500    55.3580     6.3200     6.0550     6.7520    23.3130   -15.3770     2.1810 
  177.3750    56.7880     6.4130     6.0750     6.2620    23.4640   -16.1300     2.1790 
  177.5000    56.0560     6.5580     6.1240     6.0060    23.5180   -17.0170     2.1800 
  177.6250    60.3160     6.7720     6.2200     6.1740    23.4150   -18.0830     2.1900 
  177.7500    70.1760     7.0300     6.3550     6.4280    23.2690   -19.2980     2.2130 
  177.8750    78.2960     7.3090     6.5130     6.8580    23.3530   -20.6680     2.2480 
  178.0000    79.5200     7.5830     6.6710     7.2660    23.6170   -22.1760     2.2910 
  178.1250    77.8450     7.8150     6.7980     7.4490    23.7700   -23.7590     2.3270 
  178.2500    76.9580     7.9840     6.8820     7.8350    24.4410   -25.3200     2.3470 
  178.3750    77.6290     8.0790     6.9190     8.4050    25.3710   -26.7810     2.3500 
  178.5000    79.7190     8.1110     6.9220     8.5320    25.7300   -28.1230     2.3380 
  178.6250    82.9600     8.1100     6.9130     8.2230    25.6360   -29.2810     2.3180 
  178.7500    85.2110     8.1210     6.9220     8.0800    25.6240   -30.2540     2.3000 
  178.8750    85.7340     8.1780     6.9690     8.1710    25.4270   -31.0340     2.2900 
  179.0000    85.3700     8.3090     7.0730     8.4040    24.6570   -31.5850     2.2900 
  179.1250    83.7640     8.5620     7.2600     8.6900    24.1010   -31.9630     2.2970 
  179.2500    82.2340     8.9580     7.5410     8.9460    23.9920   -32.1750     2.3060 
  179.3750    83.0620     9.5270     7.9440     9.1850    23.9170   -32.2500     2.3160 
  179.5000    84.5110    10.2610     8.4850     9.6390    23.8780   -32.1850     2.3310 
  179.6250    85.2520    11.0650     9.1290    10.6870    23.8440   -31.9810     2.3530 
  179.7500    84.7330    11.7330     9.7180    12.2090    23.7220   -31.6370     2.3770 
  179.8750    83.2710    12.0830    10.0800    14.0730    23.5550   -31.1730     2.3960 
  180.0000    82.1390    12.0490    10.1130    14.8580    23.5810   -30.5940     2.4020 
  180.1250    84.0270    11.7540     9.8530    13.4860    23.8460   -29.8190     2.3910 
  180.2500    88.5950    11.5080     9.5560    11.3280    24.3350   -28.9410     2.3730 
  180.3750    90.3940    11.4490     9.3680     9.7750    24.7720   -27.9980     2.3590 
  180.5000    85.8660    11.5300     9.3090     9.8600    24.9790   -26.9520     2.3580 
  180.6250    80.2930    11.5100     9.2520    10.9960    24.2700   -25.8330     2.3740 
  180.7500    80.3060    11.1790     9.0330    11.5860    23.4240   -24.7040     2.3970 
  180.8750    83.0300    10.5410     8.6060    11.2160    22.9490   -23.5660     2.4160 
  181.0000    83.1420     9.8260     8.0840    10.9660    22.9770   -22.5410     2.4250 
  181.1250    81.6970     9.4250     7.7150     8.0630    23.2400   -21.7770     2.4230 
  181.2500    83.3830     9.4930     7.6570     6.9900    23.4150   -21.1560     2.4210 
  181.3750    86.0100    10.0350     7.9790     7.8340    23.1920   -20.6640     2.4230 
  181.5000    86.2380    10.9360     8.6580     9.9530    22.9720   -20.3460     2.4300 
  181.6250    86.8060    11.9380     9.5590    11.6430    22.7260   -20.1290     2.4360 
  181.7500    89.8230    12.6680    10.3490    12.4590    22.5040   -19.9440     2.4380 
  181.8750    91.9590    12.8620    10.7490    12.9540    22.3620   -19.7850     2.4360 
  182.0000    89.4800    12.4400    10.6200    13.7740    22.1900   -19.5170     2.4310 
  182.1250    84.1440    11.4900     9.9740    13.1320    22.2210   -19.0080     2.4240 
  182.2500    80.7050    10.3700     9.1130    10.9840    22.5290   -18.3740     2.4160 
  182.3750    77.0650     9.2970     8.2270     8.9530    23.3350   -17.6070     2.4060 
  182.5000    69.6800     8.3930     7.4350     7.8710    24.2300   -16.6870     2.3930 
  182.6250    60.8790     6.8390     6.8100     7.7180    24.3450   -15.7170     2.3780 
  182.7500    56.6740     6.4120     6.3290     7.5920    24.4320   -14.7620     2.3660 
  182.8750    59.1290     6.1120     5.9730     6.8130    24.1240   -13.8210     2.3590 
  183.0000    66.6760     5.9100     5.7220     6.1840    24.0390   -13.0080     2.3580 
  183.1250    73.8260     5.8030     5.5750     5.8030    24.0160   -12.3940     2.3640 
  183.2500    77.6050     5.7740     5.5140     5.5870    23.9030   -11.8890     2.3740 
  183.3750    77.8270     5.8100     5.5330     5.3370    23.9610   -11.5540     2.3840 
  183.5000    76.5040     5.8820     5.6110     5.3170    23.9370   -11.3750     2.3950 
  183.6250    78.7630     5.9460     5.7060     5.5080    23.8390   -11.2500     2.4000 
  183.7500    81.7700     5.9710     5.7720     5.7300    23.6240   -11.1890     2.3970 
  183.8750    82.4570     5.9420     5.7830     5.8090    23.6750   -11.1560     2.3800 
  184.0000    79.3350     5.8510     5.7250     5.8750    24.2480   -11.1020     2.3510 
  184.1250    76.3210     5.6940     5.5920     5.7480    24.4350   -11.0320     2.3150 
  184.2500    74.0970     5.4970     5.4160     5.6170    24.4790   -10.9840     2.2850 
  184.3750    69.0710     5.2890     5.2240     5.3960    24.8860   -10.9120     2.2700 
  184.5000    61.2450     5.1060     5.0490     5.1830    25.0790   -10.8410     2.2760 
  184.6250    53.0420     5.0020     4.9310     4.9420    24.7790   -10.8720     2.3020 
  184.7500    48.7830     4.9900     4.8780     4.7500    24.5820   -10.9330     2.3370 
  184.8750    51.4380     5.0730     4.8910     4.8120    23.9900   -11.0360     2.3690 
