~V
VERS. 2.00: Ver 2.00
~W
STRT.M 54.0000:
STOP.M 273.0000:
STEP.M 0.1250:
NULL. -999.2500:
UWI. F11158:
~C
DEPT.M :
SP.MV :
DEN.GM/CC :
GR.API :
RML.OHMM :
RI. :
RXO.OHMM :
CALI.CM :
~A
# ...
  121.5000   -13.0570     2.3050    66.6750    12.2670     9.6360     9.7640    24.8900 
  121.6250   -12.6320     2.4120    62.9410    15.1160    11.7570    13.8010    24.6350 
  121.7500   -12.2050     2.5280    56.8520    17.7750    14.1580    20.5410    24.4120 
  121.8750   -11.8080     2.6010    52.6270    19.5800    16.1620    25.4620    24.2890 
  122.0000   -11.4650     2.6160    50.5180    20.2630    17.3230    24.9840    24.2730 
  122.1250   -11.1940     2.5980    51.4690    20.3320    17.7720    20.1970    24.3090 
  122.2500   -11.0020     2.5800    54.6450    20.8500    18.1940    17.6560    24.3620 
  122.3750   -10.8600     2.5810    55.6150    22.5020    19.2590    20.1010    24.3810 
  122.5000   -10.7440     2.6000    52.5890    25.3370    21.2180    25.2600    24.3600 
  122.6250   -10.6520     2.6210    47.7850    28.8680    23.9460    29.3000    24.3090 
  122.7500   -10.5760     2.6320    44.5600    32.1430    26.8520    29.1010    24.2670 
  122.8750   -10.4980     2.6340    43.9610    34.2940    29.0730    27.5300    24.2450 
  123.0000   -10.4110     2.6320    44.6610    35.1360    30.2150    26.7600    24.2130 
  123.1250   -10.3260     2.6330    44.4090    35.1060    30.4730    27.1260    24.1600 
  123.2500   -10.2670     2.6410    42.9010    34.8170    30.3300    27.7930    24.1200 
  123.3750   -10.2120     2.6470    43.6260    34.6060    30.1850    28.5660    24.1110 
  123.5000   -10.1700     2.6470    46.1000    34.4600    30.1050    28.8650    24.1320 
  123.6250   -10.1480     2.6340    46.9030    34.2960    30.0450    28.8270    24.2170 
  123.7500   -10.1120     2.6150    45.0930    34.0840    29.9470    30.7880    24.4010 
  123.8750   -10.0750     2.5950    43.4690    33.8890    29.8220    33.3250    24.6060 
  124.0000   -10.0720     2.5770    41.2980    33.7890    29.7210    32.4710    24.7100 
  124.1250   -10.1280     2.5590    38.0720    33.8220    29.7040    28.7590    24.6840 
  124.2500   -10.2530     2.5410    36.9420    33.9060    29.7720    26.7550    24.6110 
  124.3750   -10.4410     2.5180    39.3960    33.7890    29.7670    26.2580    24.6740 
  124.5000   -10.6450     2.4940    42.4960    33.1720    29.4470    26.3920    24.7830 
  124.6250   -10.8340     2.4850    43.5380    31.8200    28.5660    25.8000    24.7090 
  124.7500   -11.0310     2.4990    43.1470    29.6900    26.9990    25.1810    24.3640 
  124.8750   -11.2390     2.5200    42.7540    27.2200    25.0460    22.4440    24.0300 
  125.0000   -11.4370     2.5300    42.4190    24.8720    23.0750    18.9280    23.8720 
  125.1250   -11.5980     2.5300    43.0240    23.0540    21.4480    16.4980    23.8840 
  125.2500   -11.7270     2.5310    45.1950    21.9850    20.3940    15.4170    24.0020 
  125.3750   -11.8310     2.5380    47.8990    21.4610    19.8050    15.1590    24.1550 
  125.5000   -11.9050     2.5510    50.5290    21.2370    19.5180    15.8330    24.2990 
  125.6250   -11.9630     2.5640    51.4540    21.0540    19.3330    16.4830    24.3830 
  125.7500   -11.9920     2.5630    49.6220    20.7320    19.0870    15.8180    24.4360 
  125.8750   -11.9780     2.5430    47.8080    20.3020    18.7610    14.9730    24.5160 
  126.0000   -11.9370     2.5160    47.5980    19.8890    18.4360    14.4510    24.6160 
  126.1250   -11.8870     2.4980    47.9100    19.6350    18.2280    14.1650    24.6380 
  126.2500   -11.8130     2.4990    45.2300    19.6080    18.2110    13.8950    24.5520 
  126.3750   -11.7060     2.5140    41.2510    19.7080    18.3180    13.6410    24.4240 
  126.5000   -11.5730     2.5330    39.3850    19.8130    18.4380    13.2180    24.2380 
  126.6250   -11.4130     2.5470    40.8540    19.7970    18.4470    13.3420    24.0110 
  126.7500   -11.2340     2.5480    44.3100    19.5700    18.2390    13.5200    23.9750 
  126.8750   -11.0450     2.5420    47.1400    19.1600    17.8400    13.4380    24.2320 
  127.0000   -10.8430     2.5330    48.7670    18.6490    17.3250    13.2800    24.7140 
  127.1250   -10.6300     2.5210    48.4780    18.1580    16.8090    13.3690    25.2750 
  127.2500   -10.4170     2.5010    45.9140    17.8290    16.4230    13.3880    25.8690 
  127.3750   -10.1990     2.4720    43.4900    17.7310    16.2310    13.3540    26.4560 
  127.5000    -9.9800     2.4360    42.9680    17.8710    16.2550    13.2860    26.9390 
  127.6250    -9.7800     2.3960    44.1180    18.2090    16.4740    13.2120    27.1900 
  127.7500    -9.6280     2.3630    46.4950    18.6860    16.8550    13.3170    27.0900 
  127.8750    -9.5390     2.3560    49.5200    19.2420    17.3470    13.5610    26.5550 
  128.0000    -9.5060     2.3890    52.1710    19.8600    17.9300    14.0110    25.6790 
  128.1250    -9.5110     2.4570    53.1550    20.5010    18.5660    14.7500    24.8560 
  128.2500    -9.5270     2.5280    52.9950    21.0770    19.1610    15.9620    24.4440 
  128.3750    -9.5520     2.5690    53.9650    21.4850    19.6060    17.1370    24.3380 
  128.5000    -9.5940     2.5810    55.2130    21.6460    19.8200    18.1420    24.3780 
  128.6250    -9.6470     2.5870    54.3140    21.5140    19.7580    18.1340    24.4240 
  128.7500    -9.6970     2.5930    50.7470    21.0830    19.4110    17.0560    24.4570 
  128.8750    -9.7170     2.5920    47.0200    20.4710    18.8870    15.8900    24.4850 
  129.0000    -9.7080     2.5830    44.6780    19.7860    18.2770    15.5890    24.5240 
  129.1250    -9.6920     2.5690    43.2870    19.1490    17.6850    15.5340    24.5660 
  129.2500    -9.7000     2.5570    42.3230    18.7010    17.2310    14.9110    24.5840 
  129.3750    -9.7270     2.5510    41.6830    18.5060    16.9820    14.0460    24.5740 
  129.5000    -9.7560     2.5500    42.5800    18.5690    16.9650    13.6450    24.5700 
  129.6250    -9.7710     2.5580    44.4080    18.8230    17.1510    13.8800    24.5810 
  129.7500    -9.7770     2.5700    46.0930    19.1360    17.4540    14.7800    24.6070 
  129.8750    -9.8000     2.5800    48.2450    19.3370    17.7210    15.3510    24.6540 
  130.0000    -9.8300     2.5780    49.7140    19.3320    17.8460    15.3500    24.7550 
  130.1250    -9.8470     2.5600    47.7910    19.1200    17.7850    15.3710    24.9990 
  130.2500    -9.8280     2.5300    43.4350    18.7890    17.5790    15.2900    25.5240 
  130.3750    -9.7680     2.5010    42.3230    18.4780    17.3440    14.7520    26.2930 
  130.5000    -9.6990     2.4830    44.0300    18.2430    17.1490    14.7510    27.1370 
  130.6250    -9.6520     2.4710    44.5340    18.0730    17.0140    14.9840    27.8460 
  130.7500    -9.6490     2.4630    44.6770    17.9090    16.9050    15.0290    28.2980 
  130.8750    -9.6760     2.4660    46.9410    17.6910    16.7600    14.7200    28.5070 
  131.0000    -9.7280     2.4850    48.5100    17.3950    16.5440    14.4700    28.5630 
  131.1250    -9.7950     2.5090    47.0350    17.0180    16.2450    14.3010    28.6060 
  131.2500    -9.8590     2.5240    44.4480    16.5760    15.8780    13.5010    28.5720 
  131.3750    -9.9270     2.5310    43.0320    16.1050    15.4850    12.5770    28.4260 
  131.5000    -9.9990     2.5330    42.3070    15.6280    15.0900    11.8990    28.2630 
  131.6250   -10.0910     2.5340    41.0230    15.1710    14.7160    11.4980    28.1340 
  131.7500   -10.2010     2.5310    38.9630    14.7730    14.3880    11.2970    28.1030 
  131.8750   -10.3200     2.5240    37.6900    14.4650    14.1350    11.2390    28.1920 
  132.0000   -10.4490     2.5110    38.2950    14.2650    13.9790    11.3800    28.4200 
  132.1250   -10.5890     2.4910    40.9110    14.1700    13.9220    11.3490    28.8920 
  132.2500   -10.7540     2.4660    43.4920    14.1360    13.9270    11.1400    29.5290 
  132.3750   -10.9500     2.4470    44.4300    14.0660    13.9130    11.1990    30.0350 
  132.5000   -11.1620     2.4400    44.6530    13.8850    13.8020    11.3170    30.2120 
  132.6250   -11.3740     2.4440    46.0670    13.5670    13.5500    11.1270    30.0720 
