~V
VERS. 2.00: Ver 2.00
~W
STRT.M 62.0000:
STOP.M 217.0000:
STEP.M 0.1250:
NULL. -999.2500:
UWI. F11126:
~C
DEPT.M :
DEN.GM/CC :
SP.MV :
GR.API :
RML.OHMM :
RI. :
RXO.OHMM :
CALI.CM :
~A
# ...
  163.2500     2.1760   -22.9140    67.4050   119.7250   111.1860    82.2610    29.0860 
  163.3750     2.1810   -23.3950    65.5770   116.2790   107.5660    75.1280    29.0980 
  163.5000     2.1840   -23.8050    62.7410   115.4400   106.1250    70.0540    29.1530 
  163.6250     2.1860   -24.0860    60.1190   116.9380   106.7720    68.0560    29.1760 
  163.7500     2.1820   -24.2930    58.9800   120.6740   109.4720    67.7520    29.1710 
  163.8750     2.1750   -24.4650    59.3120   126.4910   114.1040    68.7900    29.1510 
  164.0000     2.1660   -24.6050    60.2040   134.4480   120.7480    71.0160    29.1500 
  164.1250     2.1580   -24.8010    61.3650   143.9080   128.8550    74.5700    29.1520 
  164.2500     2.1540   -24.9330    62.5600   154.4940   138.1230    78.1760    29.1520 
  164.3750     2.1540   -24.9910    63.3740   165.7400   148.1510    78.7620    29.2070 
  164.5000     2.1530   -25.1280    63.3510   177.0290   158.3690    75.3850    29.2410 
  164.6250     2.1480   -25.3970    63.0460   187.7160   168.1190    71.8270    29.2550 
  164.7500     2.1420   -25.7530    62.3300   197.3050   176.9130    72.4390    29.2550 
  164.8750     2.1390   -26.2250    60.8080   205.3800   184.3660    78.4810    29.2550 
  165.0000     2.1390   -26.7180    60.1810   211.1550   189.8390    87.4660    29.2430 
  165.1250     2.1380   -27.1110    61.2040   214.4160   193.2370    93.4850    29.2050 
  165.2500     2.1390   -27.5030    62.2530   214.6190   194.1200    95.8800    29.1420 
  165.3750     2.1430   -27.8680    62.9560   211.3730   192.0490    96.5310    29.0820 
  165.5000     2.1480   -28.0760    63.6510   204.5250   186.5880    96.1340    29.0420 
  165.6250     2.1530   -28.1920    63.8760   196.0860   179.2410    93.8030    29.0070 
  165.7500     2.1580   -28.2080    63.2930   187.9980   171.6210    90.0890    29.0120 
  165.8750     2.1630   -28.0830    62.7600   182.1220   165.5130    87.5640    29.0750 
  166.0000     2.1690   -27.9200    63.5400   180.4940   163.0710    88.1910    29.1020 
  166.1250     2.1750   -27.7480    65.1150   183.0880   164.6270    93.2310    29.0820 
  166.2500     2.1780   -27.5160    67.5270   189.7170   170.1810   101.0380    29.0350 
  166.3750     2.1750   -27.2240    69.8470   199.6560   179.1430   106.8250    28.9730 
  166.5000     2.1650   -27.0070    69.4050   211.7160   190.5330   110.4260    28.8380 
  166.6250     2.1550   -26.8180    64.8120   223.5020   202.1460   114.9590    28.7120 
  166.7500     2.1490   -26.6390    57.7260   232.8920   212.1020   120.3030    28.6900 
  166.8750     2.1490   -26.6080    53.3990   237.8740   218.5820   122.6430    28.7920 
  167.0000     2.1530   -26.5890    55.5380   235.6990   218.9940   121.5720    28.8600 
  167.1250     2.1600   -26.6210    59.0130   226.5390   213.0680   119.0680    28.8650 
  167.2500     2.1700   -26.6810    60.9650   210.7020   200.6760   116.8470    28.8510 
  167.3750     2.1870   -26.7380    62.0140   189.5890   182.7510   112.9010    28.8280 
  167.5000     2.2090   -26.8050    62.8250   165.4640   160.9880   104.4910    28.7790 
  167.6250     2.2370   -26.8850    62.0860   142.1020   138.9120    93.5910    28.7390 
  167.7500     2.2690   -26.9870    60.5360   122.4650   119.3320    81.5600    28.7130 
  167.8750     2.2940   -26.9470    60.5840   108.8290   104.6500    70.4060    28.6620 
  168.0000     2.2910   -26.8400    62.1470   103.5760    97.5540    61.9320    28.5670 
  168.1250     2.2660   -26.6540    63.3180   105.3630    97.2970    56.6180    28.4790 
  168.2500     2.2350   -26.5140    62.7500   113.0610   103.0930    56.7790    28.4230 
  168.3750     2.2090   -26.4720    61.3280   124.5850   113.1130    62.2100    28.3840 
  168.5000     2.1910   -26.4260    61.1820   136.4600   124.1590    67.1290    28.3060 
  168.6250     2.1790   -26.2920    63.1730   144.7590   132.2690    69.0710    28.1940 
  168.7500     2.1700   -26.0670    66.7970   147.0920   134.9660    70.0860    28.1420 
  168.8750     2.1640   -25.8020    69.0520   143.2190   131.7290    71.7420    28.1870 
  169.0000     2.1630   -25.5580    68.3910   135.0480   123.9420    73.5490    28.2390 
  169.1250     2.1670   -25.3320    67.7080   126.2940   115.1240    73.5380    28.2450 
  169.2500     2.1740   -25.0200    68.2380   118.3660   106.8320    71.2570    28.2660 
  169.3750     2.1820   -24.6000    68.4840   111.5830    99.5690    67.4600    28.2600 
  169.5000     2.1890   -24.1170    67.2020   106.2670    93.6630    61.1000    28.2220 
  169.6250     2.1930   -23.6610    66.8470   102.5290    89.1710    52.3760    28.1350 
  169.7500     2.1890   -23.2920    66.9900   100.5590    86.3210    43.3910    28.0050 
  169.8750     2.1820   -23.0580    65.3870   100.0750    85.0220    38.2390    27.8290 
  170.0000     2.1780   -22.8590    62.7400   100.1370    84.7080    39.8420    27.7010 
  170.1250     2.1820   -22.5790    62.7990    99.3520    84.1450    41.3030    27.5310 
  170.2500     2.1920   -22.2890    65.5860    96.8440    82.4650    41.2650    27.3410 
  170.3750     2.2020   -22.0270    69.1640    92.3390    79.2240    42.0190    27.2770 
  170.5000     2.2080   -21.8080    72.0920    86.0880    74.3440    44.5180    27.3770 
  170.6250     2.2080   -21.5820    73.6440    79.3720    68.7800    46.2060    27.5010 
  170.7500     2.2120   -21.3020    73.2530    73.1060    63.3530    45.8140    27.5670 
  170.8750     2.2230   -20.9480    72.2530    67.7610    58.6240    43.5090    27.5920 
  171.0000     2.2350   -20.6370    73.3680    63.3140    54.7560    40.1840    27.5770 
  171.1250     2.2420   -20.4360    75.4040    59.1490    51.2700    37.7330    27.5660 
  171.2500     2.2450   -20.2580    76.5560    54.8880    47.8150    36.9390    27.5450 
  171.3750     2.2530   -20.1010    76.9810    50.3500    44.1740    36.8180    27.4480 
  171.5000     2.2660   -19.9950    77.7000    45.6320    40.3200    31.4790    27.2020 
  171.6250     2.2770   -19.9520    78.6330    41.1360    36.5290    24.1510    26.8740 
  171.7500     2.2840   -20.0010    78.7900    37.2570    33.0990    19.8810    26.5880 
  171.8750     2.2900   -20.1140    77.6480    34.2960    30.2870    18.5190    26.3930 
  172.0000     2.2950   -20.2020    76.6980    32.5270    28.3770    18.2100    26.3170 
  172.1250     2.2970   -20.2770    77.7620    31.5690    27.1970    18.4610    26.3300 
  172.2500     2.2970   -20.3700    80.5100    31.0390    26.5300    19.5010    26.4840 
  172.3750     2.2990   -20.4820    81.7510    30.5530    26.0760    21.0370    26.6720 
  172.5000     2.3070   -20.5830    80.2870    29.8060    25.5300    21.7060    26.7710 
  172.6250     2.3170   -20.6870    79.0520    28.7720    24.7600    21.6010    26.7210 
  172.7500     2.3240   -20.7180    80.2280    27.5640    23.8120    21.1000    26.6650 
  172.8750     2.3280   -20.6600    83.2260    26.4050    22.8660    20.1320    26.6350 
  173.0000     2.3270   -20.5980    84.5220    25.6300    22.2150    19.8410    26.6550 
  173.1250     2.3250   -20.5810    83.4480    25.3120    21.9360    19.8970    26.6910 
  173.2500     2.3210   -20.6150    80.7800    25.3480    21.9570    20.1460    26.7040 
  173.3750     2.3090   -20.6610    78.1740    25.4750    22.0800    20.4620    26.6700 
  173.5000     2.2890   -20.7330    77.9720    25.2840    22.0050    20.0940    26.5050 
  173.6250     2.2810   -20.8330    78.6490    24.6060    21.5660    17.4290    25.9330 
  173.7500     2.2970   -20.9510    79.5660    23.4880    20.7460    13.2270    24.9050 
  173.8750     2.3270   -21.1020    80.5300    22.1520    19.6640    10.3710    24.0250 
  174.0000     2.3510   -21.2310    81.5950    20.9060    18.5380     9.6330    23.7800 
  174.1250     2.3650   -21.3590    82.2140    19.9360    17.5750     9.7120    23.3910 
  174.2500     2.3730   -21.4970    82.8700    19.3020    16.8890    10.0030    23.1990 
  174.3750     2.3710   -21.6530    85.0810    19.0040    16.5330    10.2390    23.1620 
