~V
VERS. 2.00: Ver 2.00
~W
STRT.M 45.0000:
STOP.M 270.0000:
STEP.M 0.1250:
NULL. -999.2500:
UWI. F11186:
~C
DEPT.M :
SP.MV :
GR.API :
RI. :
RML.OHMM :
RXO.OHMM :
DEN.GM/CC :
~A
# ...
  199.5000   -13.7450    70.5020    39.8880    41.8110    51.6160     2.1770 
  199.6250   -13.6710    69.8620    37.9630    39.6490    46.6240     2.1760 
  199.7500   -13.5990    68.2120    36.0740    37.5740    41.1800     2.1790 
  199.8750   -13.5390    65.8790    34.8640    36.3350    38.0420     2.1860 
  200.0000   -13.5020    64.8930    35.2000    36.8160    38.8350     2.1920 
  200.1250   -13.5000    65.9350    37.3710    39.3870    42.7390     2.1940 
  200.2500   -13.5310    68.7090    41.1680    43.7270    49.7320     2.1900 
  200.3750   -13.5870    69.8040    45.9440    49.0980    65.8810     2.1840 
  200.5000   -13.6490    68.8580    50.7270    54.1970    82.2320     2.1740 
  200.6250   -13.7030    67.0590    54.0730    57.3950    84.0960     2.1640 
  200.7500   -13.7430    65.5680    55.7730    58.7780    75.4670     2.1580 
  200.8750   -13.7680    66.3650    56.4270    59.0860    65.0640     2.1590 
  201.0000   -13.7810    68.7100    56.9610    59.5490    66.3630     2.1600 
  201.1250   -13.7850    70.3450    58.1250    60.8050    79.1430     2.1570 
  201.2500   -13.7770    68.6160    59.6880    62.3630    84.6780     2.1570 
  201.3750   -13.7510    65.1540    59.9380    62.2840    79.9130     2.1550 
  201.5000   -13.7080    62.8760    58.3840    60.2610    71.4120     2.1480 
  201.6250   -13.6560    61.8900    55.6050    56.9810    62.2190     2.1420 
  201.7500   -13.6160    60.5840    53.2310    54.3100    53.6550     2.1490 
  201.8750   -13.6170    60.9340    53.6040    54.8230    50.5200     2.1610 
  202.0000   -13.6770    62.4000    57.9740    59.4270    59.6960     2.1620 
  202.1250   -13.8100    62.2950    66.2220    68.1610    74.6630     2.1530 
  202.2500   -14.0020    60.3930    76.7200    78.8290    86.6480     2.1430 
  202.3750   -14.2280    60.1930    84.6270    85.9800    93.3060     2.1360 
  202.5000   -14.4560    62.0810    85.4030    85.4180    93.7460     2.1340 
  202.6250   -14.6640    64.9760    77.7780    76.4120    84.2790     2.1440 
  202.7500   -14.8470    66.7420    66.6630    64.6240    66.0130     2.1580 
  202.8750   -15.0090    66.5230    57.7900    55.9050    51.5670     2.1640 
  203.0000   -15.1610    64.9980    54.1030    52.8100    55.2160     2.1630 
  203.1250   -15.3050    64.2610    56.0110    55.2740    80.5000     2.1560 
  203.2500   -15.4360    64.0170    62.6490    62.4600   106.9090     2.1430 
  203.3750   -15.5380    62.8460    73.3410    72.8020   118.7290     2.1300 
  203.5000   -15.6050    61.3510    81.9880    80.6390   113.8340     2.1350 
  203.6250   -15.6330    61.4050    87.4230    85.1930   100.2250     2.1480 
  203.7500   -15.6360    63.0990    88.6060    85.7880    92.4620     2.1460 
  203.8750   -15.6330    63.5390    89.1590    86.5430    94.4880     2.1200 
  204.0000   -15.6420    60.7790    91.2010    89.0660   114.3980     2.0900 
  204.1250   -15.6780    57.3700    95.6890    94.3570   147.3850     2.0760 
  204.2500   -15.7440    55.7350   102.4350   101.9380   163.1030     2.0730 
  204.3750   -15.8390    54.8880   110.7090   111.0590   150.4870     2.0790 
  204.5000   -15.9530    53.4770   121.2120   122.4870   144.7620     2.0830 
  204.6250   -16.0800    52.4640   132.8020   134.8370   181.0550     2.0810 
  204.7500   -16.2120    52.6670   139.8860   141.6830   238.7800     2.0780 
  204.8750   -16.3420    54.2270   139.5810   140.4890   266.4380     2.0810 
  205.0000   -16.4620    55.9330   131.6470   131.2000   232.5880     2.0870 
  205.1250   -16.5600    56.8940   118.0690   116.2850   161.1660     2.0870 
  205.2500   -16.6300    56.5970   105.5930   103.4760   113.1430     2.0840 
  205.3750   -16.6650    56.7200    97.6860    95.5330   111.1740     2.0850 
  205.5000   -16.6680    57.9450    93.7670    91.6470   124.2700     2.0910 
  205.6250   -16.6450    58.1660    92.6110    90.2400   121.2660     2.0970 
  205.7500   -16.6070    56.5350    89.5730    86.5890   112.4020     2.0970 
  205.8750   -16.5630    53.9310    83.1440    79.5490   116.9370     2.0990 
  206.0000   -16.5220    53.6110    73.4870    69.4880   112.0530     2.1070 
  206.1250   -16.4910    55.6510    63.8150    59.9660    82.9370     2.1180 
  206.2500   -16.4760    58.1910    56.9620    53.3220    61.5320     2.1250 
  206.3750   -16.4750    59.7970    52.4440    49.0410    58.0250     2.1290 
  206.5000   -16.4820    60.5100    49.8210    46.6770    59.4640     2.1280 
  206.6250   -16.4900    61.4000    48.8330    45.8910    61.7710     2.1270 
  206.7500   -16.4930    63.1540    48.8290    46.0020    61.2180     2.1330 
  206.8750   -16.4850    65.1080    48.7470    46.0610    59.5990     2.1430 
  207.0000   -16.4720    65.1330    48.2450    45.7340    58.2570     2.1520 
  207.1250   -16.4530    63.2530    47.1170    44.8680    58.5190     2.1600 
  207.2500   -16.4290    62.3930    46.1110    44.2220    58.9060     2.1670 
  207.3750   -16.3880    63.6430    45.8110    44.3340    55.4730     2.1650 
  207.5000   -16.3190    64.1670    47.1440    46.1750    54.4460     2.1500 
  207.6250   -16.2130    62.0480    51.1280    50.9970    64.4090     2.1240 
  207.7500   -16.0730    59.1680    57.9520    58.5390    92.7580     2.0980 
  207.8750   -15.9040    57.6630    66.3560    67.4140   130.7870     2.0880 
  208.0000   -15.7210    57.0560    73.1330    73.8170   146.6500     2.0970 
  208.1250   -15.5310    55.5890    75.2450    75.1770   143.7440     2.1120 
  208.2500   -15.3330    54.0600    72.2430    71.4210   133.9590     2.1160 
  208.3750   -15.1100    53.6760    66.1390    65.1020   105.3690     2.1120 
  208.5000   -14.8410    54.0630    61.0660    60.7870    82.3230     2.1290 
  208.6250   -14.4980    53.4560    57.6340    57.8110    76.5990     2.2080 
  208.7500   -14.0760    52.8830    49.3560    49.4940    79.4700     2.3550 
  208.8750   -13.5730    54.7990    37.1860    37.2590   100.7120     2.5080 
  209.0000   -13.0070    58.0330    23.2940    22.8590   102.8340     2.5740 
  209.1250   -12.3860    62.8380    11.1040    10.9390    58.5540     2.5230 
  209.2500   -11.7220    68.8440     6.2500     6.2290    18.1980     2.4300 
  209.3750   -11.0240    75.4190     4.1470     4.1600     6.4920     2.3770 
  209.5000   -10.3260    81.4740     3.1280     3.2210     4.3140     2.3810 
  209.6250    -9.6920    83.7820     2.7300     2.8760     3.7240     2.4120 
  209.7500    -9.1990    80.7200     2.6360     2.8180     3.4990     2.4310 
  209.8750    -8.9460    76.6730     2.6840     2.8510     3.5880     2.4320 
  210.0000    -8.9650    78.3330     2.7640     2.9040     4.1450     2.4230 
  210.1250    -9.2850    84.7610     2.9200     3.0400     4.5820     2.3910 
  210.2500    -9.8500    89.3380     3.1230     3.2310     4.4950     2.3490 
  210.3750   -10.6160    93.3970     3.3550     3.4640     4.6600     2.3260 
  210.5000   -11.4950    97.8440     3.5950     3.7160     5.7720     2.3240 
  210.6250   -12.4040    99.0570     3.8430     4.0010     6.6450     2.3170 
  210.7500   -13.2530    96.1350     4.0530     4.2520     6.7060     2.3010 
  210.8750   -13.9520    89.9630     4.1460     4.3790     6.7120     2.2770 
  211.0000   -14.4590    86.1440     4.1220     4.3970     6.5780     2.2390 
  211.1250   -14.7440    88.3470     3.9810     4.3040     6.1050     2.2110 
  211.2500   -14.8540    93.7580     3.7690     4.1460     5.9390     2.2230 
  211.3750   -14.8350    96.9650     3.5640     3.9850     6.1490     2.2630 
  211.5000   -14.7670    97.5140     3.4100     3.8650     5.8750     2.2910 
  211.6250   -14.7180    97.7320     3.3470     3.8400     5.1600     2.3090 
  211.7500   -14.7480    95.6310     3.4040     3.9660     5.2040     2.3220 
  211.8750   -14.9140    93.2300     3.5670     4.2390     6.2490     2.3140 
  212.0000   -15.2270    92.5890     3.8040     4.5970     7.1580     2.2870 
  212.1250   -15.6810    91.5790     4.0530     4.9580     7.3100     2.2700 
  212.2500   -16.2090    87.9580     4.2800     5.2520     7.2510     2.2750 
