~V
VERS. 2.00: Ver 2.00
~W
STRT.M 55.0000:
STOP.M 210.0000:
STEP.M 0.1250:
NULL. -999.2500:
UWI. F11105:
~C
DEPT.M :
DEN.GM/CC :
GR.API :
RML.OHMM :
RI. :
RXO.OHMM :
CALI.CM :
SP.MV :
~A
# ...
  167.5000     2.1710    51.4900   214.2140   180.6720   205.7320    27.9310   -31.8810 
  167.6250     2.1630    53.2900   251.5860   213.3640   204.9280    28.1440   -32.1630 
  167.7500     2.1570    55.9090   270.7010   231.6940   196.4070    28.1140   -32.3740 
  167.8750     2.1530    57.4060   270.6390   234.3570   198.9220    27.7810   -32.4840 
  168.0000     2.1490    57.9840   257.3230   225.5060   208.3300    27.5650   -32.5000 
  168.1250     2.1490    57.0610   235.5800   209.0380   189.6310    27.2630   -32.4680 
  168.2500     2.1520    55.3080   210.5670   189.2410   131.9790    26.4210   -32.4730 
  168.3750     2.1590    55.2730   185.9510   168.7940    83.2500    25.4790   -32.4880 
  168.5000     2.1690    57.6300   165.2070   150.5810    59.4530    24.7800   -32.4590 
  168.6250     2.1840    58.7480   151.4520   137.6990    64.6580    24.7190   -32.4090 
  168.7500     2.1980    58.2450   143.6290   129.9640    74.0520    24.6270   -32.4300 
  168.8750     2.2040    58.2210   140.3640   126.5320    81.2090    24.5150   -32.4870 
  169.0000     2.2010    60.0930   139.7940   125.8730    87.4420    24.3710   -32.5160 
  169.1250     2.2000    63.1010   140.2600   126.3570    84.0190    24.0880   -32.5030 
  169.2500     2.2010    65.0530   141.0460   126.9050    73.9290    23.8500   -32.4620 
  169.3750     2.2040    65.4070   142.9790   127.9380    62.7530    23.6400   -32.4120 
  169.5000     2.2050    65.0370   147.5410   130.6950    54.8570    23.6110   -32.3290 
  169.6250     2.2050    65.8450   156.8120   137.1610    49.6000    23.1780   -32.1830 
  169.7500     2.2050    65.5590   170.1880   147.2540    48.0660    22.9810   -31.9940 
  169.8750     2.2080    62.6630   185.7020   159.5900    50.8620    22.8750   -31.8240 
  170.0000     2.2150    59.0080   199.3790   170.9790    55.6340    22.9740   -31.6960 
  170.1250     2.2230    56.9490   205.3010   176.4750    60.2960    23.0100   -31.5500 
  170.2500     2.2300    57.8460   203.4260   175.4380    61.1610    22.7010   -31.4040 
  170.3750     2.2340    60.6790   197.0850   170.0800    60.4380    22.4330   -31.2580 
  170.5000     2.2370    63.6040   190.9880   164.2530    57.8970    22.3220   -31.0940 
  170.6250     2.2390    63.6760   189.1830   161.8870    54.4070    22.2450   -30.8950 
  170.7500     2.2420    61.9340   191.2810   163.3380    52.5790    22.1700   -30.6530 
  170.8750     2.2450    60.8020   194.9700   167.0440    50.8910    22.0460   -30.4010 
  171.0000     2.2470    61.1350   196.3320   169.9530    49.9250    21.8510   -30.1200 
  171.1250     2.2490    62.9460   189.0620   166.8480    49.2900    21.5330   -29.8500 
  171.2500     2.2510    64.1350   171.8250   155.4830    47.9130    21.3450   -29.6380 
  171.3750     2.2550    63.7030   147.1040   136.6220    45.2380    21.3450   -29.4680 
  171.5000     2.2620    63.1370   120.4370   114.2620    41.8510    21.2470   -29.3710 
  171.6250     2.2720    64.7360    97.8100    93.8280    37.9690    21.2000   -29.3350 
  171.7500     2.2820    66.9230    80.8850    77.9550    34.1740    21.1430   -29.3470 
  171.8750     2.2900    69.0760    69.5010    67.0820    31.9140    21.0430   -29.3740 
  172.0000     2.2940    71.9410    62.7050    60.6140    31.8800    21.0510   -29.4030 
  172.1250     2.2930    73.8580    59.7330    57.9600    33.7730    21.1250   -29.4380 
  172.2500     2.2900    74.2010    58.9130    57.4690    35.2980    21.0510   -29.4470 
  172.3750     2.2880    74.1300    59.6200    58.4520    36.4830    20.9510   -29.4290 
  172.5000     2.2870    75.7720    61.6270    60.5950    37.6290    20.9490   -29.3630 
  172.6250     2.2860    79.8000    65.0540    64.0650    37.6700    20.8570   -29.3180 
  172.7500     2.2830    81.8940    68.9700    68.2630    38.7690    20.7970   -29.2910 
  172.8750     2.2780    79.8950    71.4650    71.5660    41.1540    20.8650   -29.2410 
  173.0000     2.2740    73.9070    69.6770    71.0050    50.7660    20.8210   -29.2490 
  173.1250     2.2780    69.8990    60.8810    63.1590    60.4660    20.7850   -29.3610 
  173.2500     2.2940    70.9420    48.6590    51.1870    55.7730    20.7000   -29.4850 
  173.3750     2.3180    74.0710    37.3320    39.5080    36.4410    20.6520   -29.6180 
  173.5000     2.3420    77.0210    29.7440    31.1430    20.6010    20.6310   -29.8190 
  173.6250     2.3520    78.4800    27.2870    27.5070    15.0480    20.5950   -30.0330 
  173.7500     2.3440    79.5280    28.7350    27.5450    16.9000    20.6250   -30.2160 
  173.8750     2.3260    80.4660    33.5080    30.9260    26.1790    20.6010   -30.4140 
  174.0000     2.3060    80.0540    40.9390    37.3660    37.6540    20.5500   -30.6260 
  174.1250     2.2940    77.1460    49.9970    46.2960    42.7600    20.5050   -30.8300 
  174.2500     2.2880    71.6220    58.6360    55.4050    43.8340    20.4600   -31.0210 
  174.3750     2.2830    67.9280    65.5080    62.8530    45.1610    20.4870   -31.2260 
  174.5000     2.2760    69.2490    70.2850    67.9300    46.0570    20.5500   -31.4460 
  174.6250     2.2660    72.2730    73.2760    70.8640    46.4130    20.5720   -31.7000 
  174.7500     2.2570    70.8110    75.0900    72.4850    48.8460    20.5960   -31.9870 
  174.8750     2.2520    66.7970    75.5330    72.7230    53.3530    20.6450   -32.2470 
  175.0000     2.2540    66.0220    74.4730    71.4610    56.0180    20.7200   -32.4550 
  175.1250     2.2640    69.6720    72.0440    68.7420    52.4420    20.5670   -32.5700 
  175.2500     2.2780    72.1570    69.1590    65.4440    49.1220    20.4930   -32.6060 
  175.3750     2.2910    71.9240    66.4900    62.2820    46.4500    20.5760   -32.6050 
  175.5000     2.3010    70.7320    64.4900    59.7940    42.8110    20.6300   -32.6160 
  175.6250     2.3020    71.4850    63.4450    58.3660    41.8900    20.6000   -32.6590 
  175.7500     2.2970    74.7550    63.1230    57.7660    44.2630    20.5550   -32.6870 
  175.8750     2.2910    77.8960    63.3500    57.7810    49.8210    20.5820   -32.7200 
  176.0000     2.2860    76.1400    64.0040    58.2050    50.1650    20.6320   -32.7890 
  176.1250     2.2840    70.3220    65.2780    59.0840    43.3190    20.6780   -32.9250 
  176.2500     2.2830    67.9700    67.5050    60.6720    40.3960    20.7590   -33.0920 
  176.3750     2.2820    71.1530    71.1770    63.4170    46.9550    20.8830   -33.2640 
  176.5000     2.2810    73.8590    76.6810    67.7040    56.8240    20.9900   -33.3950 
  176.6250     2.2810    70.4580    84.4340    73.9670    63.0060    20.8920   -33.4170 
  176.7500     2.2830    66.2200    93.6870    81.6250    68.3760    20.7380   -33.3720 
  176.8750     2.2850    65.2160   103.6060    89.9990    69.7800    20.4560   -33.3500 
  177.0000     2.2840    65.4590   113.2300    98.2810    66.2760    20.3390   -33.3060 
  177.1250     2.2770    63.2500   121.5360   105.6100    61.9290    20.3410   -33.1340 
  177.2500     2.2600    60.7620   128.2900   111.7060    61.9230    20.3770   -32.9100 
  177.3750     2.2360    60.8730   133.5080   116.4890    66.4080    20.3860   -32.6630 
  177.5000     2.2110    63.2180   137.5620   120.1670    72.3810    20.4050   -32.3370 
  177.6250     2.1980    66.2270   141.0070   123.0840    75.9010    20.5250   -31.9140 
  177.7500     2.2020    67.3000   144.4810   125.8010    77.3100    20.7400   -31.4600 
  177.8750     2.2220    64.2550   148.1050   128.5550    80.4320    21.0400   -30.9500 
  178.0000     2.2510    58.9950   151.2080   131.0690    90.6680    21.8440   -30.3740 
  178.1250     2.2810    56.2120   151.3490   131.6180    95.0250    21.7950   -29.7750 
  178.2500     2.3080    57.8860   147.3990   128.9600    87.2700    21.5110   -29.1820 
  178.3750     2.3260    60.4390   140.5470   123.4540    74.8650    21.2960   -28.5570 
  178.5000     2.3360    59.9460   134.3650   117.5550    68.7730    21.0810   -27.9230 
  178.6250     2.3420    57.7270   134.7950   116.3860    57.8540    20.8570   -27.3560 
