~V
VERS. 2.00: Ver 2.00
~W
STRT.M 45.0000:
STOP.M 250.0000:
STEP.M 0.1250:
NULL. -999.2500:
UWI. F11133:
~C
DEPT.M :
SP.MV :
DEN.GM/CC :
GR.API :
RML.OHMM :
RI. :
RXO.OHMM :
CALI.CM :
~A
# ...
  101.2500   -30.7910     2.2490    73.0600     8.9920     7.0750     7.8150    24.0590 
  101.3750   -31.0000     2.2400    71.8530     9.3120     7.2680     8.1590    23.9470 
  101.5000   -31.3030     2.2390    69.6190     9.5660     7.4470     8.5300    23.8340 
  101.6250   -31.6640     2.2410    67.3380     9.6850     7.5750     8.7440    23.7570 
  101.7500   -32.0480     2.2380    65.9700     9.6350     7.6260     8.7460    23.7190 
  101.8750   -32.4520     2.2240    65.3740     9.4410     7.5940     8.6500    23.7080 
  102.0000   -32.8930     2.2050    65.0610     9.1700     7.4950     8.5370    23.7070 
  102.1250   -33.3640     2.1910    64.1560     8.8780     7.3530     8.4130    23.7180 
  102.2500   -33.8380     2.1860    62.8970     8.6450     7.2090     8.4060    23.7420 
  102.3750   -34.3120     2.1850    62.7050     8.5610     7.1190     8.5340    23.7770 
  102.5000   -34.7900     2.1860    63.8170     8.6780     7.1200     8.7380    23.8170 
  102.6250   -35.2680     2.1860    64.6940     8.9920     7.2280     8.9750    23.8660 
  102.7500   -35.7320     2.1850    64.0190     9.4300     7.4250     9.2930    23.9030 
  102.8750   -36.1480     2.1840    62.5870     9.8600     7.6630     9.6220    23.9000 
  103.0000   -36.4900     2.1870    60.6820    10.1570     7.8740     9.9570    23.8620 
  103.1250   -36.7840     2.1890    58.3520    10.2760     8.0150    10.4430    23.8180 
  103.2500   -37.0640     2.1900    56.0370    10.2250     8.0570    10.8590    23.8050 
  103.3750   -37.3100     2.1880    54.1650    10.0510     7.9980    10.6260    23.8270 
  103.5000   -37.5010     2.1850    53.5280     9.8230     7.8710     9.8120    23.8650 
  103.6250   -37.6400     2.1840    54.4490     9.5860     7.7120     9.1250    23.9080 
  103.7500   -37.7370     2.1840    55.8070     9.3800     7.5550     8.6940    23.9490 
  103.8750   -37.8090     2.1840    56.7820     9.2270     7.4280     8.4560    23.9480 
  104.0000   -37.8900     2.1830    58.2450     9.1340     7.3430     8.2890    23.8940 
  104.1250   -37.9890     2.1790    59.8740     9.0960     7.3040     8.1930    23.8320 
  104.2500   -38.1000     2.1710    59.8040     9.1070     7.3090     8.1350    23.8140 
  104.3750   -38.2380     2.1600    57.9910     9.1510     7.3520     8.1620    23.8310 
  104.5000   -38.3930     2.1510    57.0680     9.2060     7.4170     8.3010    23.8480 
  104.6250   -38.5490     2.1470    58.2920     9.2550     7.4900     8.5070    23.8530 
  104.7500   -38.6930     2.1450    60.0680     9.2860     7.5540     8.7800    23.8630 
  104.8750   -38.8140     2.1420    60.0900     9.2950     7.5970     9.0870    23.8960 
  105.0000   -38.8860     2.1380    58.7010     9.2860     7.6120     9.3100    23.9570 
  105.1250   -38.8670     2.1360    57.4780     9.2580     7.5990     9.4710    24.0350 
  105.2500   -38.7500     2.1410    56.8730     9.2000     7.5540     9.5630    24.0970 
  105.3750   -38.5280     2.1550    56.7880     9.1080     7.4840     9.5720    24.1210 
  105.5000   -38.2380     2.1730    58.5730     9.0030     7.4030     9.5530    24.1160 
  105.6250   -37.9090     2.1880    62.3660     8.9150     7.3320     9.4600    24.0640 
  105.7500   -37.5650     2.1970    64.6210     8.8670     7.2900     9.2750    23.9700 
  105.8750   -37.2320     2.2010    62.4670     8.8500     7.2800     9.1990    23.8680 
  106.0000   -36.9370     2.2020    59.1030     8.8460     7.2860     9.4330    23.7890 
  106.1250   -36.7060     2.2020    58.7750     8.8700     7.3120     9.8250    23.7790 
  106.2500   -36.5480     2.2030    61.1040     8.9880     7.3920     9.9090    23.8660 
  106.3750   -36.4790     2.2000    62.3390     9.2490     7.5590     9.5580    24.0080 
  106.5000   -36.4930     2.1940    61.9260     9.6120     7.7980     9.1990    24.1150 
  106.6250   -36.5760     2.1900    61.6120     9.9740     8.0550     9.1240    24.1100 
  106.7500   -36.7270     2.1920    60.8900    10.1840     8.2320     9.2260    24.0190 
  106.8750   -36.9240     2.1930    59.0370    10.1400     8.2540     9.2600    23.9230 
  107.0000   -37.1450     2.1880    57.4260     9.8800     8.1280     9.0650    23.8780 
  107.1250   -37.3860     2.1800    56.4750     9.5080     7.9120     8.8470    23.8940 
  107.2500   -37.6250     2.1730    55.7960     9.1590     7.6840     8.5200    23.9440 
  107.3750   -37.8240     2.1690    55.1830     8.9390     7.5070     8.1120    24.0030 
  107.5000   -37.9610     2.1650    55.6820     8.8730     7.4050     7.8600    24.0710 
  107.6250   -38.0270     2.1610    56.7630     8.9260     7.3690     7.6660    24.1550 
  107.7500   -38.0210     2.1610    56.7070     9.0180     7.3680     7.5240    24.2380 
  107.8750   -37.9460     2.1660    55.8000     9.0700     7.3710     7.4890    24.3040 
  108.0000   -37.8260     2.1720    56.2150     9.0470     7.3550     7.5130    24.3460 
  108.1250   -37.6700     2.1750    57.7080     8.9570     7.3170     7.5380    24.3620 
  108.2500   -37.4960     2.1720    57.6050     8.8320     7.2610     7.6040    24.3660 
  108.3750   -37.3130     2.1660    56.1180     8.7150     7.2030     7.7820    24.3650 
  108.5000   -37.1180     2.1620    56.1060     8.6430     7.1570     8.0610    24.3630 
  108.6250   -36.9080     2.1610    57.1840     8.6280     7.1330     8.3660    24.3650 
  108.7500   -36.6790     2.1630    58.1840     8.6590     7.1310     8.5340    24.3870 
  108.8750   -36.4410     2.1670    59.5790     8.7040     7.1400     8.4860    24.4410 
  109.0000   -36.2100     2.1700    61.2120     8.7310     7.1470     8.4330    24.4960 
  109.1250   -35.9850     2.1710    61.7750     8.7340     7.1420     8.5070    24.4940 
  109.2500   -35.7300     2.1680    60.3870     8.7210     7.1260     8.6350    24.4010 
  109.3750   -35.4310     2.1620    57.7990     8.7020     7.1060     8.6830    24.2560 
  109.5000   -35.1190     2.1560    56.0760     8.6800     7.0930     8.6810    24.1480 
  109.6250   -34.8230     2.1510    56.0620     8.6510     7.0870     8.6430    24.1130 
  109.7500   -34.5570     2.1470    57.1410     8.6080     7.0820     8.5540    24.1150 
  109.8750   -34.3160     2.1400    58.4450     8.5380     7.0590     8.4310    24.1210 
  110.0000   -34.0790     2.1330    60.2670     8.4310     7.0040     8.3670    24.1210 
  110.1250   -33.8250     2.1270    62.0310     8.2660     6.9090     8.4610    24.0910 
  110.2500   -33.5540     2.1240    63.1690     8.0250     6.7690     8.5150    24.0310 
  110.3750   -33.2710     2.1300    64.1710     7.7450     6.6070     8.2970    23.9710 
  110.5000   -32.9700     2.1420    63.6390     7.5710     6.5030     8.1300    23.9360 
  110.6250   -32.6180     2.1570    60.7090     7.6920     6.5690     8.3580    23.9250 
  110.7500   -32.1840     2.1780    57.8530     8.2860     6.9290     8.9540    23.9240 
  110.8750   -31.6590     2.2090    57.6520     9.3620     7.6130     9.9700    23.9270 
  111.0000   -31.0500     2.2500    58.8730    10.6310     8.4730    11.8710    23.9410 
  111.1250   -30.3820     2.2950    59.0120    11.6410     9.2420    14.5950    23.9700 
  111.2500   -29.6690     2.3220    58.7280    11.8230     9.5290    15.1640    23.9720 
  111.3750   -28.8850     2.3160    60.8340    10.9800     9.1340    12.2630    23.9090 
  111.5000   -28.0230     2.2950    67.1970     9.5730     8.2860     9.5350    23.8600 
  111.6250   -27.1370     2.2840    76.1950     8.1480     7.3160     7.4270    23.9010 
  111.7500   -26.2870     2.2860    83.4230     7.1310     6.5170     6.0130    24.0600 
  111.8750   -25.5280     2.2860    86.8290     6.6690     6.0410     5.6640    24.2700 
  112.0000   -24.9030     2.2800    87.3850     6.6220     5.8630     5.8560    24.3940 
  112.1250   -24.4110     2.2730    85.3170     6.8180     5.9060     6.1520    24.4260 
  112.2500   -24.0460     2.2680    80.4650     7.0830     6.0700     6.2840    24.4470 
  112.3750   -23.8250     2.2620    75.2030     7.2940     6.2640     6.3200    24.4740 
