~V
VERS. 2.00: Ver 2.00
~W
STRT.M 53.0000:
STOP.M 212.0000:
STEP.M 0.1250:
NULL. -999.2500:
UWI. F11124:
~C
DEPT.M :
SP.MV :
DEN.GM/CC :
GR.API :
RML.OHMM :
RI. :
RXO.OHMM :
CALI.CM :
~A
# ...
  165.5000   -26.6100     2.1630    61.2230   106.9900    96.2760    65.6830    31.3000 
  165.6250   -26.5800     2.1460    58.3660   117.3420   102.9580    80.1360    31.3570 
  165.7500   -26.5690     2.1310    57.0250   137.0430   118.4560   124.6210    31.3990 
  165.8750   -26.6070     2.1230    57.2390   166.5940   143.1290   200.5300    31.4030 
  166.0000   -26.6670     2.1190    56.6800   205.3430   176.0790   295.1520    31.3810 
  166.1250   -26.7570     2.1150    56.2900   249.7730   213.9120   375.8570    31.3440 
  166.2500   -26.8730     2.1100    55.7750   290.6430   248.8930   434.4330    31.2740 
  166.3750   -27.0030     2.1080    53.6830   320.2900   275.0000   471.3730    31.2070 
  166.5000   -27.1150     2.1100    50.0160   334.3400   288.9530   538.4110    31.1280 
  166.6250   -27.2370     2.1140    48.9540   327.4100   287.0120   663.4050    31.1020 
  166.7500   -27.3790     2.1230    52.3690   301.2250   270.1180   803.2100    31.0940 
  166.8750   -27.4990     2.1390    55.5690   259.1320   239.1720   848.8900    31.0750 
  167.0000   -27.6120     2.1600    54.7500   210.0680   199.3890   678.7000    31.0260 
  167.1250   -27.7320     2.1820    54.2440   165.9780   160.0270   426.2260    30.9910 
  167.2500   -27.8330     2.2010    57.1800   131.9480   127.9100   272.8080    30.9830 
  167.3750   -27.9300     2.2160    59.3610   108.0370   104.7760   168.0730    31.0170 
  167.5000   -28.0360     2.2270    58.4390    92.1320    89.4850   103.9600    31.0860 
  167.6250   -28.1280     2.2310    58.0470    82.2480    80.2740    75.4810    31.1160 
  167.7500   -28.2230     2.2300    57.7450    75.3960    74.0480    62.6050    31.0920 
  167.8750   -28.3230     2.2250    55.4980    70.5570    69.7220    56.8310    31.0550 
  168.0000   -28.4530     2.2200    52.5990    67.3520    66.8420    53.4140    31.0530 
  168.1250   -28.6370     2.2200    52.3350    66.1350    65.6780    51.2540    31.0820 
  168.2500   -28.8270     2.2200    54.2290    66.7320    66.1650    51.1410    31.0800 
  168.3750   -29.0530     2.2160    57.3500    68.9680    68.2600    53.7150    31.0430 
  168.5000   -29.3100     2.2100    60.3620    72.3050    71.5370    58.0830    31.0190 
  168.6250   -29.5900     2.2080    62.5090    75.7980    75.0890    62.1550    31.0320 
  168.7500   -29.8970     2.2100    63.2250    78.4290    77.7720    65.1390    31.0930 
  168.8750   -30.2460     2.2110    61.0200    79.7350    78.9240    65.1900    31.1370 
  169.0000   -30.6190     2.2100    57.0760    79.9560    78.5810    62.5780    31.1590 
  169.1250   -30.9840     2.2110    57.6460    80.1220    77.5930    60.5780    31.1710 
  169.2500   -31.3770     2.2120    61.3430    81.3880    77.2520    61.8380    31.1560 
  169.3750   -31.7470     2.2110    61.9920    84.4240    78.3230    67.3920    31.0960 
  169.5000   -32.0980     2.2070    58.3710    89.5250    81.1920    75.9680    31.0630 
  169.6250   -32.4630     2.2010    56.2850    96.9480    86.1680    85.7610    31.1130 
  169.7500   -32.8070     2.1960    57.6000   105.9610    92.5980    93.5610    31.2110 
  169.8750   -33.0870     2.1920    59.1600   116.0880    99.9810    97.3160    31.3300 
  170.0000   -33.2970     2.1870    59.5610   126.9320   107.8460    97.6330    31.4820 
  170.1250   -33.4300     2.1790    59.7860   138.4230   115.9270   102.5970    31.6260 
  170.2500   -33.4420     2.1710    57.8740   150.6800   124.2520   111.8790    31.8170 
  170.3750   -33.3480     2.1650    52.9600   164.2000   133.2130   119.2850    32.0310 
  170.5000   -33.1410     2.1600    49.9740   179.5370   143.3180   124.0600    32.2430 
  170.6250   -32.7750     2.1480    53.4620   197.3890   155.1940   131.3400    32.3790 
  170.7500   -32.2840     2.1320    56.9890   217.2530   168.6300   149.9310    32.4540 
  170.8750   -31.7110     2.1150    54.9540   238.3930   183.2910   182.5450    32.5070 
  171.0000   -31.0620     2.1020    50.1460   259.1600   198.1980   224.7630    32.5450 
  171.1250   -30.3540     2.0950    49.4350   275.9620   210.9860   261.0900    32.5590 
  171.2500   -29.6530     2.0920    50.2000   286.5080   219.7660   280.0300    32.6260 
  171.3750   -28.9470     2.0880    51.7140   289.9400   223.5950   284.0030    32.8190 
  171.5000   -28.2630     2.0830    54.3710   287.2660   222.8960   277.5950    33.1860 
  171.6250   -27.6100     2.0760    56.8690   280.1090   218.7430   268.7000    33.4850 
  171.7500   -26.9760     2.0710    56.9330   270.9540   213.0710   258.2150    33.6490 
  171.8750   -26.3650     2.0670    54.0880   260.4820   206.4000   249.3430    33.7300 
  172.0000   -25.7810     2.0620    52.0220   248.6190   198.6340   237.6820    33.8200 
  172.1250   -25.2370     2.0550    51.5380   234.1650   188.8560   218.4910    33.8220 
  172.2500   -24.7260     2.0460    51.4230   216.6740   176.5960   191.7240    33.7370 
  172.3750   -24.2570     2.0370    52.3210   196.6800   161.8740   160.6620    33.6630 
  172.5000   -23.8120     2.0350    53.6130   176.2970   145.9360   133.1220    33.6440 
  172.6250   -23.4070     2.0390    54.5200   159.0070   131.3790   111.9530    33.5960 
  172.7500   -23.0380     2.0430    55.0150   146.2100   119.9620    96.8920    33.5100 
  172.8750   -22.7010     2.0420    55.5650   137.7610   112.0650    95.6230    33.4810 
  173.0000   -22.3800     2.0410    55.6110   132.2240   106.8440   112.8370    33.5170 
  173.1250   -22.0370     2.0440    53.5840   127.3640   102.6840   137.0090    33.5570 
  173.2500   -21.6980     2.0520    52.8790   121.2380    97.8830   152.6080    33.4970 
  173.3750   -21.3760     2.0630    54.7680   113.5000    91.9660   144.8630    33.3720 
  173.5000   -21.0880     2.0740    57.2650   105.0210    85.3740   119.2070    33.2160 
  173.6250   -20.8280     2.0810    57.1990    97.5230    79.2690   100.4700    33.0320 
  173.7500   -20.6040     2.0820    56.5550    91.9880    74.5180    91.5900    32.9330 
  173.8750   -20.4130     2.0810    57.2080    88.6190    71.4390    87.1560    32.9450 
  174.0000   -20.2430     2.0810    58.5230    87.0300    69.8950    82.3720    32.9030 
  174.1250   -20.1300     2.0880    58.4810    86.2970    69.3780    77.5770    32.7640 
  174.2500   -20.0640     2.0990    58.9700    84.6120    68.5220    74.9190    32.5890 
  174.3750   -20.0110     2.1130    60.6290    80.1190    65.7890    73.5630    32.4550 
  174.5000   -19.9520     2.1290    60.6900    71.4280    59.7500    71.1090    32.3110 
  174.6250   -19.9070     2.1480    58.0030    58.4760    49.8150    64.0190    32.1000 
  174.7500   -19.8590     2.1720    56.0560    44.6670    38.6970    51.4730    31.8820 
  174.8750   -19.8100     2.2000    55.8030    32.7040    28.8110    35.9970    31.6580 
  175.0000   -19.7900     2.2270    56.6710    23.9770    21.4720    22.8870    31.4900 
  175.1250   -19.7800     2.2520    59.3450    18.8930    17.0720    15.4800    31.3730 
  175.2500   -19.7570     2.2730    62.7990    16.0890    14.5330    12.3870    31.2680 
  175.3750   -19.7530     2.2860    65.9530    14.8160    13.3000    11.5220    31.1790 
  175.5000   -19.7800     2.2920    68.9500    14.4760    12.9470    11.7980    31.1270 
  175.6250   -19.7960     2.2970    72.1560    14.6030    13.1520    12.4810    31.1020 
  175.7500   -19.8150     2.3050    73.9280    14.7030    13.4620    12.9210    31.0290 
  175.8750   -19.8340     2.3150    73.8730    14.5400    13.6120    13.0010    30.9040 
  176.0000   -19.8370     2.3220    75.3860    14.0690    13.4820    12.7470    30.7640 
  176.1250   -19.8390     2.3250    79.3440    13.4610    13.1360    12.0000    30.5920 
  176.2500   -19.8540     2.3300    81.7210    13.0180    12.8340    11.1840    30.4090 
  176.3750   -19.8770     2.3380    80.9590    12.9070    12.7440    11.0110    30.2490 
  176.5000   -19.8950     2.3480    77.4140    13.1560    12.9240    11.6770    30.1380 
  176.6250   -19.9240     2.3540    72.8430    13.6790    13.3370    12.9110    30.0410 
