~V
VERS. 2.00: Ver 2.00
~W
STRT.M 52.0000:
STOP.M 216.0000:
STEP.M 0.1250:
NULL. -999.2500:
UWI. F11106:
~C
DEPT.M :
DEN.GM/CC :
GR.API :
RML.OHMM :
RI. :
RXO.OHMM :
CALI.CM :
SP.MV :
~A
# ...
  175.7500     2.1920    49.2260   155.9020   126.8680    95.2150    28.3930   -29.0890 
  175.8750     2.1920    46.5870   176.9650   143.9000   135.7030    28.6540   -29.1260 
  176.0000     2.1900    44.2050   196.7950   160.6020   178.4280    28.3020   -29.1800 
  176.1250     2.1910    45.2560   209.5320   172.4880   190.8050    28.0760   -29.2310 
  176.2500     2.1950    48.5790   213.3020   177.4700   195.2170    28.0170   -29.2580 
  176.3750     2.1990    50.1110   210.1980   176.4980   199.9170    28.1320   -29.3270 
  176.5000     2.2030    48.2980   204.9330   173.0430   195.0750    28.1720   -29.4100 
  176.6250     2.2020    45.7730   201.7770   170.8830   181.2620    28.0780   -29.4220 
  176.7500     2.1980    45.3330   201.4270   171.0920   165.7600    27.9810   -29.4890 
  176.8750     2.1920    47.4660   203.0830   173.2110   160.4850    27.9420   -29.5650 
  177.0000     2.1860    50.3770   205.4300   176.3580   171.2350    27.8390   -29.5980 
  177.1250     2.1820    50.3550   206.5880   179.2250   185.4170    27.5900   -29.6970 
  177.2500     2.1800    48.7000   204.9750   180.3060   185.6210    27.3460   -29.8390 
  177.3750     2.1790    47.6060   199.6130   178.2770   175.1360    27.2360   -29.9810 
  177.5000     2.1790    47.8980   190.6840   172.6360   163.0070    27.1820   -30.1340 
  177.6250     2.1780    49.4460   179.3600   163.8840   159.3030    27.0280   -30.3080 
  177.7500     2.1770    52.2920   167.8410   154.2680   145.1040    26.9240   -30.4820 
  177.8750     2.1770    56.2350   157.5580   145.3520   119.1190    26.9490   -30.6370 
  178.0000     2.1780    58.1950   149.8340   138.4730    94.5380    26.8990   -30.8050 
  178.1250     2.1810    57.3970   146.1990   135.1330    90.3480    26.6510   -30.9520 
  178.2500     2.1860    57.6160   145.8910   134.8650    86.0670    26.0300   -31.0910 
  178.3750     2.1940    59.2260   147.8440   136.8200    74.3390    25.0960   -31.2020 
  178.5000     2.2050    58.8740   150.6940   139.7960    67.7540    24.8040   -31.3040 
  178.6250     2.2160    55.6610   153.6450   142.9050    80.6280    25.1610   -31.3620 
  178.7500     2.2250    53.4280   157.2510   146.4090    97.7220    25.8020   -31.3490 
  178.8750     2.2300    51.9960   162.4120   151.0580   117.5720    26.1610   -31.3280 
  179.0000     2.2320    50.1590   168.9850   156.8570   131.5160    26.2710   -31.2420 
  179.1250     2.2300    49.7470   174.6820   162.0340   141.9350    26.1040   -31.0810 
  179.2500     2.2260    50.9040   176.9520   164.3170   142.1460    25.6940   -30.8780 
  179.3750     2.2210    50.4090   175.0230   162.7770   132.2320    25.6690   -30.5880 
  179.5000     2.2160    48.0820   170.2270   158.2510   121.8720    26.2270   -30.2460 
  179.6250     2.2120    46.6380   165.3160   153.0160   121.7810    26.5120   -29.8870 
  179.7500     2.2080    46.5010   162.4530   149.4410   124.6060    26.7140   -29.4730 
  179.8750     2.2050    46.2010   162.3910   148.5280   116.8940    26.8220   -29.0460 
  180.0000     2.2040    45.1520   165.1830   150.4910   110.5330    26.7730   -28.5780 
  180.1250     2.2030    45.1580   170.7350   155.3050   121.3020    26.6030   -28.0470 
  180.2500     2.2020    47.1580   177.5430   161.5610   140.7840    26.5450   -27.4640 
  180.3750     2.2000    50.0690   184.1220   167.9790   158.5520    26.4730   -26.8580 
  180.5000     2.1990    51.7820   188.9330   173.1660   162.2960    26.5080   -26.2330 
  180.6250     2.1980    51.9080   190.5650   175.6580   171.1920    26.6870   -25.5820 
  180.7500     2.2000    51.0930   189.7410   175.7330   170.7920    26.7380   -24.9050 
  180.8750     2.2050    50.2460   187.3490   174.0890   174.7980    26.7680   -24.1790 
  181.0000     2.2140    50.4960   184.2780   171.7130   176.2630    26.7160   -23.4980 
  181.1250     2.2290    51.8170   181.0720   169.3990   165.0180    26.3920   -22.8480 
  181.2500     2.2460    51.4700   177.9610   167.4270   155.2850    26.0750   -22.1910 
  181.3750     2.2620    48.5000   175.1470   165.8330   155.7590    25.8110   -21.6080 
  181.5000     2.2710    46.7600   172.9540   164.7170   153.3540    25.6810   -21.0250 
  181.6250     2.2680    48.8650   171.9030   164.4420   155.5830    25.7730   -20.4520 
  181.7500     2.2580    51.0260   171.9730   165.0750   158.0050    25.9140   -19.9650 
  181.8750     2.2440    50.9970   172.9830   166.4940   161.4510    25.9390   -19.4920 
  182.0000     2.2310    49.9670   174.5460   168.2470   164.1860    26.0080   -19.0340 
  182.1250     2.2220    49.3190   176.1630   169.6170   169.7200    26.1460   -18.6390 
  182.2500     2.2200    48.2620   177.6220   170.3480   167.5970    26.0950   -18.2370 
  182.3750     2.2240    47.9340   179.4710   170.9740   153.3130    25.9170   -17.7800 
  182.5000     2.2380    48.6630   183.1820   172.9730   138.1320    25.7180   -17.3540 
  182.6250     2.2690    48.5320   192.1470   179.7640   122.9670    25.5130   -16.8720 
  182.7500     2.3180    47.5800   210.9030   193.9640   112.8940    25.1040   -16.3160 
  182.8750     2.3850    47.4550   239.5180   217.7440   121.7440    24.4700   -15.7880 
  183.0000     2.4620    47.9900   275.4120   250.3740   204.1140    24.1880   -15.1870 
  183.1250     2.5390    47.1920   310.2380   282.0350   252.6660    23.9640   -14.5060 
  183.2500     2.6030    45.5970   321.1880   291.9890   312.1460    23.7840   -13.8400 
  183.3750     2.6480    44.3580   289.6120   263.2830   380.1380    23.7460   -13.1790 
  183.5000     2.6780    43.4890   219.6110   199.6470   395.1020    23.7280   -12.5060 
  183.6250     2.6910    43.7010   142.0310   129.1190   317.1600    23.5910   -11.8460 
  183.7500     2.6920    47.7130    83.5190    75.9270   273.4370    23.3920   -11.1780 
  183.8750     2.6810    55.3690    47.0870    42.8070   181.0140    23.2570   -10.5000 
  184.0000     2.6570    63.6550    26.8830    24.4390    93.0750    23.2360    -9.8800 
  184.1250     2.6220    69.5050    17.1900    15.6280    18.4510    23.1750    -9.3380 
  184.2500     2.5820    75.0230    12.0050    10.9130     9.0140    23.3740    -8.8600 
  184.3750     2.5450    80.8570     9.3370     8.4880     7.1710    23.4410    -8.4470 
  184.5000     2.5140    84.9640     8.1250     7.3860     7.5010    23.6320    -8.1030 
  184.6250     2.4940    85.4890     7.8710     7.1560     7.3950    23.6780    -7.8710 
  184.7500     2.4830    85.8480     8.0420     7.3110     7.3740    23.7740    -7.7240 
  184.8750     2.4760    87.5420     8.3710     7.6100     7.4040    23.7680    -7.6550 
  185.0000     2.4710    88.7490     8.6750     7.8860     7.2050    23.5330    -7.6200 
  185.1250     2.4660    84.2000     8.8560     8.0510     6.9530    23.3970    -7.5640 
  185.2500     2.4600    76.7670     8.9250     8.1130     6.6980    23.3400    -7.5310 
  185.3750     2.4530    71.9800     8.8680     8.0620     6.6120    23.2220    -7.5100 
  185.5000     2.4460    72.4070     8.7060     7.9140     6.6250    23.2240    -7.4480 
  185.6250     2.4400    77.3850     8.4990     7.7260     6.7490    23.1260    -7.3850 
  185.7500     2.4340    81.4460     8.3110     7.5550     7.0120    22.9830    -7.3220 
  185.8750     2.4290    82.2570     8.1610     7.4190     7.1920    22.7790    -7.2360 
  186.0000     2.4240    80.6830     8.0450     7.3140     7.1400    22.6820    -7.1290 
  186.1250     2.4200    79.6170     7.9530     7.2300     6.9350    22.6820    -7.0080 
  186.2500     2.4160    80.8180     7.8860     7.1700     6.9510    22.7190    -6.8720 
  186.3750     2.4140    81.7910     7.8950     7.1780     7.2400    22.8100    -6.7220 
  186.5000     2.4140    80.6370     8.0370     7.3070     7.5470    22.8700    -6.5540 
  186.6250     2.4160    76.0480     8.3380     7.5800     7.7030    23.0470    -6.3850 
  186.7500     2.4200    72.3040     8.7340     7.9400     8.1570    23.2220    -6.2090 
  186.8750     2.4240    71.4190     9.1550     8.3220     9.1060    23.4090    -5.9920 
