~V
VERS. 2.00: Ver 2.00
~W
STRT.M 63.0000:
STOP.M 219.0000:
STEP.M 0.1250:
NULL. -999.2500:
UWI. F11123:
~C
DEPT.M :
GR.API :
RML.OHMM :
RI. :
RXO.OHMM :
CALI.CM :
SP.MV :
DEN.GM/CC :
~A
# ...
   85.5000    69.8200     8.3990     6.4720     7.3710    25.3200    -8.4090     2.2050 
   85.6250    67.5530     8.3660     6.4050     7.3220    25.2250    -7.9560     2.2050 
   85.7500    67.4930     8.4170     6.4110     7.2950    25.1860    -7.4880     2.2090 
   85.8750    71.9130     8.4600     6.4380     7.1470    25.1250    -6.9590     2.2120 
   86.0000    76.7110     8.4460     6.4460     7.0290    25.0710    -6.3480     2.2120 
   86.1250    79.0160     8.3550     6.4010     7.2930    25.0320    -5.6680     2.2140 
   86.2500    80.6540     8.1900     6.3040     7.0040    25.0000    -4.9240     2.2190 
   86.3750    81.5690     7.9620     6.1680     6.2550    24.9740    -4.1560     2.2280 
   86.5000    82.8910     7.7190     6.0210     5.6890    24.9260    -3.4220     2.2390 
   86.6250    87.2090     7.5410     5.8890     5.4860    24.9440    -2.7790     2.2520 
   86.7500    92.0900     7.4540     5.7800     5.3370    24.9390    -2.2980     2.2640 
   86.8750    92.0990     7.4400     5.6920     5.1170    24.9480    -1.9970     2.2760 
   87.0000    88.4950     7.4500     5.6210     5.0500    24.9430    -1.8770     2.2880 
   87.1250    88.5540     7.4400     5.5750     5.2380    24.9320    -1.9810     2.2990 
   87.2500    92.2880     7.4580     5.5800     5.3570    24.9020    -2.2730     2.3090 
   87.3750    96.6620     7.6040     5.6770     5.4380    24.8910    -2.7560     2.3140 
   87.5000    99.0600     7.9550     5.8990     5.5620    24.8770    -3.4310     2.3110 
   87.6250    96.9260     8.5500     6.2660     5.9430    24.8280    -4.2760     2.2920 
   87.7500    92.2080     9.2470     6.7130     6.5610    24.7920    -5.2150     2.2630 
   87.8750    87.2660     9.8740     7.1580     7.4460    24.7240    -6.1590     2.2310 
   88.0000    83.0520    10.2560     7.4990     8.0080    24.6950    -7.0260     2.2070 
   88.1250    78.2130    10.2670     7.6320     7.9510    24.6420    -7.7430     2.1950 
   88.2500    75.4580    10.0820     7.6020     7.7700    24.6340    -8.2650     2.1920 
   88.3750    77.0780     9.8890     7.4890     7.9030    24.6040    -8.5820     2.1920 
   88.5000    80.4970     9.8120     7.3770     8.1260    24.5920    -8.7180     2.1920 
   88.6250    80.6770     9.8680     7.3310     8.2650    24.6290    -8.6710     2.1900 
   88.7500    77.4160     9.9510     7.3470     8.2690    24.6390    -8.5140     2.1900 
   88.8750    74.9430    10.0070     7.3930     8.2640    24.6380    -8.2450     2.1920 
   89.0000    75.5620    10.0180     7.4290     8.1580    24.6370    -7.8550     2.1950 
   89.1250    78.6630     9.9730     7.4050     7.9590    24.6330    -7.3090     2.1990 
   89.2500    80.4640     9.8360     7.2970     7.8790    24.6410    -6.6480     2.2050 
   89.3750    79.1810     9.5480     7.0930     7.7520    24.6500    -5.9100     2.2140 
   89.5000    76.2690     9.0990     6.7990     7.3440    24.7070    -5.1680     2.2270 
   89.6250    76.2620     8.5960     6.4640     6.6110    24.8340    -4.5200     2.2430 
   89.7500    80.2450     8.2320     6.1920     6.0840    24.9120    -4.0790     2.2620 
   89.8750    85.4000     8.1330     6.0650     5.9290    24.9370    -3.9170     2.2800 
   90.0000    88.9180     8.3550     6.1410     5.9200    24.8890    -4.0630     2.2900 
   90.1250    89.8570     8.9090     6.4630     6.4550    24.8400    -4.5810     2.2790 
   90.2500    88.0710     9.6060     6.9300     7.8480    24.7330    -5.3490     2.2530 
   90.3750    82.5460    10.2460     7.4290     9.4110    24.6510    -6.2900     2.2210 
   90.5000    75.5990    10.6510     7.8300     9.9150    24.5330    -7.3020     2.1960 
   90.6250    73.1340    10.7170     8.0240     9.5890    24.4880    -8.2650     2.1880 
   90.7500    74.8310    10.6070     8.0610     9.2840    24.4790    -9.1030     2.1880 
   90.8750    76.4870    10.4700     8.0160     9.1970    24.4610    -9.7660     2.1920 
   91.0000    76.6560    10.4060     7.9620     9.3330    24.4560   -10.2430     2.1940 
   91.1250    76.4490    10.4220     7.9370     9.4660    24.4550   -10.5310     2.1940 
   91.2500    76.2810    10.4370     7.9160     9.4660    24.4490   -10.6770     2.1940 
   91.3750    74.9270    10.4060     7.8690     9.3510    24.4510   -10.7300     2.1900 
   91.5000    74.2960    10.3280     7.7820     9.2430    24.4470   -10.7180     2.1850 
   91.6250    76.0260    10.2080     7.6550     9.0780    24.4300   -10.6610     2.1780 
   91.7500    78.5950    10.0520     7.5140     8.7810    24.4020   -10.6190     2.1730 
   91.8750    80.8620     9.8690     7.3780     8.4470    24.3940   -10.6210     2.1690 
   92.0000    80.4530     9.6930     7.2640     8.2520    24.3960   -10.6750     2.1670 
   92.1250    75.2450     9.5900     7.1910     8.3590    24.3930   -10.8120     2.1660 
   92.2500    70.1140     9.5810     7.1620     8.4740    24.3920   -11.0120     2.1670 
   92.3750    69.8130     9.6530     7.1730     8.6170    24.3930   -11.2680     2.1680 
   92.5000    73.0040     9.7650     7.2180     8.8100    24.4050   -11.5780     2.1690 
   92.6250    72.9430     9.8740     7.2830     9.0170    24.4710   -11.9020     2.1640 
   92.7500    69.6250     9.9570     7.3480     9.2270    24.6320   -12.2150     2.1540 
   92.8750    65.8770     9.9990     7.4020     9.3210    24.9070   -12.4930     2.1430 
   93.0000    64.2760     9.9850     7.4360     9.5260    25.0270   -12.7020     2.1360 
   93.1250    66.4780     9.9090     7.4460     9.7050    24.8970   -12.8240     2.1380 
   93.2500    71.2400     9.8100     7.4400     9.7500    24.7280   -12.8680     2.1470 
   93.3750    75.3510     9.7370     7.4230     9.6360    24.6540   -12.8370     2.1560 
   93.5000    75.4610     9.7230     7.4020     9.4060    24.6410   -12.7450     2.1620 
   93.6250    72.7490     9.7670     7.3760     9.3040    24.6540   -12.5980     2.1650 
   93.7500    70.8390     9.8170     7.3370     9.3430    24.6750   -12.4510     2.1730 
   93.8750    71.1670     9.8200     7.2720     9.3460    24.7830   -12.3200     2.1790 
   94.0000    73.6240     9.7290     7.1700     9.1630    24.7970   -12.2230     2.1710 
   94.1250    73.4920     9.5230     7.0270     8.7970    24.9930   -12.1890     2.1400 
   94.2500    69.9090     9.2720     6.8780     8.6560    25.2040   -12.2070     2.0990 
   94.3750    66.2550     9.0570     6.7610     8.5500    25.2310   -12.2850     2.0670 
   94.5000    67.5800     8.9440     6.7090     8.2720    25.1760   -12.4360     2.0610 
   94.6250    71.9310     8.9710     6.7500     8.3490    25.0030   -12.6380     2.0920 
   94.7500    72.7520     9.0940     6.8610     9.0000    24.6700   -12.8850     2.1390 
   94.8750    70.2460     9.2680     7.0180     9.6500    24.5000   -13.1630     2.1800 
   95.0000    66.9040     9.4570     7.1870     9.9050    24.4420   -13.4450     2.2050 
   95.1250    64.5340     9.6310     7.3360     9.9060    24.4540   -13.6920     2.2110 
   95.2500    62.7220     9.7600     7.4380     9.9450    24.4560   -13.8690     2.2070 
   95.3750    60.8560     9.8000     7.4720    10.0320    24.4560   -13.9380     2.1950 
   95.5000    57.7480     9.7150     7.4210    10.0190    24.4560   -13.8810     2.1800 
   95.6250    54.7550     9.4960     7.2810     9.8050    24.4550   -13.6280     2.1660 
   95.7500    55.9760     9.2520     7.1090     9.4760    24.4530   -13.2300     2.1610 
   95.8750    59.8030     9.0940     6.9640     9.0730    24.4520   -12.7090     2.1660 
   96.0000    62.9710     9.1120     6.9020     8.6860    24.4390   -12.1060     2.1770 
   96.1250    64.7380     9.3360     6.9780     8.8280    24.4460   -11.4630     2.1850 
   96.2500    66.7630     9.6330     7.1540     9.5120    24.5480   -10.7840     2.1850 
   96.3750    67.6840     9.8740     7.3630    10.0930    24.6260   -10.0700     2.1810 
   96.5000    66.9670     9.9540     7.5140    10.3930    24.6440    -9.2860     2.1830 
   96.6250    67.6670     9.7680     7.4890    10.1860    24.6750    -8.3440     2.1980 
