~V
VERS. 2.00: Ver 2.00
~W
STRT.M 14.0000:
STOP.M 209.0000:
STEP.M 0.1250:
NULL. -999.2500:
UWI. F11100:
~C
DEPT.M :
GR.API :
RML.OHMM :
RI. :
RXO.OHMM :
CALI.CM :
SP.MV :
DEN.GM/CC :
~A
# ...
   92.7500    65.2740     7.7180     5.2670     7.1600    25.6630    -6.1020     2.1060 
   92.8750    63.1040     8.0030     5.4260     7.4960    25.6760    -6.1440     2.1000 
   93.0000    60.5310     8.6760     5.7980     8.0150    25.7170    -6.1150     2.1150 
   93.1250    60.0850    10.1290     6.6020     8.8500    25.7730    -6.0020     2.1740 
   93.2500    62.5860    12.5210     7.9370    10.6060    25.8170    -5.8470     2.2720 
   93.3750    65.0170    15.9410     9.8900    14.8490    25.8620    -5.6650     2.3870 
   93.5000    64.9600    20.1200    12.3800    23.8090    25.9180    -5.5090     2.4910 
   93.6250    64.4980    23.8600    14.8720    31.3210    25.9620    -5.4380     2.5620 
   93.7500    64.6890    25.4420    16.3910    34.8560    25.9870    -5.4970     2.6090 
   93.8750    62.8160    23.9280    16.2540    33.7960    26.0060    -5.7220     2.6320 
   94.0000    59.7660    19.9850    14.5770    29.8110    26.0520    -6.1050     2.6230 
   94.1250    59.1820    15.4600    12.1610    23.4780    26.1710    -6.6810     2.5620 
   94.2500    59.5820    11.8120     9.9300    16.4420    26.3550    -7.3630     2.4640 
   94.3750    58.9480     9.3560     8.1830    11.3420    26.5390    -8.1130     2.3540 
   94.5000    58.1150     7.9680     6.9650     9.0670    26.6580    -8.8590     2.2560 
   94.6250    58.1120     7.4670     6.2730     8.5490    26.6990    -9.5420     2.1940 
   94.7500    58.2500     7.4110     5.9160     8.4050    26.7110   -10.0910     2.1620 
   94.8750    59.6260     7.5510     5.7830     8.2290    26.7170   -10.4810     2.1470 
   95.0000    62.2560     7.6940     5.7630     8.0170    26.7210   -10.6920     2.1330 
   95.1250    64.9100     7.7010     5.7630     7.9000    26.6960   -10.7130     2.1130 
   95.2500    67.1460     7.6050     5.7450     7.6160    26.6350   -10.5700     2.0920 
   95.3750    67.0430     7.5040     5.7340     7.1470    26.5430   -10.2860     2.0790 
   95.5000    63.4310     7.4800     5.7580     6.7010    26.4440    -9.8450     2.0780 
   95.6250    58.5850     7.5270     5.8110     7.4750    26.3650    -9.1960     2.0890 
   95.7500    57.0270     7.5290     5.8320     9.0640    26.3060    -8.3730     2.1040 
   95.8750    59.8910     7.3740     5.7490    11.4710    26.2620    -7.3770     2.1200 
   96.0000    64.7460     6.9970     5.5170    11.2890    26.2350    -6.2560     2.1400 
   96.1250    69.7680     6.4350     5.1350     7.2980    26.2230    -5.0710     2.1700 
   96.2500    74.8570     5.8790     4.7160     5.0690    26.2120    -3.9590     2.2100 
   96.3750    80.7520     5.4720     4.3550     4.4190    26.1990    -3.0260     2.2520 
   96.5000    85.3260     5.2940     4.1190     4.3370    26.1950    -2.3770     2.2840 
   96.6250    89.2770     5.3850     4.0600     4.3770    26.1980    -2.1130     2.2880 
   96.7500    92.7620     5.6460     4.1400     4.5280    26.1510    -2.2000     2.2680 
   96.8750    91.3170     6.0060     4.3290     4.7700    26.0080    -2.5980     2.2350 
   97.0000    83.1080     6.4190     4.5920     5.0700    25.7980    -3.2720     2.2000 
   97.1250    74.2120     6.8800     4.9120     5.4610    25.6300    -4.1540     2.1730 
   97.2500    69.6610     7.3580     5.2540     5.8580    25.5450    -5.1460     2.1560 
   97.3750    68.1280     7.7860     5.5770     6.3500    25.5180    -6.1740     2.1480 
   97.5000    68.1510     8.0600     5.8250     7.1970    25.5220    -7.1820     2.1440 
   97.6250    70.3650     8.0660     5.9290     8.2080    25.5620    -8.1170     2.1420 
   97.7500    72.2940     7.9120     5.9170     8.5440    25.6150    -8.9570     2.1450 
   97.8750    70.8560     7.7790     5.8650     8.1000    25.6530    -9.6560     2.1530 
   98.0000    66.9630     7.8570     5.8780     7.8030    25.6860   -10.1910     2.1630 
   98.1250    64.1670     8.2840     6.0640     8.4160    25.7630   -10.5320     2.1690 
   98.2500    61.9960     8.9320     6.3960     9.9740    25.8800   -10.7350     2.1650 
   98.3750    59.2030     9.6050     6.7840    12.9320    25.9250   -10.8180     2.1550 
   98.5000    57.7860    10.0530     7.0890    16.0750    25.7750   -10.8090     2.1440 
   98.6250    60.6690    10.0090     7.1340    13.4480    25.4700   -10.7420     2.1420 
   98.7500    64.9100     9.5580     6.9250    10.2130    25.2350   -10.6300     2.1460 
   98.8750    66.6310     8.8760     6.5410     8.7290    25.1510   -10.5080     2.1550 
   99.0000    65.7290     8.1720     6.1080     8.2250    25.1620   -10.3740     2.1670 
   99.1250    65.5420     7.6440     5.7620     7.5770    25.1710   -10.2440     2.1780 
   99.2500    67.7310     7.3370     5.5620     7.2720    25.1660   -10.1330     2.1850 
   99.3750    70.2240     7.2560     5.5230     7.5740    25.1510   -10.0650     2.1840 
   99.5000    69.5750     7.3900     5.6300     7.7670    25.1360   -10.0400     2.1740 
   99.6250    65.9560     7.7280     5.8520     8.3650    25.1830   -10.0380     2.1570 
   99.7500    63.5890     8.1380     6.0970     8.9260    25.3230   -10.0230     2.1400 
   99.8750    62.9590     8.4590     6.2760     9.1760    25.5090    -9.9700     2.1270 
  100.0000    64.2090     8.5060     6.2890     9.1660    25.6420    -9.8280     2.1230 
  100.1250    64.7530     8.0910     6.0380     8.9710    25.7120    -9.5350     2.1290 
  100.2500    64.3250     7.3560     5.6000     8.6250    25.8200    -9.0690     2.1410 
  100.3750    65.9250     6.5180     5.0870     7.7240    25.9570    -8.4550     2.1530 
  100.5000    71.2550     5.8110     4.6300     6.0940    26.0360    -7.7650     2.1570 
  100.6250    76.0810     5.5020     4.3880     5.1280    26.0110    -7.0830     2.1490 
  100.7500    75.2880     5.6830     4.4350     5.6640    25.9780    -6.4750     2.1350 
  100.8750    70.9640     6.4480     4.8360     7.1220    26.0220    -5.9200     2.1230 
  101.0000    67.4210     7.8160     5.6200     8.0800    26.1420    -5.4130     2.1280 
  101.1250    66.8890     9.6440     6.7420     8.8350    26.2490    -4.8850     2.1760 
  101.2500    68.1100    11.2700     7.8370    11.8790    26.2850    -4.3100     2.2620 
  101.3750    68.4890    11.9390     8.4640    19.3610    26.3000    -3.6440     2.3490 
  101.5000    69.0400    11.2160     8.3040    22.3610    26.3590    -2.9000     2.3920 
  101.6250    75.8440     9.4150     7.3950    13.3720    26.4400    -2.1020     2.3620 
  101.7500    87.7410     7.6310     6.3210     6.6470    26.4860    -1.3790     2.2970 
  101.8750    97.0070     6.3870     5.4270     4.7580    26.4930    -0.8080     2.2340 
  102.0000    97.5480     5.7870     4.8670     5.0420    26.4900    -0.4380     2.1940 
  102.1250    91.4650     5.7450     4.6880     5.8630    26.4890    -0.2640     2.1830 
  102.2500    85.5160     5.9370     4.7300     5.8790    26.4880    -0.2230     2.1860 
  102.3750    83.9240     6.1630     4.8640     5.1550    26.4820    -0.2550     2.1910 
  102.5000    88.5870     6.2860     4.9770     4.6940    26.4740    -0.3210     2.1940 
  102.6250    94.5730     6.2560     4.9900     4.7770    26.4750    -0.4030     2.1970 
  102.7500    97.0550     6.1560     4.9350     4.8700    26.4850    -0.4850     2.2020 
  102.8750    97.5150     6.0570     4.8640     4.7830    26.4900    -0.5800     2.2110 
  103.0000    97.7910     6.0150     4.8320     4.7930    26.4890    -0.7160     2.2210 
  103.1250    96.1360     6.0950     4.8860     4.9270    26.4840    -0.9540     2.2260 
  103.2500    89.8280     6.2770     5.0080     5.3710    26.4820    -1.2620     2.2220 
  103.3750    80.7040     6.4930     5.1450     6.1760    26.4840    -1.6260     2.2090 
  103.5000    72.4560     6.6090     5.2100     6.6200    26.4880    -2.0140     2.1910 
  103.6250    71.8330     6.4330     5.0890     6.3150    26.4930    -2.4090     2.1770 
  103.7500    77.7840     6.0120     4.8150     5.9650    26.4950    -2.7750     2.1680 
  103.8750    83.8530     5.5670     4.5080     5.3070    26.4960    -3.1190     2.1590 
