~V
VERS. 2.00: Ver 2.00
~W
STRT.M 40.0000:
STOP.M 206.0000:
STEP.M 0.1250:
NULL. -999.2500:
UWI. F11104:
~C
DEPT.M :
GR.API :
RML.OHMM :
RI. :
RXO.OHMM :
CALI.CM :
SP.MV :
DEN.GM/CC :
~A
# ...
  118.7500    65.7550     8.8580     7.9740     8.1320    28.1820    -8.0530     2.4910 
  118.8750    57.1110    11.5200     9.5290    14.1760    28.1840    -7.9970     2.5310 
  119.0000    48.9340    15.2390    11.9800    21.6940    28.1970    -7.9500     2.5420 
  119.1250    46.4180    19.1380    14.8970    24.3300    28.2030    -7.9090     2.5330 
  119.2500    46.5210    21.9180    17.3460    22.9890    28.2080    -7.8660     2.5260 
  119.3750    46.7800    22.9870    18.7470    21.8100    28.2290    -7.8110     2.5270 
  119.5000    45.8860    22.7390    19.1350    21.4280    28.2650    -7.7470     2.5330 
  119.6250    44.7170    22.1020    18.9760    21.3320    28.2880    -7.6950     2.5390 
  119.7500    44.6640    21.7720    18.8110    21.5230    28.2870    -7.6680     2.5410 
  119.8750    45.6920    21.9150    18.8270    21.8740    28.2840    -7.6690     2.5420 
  120.0000    47.5580    22.5460    19.0930    21.7820    28.3030    -7.7030     2.5470 
  120.1250    49.9670    23.6620    19.6540    22.3550    28.3350    -7.7930     2.5600 
  120.2500    51.2980    25.0270    20.4010    23.6780    28.3500    -7.9300     2.5730 
  120.3750    50.0940    26.4170    21.2180    26.6110    28.3490    -8.0880     2.5790 
  120.5000    48.1580    27.6270    21.9860    29.6940    28.3450    -8.2370     2.5800 
  120.6250    48.6900    28.5330    22.6300    28.9400    28.3450    -8.3550     2.5830 
  120.7500    49.3210    29.2690    23.2060    26.5190    28.3550    -8.4560     2.5890 
  120.8750    47.2230    29.9350    23.7600    25.7460    28.4010    -8.5490     2.5970 
  121.0000    43.5000    30.5290    24.2810    28.0980    28.4770    -8.6340     2.6000 
  121.1250    42.0080    30.8810    24.6600    31.3680    28.5100    -8.7080     2.5920 
  121.2500    44.5960    30.9220    24.8420    32.7260    28.5050    -8.7850     2.5800 
  121.3750    48.9620    30.7440    24.8640    30.3770    28.5120    -8.8730     2.5710 
  121.5000    51.5420    30.6120    24.8700    26.6490    28.5520    -8.9800     2.5690 
  121.6250    50.6160    30.8700    25.0640    24.5340    28.5930    -9.0890     2.5760 
  121.7500    48.5280    31.4810    25.4610    27.3610    28.6190    -9.1630     2.5850 
  121.8750    46.0350    32.1640    25.9280    32.7020    28.6400    -9.1840     2.5850 
  122.0000    44.3260    32.5060    26.2370    37.6510    28.6520    -9.1630     2.5690 
  122.1250    45.0780    32.0960    26.1250    35.5010    28.6800    -9.1240     2.5340 
  122.2500    47.2710    31.1350    25.6590    32.5400    28.7290    -9.0920     2.4940 
  122.3750    49.8110    29.9760    25.0120    29.1830    28.7900    -9.0690     2.4610 
  122.5000    51.8060    28.9650    24.3900    25.9530    28.8380    -9.0460     2.4440 
  122.6250    52.0510    28.3220    23.9580    25.5700    28.8470    -9.0240     2.4490 
  122.7500    51.2540    27.9210    23.6860    26.7160    28.8430    -9.0230     2.4650 
  122.8750    51.7040    27.6020    23.4960    26.9020    28.8600    -9.0600     2.4810 
  123.0000    52.0750    27.2380    23.3070    26.3060    28.9130    -9.1390     2.4870 
  123.1250    49.9180    26.7790    23.0680    27.3600    28.9810    -9.2660     2.4760 
  123.2500    48.0050    26.3150    22.8070    27.5260    29.0510    -9.4140     2.4530 
  123.3750    48.3230    25.9820    22.6020    26.1070    29.1190    -9.5690     2.4310 
  123.5000    49.4190    25.8900    22.5340    25.5470    29.1620    -9.7210     2.4230 
  123.6250    50.0470    26.0930    22.6580    26.0400    29.1680    -9.8540     2.4400 
  123.7500    51.8150    26.4400    22.8890    26.5440    29.1630    -9.9800     2.4670 
  123.8750    54.5170    26.7680    23.1280    27.8810    29.1620   -10.1070     2.4900 
  124.0000    56.3380    26.8920    23.2500    30.8030    29.1670   -10.2330     2.4950 
  124.1250    56.7050    26.6280    23.1210    30.0530    29.1720   -10.3610     2.4830 
  124.2500    55.3030    26.0840    22.7940    27.0640    29.1700   -10.4790     2.4690 
  124.3750    53.9370    25.4440    22.3840    24.9740    29.1630   -10.5750     2.4580 
  124.5000    53.2880    24.9240    22.0350    24.3160    29.1590   -10.6220     2.4510 
  124.6250    52.0280    24.7880    21.9230    24.9840    29.1590   -10.6050     2.4430 
  124.7500    50.2410    25.1040    22.1060    25.4330    29.1610   -10.5420     2.4390 
  124.8750    50.3380    25.8900    22.5970    26.0510    29.1660   -10.4620     2.4450 
  125.0000    52.1470    27.0780    23.3590    26.0400    29.1740   -10.4050     2.4660 
  125.1250    51.4640    28.4680    24.2820    26.4970    29.1770   -10.3970     2.4960 
  125.2500    49.6280    29.6340    25.1070    27.9900    29.1690   -10.4290     2.5180 
  125.3750    49.9990    30.1890    25.5800    30.9190    29.1610   -10.4860     2.5240 
  125.5000    51.3430    29.8660    25.5020    34.3610    29.2060   -10.5390     2.5130 
  125.6250    50.0190    28.5810    24.7560    33.9190    29.3620   -10.5640     2.4850 
  125.7500    47.7910    26.8920    23.6660    30.1810    29.5460   -10.5550     2.4490 
  125.8750    47.4490    25.3080    22.5540    27.4150    29.6650   -10.5130     2.4170 
  126.0000    48.2740    24.2460    21.7150    27.5570    29.7030   -10.4670     2.3990 
  126.1250    49.0720    24.0300    21.4080    25.4840    29.6660   -10.4600     2.4050 
  126.2500    49.3920    24.4700    21.5590    24.1230    29.4860   -10.5160     2.4270 
  126.3750    50.3240    25.3160    22.0350    25.1180    29.1590   -10.6330     2.4550 
  126.5000    52.3850    26.2460    22.6430    27.2270    28.8210   -10.8010     2.4770 
  126.6250    55.6430    26.9520    23.1790    29.1620    28.6310   -10.9980     2.4950 
  126.7500    58.4390    27.3940    23.5660    27.9000    28.5460   -11.1790     2.5120 
  126.8750    57.6980    27.6540    23.8160    25.0910    28.5000   -11.3320     2.5280 
  127.0000    54.7320    27.8350    23.9690    24.3990    28.4840   -11.4480     2.5360 
  127.1250    54.0850    27.9750    24.0490    26.7450    28.4920   -11.5210     2.5350 
  127.2500    56.0390    28.0450    24.0730    29.0110    28.5010   -11.5890     2.5280 
  127.3750    57.9730    27.9840    24.0220    29.0360    28.5000   -11.6720     2.5180 
  127.5000    57.4030    27.7660    23.8790    28.1800    28.4960   -11.7750     2.5050 
  127.6250    55.4240    27.4460    23.6540    28.9340    28.4980   -11.8930     2.4890 
  127.7500    54.4160    27.1860    23.4380    31.8120    28.5010   -12.0010     2.4720 
  127.8750    53.0070    27.0980    23.3110    30.8710    28.5020   -12.0750     2.4560 
  128.0000    50.3350    27.2220    23.3160    27.3990    28.5020   -12.0950     2.4470 
  128.1250    47.8260    27.5120    23.4490    24.0290    28.5000   -12.0380     2.4450 
  128.2500    49.3360    27.7570    23.5850    23.2150    28.4580   -11.9200     2.4470 
  128.3750    53.2510    27.7300    23.5730    25.8430    28.3370   -11.7650     2.4500 
  128.5000    54.4570    27.2140    23.2560    29.2920    28.1600   -11.5980     2.4550 
  128.6250    52.9880    26.0460    22.4970    28.0080    28.0260   -11.4600     2.4640 
  128.7500    52.6260    24.5430    21.4850    26.1630    27.9760   -11.3530     2.4770 
  128.8750    53.1810    23.0940    20.4640    24.5990    27.9780   -11.2610     2.4930 
  129.0000    52.5800    22.0800    19.6840    23.2130    27.9870   -11.1610     2.5080 
  129.1250    50.4100    21.8080    19.3730    22.6800    27.9860   -11.0340     2.5200 
  129.2500    49.2180    22.0990    19.4540    22.9590    27.9790   -10.8840     2.5270 
  129.3750    48.4060    22.7160    19.8030    25.7710    27.9710   -10.7220     2.5300 
  129.5000    46.1440    23.3860    20.2530    28.3540    27.9710   -10.5690     2.5330 
  129.6250    43.2590    23.8750    20.6450    25.8370    27.9750   -10.4680     2.5390 
  129.7500    43.6290    24.1350    20.9020    23.5810    27.9790   -10.4420     2.5470 
  129.8750    46.9960    24.1800    20.9990    23.3600    27.9800   -10.4990     2.5500 
