~V
VERS. 2.00: Ver 2.00
~W
STRT.M 51.0000:
STOP.M 277.0000:
STEP.M 0.1250:
NULL. -999.2500:
UWI. F11147:
~C
DEPT.M :
DEN.GM/CC :
GR.API :
RML.OHMM :
RI. :
RXO.OHMM :
CALI.CM :
SP.MV :
~A
   51.0000  -999.2500    40.1480   400.0900     0.4410     0.7860    25.3580    38.3210 
   51.1250  -999.2500    40.1480   400.0900     0.4410     0.7860    25.3580    36.1890 
   51.2500  -999.2500    39.4290   361.0020     0.4370     1.0130    25.3600    34.3440 
   51.3750  -999.2500    40.1260   431.7250     0.4410     1.2490    25.3600    33.0080 
   51.5000  -999.2500    43.3240   733.9700     0.4470     1.2320    25.3580    32.2630 
   51.6250  -999.2500    45.6980  1938.3120     0.4540     1.1580    25.3550    32.0720 
   51.7500  -999.2500    45.7390 10899.2220     0.4650     1.0390    25.3530    32.2750 
   51.8750  -999.2500    44.5240 252202.8750     0.4760     0.9550    25.3450    32.6320 
   52.0000  -999.2500    43.4700 252202.8750     0.4740     0.9210    25.3210    32.9680 
   52.1250  -999.2500    43.0300 252202.8750     0.4530     1.0980    25.2970    33.2490 
   52.2500  -999.2500    44.1030 252202.8750     0.4250     1.2900    25.2870    33.6060 
   52.3750  -999.2500    46.1930 252202.8750     0.4170     1.3890    25.2900    34.2440 
   52.5000  -999.2500    46.2350 252202.8750     0.4360     1.3830    25.2900    35.0710 
   52.6250  -999.2500    43.9380 252202.8750     0.4670     1.2580    25.2870    36.1590 
   52.7500  -999.2500    41.4040   773.6360     0.4850     1.1830    25.2840    37.5430 
   52.8750  -999.2500    41.2500   122.3710     0.4770     1.2680    25.2740    39.3550 
   53.0000  -999.2500    43.4650    42.7510     0.4610     1.3880    25.2530    41.3790 
   53.1250  -999.2500    45.7940    23.3150     0.4610     1.5220    25.2290    43.4710 
   53.2500  -999.2500    47.1470    17.8930     0.4850     1.7130    25.2140    45.4710 
   53.3750  -999.2500    47.9230    20.0530     0.5210     1.5960    25.1970    47.2270 
   53.5000  -999.2500    46.2870    31.3900     0.5450     0.9420    25.1630    48.7850 
   53.6250  -999.2500    42.1420    70.6070     0.5560     0.3990    25.1210    50.0640 
   53.7500  -999.2500    39.0500   259.7800     0.5660     0.3060    25.0740    51.0070 
   53.8750  -999.2500    40.2000 64395.5160     0.5820     0.5250    25.0560    51.5820 
   54.0000  -999.2500    43.4380 252202.8750     0.5920     0.8580    25.0580    52.0110 
   54.1250  -999.2500    45.0810 252202.8750     0.5820     1.0350    25.0640    52.3570 
   54.2500  -999.2500    43.0490   246.9360     0.5460     1.0940    25.0690    52.6850 
   54.3750  -999.2500    39.8920    34.9090     0.4990     1.1400    25.0520    53.0620 
   54.5000  -999.2500    40.1030    10.2970     0.4700     1.1190    25.0320    53.4300 
   54.6250  -999.2500    42.0280     4.3930     0.4790     1.0910    25.0200    53.7570 
   54.7500  -999.2500    41.9900     2.4640     0.5300     1.2650    25.0000    54.1320 
   54.8750  -999.2500    41.3260     2.2380     0.6040     1.5100    24.9850    54.5440 
   55.0000  -999.2500    42.0830     3.3640     0.6590     1.5140    24.9780    54.9280 
   55.1250  -999.2500    43.2210     5.5470     0.6660     1.3910    24.9790    55.3360 
   55.2500     2.0350    43.7430     5.6060     0.6190     0.9930    24.9800    55.7550 
   55.3750     2.0350    45.6520     3.8340     0.5380     0.7140    24.9660    56.1420 
   55.5000     2.0350    47.2260     2.9200     0.4680     0.6040    24.9390    56.5520 
   55.6250     2.0360    46.3900     2.8220     0.4310     0.6040    24.9190    57.0860 
   55.7500     2.0360    44.2360     3.5140     0.4280     0.6120    24.9020    57.7020 
   55.8750     2.0340    43.4380     5.8270     0.4410     0.6140    24.8830    58.4170 
   56.0000     2.0330    44.4290    10.2970     0.4500     0.6160    24.8720    59.2380 
   56.1250     2.0340    45.5320    12.6270     0.4500     0.6130    24.8770    60.1360 
   56.2500     2.0330    47.2040     9.2140     0.4440     0.6130    24.8900    61.1200 
   56.3750     2.0280    52.1040     6.4200     0.4420     0.6160    24.9060    62.1720 
   56.5000     2.0190    57.6630     5.5570     0.4500     0.6220    24.9070    63.1900 
   56.6250     2.0040    61.9150     6.2270     0.4650     0.6250    24.8920    64.0790 
   56.7500     1.9840    62.7450     9.1150     0.4800     0.6250    24.8670    64.7030 
   56.8750     1.9660    60.4130    18.2380     0.4850     0.6120    24.8440    64.8830 
   57.0000     1.9580    57.4470    22.0240     0.4810     0.5950    24.8140    64.7370 
   57.1250     1.9610    53.8360    10.7800     0.4680     0.5770    24.7640    64.2740 
   57.2500     1.9680    50.6250     4.6090     0.4510     0.5670    24.7160    63.4950 
   57.3750     1.9760    50.2450     3.1500     0.4380     0.5650    24.6930    62.4300 
   57.5000     1.9860    50.5200     2.8980     0.4320     0.5690    24.6850    61.2700 
   57.6250     2.0020    48.4690     3.2010     0.4320     0.5700    24.6850    60.1150 
   57.7500     2.0240    45.2240     3.3630     0.4350     0.5690    24.6880    59.1000 
   57.8750     2.0410    44.0200     2.5530     0.4320     0.5700    24.6940    58.2990 
   58.0000     2.0430    44.6420     1.6240     0.4180     0.5710    24.6990    57.6450 
   58.1250     2.0330    45.7570     1.1130     0.3950     0.5740    24.6950    57.1730 
   58.2500     2.0230    46.0460     0.9690     0.3720     0.5710    24.6870    56.8480 
   58.3750     2.0250    46.0290     1.0790     0.3620     0.5630    24.6920    56.5410 
   58.5000     2.0300    46.5900     1.2370     0.3620     0.5580    24.7030    56.1770 
   58.6250     2.0340    47.4740     1.2230     0.3700     0.5590    24.7070    55.7520 
   58.7500     2.0400    47.7710     1.0310     0.3800     0.5680    24.6950    55.3160 
   58.8750     2.0530    47.8650     0.9100     0.3930     0.5780    24.6380    54.9670 
   59.0000     2.0640    48.8760     0.9800     0.4170     0.5860    24.6050    54.7030 
   59.1250     2.0680    48.2040     1.3320     0.4510     0.5820    24.6360    54.4980 
   59.2500     2.0610    45.8220     2.2340     0.4860     0.5770    24.7130    54.4130 
   59.3750     2.0490    47.7320     4.7200     0.5050     0.5800    24.7500    54.5410 
   59.5000     2.0380    53.0380     8.2310     0.5000     0.5880    24.7440    54.8340 
   59.6250     2.0280    56.8610     8.4470     0.4760     0.5930    24.7120    55.2500 
   59.7500     2.0150    56.7580     6.0180     0.4440     0.5900    24.6750    55.7250 
   59.8750     2.0020    56.1070     4.6720     0.4230     0.5790    24.6160    56.1660 
   60.0000     1.9990    57.2460     4.3220     0.4160     0.5670    24.4510    56.4940 
   60.1250     2.0090    56.9760     4.5680     0.4190     0.5600    24.1540    56.6620 
   60.2500     2.0260    54.1360     4.6710     0.4250     0.5600    23.8720    56.5980 
   60.3750     2.0400    52.2770     3.6010     0.4280     0.5600    23.7140    56.2250 
   60.5000     2.0480    53.3370     2.3150     0.4240     0.5570    23.6220    55.5780 
   60.6250     2.0600    55.2910     1.5040     0.4150     0.5530    23.5640    54.6610 
   60.7500     2.0830    57.0670     1.1530     0.4060     0.5540    23.5570    53.5460 
   60.8750     2.1090    58.6600     1.2060     0.4020     0.5690    23.6780    52.3040 
   61.0000     2.1270    59.1370     1.6740     0.4040     0.5960    23.8550    51.0370 
   61.1250     2.1350    57.3910     2.8870     0.4070     0.6210    23.9630    49.7760 
   61.2500     2.1350    55.0420     5.5120     0.4100     0.7220    23.9460    48.5530 
   61.3750     2.1330    55.5410    10.1170     0.4130     0.7630    23.7430    47.3560 
   61.5000     2.1300    57.4890    14.0000     0.4150     0.7100    23.3530    46.0940 
   61.6250     2.1280    57.1570    11.4050     0.4130     0.6290    22.9270    44.6670 
   61.7500     2.1330    53.5910     4.6200     0.4030     0.6210    22.6230    42.9140 
   61.8750     2.1590    49.8240     1.6250     0.3670     0.6480    22.4820    40.5240 
   62.0000     2.2100    49.4560     0.5690     0.3040     0.7100    22.3540    37.4020 
   62.1250     2.2840    52.1290     0.2020     0.2280     0.8110    22.1720    33.4240 
