~V
VERS. 2.00: Ver 2.00
~W
STRT.M 63.0000:
STOP.M 219.0000:
STEP.M 0.1250:
NULL. -999.2500:
UWI. F11123:
~C
DEPT.M :
GR.API :
RML.OHMM :
RI. :
RXO.OHMM :
CALI.CM :
SP.MV :
DEN.GM/CC :
~A
# ...
  119.2500    74.8010     9.2730     7.3410     8.3430    24.6640    -0.5760     2.4120 
  119.3750    75.7430     9.1410     7.3850     7.1010    24.6280    -0.2390     2.3830 
  119.5000    75.1950     8.6260     7.1780     6.6830    24.6880     0.0130     2.3440 
  119.6250    70.3370     8.0810     6.9080     7.2110    24.6700     0.2450     2.3250 
  119.7500    66.9990     7.9940     6.8550     7.3650    24.6260     0.4640     2.3350 
  119.8750    67.1840     8.7230     7.2370     7.6510    24.5520     0.7080     2.3660 
  120.0000    68.6540    10.4190     8.1950     9.5710    24.5150     0.9980     2.4090 
  120.1250    68.0930    12.9770     9.7920    11.0260    24.5450     1.3060     2.4580 
  120.2500    66.2700    15.4990    11.5650    13.8740    24.6440     1.6060     2.5030 
  120.3750    63.1910    16.8590    12.7800    19.4050    24.7700     1.8760     2.5290 
  120.5000    59.3220    16.2010    12.6980    19.9790    24.8590     2.0930     2.5190 
  120.6250    58.8110    13.8390    11.2790    14.5170    24.8910     2.2540     2.4660 
  120.7500    63.4290    11.5940     9.7130     9.1380    24.9400     2.3550     2.4030 
  120.8750    69.2160    10.5080     8.7320     7.0020    24.9550     2.4130     2.3600 
  121.0000    69.1770    11.0940     8.7230     7.3610    24.9340     2.4530     2.3570 
  121.1250    62.3470    14.0210    10.2100    11.5380    24.8970     2.4840     2.4050 
  121.2500    55.8530    19.0830    13.2670    20.4530    24.8850     2.5380     2.4770 
  121.3750    50.9910    25.8270    17.8610    29.4770    24.8880     2.5910     2.5480 
  121.5000    48.1860    32.7990    23.2160    30.8620    24.8770     2.6170     2.5970 
  121.6250    47.1950    37.1160    27.2490    30.5700    24.8830     2.6030     2.6200 
  121.7500    46.9880    37.9150    28.7830    29.4980    24.8830     2.5320     2.6230 
  121.8750    46.7150    36.2770    28.2790    26.6930    24.8910     2.4140     2.6080 
  122.0000    47.5220    33.9780    26.9620    24.7540    24.9000     2.2730     2.5780 
  122.1250    49.7590    32.2620    25.8010    24.7170    24.9430     2.0910     2.5390 
  122.2500    51.4150    31.2390    25.0230    24.6230    24.9690     1.9210     2.5030 
  122.3750    52.5520    30.7500    24.5700    23.3860    25.0080     1.7830     2.4730 
  122.5000    52.4930    30.5600    24.3140    22.4270    25.0350     1.6840     2.4460 
  122.6250    49.8570    30.3310    24.0680    21.7340    25.0630     1.6590     2.4240 
  122.7500    47.0550    29.7840    23.6610    20.7590    25.0960     1.6780     2.4130 
  122.8750    46.2090    28.8090    23.0220    19.9820    25.1030     1.7480     2.4170 
  123.0000    47.2660    27.4550    22.1570    19.2110    25.0300     1.8600     2.4370 
  123.1250    48.3040    25.9520    21.1500    18.2280    24.8210     2.0070     2.4670 
  123.2500    48.3770    24.6730    20.2330    17.5660    24.8260     2.1920     2.4910 
  123.3750    46.7910    23.9080    19.6160    16.9060    24.8630     2.3930     2.5060 
  123.5000    44.3780    23.8290    19.4520    15.9900    24.8770     2.6040     2.5150 
  123.6250    43.3560    24.5800    19.8960    16.0850    24.8790     2.8250     2.5270 
  123.7500    43.8090    25.9080    20.8140    17.3530    24.8760     3.0240     2.5450 
  123.8750    43.7570    27.5320    22.0340    19.5420    24.8480     3.1880     2.5650 
  124.0000    42.8500    29.0350    23.2540    21.1040    24.8250     3.3210     2.5850 
  124.1250    43.2300    29.8070    23.9970    22.4940    24.8210     3.3980     2.6040 
  124.2500    44.5370    29.6310    24.0440    23.3360    24.8190     3.4360     2.6120 
  124.3750    45.8980    28.5370    23.3840    22.7740    24.8160     3.4490     2.6050 
  124.5000    47.1080    26.8410    22.2270    21.2530    24.8140     3.4370     2.5840 
  124.6250    46.9550    25.0450    20.9260    18.6700    24.8140     3.4150     2.5570 
  124.7500    46.5850    23.6120    19.8330    17.0350    24.8160     3.3790     2.5380 
  124.8750    47.1620    22.7710    19.1290    16.2500    24.8130     3.3260     2.5320 
  125.0000    48.2560    22.5780    18.8810    16.8670    24.8190     3.2390     2.5390 
  125.1250    48.1870    22.9820    19.1090    17.5330    24.8230     3.1470     2.5550 
  125.2500    47.1560    23.6350    19.5930    18.3920    24.8260     3.0400     2.5710 
  125.3750    45.7020    24.2990    20.1600    19.5580    24.8240     2.9340     2.5870 
  125.5000    45.3380    24.8150    20.6620    21.4400    24.8370     2.8660     2.6010 
  125.6250    48.7500    25.1060    21.0060    20.3450    24.8660     2.8530     2.6130 
  125.7500    52.4630    25.2460    21.2140    20.0740    24.8750     2.8890     2.6210 
  125.8750    51.5230    25.2570    21.2880    19.8730    24.8800     2.9740     2.6230 
  126.0000    47.0910    25.1020    21.2060    20.4610    24.8830     3.0790     2.6210 
  126.1250    44.2720    24.6650    20.8880    21.4340    24.8780     3.1810     2.6150 
  126.2500    44.9830    23.9490    20.3440    20.8320    24.8760     3.2550     2.6100 
  126.3750    47.6210    23.0510    19.6450    18.0450    24.8780     3.3020     2.6040 
  126.5000    49.3470    22.2060    18.9620    16.2750    24.8820     3.3210     2.5960 
  126.6250    47.2940    21.7810    18.5560    16.1750    24.8730     3.3040     2.5860 
  126.7500    43.6090    21.8990    18.5280    17.0790    24.8730     3.2960     2.5800 
  126.8750    43.0360    22.5400    18.8860    18.3650    24.8350     3.2940     2.5800 
  127.0000    45.6430    23.5120    19.5270    20.3010    24.8150     3.3070     2.5840 
  127.1250    47.6300    24.4540    20.2340    20.9840    24.8000     3.3420     2.5870 
  127.2500    47.4960    25.0470    20.7660    19.9600    24.7750     3.3510     2.5880 
  127.3750    45.7720    25.1910    21.0250    19.1160    24.7830     3.3100     2.5890 
  127.5000    44.6670    24.9730    21.0310    19.9040    24.7610     3.2260     2.5890 
  127.6250    44.7070    24.5810    20.8740    20.9420    24.7390     3.0670     2.5800 
  127.7500    45.4030    24.2370    20.7000    20.6760    24.7290     2.8740     2.5610 
  127.8750    45.1520    24.0300    20.5770    19.7720    24.6950     2.6620     2.5390 
  128.0000    43.1100    23.9920    20.5360    19.6380    24.6000     2.4510     2.5240 
  128.1250    41.5960    24.1330    20.6000    19.8450    24.5830     2.2960     2.5280 
  128.2500    42.8880    24.3840    20.7450    20.1320    24.5970     2.1810     2.5450 
  128.3750    45.4820    24.6620    20.9380    20.4960    24.5890     2.1110     2.5650 
  128.5000    47.0730    24.8560    21.1200    21.0530    24.5890     2.0870     2.5780 
  128.6250    48.0120    24.8130    21.1830    21.4980    24.6600     2.0930     2.5790 
  128.7500    48.2550    24.5290    21.0780    20.8840    24.7760     2.1470     2.5710 
  128.8750    47.1320    24.0830    20.8130    20.3310    24.8260     2.2270     2.5580 
  129.0000    45.8000    23.5920    20.4530    20.0250    24.8280     2.3120     2.5460 
  129.1250    46.5290    23.1890    20.1070    18.7400    24.8240     2.4070     2.5370 
  129.2500    48.0640    22.9620    19.8910    17.8600    24.8260     2.5060     2.5290 
  129.3750    48.9670    22.9680    19.8760    17.9640    24.8250     2.6040     2.5160 
  129.5000    49.8700    23.2020    20.0680    18.3260    24.8250     2.6940     2.4980 
  129.6250    49.5270    23.5670    20.3880    18.8370    24.8170     2.7620     2.4810 
  129.7500    47.9800    23.8400    20.6640    18.2980    24.8140     2.8130     2.4740 
  129.8750    47.8780    23.8190    20.7550    18.5820    24.8000     2.8640     2.4750 
  130.0000    51.2690    23.3730    20.5550    18.8370    24.7070     2.9260     2.4790 
  130.1250    53.8380    22.5400    20.0240    17.7090    24.6450     3.0040     2.4760 
  130.2500    52.4810    21.6500    19.3590    16.1900    24.6020     3.0760     2.4670 
  130.3750    49.0130    20.9470    18.7390    15.6450    24.5460     3.1450     2.4640 
