~V
VERS. 2.00: Ver 2.00
~W
STRT.M 56.0000:
STOP.M 252.0000:
STEP.M 0.1250:
NULL. -999.2500:
UWI. F11142:
~C
DEPT.M :
SP.MV :
DEN.GM/CC :
GR.API :
RML.OHMM :
RI. :
RXO.OHMM :
CALI.CM :
~A
# ...
  224.7500   -13.0460     2.3590    96.5600     7.7590     6.2470     7.9950    24.6100 
  224.8750   -13.4460     2.3690    99.4940     8.0600     6.5950     8.6650    24.3610 
  225.0000   -13.7940     2.3870   100.1030     8.2120     6.8350     8.9320    24.2070 
  225.1250   -14.0350     2.3980   100.0210     8.2400     6.9570     8.9550    24.2450 
  225.2500   -14.2210     2.3910    98.8980     8.1900     6.9760     8.8500    24.3000 
  225.3750   -14.3980     2.3700    97.8600     8.1140     6.9310     8.7220    24.3450 
  225.5000   -14.5690     2.3610    99.8080     8.0540     6.8650     8.6250    24.4250 
  225.6250   -14.6670     2.3730   103.8590     8.0180     6.8100     8.5520    24.4460 
  225.7500   -14.6870     2.3920   108.3660     8.0000     6.7740     8.5050    24.4100 
  225.8750   -14.6850     2.3930   112.9440     7.9950     6.7600     8.5220    24.4170 
  226.0000   -14.7340     2.3700   116.7690     7.9990     6.7680     8.5550    24.5040 
  226.1250   -14.8830     2.3410   117.9330     8.0080     6.7870     8.5400    24.4790 
  226.2500   -15.1020     2.3160   117.2940     8.0220     6.8150     8.5000    24.4720 
  226.3750   -15.3750     2.2910   117.0200     8.0410     6.8460     8.4980    24.6630 
  226.5000   -15.7090     2.2670   117.5740     8.0720     6.8830     8.5490    24.8060 
  226.6250   -16.0550     2.2520   117.6450     8.1340     6.9390     8.6790    24.8670 
  226.7500   -16.3650     2.2550   117.4510     8.2660     7.0380     8.8330    24.8450 
  226.8750   -16.5650     2.2750   118.7670     8.5050     7.2140     8.8790    24.7890 
  227.0000   -16.6490     2.3010   119.8630     8.8780     7.4980     8.8460    24.7500 
  227.1250   -16.6560     2.3120   119.5370     9.3020     7.8390     9.0490    24.8270 
  227.2500   -16.5950     2.2990   118.2080     9.6680     8.1520     9.6200    24.9300 
  227.3750   -16.4490     2.2760   116.0680     9.8630     8.3370    10.4640    25.0030 
  227.5000   -16.1790     2.2710   114.9910     9.8040     8.2880    11.0380    24.9980 
  227.6250   -15.8750     2.2900   116.3770     9.6260     8.0830    10.8580    24.9410 
  227.7500   -15.6450     2.3200   118.5390     9.5480     7.8750    10.0220    24.8480 
  227.8750   -15.6310     2.3440   117.6830     9.8450     7.8780     9.5350    24.7450 
  228.0000   -15.9210     2.3470   113.2640    10.9110     8.4050    10.7030    24.6860 
  228.1250   -16.3360     2.3290   107.6190    12.8080     9.5810    12.8690    24.7020 
  228.2500   -16.7970     2.2970   100.4400    15.5400    11.5110    15.7260    24.7480 
  228.3750   -17.3950     2.2650    93.1950    18.9340    14.1830    19.1180    24.7770 
  228.5000   -18.1870     2.2460    88.6840    22.5750    17.4210    23.0190    24.6880 
  228.6250   -18.9850     2.2370    85.5050    25.8010    20.6360    26.8360    24.4650 
  228.7500   -19.6960     2.2370    81.9240    28.0880    23.2790    30.2600    24.2320 
  228.8750   -20.2450     2.2400    79.3480    29.1640    24.9320    31.3550    24.2350 
  229.0000   -20.5150     2.2430    79.4640    29.0870    25.4270    30.0860    24.4080 
  229.1250   -20.6150     2.2440    79.4020    28.6510    25.3800    29.4510    24.5230 
  229.2500   -20.6270     2.2470    77.9020    28.4240    25.2960    29.4550    24.5900 
  229.3750   -20.5080     2.2510    76.3570    28.7570    25.5530    29.9000    24.6920 
  229.5000   -20.2440     2.2530    76.0300    29.8350    26.4240    32.6100    24.7970 
  229.6250   -19.9650     2.2510    75.8330    31.3860    27.7810    35.5400    24.8410 
  229.7500   -19.6990     2.2470    75.5030    33.1100    29.4280    37.7320    24.8660 
  229.8750   -19.4090     2.2430    76.4250    34.5900    31.0360    38.9120    24.8810 
  230.0000   -19.0930     2.2360    79.0080    35.0930    31.9660    39.9880    24.7360 
  230.1250   -18.7290     2.2270    80.3520    34.2380    31.7470    40.9160    24.4680 
  230.2500   -18.3040     2.2210    80.1590    31.9210    30.1450    40.6020    24.3030 
  230.3750   -17.7800     2.2260    82.0220    28.5330    27.3680    39.4530    24.4240 
  230.5000   -17.2320     2.2490    90.5810    24.9440    24.0780    35.5210    24.5240 
  230.6250   -16.6630     2.2810   101.9320    22.0510    21.1810    27.6940    24.5150 
  230.7500   -16.1300     2.3060   111.6580    20.2420    19.1410    20.9970    24.5130 
  230.8750   -15.6130     2.3120   117.1920    19.5510    18.0980    19.7810    24.5380 
  231.0000   -15.1180     2.3090   117.4790    19.9660    18.1430    21.5820    24.5440 
  231.1250   -14.7250     2.3090   113.9080    21.1160    18.9930    23.2150    24.5300 
  231.2500   -14.3590     2.3080   109.1190    22.8030    20.5080    24.4830    24.5410 
  231.3750   -14.0870     2.3000   106.8350    24.7720    22.4720    25.2510    24.5710 
  231.5000   -13.7310     2.2890   107.7920    26.6090    24.5320    27.1150    24.6270 
  231.6250   -13.3360     2.2850   108.4430    27.8600    26.1970    31.0360    24.6770 
  231.7500   -12.8950     2.2940   106.7860    28.1270    27.0200    36.4970    24.7240 
  231.8750   -12.3470     2.3230   102.9010    27.1420    26.6370    38.5170    24.6920 
  232.0000   -11.7490     2.3680    99.9380    24.7190    24.7050    32.4690    24.6320 
  232.1250   -11.0990     2.4040    99.1780    21.4540    21.7320    24.2400    24.5350 
  232.2500   -10.4310     2.4130    99.2480    17.8850    18.2550    19.6520    24.4200 
  232.3750    -9.7600     2.3990    96.9360    14.5330    14.8550    16.8340    24.1560 
  232.5000    -9.1950     2.3800    89.5950    11.8790    12.0770    13.0340    23.8990 
  232.6250    -8.6980     2.3660    81.0370     9.9570    10.0090     9.7070    23.7970 
  232.7500    -8.2820     2.3620    73.7760     8.7330     8.6290     7.9720    23.8020 
  232.8750    -8.0750     2.3670    69.3750     8.1030     7.8500     7.5540    23.8300 
  233.0000    -7.9700     2.3770    68.7080     7.9860     7.6240     7.7380    23.9070 
  233.1250    -7.8610     2.3870    70.1460     8.1490     7.7370     8.0470    23.8920 
  233.2500    -7.8450     2.3990    72.0910     8.4570     8.0570     8.4440    23.7720 
  233.3750    -7.8800     2.4110    73.9940     8.7970     8.4540     8.9300    23.6620 
  233.5000    -7.8660     2.4190    75.0660     9.0690     8.8020     9.3990    23.6400 
  233.6250    -7.8120     2.4220    74.2680     9.2440     9.0420     9.7080    23.6500 
  233.7500    -7.7000     2.4200    72.4850     9.3300     9.1630     9.8330    23.6760 
  233.8750    -7.5070     2.4170    72.3340     9.3540     9.1870     9.7890    23.7260 
  234.0000    -7.2920     2.4190    73.2060     9.3650     9.1500     9.6360    23.8290 
  234.1250    -7.1040     2.4270    71.5730     9.4050     9.1020     9.4700    23.9210 
  234.2500    -6.9210     2.4340    67.6100     9.4890     9.0690     9.3350    23.9910 
  234.3750    -6.7500     2.4300    64.4160     9.6050     9.0600     9.2430    24.0320 
  234.5000    -6.5430     2.4130    64.5590     9.7220     9.0750     9.2250    24.1310 
  234.6250    -6.2440     2.4030    65.8490     9.8080     9.0960     9.0860    24.2120 
  234.7500    -5.9590     2.4090    66.7260     9.8540     9.1080     8.9550    24.2350 
  234.8750    -5.8410     2.4280    67.7150     9.8660     9.1010     9.0360    24.2240 
  235.0000    -5.8070     2.4450    69.3900     9.8530     9.0680     9.3650    24.2420 
  235.1250    -5.7620     2.4530    69.7530     9.8220     9.0160     9.5280    24.2910 
  235.2500    -5.7110     2.4550    67.8380     9.7720     8.9560     9.4960    24.3280 
  235.3750    -5.6640     2.4580    65.6490     9.7060     8.8980     9.4250    24.3270 
  235.5000    -5.7200     2.4640    65.1590     9.6430     8.8530     9.4280    24.3800 
  235.6250    -5.9300     2.4720    64.7070     9.6000     8.8240     9.5690    24.4800 
  235.7500    -6.1980     2.4750    63.9700     9.5830     8.8090     9.6530    24.6240 
  235.8750    -6.3600     2.4700    64.8320     9.5880     8.8010     9.6290    24.7160 
