~V
VERS. 2.00: Ver 2.00
~W
STRT.M 51.0000:
STOP.M 277.0000:
STEP.M 0.1250:
NULL. -999.2500:
UWI. F11147:
~C
DEPT.M :
DEN.GM/CC :
GR.API :
RML.OHMM :
RI. :
RXO.OHMM :
CALI.CM :
SP.MV :
~A
# ...
   96.0000     2.1800    65.9400     8.4070     7.1350    10.7220    25.3580   -32.3420 
   96.1250     2.1250    64.4320     8.4020     6.7900    10.6650    26.2720   -32.2100 
   96.2500     2.0870    61.1240     8.5290     6.7280    10.5580    26.2520   -31.7990 
   96.3750     2.0690    60.2870     8.4090     6.6770    10.4810    25.7580   -31.0680 
   96.5000     2.0580    63.7420     8.0110     6.4900     9.7550    25.5500   -30.0930 
   96.6250     2.0620    69.8930     7.4930     6.1980     8.2060    25.3110   -28.9810 
   96.7500     2.0960    75.8450     7.0570     5.9090     6.4840    24.8150   -27.8500 
   96.8750     2.1620    79.8930     6.8810     5.7580     5.8940    24.3020   -26.7810 
   97.0000     2.2220    83.6890     6.9680     5.7930     6.1290    23.8790   -25.8060 
   97.1250     2.2500    87.8620     7.2880     6.0200     6.8930    23.4720   -24.9590 
   97.2500     2.2530    88.8210     7.7670     6.3990     7.4870    23.0640   -24.2740 
   97.3750     2.2550    83.8000     8.2670     6.8280     7.5430    22.8210   -23.8050 
   97.5000     2.2620    77.9770     8.5970     7.1380     7.3850    22.7000   -23.4890 
   97.6250     2.2690    75.3380     8.6070     7.1880     7.3950    22.6730   -23.2560 
   97.7500     2.2760    76.7890     8.2380     6.9110     7.4810    22.6770   -23.0220 
   97.8750     2.2840    81.3170     7.5410     6.3340     7.2790    22.7360   -22.7830 
   98.0000     2.2950    87.8300     6.7770     5.6740     6.5310    22.8920   -22.5860 
   98.1250     2.3100    92.1850     6.1330     5.0860     5.3460    23.1430   -22.4900 
   98.2500     2.3300    90.8130     5.7280     4.6690     4.6080    23.3640   -22.5460 
   98.3750     2.3450    86.8570     5.6680     4.5090     4.7230    23.3260   -22.8090 
   98.5000     2.3450    84.7710     5.9570     4.6050     5.2540    23.1960   -23.2820 
   98.6250     2.3380    84.6430     6.6570     5.0060     5.9680    23.0590   -23.9970 
   98.7500     2.3400    85.6520     7.8090     5.7670     6.9410    22.9640   -24.9690 
   98.8750     2.3700    84.4370     9.4360     6.9540     8.2990    22.9770   -26.2190 
   99.0000     2.4210    79.5360    11.2240     8.3850    11.3330    23.1540   -27.6890 
   99.1250     2.4730    72.1290    12.7240     9.7590    17.5280    23.3920   -29.3640 
   99.2500     2.4930    67.0640    13.3960    10.6390    19.6270    23.7190   -31.1650 
   99.3750     2.4440    66.3290    12.8510    10.6030    15.1880    24.2400   -33.0170 
   99.5000     2.3430    64.1230    11.6970     9.9780    12.3710    24.9700   -34.8300 
   99.6250     2.2170    58.5070    10.5290     9.1680    11.6480    25.9180   -36.4960 
   99.7500     2.0990    52.9910     9.7330     8.4970    11.6680    27.0420   -37.9270 
   99.8750     2.0190    52.7160     9.4660     8.1560    11.8290    27.9530   -39.0550 
  100.0000     1.9830    56.3670     9.5060     8.0580    12.1040    28.2510   -39.8770 
  100.1250     1.9820    59.3140     9.6760     8.0930    12.2790    27.8930   -40.3560 
  100.2500     2.0010    60.1200     9.8340     8.1580    12.2190    27.3320   -40.5460 
  100.3750     2.0240    60.3060     9.8730     8.1720    12.0050    26.9880   -40.4460 
  100.5000     2.0420    60.7970     9.7880     8.1090    11.6680    26.8680   -40.2010 
  100.6250     2.0600    60.5100     9.6100     7.9780    11.1850    26.9100   -39.9090 
  100.7500     2.0870    58.6120     9.4140     7.8190    10.8650    26.9360   -39.6300 
  100.8750     2.1220    58.2160     9.3550     7.7270    10.8280    26.8780   -39.3550 
  101.0000     2.1540    60.4310     9.5620     7.8010    10.8830    26.8200   -39.0960 
  101.1250     2.1720    62.6640    10.0960     8.1060    11.0630    26.5850   -38.8640 
  101.2500     2.1650    64.5540    10.9030     8.6360    11.4540    25.9210   -38.6410 
  101.3750     2.1360    64.5010    11.7440     9.2690    11.8380    25.4820   -38.4470 
  101.5000     2.1240    61.6800    12.2400     9.7320    11.7240    25.6070   -38.2320 
  101.6250     2.1440    58.2200    12.1240     9.7960    10.9020    25.9680   -38.0030 
  101.7500     2.1800    58.3480    11.4080     9.3980    10.1260    25.9020   -37.7750 
  101.8750     2.1980    63.5540    10.4230     8.6960    10.3520    25.2040   -37.5790 
  102.0000     2.1990    68.6080     9.6300     8.0300    10.7660    24.4600   -37.4480 
  102.1250     2.1980    70.6400     9.2150     7.5730    11.0030    23.9070   -37.3900 
  102.2500     2.2010    69.6170     9.1800     7.3880    11.3440    23.6300   -37.4140 
  102.3750     2.1980    66.3100     9.4160     7.4650    11.5510    23.6340   -37.5590 
  102.5000     2.1830    63.1710     9.6870     7.6490    11.6490    23.8390   -37.8300 
  102.6250     2.1550    63.2910     9.8610     7.8300    11.5550    24.1780   -38.1730 
  102.7500     2.1200    65.5800     9.8790     7.9310    11.5550    24.5840   -38.5620 
  102.8750     2.0900    65.2360     9.7380     7.9130    11.4220    25.0470   -39.0010 
  103.0000     2.0720    61.5580     9.5400     7.8220    11.2000    25.7370   -39.4160 
  103.1250     2.0650    58.4520     9.3720     7.7140    11.0060    26.4370   -39.7900 
  103.2500     2.0670    58.8620     9.3020     7.6440    11.0290    26.7790   -40.0940 
  103.3750     2.0780    61.8620     9.3660     7.6550    10.9890    26.6960   -40.2800 
  103.5000     2.0990    64.1290     9.4990     7.7290    10.9240    26.5650   -40.3560 
  103.6250     2.1260    64.7540     9.6340     7.8290    10.9800    26.4510   -40.3730 
  103.7500     2.1510    64.0600     9.7060     7.9150    11.1330    26.4400   -40.3750 
  103.8750     2.1660    62.9310     9.6630     7.9370    11.1360    26.5590   -40.3550 
  104.0000     2.1720    62.5600     9.5390     7.8890    10.8610    26.6220   -40.3690 
  104.1250     2.1730    62.3300     9.3740     7.7830    10.7730    26.6230   -40.4420 
  104.2500     2.1650    62.2770     9.2100     7.6470    10.8290    26.6140   -40.5700 
  104.3750     2.1420    61.3460     9.0820     7.5180    10.7580    26.6800   -40.7410 
  104.5000     2.1150    59.4350     8.9940     7.4200    10.6380    26.7740   -40.9390 
  104.6250     2.1010    57.1190     8.9460     7.3610    10.4990    26.8240   -41.1600 
  104.7500     2.1100    54.8360     8.9340     7.3400    10.3820    26.7850   -41.3510 
  104.8750     2.1330    54.6900     8.9590     7.3560    10.3640    26.8030   -41.4750 
  105.0000     2.1470    54.4390     9.0040     7.3880    10.4510    26.8370   -41.5070 
  105.1250     2.1490    53.9950     9.0510     7.4230    10.5670    26.7750   -41.4380 
  105.2500     2.1480    54.0400     9.0810     7.4420    10.5690    26.6560   -41.2780 
  105.3750     2.1510    56.4890     9.0720     7.4310    10.6440    26.4380   -41.0380 
  105.5000     2.1560    60.3520     9.0250     7.3910    10.7720    26.0950   -40.7740 
  105.6250     2.1620    62.7540     8.9530     7.3290    10.6560    25.8020   -40.4740 
  105.7500     2.1690    63.3370     8.8830     7.2590     9.8610    25.8190   -40.1550 
  105.8750     2.1700    63.1070     8.8500     7.2050     8.8020    25.9640   -39.8650 
  106.0000     2.1670    62.5620     8.8630     7.1840     8.6090    26.0680   -39.6210 
  106.1250     2.1630    62.3400     8.9150     7.2030     9.2030    26.1390   -39.4180 
  106.2500     2.1570    62.7620     8.9940     7.2570     9.7870    26.2480   -39.2580 
  106.3750     2.1440    61.9920     9.0960     7.3380    10.0890    26.4040   -39.1630 
  106.5000     2.1330    59.8920     9.2170     7.4260    10.2160    26.4220   -39.0870 
  106.6250     2.1330    58.4940     9.3590     7.5090     9.9980    26.2420   -39.0110 
  106.7500     2.1460    59.6000     9.5030     7.5800     9.7680    25.9990   -38.9160 
  106.8750     2.1600    61.3210     9.6030     7.6220     9.7370    25.8620   -38.7630 
  107.0000     2.1610    62.4400     9.6320     7.6300     9.7420    25.8180   -38.5620 
  107.1250     2.1550    64.8150     9.6230     7.6220     9.7250    25.7980   -38.3150 
