~V
VERS. 2.00: Ver 2.00
~W
STRT.M 52.0000:
STOP.M 240.0000:
STEP.M 0.1250:
NULL. -999.2500:
UWI. F11139:
~C
DEPT.M :
GR.API :
RML.OHMM :
RI. :
RXO.OHMM :
CALI.CM :
SP.MV :
DEN.GM/CC :
~A
# ...
  232.0000    67.5900     8.5910     8.5210     9.0740    24.3420    -5.7680     2.4470 
  232.1250    67.5900     8.4920     8.4210     9.1600    24.3200    -5.5980     2.4360 
  232.2500    67.5900     8.3340     8.2480     9.1090    24.2770    -5.5450     2.4240 
  232.3750    67.5900     8.1230     7.9970     8.9110    24.2020    -5.5470     2.4180 
  232.5000    67.5900     7.8970     7.7000     8.4910    24.1110    -5.5540     2.4190 
  232.6250    67.5900     7.7340     7.4370     7.8170    24.0230    -5.5950     2.4230 
  232.7500    67.5900     7.7030     7.2950     7.0470    23.9600    -5.7070     2.4300 
  232.8750    67.5900     7.8510     7.3390     6.8380    23.9540    -5.9330     2.4390 
  233.0000    67.5900     8.1990     7.6070     7.3890    23.9920    -6.1950     2.4510 
  233.1250    67.5900     8.7540     8.1190     8.5950    24.1190    -6.3050     2.4710 
  233.2500    67.5900     9.4120     8.7570     9.9490    24.1780    -6.3750     2.4980 
  233.3750    67.5900    10.0850     9.4080    11.0300    24.1680    -6.4180     2.5270 
  233.5000    67.5900    10.6830     9.9630    11.4090    24.1560    -6.5120     2.5460 
  233.6250    67.5900    11.1050    10.3210    11.1890    24.1900    -6.6350     2.5500 
  233.7500    67.5900    11.3610    10.5200    10.8290    24.2150    -6.7500     2.5320 
  233.8750    67.5900    11.4840    10.6130    10.6910    24.2320    -6.7930     2.5070 
  234.0000    67.5900    11.5240    10.6530    10.9660    24.2220    -6.7440     2.4770 
  234.1250    67.5900    11.5170    10.6660    11.2960    24.2680    -6.7140     2.4480 
  234.2500    67.5900    11.4980    10.6650    11.4810    24.3150    -6.6010     2.4310 
  234.3750    67.5900    11.4800    10.6580    11.2330    24.3280    -6.4380     2.4370 
  234.5000    67.5900    11.4640    10.6510    10.8850    24.3230    -6.2260     2.4610 
  234.6250    67.5900    11.4520    10.6480    10.8580    24.2850    -5.9720     2.4850 
  234.7500    67.5900    11.4400    10.6480    10.8710    24.2850    -5.7160     2.4940 
  234.8750    67.5900    11.4250    10.6510    11.1410    24.2740    -5.4550     2.4800 
  235.0000    67.5900    11.4140    10.6550    11.5090    24.2610    -5.2180     2.4570 
  235.1250    67.5900    11.4070    10.6580    11.8150    24.2520    -5.0580     2.4360 
  235.2500    67.5900    11.4050    10.6590    11.8090    24.2410    -5.0480     2.4270 
  235.3750    67.5900    11.4050    10.6590    11.6530    24.2120    -5.1280     2.4420 
  235.5000    67.5900    11.4050    10.6590    11.5860    24.2030    -5.1390     2.4730 
  235.6250    67.5900    11.4050    10.6590    11.2220    24.2280    -5.1220     2.5010 
  235.7500    67.5900    11.4050    10.6590    10.5830    24.2390    -5.0900     2.5060 
  235.8750    67.5900    11.4050    10.6590     9.7850    24.2680    -5.0900     2.4890 
  236.0000    67.5900    11.4050    10.6590     9.0480    24.3120    -5.1450     2.4710 
  236.1250    67.5900    11.4050    10.6590     8.7150    24.3450    -5.1120     2.4620 
  236.2500    67.5900    11.4050    10.6590     8.8480    24.3570    -4.9740     2.4650 
  236.3750    67.5900    11.4050    10.6590     9.2020    24.3720    -4.8320     2.4750 
  236.5000    67.5900    11.4050    10.6590     9.3700    24.3660    -4.7970     2.4820 
  236.6250    67.5900    11.4050    10.6590     9.2950    24.3220    -4.8280     2.4800 
  236.7500    67.5900    11.4050    10.6590     8.9730    24.2190    -4.8830     2.4690 
  236.8750    67.5900    11.4050    10.6590     8.7360    24.1000    -4.9420     2.4550 
  237.0000    67.5900    11.4050    10.6590     8.7560    24.0230    -5.0480     2.4460 
  237.1250    67.5900    11.4050    10.6590     8.9180    24.0270    -5.2020     2.4380 
  237.2500    67.5900    11.4050    10.6590     9.1060    24.0700    -5.4080     2.4260 
  237.3750    67.5900    11.4050    10.6590     9.3360    24.1070    -5.5860     2.4090 
  237.5000    67.5900    11.4050    10.6590     9.4650    24.0040    -5.7250     2.3890 
  237.6250    67.5900    11.4050    10.6590     9.4560    23.7300    -5.8900     2.3620 
  237.7500    67.5900    11.4050    10.6590     9.2960    23.2910    -6.0090     2.3230 
  237.8750    67.5900    11.4050    10.6590     8.8450    22.4250    -6.1230     2.2670 
  238.0000    67.5900    11.4050    10.6590     7.9810    21.3710    -6.1460     2.2040 
  238.1250    67.5900    11.4050    10.6590     6.9050    20.1320    -6.1460     2.1460 
  238.2500    67.5900    11.4050    10.6590     5.9530    18.6640    -6.1460     2.1060 
  238.3750    67.5900    11.4050    10.6590     5.3900    16.8390    -6.1460     2.0900 
  238.5000    67.5900    11.4050    10.6590     5.1080    15.5510  -999.2500     2.0860 
  238.6250    67.5900    11.4050    10.6590     4.9950    14.9970  -999.2500     2.0870 
  238.7500    67.5900    11.4050    10.6590     4.9650    14.8810  -999.2500     2.0890 
  238.8750    67.5900    11.4050    10.6590     4.9630    14.8800  -999.2500     2.0910 
  239.0000    67.5900    11.4050    10.6590     4.9630    14.8800  -999.2500     2.0930 
  239.1250    67.5900    11.4050    10.6590     4.9630    14.8780  -999.2500     2.0930 
  239.2500    67.5900    11.4050    10.6590     4.9640    14.8750  -999.2500     2.0910 
  239.3750    67.5900    11.4050    10.6590     4.9640    14.8650  -999.2500     2.0860 
  239.5000    67.5900    11.4050    10.6590     4.9640    14.8490  -999.2500     2.0830 
  239.6250    67.5900    11.4050    10.6590     4.9640    14.8310  -999.2500     2.0810 
  239.7500    67.5900    11.4050    10.6590     4.9630    14.8200  -999.2500     2.0800 
  239.8750    67.5900    11.4050    10.6590     4.9620    14.8160  -999.2500     2.0810 
  240.0000    67.5900    11.4050    10.6590     4.9620    14.8160  -999.2500     2.0830 
