~V
VERS. 2.00: Ver 2.00
~W
STRT.M 53.0000:
STOP.M 212.0000:
STEP.M 0.1250:
NULL. -999.2500:
UWI. F11124:
~C
DEPT.M :
SP.MV :
DEN.GM/CC :
GR.API :
RML.OHMM :
RI. :
RXO.OHMM :
CALI.CM :
~A
# ...
  176.7500   -19.9420     2.3600    68.5690    14.2120    13.7730    14.0140    29.9450 
  176.8750   -19.9500     2.3660    67.2400    14.5350    14.0320    14.5250    29.8860 
  177.0000   -19.9580     2.3690    68.4600    14.5010    13.9580    14.3950    29.9430 
  177.1250   -19.9660     2.3670    68.8180    14.0760    13.4760    13.9090    29.9100 
  177.2500   -19.9770     2.3650    70.4910    13.4930    12.7900    13.5070    29.7400 
  177.3750   -20.0030     2.3660    76.0070    12.9530    12.0780    13.0630    29.5330 
  177.5000   -20.0580     2.3700    82.2330    12.6520    11.5100    12.2710    29.4250 
  177.6250   -20.1760     2.3680    82.4370    12.8930    11.3130    11.1450    29.3830 
  177.7500   -20.3610     2.3570    79.3040    13.8660    11.6080    11.2510    29.3510 
  177.8750   -20.6200     2.3410    75.8550    15.9040    12.5860    12.6230    29.2610 
  178.0000   -20.9520     2.3170    71.2830    19.4350    14.5250    15.4880    29.1710 
  178.1250   -21.3470     2.2830    64.1830    25.2770    18.0860    21.6690    29.1480 
  178.2500   -21.7770     2.2480    57.2880    33.2960    23.4270    30.9090    29.1860 
  178.3750   -22.2290     2.2210    53.3510    43.0910    30.5360    42.0860    29.2460 
  178.5000   -22.7060     2.2080    52.3670    53.5540    38.7270    52.6480    29.2460 
  178.6250   -23.2020     2.2100    54.4680    62.7490    46.3180    58.2640    29.1810 
  178.7500   -23.6990     2.2200    57.0560    69.9130    52.1060    57.4160    29.1390 
  178.8750   -24.1860     2.2310    58.0180    76.0940    56.4830    52.7410    29.1130 
  179.0000   -24.6490     2.2320    56.2540    83.7850    61.2910    53.3960    29.0570 
  179.1250   -25.0980     2.2150    54.3370    96.5200    69.5850    72.5230    28.9790 
  179.2500   -25.5380     2.1910    53.9440   114.8090    82.3910   103.7390    28.9120 
  179.3750   -25.9650     2.1710    53.1000   137.2190    99.0990   137.5530    28.9560 
  179.5000   -26.3480     2.1600    50.5520   158.8490   116.5440   156.3460    29.0840 
  179.6250   -26.6740     2.1560    50.0480   169.3780   127.7000   144.8280    29.0780 
  179.7500   -26.9720     2.1580    53.3280   165.9740   129.2340   118.0650    28.8600 
  179.8750   -27.2200     2.1690    56.8980   153.3170   122.8070    88.7460    28.6040 
  180.0000   -27.4490     2.1860    57.4750   138.7710   113.1240    70.1720    28.4840 
  180.1250   -27.6710     2.1980    58.7120   127.2180   104.3930    64.5260    28.4230 
  180.2500   -27.8900     2.2030    60.5570   118.6690    97.7230    62.9990    28.3170 
  180.3750   -28.0860     2.2060    60.9400   112.0110    92.6370    62.2440    28.1540 
  180.5000   -28.2760     2.2090    59.0080   106.2170    88.3350    59.8200    27.9940 
  180.6250   -28.4810     2.2100    58.1250   101.5970    84.7560    54.2440    27.8620 
  180.7500   -28.6920     2.2060    58.4320    99.5300    82.8140    50.6920    27.7100 
  180.8750   -28.9580     2.1990    57.1450   101.8220    84.0330    55.4160    27.5320 
  181.0000   -29.2670     2.1870    55.1880   110.0430    90.0470    73.0590    27.3690 
  181.1250   -29.5970     2.1730    54.8780   126.3390   103.4760   112.2590    27.2190 
  181.2500   -29.9390     2.1650    54.9420   148.8030   123.3210   161.5650    27.0940 
  181.3750   -30.3280     2.1680    53.7070   173.5660   146.6250   203.0720    26.9830 
  181.5000   -30.7770     2.1810    52.3230   192.7420   166.7750   208.1890    26.8750 
  181.6250   -31.2660     2.1940    56.4440   194.0220   172.6580   172.5580    26.7670 
  181.7500   -31.7940     2.2040    62.2950   179.0030   163.1980   147.0400    26.6850 
  181.8750   -32.3140     2.2110    63.3620   156.1540   144.0040   122.5420    26.6190 
  182.0000   -32.7750     2.2160    58.9140   134.6490   123.4430    96.8740    26.5180 
  182.1250   -33.1830     2.2190    54.6320   120.7560   108.4370    76.9570    26.3730 
  182.2500   -33.5550     2.2190    55.7010   114.7750   100.2720    64.6910    26.2490 
  182.3750   -33.8530     2.2150    60.1760   117.0640    99.4840    64.2810    26.1670 
  182.5000   -34.0650     2.2040    63.3660   128.1260   106.7550    85.3970    26.1120 
  182.6250   -34.1390     2.1910    61.7580   150.3460   124.5580   138.3180    26.0790 
  182.7500   -34.0540     2.1820    56.4980   182.4130   151.6770   214.7540    26.0390 
  182.8750   -33.8370     2.1790    52.6440   222.4230   186.3490   296.5010    25.9750 
  183.0000   -33.5310     2.1790    52.9060   264.2850   223.5860   354.1960    25.8800 
  183.1250   -33.0800     2.1780    54.4210   294.4950   253.0050   366.7100    25.7700 
  183.2500   -32.4850     2.1760    55.2620   305.7480   267.8880   356.6480    25.6480 
  183.3750   -31.7580     2.1760    55.9260   298.8980   267.2960   334.2820    25.5330 
  183.5000   -30.8900     2.1770    57.2820   279.6770   254.7790   308.2510    25.4510 
  183.6250   -29.9330     2.1810    57.3530   252.9960   234.0140   274.5960    25.3950 
  183.7500   -28.9990     2.1870    55.7820   224.1700   209.8480   231.1200    25.3850 
  183.8750   -28.0890     2.1960    53.9830   196.6600   185.2650   189.0820    25.3980 
  184.0000   -27.2120     2.2080    53.3040   173.7460   163.4210   155.2430    25.3830 
  184.1250   -26.4440     2.2180    54.9970   159.1710   148.2470   133.7300    25.3160 
  184.2500   -25.7790     2.2190    57.4760   152.8180   140.5080   126.0860    25.2300 
  184.3750   -25.2380     2.2060    59.1770   154.7100   140.6980   130.0720    25.1380 
  184.5000   -24.8160     2.1840    61.9190   164.3020   148.6250   143.7470    25.0100 
  184.6250   -24.4760     2.1680    65.1610   180.6860   163.7470   163.0950    24.8300 
  184.7500   -24.1490     2.1660    64.2880   198.6270   181.2030   173.6010    24.6510 
  184.8750   -23.8310     2.1700    59.2890   212.0950   195.5720   161.9450    24.5200 
  185.0000   -23.5250     2.1750    55.4570   215.4760   201.4210   131.3360    24.4010 
  185.1250   -23.2120     2.1880    54.3190   206.6870   195.3140   100.8170    24.3210 
  185.2500   -22.9060     2.2150    54.1300   193.5290   183.2520    81.1940    24.2570 
  185.3750   -22.6050     2.2610    56.2010   181.9170   170.9770    75.1810    24.2180 
  185.5000   -22.3310     2.3280    59.9750   174.8580   162.3230    82.4020    24.2020 
  185.6250   -22.1340     2.4210    61.6130   173.0740   158.8580   105.0320    24.1880 
  185.7500   -21.9930     2.5200    59.1040   174.1290   158.5330   135.3350    24.1470 
  185.8750   -21.8840     2.5980    55.3020   176.4180   159.7790   163.6600    24.0770 
  186.0000   -21.7590     2.6400    53.2180   179.0150   161.5670   177.7170    24.0170 
  186.1250   -21.6320     2.6530    54.6880   181.7370   163.8600   170.5340    23.9150 
  186.2500   -21.5070     2.6590    58.2250   183.4010   166.2350   160.6830    23.8340 
  186.3750   -21.3740     2.6600    59.6240   179.5850   165.7460   158.6230    23.8220 
  186.5000   -21.2490     2.6560    57.0730   162.9540   156.0980   163.6260    23.8230 
  186.6250   -21.1490     2.6460    53.5190   128.2610   129.1850   155.6860    23.7830 
  186.7500   -21.0280     2.6320    52.6690    88.5840    92.9050   128.4300    23.7410 
  186.8750   -20.8690     2.6100    54.0510    55.6220    59.2090    82.2890    23.7260 
  187.0000   -20.7210     2.5720    54.8660    33.6320    35.4330    37.2870    23.7240 
  187.1250   -20.6040     2.5070    53.5370    21.9770    22.7370    18.1060    23.7140 
  187.2500   -20.5110     2.4430    50.8900    15.7000    15.9440    10.5290    23.6950 
  187.3750   -20.4320     2.4060    47.7870    12.5910    12.4850     8.7060    23.7050 
  187.5000   -20.3200     2.4000    45.8680    11.2950    10.8690     8.6970    23.7960 
  187.6250   -20.1380     2.4060    46.0020    11.0840    10.4240     9.3400    23.9390 
  187.7500   -19.9700     2.4050    46.7100    11.2390    10.4830    10.3070    24.0260 
  187.8750   -19.8720     2.4020    46.8960    11.4060    10.6990    11.3690    24.0260 
