~V
VERS. 2.00: Ver 2.00
~W
STRT.M 60.0000:
STOP.M 281.0000:
STEP.M 0.1250:
NULL. -999.2500:
UWI. F11154:
~C
DEPT.M :
DEN.GM/CC :
GR.API :
RML.OHMM :
RI. :
RXO.OHMM :
CALI.CM :
SP.MV :
~A
# ...
  206.2500     2.6090    54.3340    65.6960    65.9880    82.5890    24.3010   -21.4950 
  206.3750     2.5950    56.6700    46.1090    45.7630    52.6860    24.3490   -20.9770 
  206.5000     2.5590    59.1680    32.4260    31.3750    35.7290    24.4300   -20.5610 
  206.6250     2.5040    63.0400    25.2670    23.9340    23.9680    24.4670   -20.2250 
  206.7500     2.4490    65.5570    22.8400    21.4520    19.5260    24.4680   -20.0050 
  206.8750     2.4060    71.6320    18.0450    16.5630    11.1710    24.3940   -19.9730 
  207.0000     2.3840    75.8020    15.3210    13.7730     7.5420    24.3210   -20.0970 
  207.1250     2.3900    76.9260    14.2130    12.5470     7.6560    24.2770   -20.2720 
  207.2500     2.4130    77.6890    14.2340    12.3430     8.9280    24.2750   -20.4300 
  207.3750     2.4460    78.5580    15.5580    13.2590    10.6980    24.2660   -20.5090 
  207.5000     2.4850    78.5520    18.6840    15.7150    12.8650    24.2650   -20.4750 
  207.6250     2.5290    75.1700    24.7810    20.8100    19.3220    24.1880   -20.3290 
  207.7500     2.5760    68.9930    33.5450    28.4290    35.6110    24.0990   -20.0210 
  207.8750     2.6210    61.5610    43.4880    37.3790    63.7440    24.0400   -19.5430 
  208.0000     2.6540    55.3550    51.6820    45.0500   101.0520    24.0450   -18.9620 
  208.1250     2.6610    54.1870    53.1170    46.7760   129.8300    24.1150   -18.3510 
  208.2500     2.6430    56.3030    46.1580    40.9640   130.1240    24.1710   -17.7900 
  208.3750     2.6110    59.1520    33.6160    30.0760    95.6220    24.1890   -17.2970 
  208.5000     2.5730    62.9790    21.6190    19.6010    48.8090    24.1940   -16.8740 
  208.6250     2.5270    69.1840    14.3250    13.2480    21.2050    24.2490   -16.5200 
  208.7500     2.4820    73.6570    10.6020     9.9600    10.8040    24.3330   -16.2360 
  208.8750     2.4590    73.9990     9.6640     8.6200     8.7100    24.3310   -16.0170 
  209.0000     2.4640    73.3480     9.8250     8.3780     9.6810    24.1510   -15.8670 
  209.1250     2.4730    74.9640    10.2940     8.6570    11.3810    23.7550   -15.7620 
  209.2500     2.4720    75.4350    10.4190     8.8760    12.2750    23.4110   -15.6840 
  209.3750     2.4500    71.5050     9.9490     8.7240    11.3440    23.1200   -15.6700 
  209.5000     2.4060    65.1210     8.9580     8.1260     8.5640    22.8190   -15.7150 
  209.6250     2.3640    61.0800     7.7980     7.2690     6.2010    22.4800   -15.8000 
  209.7500     2.3420    60.2350     6.8480     6.4850     5.5270    22.2860   -15.8820 
  209.8750     2.3280    61.1850     6.2210     5.9020     5.6290    22.1450   -15.9100 
  210.0000     2.3070    62.5400     5.8900     5.5370     6.0510    21.9580   -15.8670 
  210.1250     2.2810    63.0210     5.7860     5.3650     6.8410    21.8580   -15.7920 
  210.2500     2.2600    63.1690     5.7820     5.2960     8.1290    22.2180   -15.6810 
  210.3750     2.2370    63.8950     5.8270     5.2940     9.6470    23.2030   -15.5600 
  210.5000     2.2020    64.2620     5.8970     5.3350    11.0600    24.0770   -15.4950 
  210.6250     2.1530    63.0350     5.9770     5.4090    11.4990    24.8010   -15.5070 
  210.7500     2.0950    62.1350     6.0540     5.4940    11.5860    25.2910   -15.5500 
  210.8750     2.0240    62.7560     6.1180     5.5750    11.3120    25.5180   -15.6570 
  211.0000     1.9440    63.4220     6.1660     5.6410     9.2140    25.4720   -15.8370 
  211.1250     1.8720    62.0580     6.1970     5.6810     6.0490    25.5870   -16.0440 
  211.2500     1.8340    58.5090     6.2110     5.6980     4.9880    26.4290   -16.1850 
  211.3750     1.8390    53.7830     6.2060     5.6930     4.7550    28.1880   -16.1740 
  211.5000     1.8680    50.1740     6.1790     5.6650     4.7410    30.7870   -15.9950 
  211.6250     1.8990    50.1080     6.1290     5.6120     4.7840    33.5850   -15.6990 
  211.7500     1.9350    50.5270     6.0720     5.5410     4.8400    35.4130   -15.3760 
  211.8750     1.9850    48.5970     6.0230     5.4630     4.8870    36.0060   -15.0570 
  212.0000     2.0510    45.1860     6.0000     5.3920     4.9580    35.9700   -14.7320 
  212.1250     2.1280    43.5150     6.0330     5.3580     5.0560    35.6630   -14.3400 
  212.2500     2.2140    44.6490     6.1380     5.3790     5.2150    34.9700   -13.9540 
  212.3750     2.3050    47.5130     6.3290     5.4690     5.4880    33.7140   -13.6180 
  212.5000     2.3860    51.3500     6.6060     5.6240     5.8410    32.0530   -13.2790 
  212.6250     2.4260    56.5650     6.9490     5.8290     6.3190    30.6170   -12.9150 
  212.7500     2.4280    61.9830     7.3010     6.0500     6.7850    29.8260   -12.5680 
  212.8750     2.4130    66.0990     7.6350     6.2720     7.1210    29.5480   -12.2720 
  213.0000     2.3940    67.8950     7.9610     6.5050     7.4130    29.3400   -12.0650 
  213.1250     2.3760    68.2860     8.3440     6.7990     7.6530    29.1620   -11.9400 
  213.2500     2.3600    69.1720     8.8450     7.1920     8.1960    29.0700   -11.8360 
  213.3750     2.3440    69.3660     9.5010     7.7200     9.1840    29.0530   -11.7640 
  213.5000     2.3270    67.6570    10.3250     8.4050    10.5130    29.0750   -11.7840 
  213.6250     2.3190    65.2390    11.3700     9.3170    12.1050    29.0310   -11.8530 
  213.7500     2.3280    65.5230    12.6540    10.4710    13.4740    28.8750   -11.9180 
  213.8750     2.3470    67.5710    14.2200    11.9070    14.5550    28.5980   -11.9330 
  214.0000     2.3650    68.2100    16.0570    13.6240    16.0800    28.3030   -11.8510 
  214.1250     2.3700    65.2760    18.0160    15.5320    18.9860    28.0250   -11.7760 
  214.2500     2.3640    61.5490    19.7520    17.3410    22.2130    27.7370   -11.8050 
  214.3750     2.3480    59.7760    20.9390    18.7340    23.3190    27.5040   -11.9260 
  214.5000     2.3320    60.5380    21.3520    19.4380    21.7890    27.3330   -12.1010 
  214.6250     2.3330    62.3870    20.8610    19.2080    19.6980    27.2350   -12.3070 
  214.7500     2.3470    62.8300    19.7960    18.3100    18.4050    27.1240   -12.4980 
  214.8750     2.3600    61.4110    18.3790    16.9710    17.3170    27.0310   -12.6380 
  215.0000     2.3610    58.9800    16.7850    15.4150    16.1570    26.9750   -12.7420 
  215.1250     2.3520    57.9870    15.1890    13.8500    15.4420    27.0240   -12.8200 
  215.2500     2.3490    59.8430    13.8540    12.5140    14.4700    27.1120   -12.8550 
  215.3750     2.3580    63.1650    13.1440    11.6750    13.2700    27.1620   -12.8440 
  215.5000     2.3690    65.5910    13.5060    11.6540    12.3870    27.1370   -12.8280 
  215.6250     2.3650    66.9710    15.7510    13.0940    13.3980    27.1030   -12.8840 
  215.7500     2.3420    68.1730    20.0930    16.2930    17.7080    27.0180   -13.0080 
  215.8750     2.3070    67.7000    26.7360    21.6260    26.8560    26.8890   -13.2180 
  216.0000     2.2740    64.1230    35.4150    29.1190    39.7780    26.8260   -13.4870 
  216.1250     2.2460    58.2400    45.1570    38.2240    54.5180    27.1150   -13.7610 
  216.2500     2.2210    53.6370    54.0790    47.1460    64.7240    27.5960   -14.0360 
  216.3750     2.1980    51.6350    60.7740    54.3850    65.1790    28.0390   -14.2970 
  216.5000     2.1780    51.7570    64.8270    59.2390    62.0960    28.3300   -14.5000 
  216.6250     2.1590    52.1080    67.0770    62.0630    65.6810    28.5490   -14.6370 
  216.7500     2.1400    51.5220    69.1420    64.2360    70.7550    28.8130   -14.7720 
  216.8750     2.1240    49.9030    71.3160    66.1320    76.1250    29.1970   -14.8780 
  217.0000     2.1120    47.5140    73.1450    67.5140    79.6030    29.6540   -14.9700 
  217.1250     2.1080    45.2030    73.7740    67.7570    81.1700    30.2100   -15.0660 
  217.2500     2.1140    44.2350    73.1440    66.9170    76.9530    30.7140   -15.1500 
  217.3750     2.1320    44.5070    71.5760    65.3280    64.7010    31.0570   -15.2200 
