~V
VERS. 2.00: Ver 2.00
~W
STRT.M 53.0000:
STOP.M 212.0000:
STEP.M 0.1250:
NULL. -999.2500:
UWI. F11124:
~C
DEPT.M :
SP.MV :
DEN.GM/CC :
GR.API :
RML.OHMM :
RI. :
RXO.OHMM :
CALI.CM :
~A
# ...
  143.0000   -13.2140     2.3070    73.5630    12.7340    10.7810    11.9120    26.3090 
  143.1250   -13.5330     2.2940    77.4510    12.9120    11.0560    11.6400    26.4390 
  143.2500   -13.8350     2.2830    77.6270    12.9940    11.1650    11.1880    26.5150 
  143.3750   -14.1040     2.2770    77.0410    13.3690    11.3750    11.3580    26.5750 
  143.5000   -14.3450     2.2720    77.6650    14.4270    11.9910    12.6520    26.6390 
  143.6250   -14.5580     2.2650    73.8180    16.6380    13.4460    15.7240    26.7320 
  143.7500   -14.7620     2.2550    65.8180    19.9070    15.8370    20.1280    26.8930 
  143.8750   -14.9610     2.2440    59.0740    23.9800    19.1560    24.9570    27.0970 
  144.0000   -15.1600     2.2320    58.4250    28.2270    23.0520    28.5690    27.2960 
  144.1250   -15.3390     2.2240    60.7320    31.3850    26.5380    29.6340    27.3720 
  144.2500   -15.4900     2.2200    61.5730    32.7080    28.6350    29.4760    27.3930 
  144.3750   -15.6100     2.2190    61.4480    32.2210    29.0450    27.9780    27.3960 
  144.5000   -15.6990     2.2160    62.3380    30.6520    28.2120    25.4800    27.4180 
  144.6250   -15.7700     2.2100    64.3920    28.8800    26.8570    23.5600    27.4910 
  144.7500   -15.8070     2.2060    65.3610    27.4130    25.5780    22.9190    27.5990 
  144.8750   -15.8260     2.2050    64.9750    26.3390    24.5550    22.6840    27.6340 
  145.0000   -15.8360     2.2070    64.3820    25.5920    23.8160    22.3740    27.5700 
  145.1250   -15.8170     2.2150    64.6580    25.0440    23.3030    21.6190    27.5160 
  145.2500   -15.7760     2.2230    64.9150    24.5380    22.8660    20.7070    27.5050 
  145.3750   -15.7220     2.2280    63.3740    24.0140    22.4340    20.3530    27.5050 
  145.5000   -15.6550     2.2300    59.8860    23.4360    21.9660    20.3800    27.4670 
  145.6250   -15.5660     2.2310    57.6710    22.7550    21.4130    19.9510    27.3970 
  145.7500   -15.4460     2.2340    59.6370    22.0060    20.7880    18.9940    27.3940 
  145.8750   -15.3170     2.2390    63.3460    21.2840    20.1650    18.0220    27.4530 
  146.0000   -15.1690     2.2450    64.6230    20.7350    19.6680    17.5550    27.5130 
  146.1250   -15.0070     2.2500    62.5350    20.5560    19.4960    17.7220    27.5360 
  146.2500   -14.8680     2.2530    61.5710    20.7100    19.6710    18.2920    27.5590 
  146.3750   -14.7300     2.2520    62.8370    21.0570    20.1170    19.1130    27.6010 
  146.5000   -14.5670     2.2450    64.5220    21.3610    20.6360    19.8980    27.6510 
  146.6250   -14.3940     2.2380    64.4080    21.3360    20.9190    19.9860    27.6680 
  146.7500   -14.2240     2.2330    63.3700    20.9570    20.8390    19.2400    27.6530 
  146.8750   -14.0260     2.2300    62.7070    20.3150    20.4140    18.2730    27.6670 
  147.0000   -13.7950     2.2270    63.3040    19.5500    19.7540    17.3630    27.7760 
  147.1250   -13.5590     2.2240    63.7160    18.7710    18.9730    16.8450    27.9720 
  147.2500   -13.3230     2.2240    63.7320    17.9690    18.1380    16.3300    28.0930 
  147.3750   -13.0870     2.2300    65.2540    17.0600    17.2050    15.4770    28.0530 
  147.5000   -12.8570     2.2400    67.8170    15.9960    16.1290    14.0520    27.8720 
  147.6250   -12.6520     2.2500    70.0910    14.8500    14.9520    12.4910    27.7070 
  147.7500   -12.4460     2.2580    70.7670    13.8630    13.8660    11.3070    27.5660 
  147.8750   -12.2640     2.2650    69.7260    13.2910    13.0820    10.6080    27.4470 
  148.0000   -12.1450     2.2710    69.4430    13.3640    12.8040    10.6470    27.4320 
  148.1250   -12.0870     2.2690    72.6400    14.4160    13.3350    11.7680    27.5920 
  148.2500   -12.0370     2.2590    73.3790    16.4160    14.6970    14.6110    27.8110 
  148.3750   -12.0100     2.2470    68.1040    19.3670    16.9700    19.2500    28.0220 
  148.5000   -12.0140     2.2410    61.5920    23.1090    20.1260    25.0160    28.2250 
  148.6250   -12.0260     2.2410    60.1410    27.2080    23.9200    30.5260    28.3650 
  148.7500   -12.0730     2.2410    61.9910    30.9040    27.5950    34.2180    28.4490 
  148.8750   -12.1510     2.2380    64.1220    33.7140    30.5740    36.5580    28.4830 
  149.0000   -12.2240     2.2290    64.5840    35.5920    32.6570    38.8170    28.4920 
  149.1250   -12.2500     2.2180    61.8540    36.8310    33.9950    40.7870    28.4910 
  149.2500   -12.2580     2.2140    58.1830    37.8900    35.0640    41.5510    28.5140 
  149.3750   -12.2670     2.2220    55.2020    38.7760    35.9850    42.3360    28.5100 
  149.5000   -12.2690     2.2420    54.0500    39.0790    36.5310    43.2660    28.4680 
  149.6250   -12.2340     2.2700    56.4240    37.6010    35.6860    43.2550    28.4230 
  149.7500   -12.1720     2.3070    58.4760    33.7900    32.7170    40.4960    28.3980 
  149.8750   -12.0690     2.3450    57.2130    27.9940    27.7140    35.3730    28.3700 
  150.0000   -11.9230     2.3720    57.1210    21.5660    21.8440    28.7370    28.3240 
  150.1250   -11.7450     2.3690    63.6150    16.1880    16.6960    21.2950    28.2710 
  150.2500   -11.5550     2.3480    69.1280    12.3250    12.8370    15.0530    28.2570 
  150.3750   -11.3600     2.3260    69.3450     9.8110    10.1950    11.4070    28.2860 
  150.5000   -11.1510     2.3110    69.7810     8.2530     8.4690     9.9860    28.3170 
  150.6250   -10.9570     2.3070    75.5530     7.3450     7.4210     8.9880    28.2860 
  150.7500   -10.7860     2.3080    82.3740     6.7630     6.7410     7.3050    28.2150 
  150.8750   -10.6370     2.3090    85.9910     6.4070     6.3250     5.7120    28.1690 
  151.0000   -10.5240     2.3070    84.6400     6.2300     6.1030     4.9710    28.1670 
  151.1250   -10.4620     2.3020    80.5850     6.2330     6.0630     4.9510    28.1950 
  151.2500   -10.4310     2.2970    78.2510     6.3470     6.1450     5.1060    28.2130 
  151.3750   -10.4270     2.2930    79.5540     6.5090     6.3000     5.2640    28.1970 
  151.5000   -10.4600     2.2940    81.4040     6.6520     6.4600     5.3850    28.1380 
  151.6250   -10.5140     2.3040    80.9030     6.7640     6.5790     5.4460    28.0770 
  151.7500   -10.5680     2.3170    78.7110     6.9150     6.6930     5.4990    28.0350 
  151.8750   -10.6220     2.3290    75.7360     7.1930     6.8720     5.6620    28.0020 
  152.0000   -10.6760     2.3350    72.6580     7.6550     7.1800     6.0500    27.9870 
  152.1250   -10.7300     2.3340    68.7160     8.3070     7.6520     6.7900    27.9840 
  152.2500   -10.7780     2.3280    63.8640     8.9880     8.1750     7.7230    27.9820 
  152.3750   -10.8030     2.3230    60.1150     9.5130     8.5970     8.5760    27.9700 
  152.5000   -10.8240     2.3190    62.0200     9.7140     8.7590     8.9260    27.9230 
  152.6250   -10.8480     2.3140    70.0310     9.4980     8.5460     8.3430    27.8270 
  152.7500   -10.8750     2.3090    74.3170     9.0920     8.1270     7.3210    27.7260 
  152.8750   -10.9060     2.3040    72.2240     8.7140     7.6830     6.5190    27.6810 
  153.0000   -10.9370     2.3030    66.8490     8.5330     7.3700     6.2560    27.6700 
  153.1250   -10.9590     2.3000    64.4660     8.6670     7.3170     6.4440    27.6390 
  153.2500   -10.9720     2.2960    65.7400     9.0650     7.5050     6.8410    27.5960 
  153.3750   -10.9800     2.2900    69.5730     9.6880     7.9100     7.4380    27.5540 
  153.5000   -10.9760     2.2820    73.6910    10.4970     8.4940     8.3030    27.5370 
  153.6250   -10.9690     2.2690    75.0990    11.4790     9.2420     9.4420    27.6140 
  153.7500   -10.9590     2.2520    74.3120    12.5540    10.0920    10.7550    27.8360 
  153.8750   -10.9440     2.2370    72.9690    13.6280    10.9840    12.0310    28.0850 
  154.0000   -10.9230     2.2290    71.8450    14.5520    11.8140    12.9600    28.2270 
  154.1250   -10.8840     2.2280    72.2910    15.0930    12.3890    13.3990    28.2500 
