~V
VERS. 2.00: Ver 2.00
~W
STRT.M 51.0000:
STOP.M 277.0000:
STEP.M 0.1250:
NULL. -999.2500:
UWI. F11147:
~C
DEPT.M :
DEN.GM/CC :
GR.API :
RML.OHMM :
RI. :
RXO.OHMM :
CALI.CM :
SP.MV :
~A
# ...
  219.7500     2.1640    56.5790    70.1330    66.8760    43.5240    24.3420   -26.3670 
  219.8750     2.1770    55.7290    68.4620    65.6780    45.1510    24.2360   -26.0880 
  220.0000     2.1980    57.3590    66.7720    64.4990    48.3210    24.1680   -25.8570 
  220.1250     2.2210    60.2410    64.8730    63.1170    50.7980    24.0710   -25.6360 
  220.2500     2.2350    62.9580    62.7820    61.4630    49.7520    23.8820   -25.4450 
  220.3750     2.2380    65.4440    60.7500    59.6510    45.2700    23.7490   -25.2810 
  220.5000     2.2350    65.9960    59.0380    57.9490    40.7010    23.7650   -25.1770 
  220.6250     2.2300    63.2410    57.6800    56.4910    39.6590    23.9220   -25.0960 
  220.7500     2.2240    59.9190    56.5080    55.2360    41.9460    24.0910   -25.0670 
  220.8750     2.2200    59.0520    55.3130    54.0310    42.3360    24.1000   -25.0350 
  221.0000     2.2200    59.9240    54.0660    52.7840    40.2150    23.9920   -24.9910 
  221.1250     2.2230    61.0390    52.9530    51.5870    37.6480    23.8970   -24.9690 
  221.2500     2.2280    61.4950    52.3270    50.6950    35.4050    23.8860   -24.9330 
  221.3750     2.2320    60.8350    52.7760    50.6120    35.5350    23.9640   -24.9270 
  221.5000     2.2320    61.2680    54.3770    51.5150    38.2860    24.0840   -24.8600 
  221.6250     2.2250    63.6150    57.0940    53.4860    42.3330    24.2010   -24.7880 
  221.7500     2.2110    66.6820    60.8190    56.5310    44.9900    24.3460   -24.6580 
  221.8750     2.1950    66.5200    65.7240    60.8640    49.9890    24.5460   -24.5530 
  222.0000     2.1840    63.9360    71.9300    66.4940    56.6560    24.7460   -24.4110 
  222.1250     2.1890    61.7540    80.0550    73.9200    58.8650    24.8390   -24.2140 
  222.2500     2.2140    61.2510    93.7500    84.0600    59.9860    24.8270   -24.0170 
  222.3750     2.2610    60.8690   109.4680    98.6310    67.0980    24.7400   -23.7500 
  222.5000     2.3240    58.1410   126.4770   115.3880    82.6320    24.6450   -23.5110 
  222.6250     2.4060    53.5540   133.6700   126.2520   106.4890    24.5440   -23.2480 
  222.7500     2.5070    49.4640   115.9380   118.1610   133.6770    24.4210   -23.0100 
  222.8750     2.5990    48.8340    78.1300    86.3340   130.6910    24.3280   -22.7370 
  223.0000     2.6470    52.0840    46.4240    52.9700    90.8880    24.2170   -22.4970 
  223.1250     2.6360    57.1470    27.5790    29.7260    46.7850    24.1120   -22.2850 
  223.2500     2.5790    60.2240    14.9210    16.8040    20.0750    23.9650   -22.1010 
  223.3750     2.4990    57.9410    10.2450    11.0690     9.8940    23.8380   -21.9790 
  223.5000     2.4320    53.7480     7.9910     8.2680     7.0840    23.7590   -21.8720 
  223.6250     2.3950    50.6780     7.1480     7.0140     6.3960    23.7080   -21.7930 
  223.7500     2.3850    48.1240     7.1350     6.6880     6.3310    23.6620   -21.7470 
  223.8750     2.3870    47.0870     7.5670     6.9740     6.2440    23.7170   -21.7480 
  224.0000     2.3900    48.2470     8.0780     7.4830     6.5730    23.8540   -21.7250 
  224.1250     2.3900    50.4070     8.4930     8.0100     7.1100    24.0470   -21.6980 
  224.2500     2.3810    50.3110     8.7020     8.3930     7.5130    24.3510   -21.6190 
  224.3750     2.3660    47.2170     8.5770     8.4480     7.3500    24.7750   -21.5410 
  224.5000     2.3540    47.0620     8.1610     8.1720     7.3230    25.1380   -21.4510 
  224.6250     2.3450    51.0620     7.5450     7.6290     7.3220    25.3010   -21.3880 
  224.7500     2.3340    55.5050     6.8760     6.9600     6.8150    25.2920   -21.3380 
  224.8750     2.3210    57.6030     6.3360     6.3430     5.9640    25.2880   -21.3270 
  225.0000     2.3190    57.1660     6.0020     5.8780     5.4160    25.2830   -21.4050 
  225.1250     2.3300    54.8670     5.8890     5.5950     5.3040    24.9800   -21.5190 
  225.2500     2.3420    51.6690     5.9650     5.4910     5.5350    24.4660   -21.7100 
  225.3750     2.3380    49.1980     6.1900     5.5580     5.9540    24.4440   -21.9040 
  225.5000     2.3220    47.0670     6.4650     5.7130     6.2250    24.6870   -22.1370 
  225.6250     2.3020    44.7000     6.7340     5.9040     6.1510    25.0220   -22.3980 
  225.7500     2.2870    44.3850     6.9890     6.1160     5.9520    25.3210   -22.6500 
  225.8750     2.2830    48.0880     7.2830     6.3750     6.0920    25.2610   -22.8990 
  226.0000     2.2900    51.8550     7.6630     6.6930     6.5120    25.0450   -23.0590 
  226.1250     2.3030    52.8740     8.1060     7.0450     6.8950    24.6660   -23.1960 
  226.2500     2.3200    51.4510     8.5040     7.3530     7.3680    24.2820   -23.2670 
  226.3750     2.3380    49.0650     8.6420     7.4650     7.9760    23.9940   -23.2970 
  226.5000     2.3520    47.3410     8.4600     7.3430     8.1860    23.8060   -23.2570 
  226.6250     2.3610    47.9550     8.0380     7.0390     7.7190    23.6280   -23.1670 
  226.7500     2.3580    54.4730     7.5640     6.6670     6.8590    23.5640   -23.0650 
  226.8750     2.3440    67.3050     7.2560     6.3810     6.3770    23.7840   -22.9570 
  227.0000     2.3350    78.0050     7.1790     6.2690     6.6220    24.2500   -22.9030 
  227.1250     2.3450    82.8770     7.3190     6.3530     7.2660    24.6490   -22.8640 
  227.2500     2.3720    82.8730     7.5960     6.5970     7.7050    24.8860   -22.8700 
  227.3750     2.3960    81.6000     7.9020     6.9160     7.7610    24.9040   -22.8970 
  227.5000     2.4110    81.1570     8.1570     7.1900     7.7700    24.8530   -22.9950 
  227.6250     2.4230    82.4820     8.3330     7.3580     7.8420    24.7780   -23.1020 
  227.7500     2.4360    88.7480     8.4350     7.4180     7.8910    24.7250   -23.1870 
  227.8750     2.4430    98.0890     8.4760     7.4040     7.8350    24.6910   -23.2820 
  228.0000     2.4420   105.9920     8.4860     7.3660     7.7770    24.6850   -23.4070 
  228.1250     2.4360   111.0740     8.4730     7.3250     7.7290    24.6920   -23.5460 
  228.2500     2.4290   114.7300     8.4430     7.2850     7.6840    24.7080   -23.6690 
  228.3750     2.4230   118.6060     8.3940     7.2240     7.6840    24.7140   -23.8330 
  228.5000     2.4170   119.5660     8.2860     7.1120     7.6890    24.7140   -24.0260 
  228.6250     2.4080   119.0830     8.0850     6.9280     7.6770    24.7150   -24.2840 
  228.7500     2.4000   121.1870     7.8460     6.7040     7.6440    24.7160   -24.6030 
  228.8750     2.3930   123.6080     7.8460     6.6110     7.5540    24.7160   -24.9360 
  229.0000     2.3860   121.4970     8.4020     6.8530     7.5520    24.7170   -25.2560 
  229.1250     2.3730   113.8400     9.7890     7.6400     7.8350    24.7240   -25.6000 
  229.2500     2.3540   103.1790    12.1720     9.1610     8.8600    24.7340   -25.9830 
  229.3750     2.3360    90.7280    15.5630    11.7100    12.4340    24.7490   -26.3320 
  229.5000     2.3210    79.0320    19.2340    15.0290    20.1440    24.7770   -26.6200 
  229.6250     2.3100    72.3170    22.9940    18.5450    29.5250    24.8270   -26.8360 
  229.7500     2.3010    73.9340    25.4920    21.3130    32.7590    24.8530   -26.9770 
  229.8750     2.2940    79.1420    26.0730    22.4610    28.1770    24.8490   -27.0430 
  230.0000     2.2890    79.4720    25.8410    22.6340    23.6630    24.8310   -27.0420 
  230.1250     2.2860    74.5550    25.7880    22.6230    22.4800    24.8270   -26.9670 
  230.2500     2.2840    69.1740    26.4570    22.9850    23.8450    24.8460   -26.8070 
  230.3750     2.2820    68.9970    27.9920    23.9920    25.3190    24.8310   -26.5500 
  230.5000     2.2810    71.3810    29.9610    25.4200    27.1130    24.7500   -26.2270 
  230.6250     2.2840    74.1990    31.9930    27.0180    29.6210    24.6140   -25.8530 
  230.7500     2.2940    74.5250    33.7490    28.5090    31.2260    24.5080   -25.4330 
  230.8750     2.3040    69.5720    34.8590    29.5800    30.0580    24.5180   -24.9250 
