~V
VERS. 2.00: Ver 2.00
~W
STRT.M 50.0000:
STOP.M 170.0000:
STEP.M 0.1250:
NULL. -999.2500:
UWI. F11116:
~C
DEPT.M :
SP.MV :
DEN.GM/CC :
GR.API :
RML.OHMM :
RI. :
RXO.OHMM :
CALI.CM :
~A
# ...
   95.0000   -18.4110     2.2110    64.3750     9.7330     7.1680     9.5670    25.1440 
   95.1250   -18.2980     2.2130    65.2600     9.5950     7.0400     9.4900    25.1550 
   95.2500   -18.1460     2.1970    64.4520     9.2750     6.8260     8.9940    25.2200 
   95.3750   -17.9580     2.1810    64.3640     8.8500     6.5920     8.4620    25.3510 
   95.5000   -17.7480     2.1720    67.1920     8.4750     6.4150     8.0250    25.4910 
   95.6250   -17.5270     2.1680    67.2300     8.3730     6.3790     7.8060    25.5550 
   95.7500   -17.2860     2.1600    63.0860     8.5780     6.4890     8.2100    25.5620 
   95.8750   -17.0100     2.1490    60.7440     9.0170     6.7180     8.5910    25.5370 
   96.0000   -16.6930     2.1370    62.8050     9.5130     6.9970     8.6940    25.4410 
   96.1250   -16.3030     2.1340    64.2130     9.8090     7.2050     8.6260    25.2130 
   96.2500   -15.8310     2.1430    63.3100     9.7990     7.2470     8.6650    24.9560 
   96.3750   -15.2900     2.1630    63.4670     9.4930     7.0940     8.5080    24.7850 
   96.5000   -14.7130     2.1870    65.1130     8.9850     6.7830     8.0180    24.7300 
   96.6250   -14.1380     2.2070    68.5550     8.4150     6.3910     7.3230    24.7720 
   96.7500   -13.6180     2.2200    72.8600     7.9250     6.0190     6.5620    24.8570 
   96.8750   -13.1880     2.2260    76.4230     7.5850     5.7240     5.9360    24.9460 
   97.0000   -12.8820     2.2260    78.1180     7.4180     5.5380     5.6360    24.9980 
   97.1250   -12.7460     2.2230    77.4830     7.4290     5.4940     5.6780    25.0000 
   97.2500   -12.7470     2.2180    74.6480     7.5530     5.5550     5.8280    24.9960 
   97.3750   -12.8350     2.2130    69.7990     7.7700     5.7040     6.0920    24.9980 
   97.5000   -12.9540     2.2090    66.7420     8.0730     5.9280     6.5090    25.0020 
   97.6250   -13.0490     2.2030    67.1780     8.4400     6.2120     6.9900    24.9360 
   97.7500   -13.0750     2.1930    67.1450     8.7570     6.4930     7.5020    24.8360 
   97.8750   -12.9790     2.1780    65.0760     8.8860     6.6860     8.1060    24.8320 
   98.0000   -12.7320     2.1640    63.9200     8.7000     6.7010     8.2190    24.9730 
   98.1250   -12.3000     2.1620    67.9580     8.1430     6.4640     8.0730    25.0630 
   98.2500   -11.7370     2.1750    74.9340     7.4500     6.0820     7.2310    24.9400 
   98.3750   -11.0860     2.2030    82.5630     6.8620     5.6800     5.8740    24.7160 
   98.5000   -10.3860     2.2380    89.3000     6.5640     5.3830     4.9720    24.5640 
   98.6250    -9.6960     2.2640    91.5650     6.6480     5.2930     4.8210    24.5380 
   98.7500    -9.0650     2.2750    87.4780     6.9180     5.3510     5.1440    24.5460 
   98.8750    -8.5160     2.2720    81.9150     7.1340     5.4440     5.7610    24.5470 
   99.0000    -8.0450     2.2620    81.4190     7.0470     5.4250     6.1050    24.5730 
   99.1250    -7.6390     2.2530    85.5430     6.5050     5.1670     5.5270    24.6830 
   99.2500    -7.2760     2.2510    88.6940     5.7670     4.7500     4.5270    24.8410 
   99.3750    -6.9600     2.2600    90.9010     5.0900     4.2930     3.7190    24.9640 
   99.5000    -6.7070     2.2800    94.0910     4.6270     3.9020     3.3630    25.0060 
   99.6250    -6.5630     2.3030    98.5610     4.4420     3.6480     3.3780    24.9990 
   99.7500    -6.5450     2.3220   102.6300     4.4270     3.5190     3.5100    24.9960 
   99.8750    -6.6870     2.3360   103.6720     4.5100     3.5030     3.6590    24.9980 
  100.0000    -6.9930     2.3480   100.4550     4.6460     3.5810     3.7750    25.0000 
  100.1250    -7.4790     2.3560    98.8490     4.8130     3.7330     3.9800    25.0050 
  100.2500    -8.0970     2.3470   102.2710     4.9920     3.9140     4.1640    25.0010 
  100.3750    -8.8240     2.3200   106.5580     5.1890     4.1190     4.3570    24.9520 
  100.5000    -9.6380     2.2870   106.3470     5.4540     4.3730     4.6510    24.8390 
  100.6250   -10.5310     2.2720   101.6660     5.8780     4.7380     5.0390    24.7050 
  100.7500   -11.4740     2.2800    94.9890     6.4730     5.2060     5.3970    24.6220 
  100.8750   -12.4590     2.2970    86.7560     7.1990     5.7330     5.9860    24.5950 
  101.0000   -13.4870     2.2980    79.0240     7.9230     6.2280     7.0370    24.5930 
  101.1250   -14.5330     2.2660    75.9300     8.3690     6.5360     7.8900    24.6010 
  101.2500   -15.5440     2.2200    76.5560     8.4320     6.6120     7.4580    24.6240 
  101.3750   -16.4720     2.1790    75.8120     8.1990     6.4990     6.9640    24.6560 
  101.5000   -17.2820     2.1520    71.4460     7.8930     6.3150     6.9730    24.6880 
  101.6250   -17.9270     2.1370    67.3120     7.7910     6.2150     7.2030    24.7130 
  101.7500   -18.4260     2.1320    67.5860     7.9850     6.2800     7.4490    24.7570 
  101.8750   -18.7930     2.1380    70.4320     8.4490     6.5240     7.7430    24.8520 
  102.0000   -19.0540     2.1550    71.8370     9.0710     6.8950     8.2170    24.9830 
  102.1250   -19.2460     2.1760    71.2010     9.6900     7.2840     8.4600    25.0820 
  102.2500   -19.4270     2.1880    70.7630    10.1410     7.5740     8.3470    25.0850 
  102.3750   -19.6100     2.1870    69.6100    10.3020     7.6870     8.1190    24.9810 
  102.5000   -19.8030     2.1790    66.8230    10.1150     7.5920     7.8280    24.8110 
  102.6250   -20.0090     2.1720    65.5660     9.6290     7.3160     7.5760    24.6460 
  102.7500   -20.2370     2.1700    67.3040     9.1040     7.0070     7.4800    24.5460 
  102.8750   -20.4970     2.1690    69.1610     8.7280     6.7740     7.5170    24.5040 
  103.0000   -20.8060     2.1640    68.5590     8.6000     6.6840     7.6930    24.4950 
  103.1250   -21.1750     2.1600    66.2540     8.7610     6.7720     8.1680    24.4900 
  103.2500   -21.5660     2.1650    65.2420     9.0910     6.9730     8.7190    24.5160 
  103.3750   -21.9510     2.1840    66.0750     9.4830     7.2290     9.1490    24.6750 
  103.5000   -22.3050     2.2120    67.1170     9.8210     7.4760     9.5240    24.9740 
  103.6250   -22.5820     2.2280    66.0860     9.9820     7.6370     9.8570    25.2460 
  103.7500   -22.7900     2.2190    62.4980     9.9230     7.6760    10.3450    25.3940 
  103.8750   -22.9250     2.1920    58.7980     9.6350     7.5750    10.7650    25.4540 
  104.0000   -22.9960     2.1630    57.0220     9.1710     7.3540    10.7570    25.3650 
  104.1250   -23.0280     2.1510    56.9270     8.6510     7.0650    10.2390    25.0570 
  104.2500   -23.0550     2.1550    57.5540     8.2100     6.7980     9.5760    24.8340 
  104.3750   -23.0780     2.1670    58.0440     7.9280     6.6050     8.5780    24.9220 
  104.5000   -23.0860     2.1760    57.9760     7.8520     6.5170     8.6650    25.2000 
  104.6250   -23.0390     2.1800    56.7640     8.0000     6.5460     8.9510    25.3520 
  104.7500   -22.9330     2.1810    55.9980     8.2550     6.6380     9.2100    25.3700 
  104.8750   -22.7560     2.1810    58.0230     8.5190     6.7500     9.3480    25.3580 
  105.0000   -22.5100     2.1790    61.9490     8.7160     6.8430     9.3930    25.3340 
  105.1250   -22.1870     2.1760    64.1550     8.8010     6.8880     9.2470    25.2470 
  105.2500   -21.8240     2.1780    63.6220     8.8330     6.8940     9.0320    25.1160 
  105.3750   -21.4590     2.1840    62.3060     8.8710     6.8700     8.8770    25.0290 
  105.5000   -21.1310     2.1900    62.3410     8.9420     6.8290     8.7590    25.0510 
  105.6250   -20.8660     2.1890    62.2010     9.0270     6.7850     8.7000    25.1480 
  105.7500   -20.6350     2.1800    60.9100     9.0670     6.7410     8.6680    25.2570 
  105.8750   -20.4060     2.1680    59.9130     9.0310     6.6920     8.7470    25.3110 
  106.0000   -20.1530     2.1620    59.8480     8.9270     6.6330     8.8840    25.1860 
  106.1250   -19.8590     2.1700    59.6420     8.8250     6.5850     9.0810    24.8500 
