~V
VERS. 2.00: Ver 2.00
~W
STRT.M 60.0000:
STOP.M 282.0000:
STEP.M 0.1250:
NULL. -999.2500:
UWI. F11159:
~C
DEPT.M :
GR.API :
RML.OHMM :
RI. :
RXO.OHMM :
CALI.CM :
SP.MV :
DEN.GM/CC :
~A
# ...
  240.0000    56.5080    22.5270    21.6530    22.4720    23.5650   -18.2370     2.2050 
  240.1250    57.6240    22.4210    21.4740    21.0070    23.4320   -18.2540     2.2020 
  240.2500    60.2020    22.4120    21.4180    19.8120    23.1720   -18.2710     2.2040 
  240.3750    63.6570    22.2640    21.5900    18.5800    23.0030   -18.2740     2.2110 
  240.5000    65.9980    22.2570    21.6290    17.2880    22.5670   -18.2800     2.2210 
  240.6250    64.1800    22.3310    21.5900    16.8730    22.0450   -18.2740     2.2280 
  240.7500    59.2450    22.4510    21.5840    17.9560    22.0160   -18.2560     2.2300 
  240.8750    56.3350    22.6380    21.6300    19.7200    22.4670   -18.2190     2.2260 
  241.0000    58.6990    22.8660    21.6890    21.3920    22.7630   -18.1880     2.2190 
  241.1250    61.8990    22.9990    21.6130    23.1860    23.2090   -18.1810     2.2130 
  241.2500    60.8420    22.8790    21.2730    24.2340    23.6500   -18.1760     2.2110 
  241.3750    58.0460    22.4240    20.6260    23.7670    23.7180   -18.1950     2.2120 
  241.5000    57.9120    21.6700    19.7460    22.0520    23.7310   -18.2010     2.2140 
  241.6250    62.9120    20.7510    18.7900    21.6230    23.7290   -18.2080     2.2160 
  241.7500    66.8230    19.8480    17.9110    20.7220    23.7240   -18.2250     2.2180 
  241.8750    66.0130    19.0300    17.1510    19.7540    23.7280   -18.2460     2.2220 
  242.0000    62.2550    18.2980    16.4860    19.0620    23.7230   -18.2680     2.2290 
  242.1250    61.5740    17.6300    15.8860    18.0740    23.7240   -18.2970     2.2380 
  242.2500    66.0230    17.0340    15.3690    17.5690    23.7310   -18.3230     2.2460 
  242.3750    71.3330    16.5860    15.0180    16.6780    23.7270   -18.3530     2.2500 
  242.5000    71.7610    16.3810    14.9250    16.1140    23.7230   -18.4080     2.2510 
  242.6250    67.6710    16.5370    15.1880    15.7520    23.7210   -18.4810     2.2490 
  242.7500    62.9350    17.0010    15.7260    16.0750    23.7130   -18.5730     2.2430 
  242.8750    59.1090    17.7100    16.4550    17.8030    23.6860   -18.6780     2.2340 
  243.0000    57.6200    18.5710    17.2720    20.3990    23.6270   -18.7990     2.2200 
  243.1250    61.1610    19.5220    18.1230    21.4860    23.5370   -18.8800     2.2030 
  243.2500    66.6570    20.5730    19.0600    20.9720    23.4990   -18.9450     2.1880 
  243.3750    68.9610    21.8520    20.2280    21.5940    23.4860   -18.9880     2.1800 
  243.5000    67.3110    23.5160    21.7700    23.7390    23.4830   -19.0310     2.1820 
  243.6250    65.1470    25.7150    23.7590    27.4800    23.4820   -19.0490     2.1940 
  243.7500    63.1390    28.2180    25.9110    30.4810    23.4760   -19.0550     2.2110 
  243.8750    60.5770    30.6770    27.8830    32.9200    23.4500   -19.0570     2.2300 
  244.0000    58.0560    32.6730    29.3220    35.5850    23.3460   -19.0430     2.2500 
  244.1250    57.4570    33.6680    29.7930    35.7040    23.3010   -19.0380     2.2760 
  244.2500    58.7680    33.5590    29.2740    33.2330    23.2560   -19.0430     2.3000 
  244.3750    60.5900    32.2630    27.7610    31.0740    23.2540   -19.0570     2.3160 
  244.5000    60.0520    29.9130    25.4390    31.5030    23.2630   -19.0610     2.3160 
  244.6250    58.9960    26.9410    22.7600    30.9270    23.3120   -19.0760     2.2970 
  244.7500    63.3720    24.1240    20.3750    27.4290    23.3670   -19.0890     2.2730 
  244.8750    71.2140    21.9220    18.6520    23.0180    23.2200   -19.1010     2.2530 
  245.0000    74.1760    20.5550    17.7360    19.5850    23.1900   -19.1100     2.2420 
  245.1250    69.1490    20.2190    17.7440    19.6270    23.2490   -19.1340     2.2360 
  245.2500    64.2490    20.7390    18.4640    21.1110    23.4310   -19.1770     2.2280 
  245.3750    62.4830    22.0450    19.7840    22.4530    23.6010   -19.2430     2.2140 
  245.5000    63.1150    24.0010    21.5500    23.1920    23.5950   -19.3240     2.2020 
  245.6250    65.7690    26.4420    23.6020    25.2230    23.5520   -19.4110     2.2110 
  245.7500    70.3460    29.0370    25.7050    30.9560    23.4100   -19.5100     2.2540 
  245.8750    74.6030    31.5770    27.7270    39.2490    23.1850   -19.6180     2.3300 
  246.0000    74.2950    33.9090    29.5980    48.6350    22.9650   -19.7330     2.4200 
  246.1250    67.5830    35.9100    31.2630    58.9830    22.9680   -19.8560     2.4870 
  246.2500    60.4300    37.5650    32.7130    79.1320    23.4420   -19.9830     2.5090 
  246.3750    58.6240    38.8200    33.8930    79.5090    23.5360   -20.1000     2.4900 
  246.5000    62.3870    39.6790    34.7700    57.8150    23.3140   -20.2150     2.4480 
  246.6250    67.1540    40.1830    35.3440    43.0350    23.1190   -20.3570     2.4080 
  246.7500    69.6630    40.5540    35.8090    37.2710    23.0510   -20.4960     2.3840 
  246.8750    69.8220    41.0320    36.3860    33.5690    23.0130   -20.6390     2.3790 
  247.0000    68.4110    41.8370    37.2560    32.5110    22.7800   -20.7700     2.3870 
  247.1250    68.6960    43.0460    38.4410    34.2540    22.6500   -20.8880     2.3950 
  247.2500    71.0270    44.3490    39.6290    38.8070    22.8620   -20.9810     2.3900 
  247.3750    73.5270    45.4020    40.5010    42.8760    23.2190   -21.0600     2.3640 
  247.5000    74.8320    45.8680    40.7720    43.9990    23.3820   -21.1240     2.3160 
  247.6250    75.1850    45.3780    40.1670    42.7330    23.2170   -21.1390     2.2570 
  247.7500    75.9760    44.1180    38.9330    40.3890    23.2510   -21.1390     2.2110 
  247.8750    75.5030    42.4260    37.4370    39.6490    23.2650   -21.1120     2.1970 
  248.0000    75.1860    40.8460    36.2210    38.6430    23.2840   -21.1000     2.2280 
  248.1250    76.5460    40.1920    36.0590    36.6700    23.2820   -21.0910     2.3040 
  248.2500    77.0530    40.8350    37.1880    34.5860    23.1780   -21.0880     2.3910 
  248.3750    75.5770    42.9200    39.5990    35.1850    22.9550   -21.1070     2.4590 
  248.5000    73.2390    46.1840    42.8430    38.1370    22.6120   -21.1360     2.4870 
  248.6250    73.5070    49.6690    45.7380    44.3020    22.2120   -21.2010     2.4730 
  248.7500    76.1210    51.8720    46.9520    42.6810    21.7380   -21.2800     2.4460 
  248.8750    77.8530    51.8100    45.8640    37.9360    21.6300   -21.3640     2.4230 
  249.0000    77.8260    49.5130    42.9410    33.3680    21.7990   -21.4540     2.4100 
  249.1250    76.8230    46.0140    39.5020    29.2820    21.7660   -21.5480     2.4050 
  249.2500    78.9800    42.8010    36.7470    27.5700    21.6830   -21.6370     2.3970 
  249.3750    82.4870    40.4130    34.9540    26.0580    21.6530   -21.6930     2.3810 
  249.5000    82.7570    38.8320    33.9370    24.2570    21.4020   -21.7350     2.3550 
  249.6250    78.9640    37.7150    33.2360    23.6550    21.5270   -21.7450     2.3200 
  249.7500    75.5060    36.2850    32.0780    25.0770    21.9530   -21.7320     2.2900 
  249.8750    75.5930    33.8180    29.8260    26.4680    22.4730   -21.7090     2.2710 
  250.0000    77.2620    30.0090    26.2970    26.8470    23.1100   -21.6550     2.2700 
  250.1250    77.7850    25.4410    22.1210    25.9840    23.3910   -21.5670     2.2920 
  250.2500    77.2720    21.4180    18.5500    24.1150    23.3200   -21.4570     2.3310 
  250.3750    78.1430    18.6800    16.3280    19.7470    23.1310   -21.3290     2.3790 
  250.5000    81.5560    17.5210    15.7740    14.9260    23.0470   -21.2100     2.4250 
  250.6250    82.9360    18.2530    17.1460    19.0520    22.8440   -21.0860     2.4590 
  250.7500    78.1280    20.5270    19.8640    29.3470    22.8740   -20.9560     2.4790 
  250.8750    71.3670    23.9310    23.2120    37.1260    22.8410   -20.8180     2.4830 
  251.0000    68.9040    27.1830    25.7640    28.8170    22.4590   -20.6540     2.4660 
  251.1250    69.2120    27.3970    25.0760    23.1310    22.1960   -20.4760     2.4220 
