~V
VERS. 2.00: Ver 2.00
~W
STRT.M 49.0000:
STOP.M 247.0000:
STEP.M 0.1250:
NULL. -999.2500:
UWI. F11144:
~C
DEPT.M :
DEN.GM/CC :
SP.MV :
GR.API :
RML.OHMM :
RI. :
RXO.OHMM :
CALI.CM :
~A
# ...
   71.5000     2.1800   -45.1120    69.9250     8.4070     6.4020     9.8740    23.5460 
   71.6250     2.1640   -46.5760    64.6540     8.4940     6.5160    10.4310    24.1580 
   71.7500     2.1560   -47.6500    61.0020     8.4320     6.5050    10.4880    24.4950 
   71.8750     2.1480   -48.3700    60.4860     8.3150     6.4200    10.4740    24.4900 
   72.0000     2.1350   -48.7790    64.1000     8.2070     6.3040    10.2170    24.3570 
   72.1250     2.1180   -48.8280    68.0790     8.1440     6.1960     9.8470    24.2380 
   72.2500     2.1070   -48.5550    67.1270     8.1350     6.1220     9.5980    24.1660 
   72.3750     2.1100   -48.1660    64.5970     8.1580     6.0800    10.2670    24.1460 
   72.5000     2.1210   -47.6760    63.0900     8.2040     6.0680    10.8460    24.2330 
   72.6250     2.1320   -47.1010    62.1170     8.2750     6.0860    10.8330    24.4820 
   72.7500     2.1340   -46.4840    60.6930     8.3710     6.1370    10.7470    24.7130 
   72.8750     2.1310   -45.8070    60.9830     8.4730     6.2020    11.2380    24.8590 
   73.0000     2.1260   -45.0380    61.7450     8.5550     6.2650    11.8630    24.9870 
   73.1250     2.1170   -44.2690    61.9990     8.5990     6.3120    12.1630    25.0680 
   73.2500     2.1120   -43.5150    63.5060     8.6040     6.3360    11.8250    24.9370 
   73.3750     2.1180   -42.7920    66.8050     8.6130     6.3500    11.2140    24.6970 
   73.5000     2.1320   -42.1690    70.2290     8.6670     6.3760    10.9710    24.5910 
   73.6250     2.1450   -41.6690    71.4310     8.7880     6.4310    11.1560    24.5730 
   73.7500     2.1510   -41.3120    70.2850     8.9660     6.5200    11.4680    24.5150 
   73.8750     2.1520   -41.1040    70.4620     9.1390     6.6220    11.5330    24.2960 
   74.0000     2.1530   -41.0200    71.0260     9.2570     6.7080    11.4980    24.0320 
   74.1250     2.1580   -41.0160    70.2130     9.2920     6.7540    11.5400    23.8740 
   74.2500     2.1650   -41.0960    69.2960     9.2350     6.7450    11.7650    23.9260 
   74.3750     2.1690   -41.1350    71.6070     9.1240     6.6930    12.1020    24.2220 
   74.5000     2.1650   -41.0950    73.3100     8.9840     6.6050    12.1850    24.6640 
   74.6250     2.1560   -41.0280    70.2820     8.8380     6.4980    12.0300    24.9700 
   74.7500     2.1470   -40.9000    66.8770     8.7170     6.3950    11.8590    25.0760 
   74.8750     2.1410   -40.7260    66.3360     8.6470     6.3240    11.7660    25.1240 
   75.0000     2.1380   -40.6070    67.6120     8.6460     6.3070    11.6840    25.1530 
   75.1250     2.1360   -40.5150    68.4360     8.7240     6.3570    11.8160    24.9890 
   75.2500     2.1480   -40.4300    68.7660     8.8860     6.4850    12.3600    24.4770 
   75.3750     2.1760   -40.4110    70.5130     9.1000     6.6620    13.1010    23.9680 
   75.5000     2.2080   -40.3700    73.2680     9.3380     6.8670    13.5970    24.0840 
   75.6250     2.2160   -40.2460    75.5670     9.5630     7.0700    13.9450    24.7310 
   75.7500     2.1860   -40.0450    75.3800     9.7080     7.2250    13.9250    25.3200 
   75.8750     2.1470   -39.6570    72.7660     9.7350     7.3110    13.7540    25.5300 
   76.0000     2.1150   -39.0500    69.4630     9.6200     7.3100    13.5990    25.5050 
   76.1250     2.0920   -38.2570    67.1590     9.3630     7.2150    13.6610    25.4440 
   76.2500     2.0780   -37.1640    66.3000     8.9900     7.0250    13.3780    25.2470 
   76.3750     2.0830   -35.8820    68.3890     8.6030     6.7990    12.8820    24.7740 
   76.5000     2.1100   -34.5320    75.2320     8.2960     6.5970    12.3950    24.0650 
   76.6250     2.1520   -33.1180    84.7780     8.1500     6.4810    11.9860    23.5250 
   76.7500     2.1920   -31.7170    87.6300     8.2490     6.5180    11.4040    23.3140 
   76.8750     2.2200   -30.3950    83.3820     8.5150     6.6700    11.0320    23.2800 
   77.0000     2.2360   -29.0420    78.9280     8.8190     6.8530    11.2860    23.3120 
   77.1250     2.2480   -27.6550    78.5310     8.9810     6.9430    11.7440    23.4150 
   77.2500     2.2570   -26.2940    82.5880     8.7640     6.7720    11.3680    23.5600 
   77.3750     2.2670   -24.9360    89.2650     8.1750     6.3430    10.2310    23.6580 
   77.5000     2.2800   -23.6830    96.4010     7.3400     5.7370     8.6410    23.6910 
   77.6250     2.2990   -22.5950   101.3350     6.4920     5.0980     6.8190    23.6720 
   77.7500     2.3230   -21.6750   102.7380     5.9780     4.6260     6.4220    23.6450 
   77.8750     2.3400   -20.9870   101.7760     6.0430     4.4740     6.5500    23.7380 
   78.0000     2.3500   -20.6100    97.8280     6.9610     4.8050     6.9560    24.0060 
   78.1250     2.3720   -20.5870    91.7360     9.0490     5.8360     7.9960    24.3450 
   78.2500     2.4270   -21.1120    84.1860    12.8620     8.0800    10.7490    24.4390 
   78.3750     2.5000   -22.0700    75.3350    17.9720    11.5770    19.1710    24.3670 
   78.5000     2.5620   -23.3170    67.5420    23.0430    15.7870    34.4690    24.2090 
   78.6250     2.5920   -24.8960    64.8220    25.4090    18.8530    42.8780    24.0050 
   78.7500     2.5760   -26.8340    68.7610    22.5290    18.1510    35.1320    23.8700 
   78.8750     2.5160   -28.9550    71.5870    17.3760    15.0890    25.3570    23.8770 
   79.0000     2.4190   -31.2730    71.1420    12.7920    11.7300    17.4700    23.9800 
   79.1250     2.3160   -33.7160    69.5710     9.8850     9.1730    12.1610    24.1340 
   79.2500     2.2390   -36.0120    70.0030     8.6280     7.6970    10.9370    24.3770 
   79.3750     2.1900   -38.0950    70.1150     8.2130     6.9030    11.1030    24.5810 
   79.5000     2.1580   -39.9350    66.7680     8.2710     6.5850    11.5390    24.6770 
   79.6250     2.1340   -41.3570    62.3350     8.5560     6.5820    11.4800    24.6910 
   79.7500     2.1190   -42.3140    60.8440     8.8750     6.7630    11.0690    24.5260 
   79.8750     2.1170   -42.9660    61.3020     9.1240     6.9780    10.6710    24.1110 
   80.0000     2.1240   -43.3100    61.4060     9.2800     7.1680    10.9240    23.6730 
   80.1250     2.1310   -43.4260    60.7470     9.3390     7.2990    12.2490    23.5620 
   80.2500     2.1310   -43.4110    61.6860     9.2760     7.3270    13.9280    23.7380 
   80.3750     2.1290   -43.3200    62.5100     9.1250     7.2560    12.9570    23.8800 
   80.5000     2.1300   -43.2370    62.4220     8.9350     7.1110    11.5060    23.8920 
   80.6250     2.1310   -43.2310    63.0950     8.7660     6.9400    10.9490    23.8640 
   80.7500     2.1250   -43.2430    64.5720     8.6770     6.8040    11.0010    23.8710 
   80.8750     2.1130   -43.2860    64.3080     8.6630     6.7250    11.1380    23.9860 
   81.0000     2.0910   -43.3150    62.6430     8.6930     6.6900    11.4830    24.2990 
   81.1250     2.0580   -43.2560    61.4890     8.7210     6.6650    11.7550    24.7780 
   81.2500     2.0450   -43.1820    60.0020     8.7110     6.6190    11.8750    25.0160 
   81.3750     2.0770   -43.1060    56.1610     8.6730     6.5590    11.7280    24.7070 
   81.5000     2.1440   -43.0070    53.8580     8.6290     6.4970    11.5910    24.0820 
   81.6250     2.2050   -42.9690    57.8930     8.6000     6.4490    11.6050    23.7490 
   81.7500     2.2110   -42.9840    64.0430     8.6010     6.4230    11.6620    23.9080 
   81.8750     2.1860   -43.0170    65.0330     8.6180     6.4120    11.6400    24.2940 
   82.0000     2.1550   -43.1200    62.3750     8.6360     6.4100    11.6490    24.5850 
   82.1250     2.1300   -43.2560    60.8880     8.6420     6.4090    11.9210    24.6930 
   82.2500     2.1180   -43.3000    62.7120     8.6360     6.4050    12.1880    24.7010 
   82.3750     2.1160   -43.2950    62.9470     8.6300     6.4000    12.2920    24.7050 
   82.5000     2.1220   -43.1850    61.1230     8.6420     6.4070    12.3000    24.7010 
   82.6250     2.1330   -42.8710    59.0040     8.6890     6.4420    12.5110    24.7190 
