~V
VERS. 2.00: Ver 2.00
~W
STRT.M 63.0000:
STOP.M 244.0000:
STEP.M 0.1250:
NULL. -999.2500:
UWI. F11131:
~C
DEPT.M :
SP.MV :
DEN.GM/CC :
GR.API :
RML.OHMM :
RI. :
RXO.OHMM :
CALI.CM :
~A
# ...
  164.2500   -26.5440     2.2650    88.4430     6.9220     6.2070     7.5960    24.4590 
  164.3750   -26.5110     2.2700    86.5400     6.3260     5.6740     7.8910    24.4620 
  164.5000   -26.5380     2.2780    83.7400     5.9330     5.2720     7.5440    24.4490 
  164.6250   -26.6130     2.2790    82.6990     6.0010     5.1960     6.5780    24.3640 
  164.7500   -26.6780     2.2730    82.3330     6.6090     5.5160     5.4410    24.2380 
  164.8750   -26.7440     2.2620    80.5610     7.8370     6.3030     5.1660    24.1400 
  165.0000   -26.8190     2.2550    78.1460     9.6930     7.5870     5.8040    24.1070 
  165.1250   -26.9240     2.2540    78.2380    12.0780     9.3590     7.2150    24.1140 
  165.2500   -27.0720     2.2530    79.2010    14.5160    11.2990     8.9590    24.1110 
  165.3750   -27.2610     2.2510    78.1610    16.5620    13.0650    10.5950    24.0960 
  165.5000   -27.4540     2.2440    75.3590    17.8980    14.3550    12.3810    24.0740 
  165.6250   -27.6180     2.2390    74.8190    18.3920    14.9820    13.5920    23.9970 
  165.7500   -27.7650     2.2380    77.7940    18.4120    15.1760    13.9360    23.8910 
  165.8750   -27.8980     2.2420    81.0670    18.2170    15.1230    13.7870    23.8790 
  166.0000   -28.0460     2.2470    81.2940    17.9850    14.9640    12.8150    24.0310 
  166.1250   -28.2150     2.2490    79.3430    17.8070    14.7880    12.3970    24.2330 
  166.2500   -28.3870     2.2490    78.7030    17.6370    14.6140    11.9970    24.3250 
  166.3750   -28.5280     2.2490    79.3920    17.3470    14.3890    11.7230    24.3210 
  166.5000   -28.6190     2.2510    79.3580    16.8070    14.0370    11.8200    24.2930 
  166.6250   -28.6680     2.2550    76.9660    15.9960    13.5340    11.3710    24.2660 
  166.7500   -28.6930     2.2580    74.3360    15.1580    13.0140    11.8360    24.2510 
  166.8750   -28.6940     2.2570    74.4430    14.4770    12.5960    12.1100    24.2310 
  167.0000   -28.6560     2.2470    76.5010    14.0130    12.3300    11.3300    24.1860 
  167.1250   -28.5630     2.2320    75.8600    13.6660    12.1690    10.7200    24.1400 
  167.2500   -28.4150     2.2180    72.2710    13.1990    11.9500    12.1800    24.1220 
  167.3750   -28.2440     2.2100    69.3970    12.4870    11.5550    12.8110    24.0760 
  167.5000   -28.0820     2.2140    71.9210    11.5830    10.9840    11.5560    23.9060 
  167.6250   -27.9200     2.2230    79.4760    10.7390    10.3790     8.9050    23.7450 
  167.7500   -27.7590     2.2330    85.2390    10.1820     9.9290     7.2160    24.1670 
  167.8750   -27.6240     2.2380    85.1850    10.0060     9.7360     6.7040    25.4120 
  168.0000   -27.5210     2.2410    80.8750    10.1890     9.8220     7.2450    26.4720 
  168.1250   -27.4610     2.2470    79.6410    10.6260    10.1430     8.2270    25.8750 
  168.2500   -27.4570     2.2540    81.4180    11.0660    10.5090     8.8960    24.4520 
  168.3750   -27.4890     2.2580    81.8590    11.3120    10.7460     8.8120    23.5740 
  168.5000   -27.5450     2.2580    80.7800    11.2150    10.7060     7.8640    23.5990 
  168.6250   -27.6720     2.2590    80.0580    10.7450    10.3300     8.0360    23.7860 
  168.7500   -27.8620     2.2670    80.3380    10.2350     9.8740     9.2650    23.8570 
  168.8750   -28.1040     2.2800    81.4370    10.1120     9.6560     9.4480    24.0030 
  169.0000   -28.4000     2.2860    84.4230    10.9460    10.0610     8.6570    24.3170 
  169.1250   -28.7600     2.2770    84.6280    13.8990    11.8940    10.3720    24.8200 
  169.2500   -29.1720     2.2530    77.7660    19.7240    15.8330    19.1050    25.3800 
  169.3750   -29.6340     2.2240    67.7540    29.4720    22.9060    39.3450    25.9100 
  169.5000   -30.1510     2.1970    60.5040    44.0300    34.0610    64.9830    26.3250 
  169.6250   -30.7230     2.1770    58.0390    63.5390    49.5330    72.0150    26.4710 
  169.7500   -31.3260     2.1640    57.0850    83.3910    65.4580    84.7450    26.3220 
  169.8750   -31.9010     2.1590    57.3490    98.5690    77.9450   108.7530    25.9170 
  170.0000   -32.4100     2.1620    59.8610   107.1230    85.5320   129.2230    25.4330 
  170.1250   -32.8030     2.1690    63.2220   110.8910    89.1860   148.1640    25.1640 
  170.2500   -33.0930     2.1790    64.3040   113.3600    91.2850   151.5540    25.2000 
  170.3750   -33.3010     2.1860    63.3260   115.5400    92.6910   142.6290    25.4320 
  170.5000   -33.4350     2.1900    63.2610   117.9340    93.9910   137.3830    25.5890 
  170.6250   -33.4670     2.1900    65.0960   120.7870    95.5970   136.5540    25.4270 
  170.7500   -33.4380     2.1860    65.2000   123.7320    97.4280   126.9040    25.0740 
  170.8750   -33.3950     2.1790    63.3640   126.3000    99.2400   114.4010    24.7460 
  171.0000   -33.3560     2.1750    62.9540   126.7750    99.5930   111.8530    24.6870 
  171.1250   -33.3510     2.1760    63.9130   128.3180   101.0540   114.3510    24.5190 
  171.2500   -33.3620     2.1840    65.6670   129.2910   102.3060   133.5030    24.3860 
  171.3750   -33.3720     2.2000    66.0040   130.3870   103.7070   138.2830    24.3080 
  171.5000   -33.3740     2.2150    65.7730   132.2920   105.6580   100.1640    24.3550 
  171.6250   -33.3540     2.2160    64.9070   135.2120   108.3290    79.5980    24.4380 
  171.7500   -33.3130     2.1990    62.0880   137.9070   110.9870    84.5750    24.4300 
  171.8750   -33.2760     2.1700    58.8740   138.5250   112.4970   103.3730    24.3510 
  172.0000   -33.2640     2.1430    59.1030   135.1770   111.5930   104.9090    24.2740 
  172.1250   -33.2640     2.1320    62.5250   126.2890   106.8810   103.5410    24.1890 
  172.2500   -33.2610     2.1460    66.1850   114.0770    99.3010    93.6580    24.0510 
  172.3750   -33.2440     2.1740    68.5080   101.0490    90.2670    78.7830    23.9480 
  172.5000   -33.2090     2.1890    67.5040    89.4930    81.4950    81.4920    24.0040 
  172.6250   -33.1680     2.1710    66.8030    87.7400    80.0600    81.7080    24.0320 
  172.7500   -33.1020     2.1300    64.1760    80.0280    73.6390    75.3760    24.1340 
  172.8750   -33.0050     2.0840    64.5210    75.4150    69.5100    49.9970    24.1060 
  173.0000   -32.8670     2.0660    66.4590    73.7190    67.6540    32.2220    24.0040 
  173.1250   -32.7000     2.0830    67.1320    75.1210    68.2330    26.2260    24.0590 
  173.2500   -32.5320     2.1270    66.9390    78.6980    70.5220    34.3800    24.3330 
  173.3750   -32.3780     2.1730    65.4350    83.6580    73.8950    42.2650    24.7010 
  173.5000   -32.2450     2.1960    61.2560    89.0510    77.5970    35.3220    24.9880 
  173.6250   -32.1440     2.1990    56.4940    94.0580    81.0020    31.1010    25.0490 
  173.7500   -32.0680     2.1890    55.1440    98.5450    84.0360    44.7790    25.0090 
  173.8750   -31.9910     2.1760    56.7120   102.7610    86.8840    58.4570    24.9770 
  174.0000   -31.9090     2.1690    59.4880   107.1260    89.8300    53.6540    24.9730 
  174.1250   -31.7890     2.1710    60.9590   111.8900    93.0340    49.9160    24.9680 
  174.2500   -31.6410     2.1810    59.8900   116.3130    96.0110    64.8740    24.8960 
  174.3750   -31.4790     2.1930    58.6170   119.0480    97.8700    88.6170    24.7580 
  174.5000   -31.2990     2.2000    60.4050   118.8580    97.7580    80.4600    24.6420 
  174.6250   -31.0790     2.1960    63.2020   115.1800    95.1680    73.4560    24.6740 
  174.7500   -30.8260     2.1810    63.1810   109.7060    91.1640    89.8390    24.8020 
  174.8750   -30.5450     2.1630    61.4560   103.0690    86.2550    92.7890    24.9200 
  175.0000   -30.2610     2.1550    60.9280    94.7790    80.2320    65.9030    24.9740 
  175.1250   -30.0030     2.1650    62.2890    83.9430    72.4090    76.7890    24.9660 
  175.2500   -29.7580     2.1870    63.4310    72.1740    63.6540    88.0610    24.9160 
  175.3750   -29.5300     2.2130    63.8150    61.7720    55.5210    67.8900    24.8000 
