~V
VERS. 2.00: Ver 2.00
~W
STRT.M 50.0000:
STOP.M 201.0000:
STEP.M 0.1250:
NULL. -999.2500:
UWI. F11102:
~C
DEPT.M :
GR.API :
RML.OHMM :
RI. :
RXO.OHMM :
CALI.CM :
SP.MV :
DEN.GM/CC :
~A
# ...
  151.2500    46.3890   100.9440    98.4600    87.9010    40.2290   -25.4040     2.1070 
  151.3750    48.4810   108.3690   106.2100    97.0330    40.2320   -25.3600     2.1140 
  151.5000    50.0930   112.5510   110.7090   105.5950    40.2290   -25.3160     2.1200 
  151.6250    48.0600   113.7370   112.0270   114.7160    40.2100   -25.2510     2.1250 
  151.7500    45.8480   113.2740   111.5250   120.1820    40.2310   -25.1580     2.1300 
  151.8750    45.7570   111.6860   109.7800   120.4080    40.2400   -25.0560     2.1350 
  152.0000    46.2170   109.3550   107.2130   115.3930    40.2370   -24.9330     2.1400 
  152.1250    47.1380   106.7510   104.3050   108.8010    40.2470   -24.7800     2.1440 
  152.2500    49.8400   104.5080   101.7390   104.8620    40.2690   -24.6380     2.1480 
  152.3750    52.0240   102.9910    99.9610   102.9390    40.3480   -24.4830     2.1520 
  152.5000    49.6000   102.1580    99.0740    99.6910    40.4600   -24.3060     2.1550 
  152.6250    45.1560   101.3390    98.6130    96.5430    40.4600   -24.1040     2.1580 
  152.7500    46.1710    99.6030    97.5790    96.3310    40.4220   -23.9080     2.1600 
  152.8750    51.0020    96.5170    95.3620    98.7260    40.4070   -23.7200     2.1620 
  153.0000    54.5510    92.3690    91.9990    98.3300    40.3830   -23.5390     2.1610 
  153.1250    56.1250    88.2250    88.2760    90.6000    40.3470   -23.4160     2.1600 
  153.2500    56.1330    85.2680    85.3850    83.2680    40.3810   -23.3230     2.1580 
  153.3750    53.9020    84.0360    84.0210    77.8760    40.4030   -23.2720     2.1560 
  153.5000    51.1210    84.2620    84.1750    79.0520    40.3920   -23.2540     2.1520 
  153.6250    52.3860    84.8000    84.9510    81.9290    40.3370   -23.2550     2.1480 
  153.7500    54.2280    84.2510    84.9060    81.9660    40.2510   -23.2610     2.1450 
  153.8750    52.3140    82.1110    83.3520    82.2310    40.1190   -23.2810     2.1440 
  154.0000    48.4310    78.8150    80.4850    84.1850    40.0430   -23.3110     2.1450 
  154.1250    48.8610    75.5670    77.3170    78.2300    40.0970   -23.3190     2.1490 
  154.2500    51.9610    73.3720    75.0000    65.8400    40.1350   -23.2870     2.1520 
  154.3750    53.3880    72.4800    73.9860    63.2770    40.1010   -23.2150     2.1530 
  154.5000    52.2500    72.5950    74.1420    69.6880    40.0510   -23.1110     2.1520 
  154.6250    50.7400    73.0860    74.9170    76.4770    39.9330   -23.0260     2.1480 
  154.7500    49.7500    73.1860    75.4270    73.9250    39.8720   -22.9200     2.1440 
  154.8750    50.0050    72.5130    75.1370    72.6900    39.8670   -22.7950     2.1410 
  155.0000    52.4940    71.0530    73.8950    78.6760    39.8980   -22.6370     2.1410 
  155.1250    56.6690    69.1460    71.9530    75.1580    39.7510   -22.4790     2.1430 
  155.2500    59.3460    67.4660    70.0490    67.2830    39.3500   -22.3020     2.1470 
  155.3750    59.4940    66.5620    68.7590    62.3460    39.2390   -22.1070     2.1510 
  155.5000    57.4010    66.9280    68.5860    61.1410    39.1410   -21.9190     2.1540 
  155.6250    54.9470    69.2770    70.2340    62.8810    38.9600   -21.6990     2.1550 
  155.7500    54.1090    73.5770    73.7560    66.4730    38.8000   -21.4710     2.1540 
  155.8750    55.0480    79.7920    79.2020    77.7540    38.5960   -21.2380     2.1510 
  156.0000    55.5340    87.5910    86.3250    89.6870    38.3900   -21.0780     2.1480 
  156.1250    52.3270    96.3760    94.6130    95.3780    38.2560   -20.9630     2.1430 
  156.2500    48.6250   104.9920   102.9130    94.0180    38.0340   -20.9050     2.1400 
  156.3750    47.3940   112.3820   110.2120   102.4600    37.7480   -20.9390     2.1370 
  156.5000    48.6670   117.4480   115.4720   119.8140    37.5130   -21.0070     2.1360 
  156.6250    50.1080   118.6800   117.2210   129.6480    37.3790   -21.1120     2.1370 
  156.7500    49.8920   116.5180   115.6500   128.1390    37.1650   -21.2610     2.1400 
  156.8750    48.2660   112.0080   111.4730   121.0360    36.9790   -21.4460     2.1430 
  157.0000    46.6770   107.0190   106.2930   114.9380    36.7840   -21.6000     2.1480 
  157.1250    47.0070   103.9470   102.3750    98.4180    36.7090   -21.7210     2.1530 
  157.2500    47.4880   103.6690   100.8880    80.7390    36.6770   -21.8120     2.1560 
  157.3750    46.2830   106.0930   101.9960    69.6070    36.4750   -21.8380     2.1580 
  157.5000    45.8540   110.2870   105.0220    75.2420    35.9880   -21.8340     2.1570 
  157.6250    48.1980   114.6070   108.6030    96.8280    35.8330   -21.8060     2.1560 
  157.7500    49.5700   117.5400   111.2230   120.6600    35.6900   -21.7250     2.1560 
  157.8750    48.9640   118.6500   112.3010   124.2560    35.5790   -21.6040     2.1580 
  158.0000    49.1230   118.6120   112.2200   116.0950    35.4690   -21.4700     2.1600 
  158.1250    51.6150   119.0880   112.3590   115.9800    35.3580   -21.2950     2.1620 
  158.2500    54.7310   121.1940   113.9440   127.6490    35.2140   -21.1040     2.1610 
  158.3750    56.1330   124.9040   117.1890   132.6060    35.0390   -20.8870     2.1610 
  158.5000    56.5830   129.2810   121.3920   125.4470    34.8300   -20.6480     2.1610 
  158.6250    56.8480   132.5930   125.0950   122.0970    34.5500   -20.3610     2.1640 
  158.7500    56.6440   133.5720   127.0350   127.6400    34.3470   -20.0780     2.1690 
  158.8750    55.2900   131.5310   126.4490   134.9750    34.1680   -19.7760     2.1740 
  159.0000    51.6120   126.3840   123.0480   141.2580    33.9870   -19.4710     2.1790 
  159.1250    48.8960   118.1480   116.5820   144.0740    33.8380   -19.1560     2.1820 
  159.2500    50.1760   108.1020   108.0770   146.4910    33.6570   -18.8650     2.1830 
  159.3750    53.1240    97.2280    98.3430   147.2050    33.4950   -18.6240     2.1850 
  159.5000    53.8930    86.6030    88.3730   131.5740    33.3160   -18.3990     2.1890 
  159.6250    53.7390    77.4840    79.3760   105.0340    33.0080   -18.2000     2.1960 
  159.7500    56.8510    70.3090    71.9660    82.7190    32.7570   -18.0150     2.2060 
  159.8750    60.3730    65.2990    66.4820    69.5610    32.5150   -17.8540     2.2140 
  160.0000    59.1460    62.4180    62.9930    63.3030    32.2970   -17.6870     2.2190 
  160.1250    55.8700    61.8030    61.6670    62.6990    32.0640   -17.5420     2.2180 
  160.2500    55.6670    62.9900    62.0360    63.6820    31.8240   -17.3850     2.2140 
  160.3750    56.9110    65.9730    64.0490    64.8530    31.5970   -17.2150     2.2100 
  160.5000    56.8200    70.8260    67.7230    66.2620    31.3210   -17.0290     2.2080 
  160.6250    57.1200    78.0040    73.4160    70.2900    31.0120   -16.8860     2.2090 
  160.7500    58.1320    87.1950    80.8450    77.2980    30.7430   -16.7830     2.2130 
  160.8750    57.3380    98.1190    89.7890    88.6110    30.5400   -16.6930     2.2180 
  161.0000    55.4610   109.9750    99.5730   106.2850    30.2840   -16.6280     2.2210 
  161.1250    54.5470   120.9250   108.6390   127.3600    30.0690   -16.5980     2.2220 
  161.2500    53.9610   129.0510   115.3710   146.1800    29.8260   -16.5800     2.2240 
  161.3750    53.8030   133.1320   118.7710   156.9040    29.5920   -16.5400     2.2240 
  161.5000    54.6900   133.1440   118.8250   159.2420    29.3760   -16.5140     2.2240 
  161.6250    56.2370   130.0740   116.2880   152.2730    29.1160   -16.4790     2.2240 
  161.7500    57.7510   126.2720   113.0790   140.2820    28.8830   -16.4170     2.2280 
  161.8750    59.1680   123.0130   110.3190   133.6850    28.6400   -16.3410     2.2380 
  162.0000    58.5420   120.6760   108.5030   132.2790    28.3970   -16.2290     2.2580 
  162.1250    55.3900   117.7690   106.7500   131.9390    28.2030   -16.0890     2.2940 
  162.2500    54.2310   110.9390   102.2160   124.4800    27.9420   -15.9340     2.3440 
  162.3750    56.8410    97.4630    92.0030   111.9260    27.6040   -15.7830     2.4020 
