~V
VERS. 2.00: Ver 2.00
~W
STRT.M 53.0000:
STOP.M 202.0000:
STEP.M 0.1250:
NULL. -999.2500:
UWI. F11113:
~C
DEPT.M :
DEN.GM/CC :
SP.MV :
GR.API :
RML.OHMM :
RI. :
RXO.OHMM :
CALI.CM :
~A
# ...
   98.0000     2.2130   -22.1770    66.1480     9.5770     8.8770    11.4790    24.8120 
   98.1250     2.2330   -22.1510    66.1500     9.3260     8.5540    10.8640    24.8320 
   98.2500     2.2550   -22.0540    63.9720     9.1720     8.3260    10.4820    24.8590 
   98.3750     2.2760   -21.9110    60.3820     9.0460     8.1690    10.1910    24.9070 
   98.5000     2.2880   -21.7780    57.3960     8.8640     8.0200    10.0610    24.9730 
   98.6250     2.2720   -21.6840    56.1390     8.5540     7.8020    10.0250    24.9650 
   98.7500     2.2430   -21.6140    58.0740     8.1530     7.5080     9.6330    24.8540 
   98.8750     2.2230   -21.5450    62.2480     7.7330     7.1750     9.1330    24.7960 
   99.0000     2.2180   -21.4450    64.9060     7.3850     6.8690     8.7340    24.8070 
   99.1250     2.2230   -21.3220    65.4690     7.2270     6.6850     8.4810    24.8740 
   99.2500     2.2250   -21.1960    65.2960     7.2580     6.6470     8.3280    24.9950 
   99.3750     2.2200   -21.0890    63.5400     7.4340     6.7440     8.3850    25.1690 
   99.5000     2.2080   -20.9970    60.8210     7.6680     6.9220     9.0080    25.3620 
   99.6250     2.1980   -20.9090    61.2360     7.8250     7.0850    10.0970    25.4960 
   99.7500     2.1990   -20.8360    63.8620     7.8170     7.1500    10.5250    25.4650 
   99.8750     2.2050   -20.7730    63.9350     7.6340     7.0880     9.5490    25.3120 
  100.0000     2.2100   -20.7250    61.7030     7.3450     6.9240     8.5870    25.2010 
  100.1250     2.2160   -20.6970    62.7270     7.0750     6.7310     8.3600    25.1800 
  100.2500     2.2240   -20.6930    68.2400     6.9170     6.5900     8.5850    25.1970 
  100.3750     2.2300   -20.7530    73.0370     6.8960     6.5370     9.2640    25.1660 
  100.5000     2.2250   -20.8690    71.3900     6.9770     6.5720    10.1360    25.0840 
  100.6250     2.2080   -21.0190    66.7850     7.0830     6.6590     9.8740    25.0810 
  100.7500     2.1870   -21.1390    66.5140     7.1440     6.7350     8.9240    25.1950 
  100.8750     2.1670   -21.2170    69.4590     7.1530     6.7750     8.2370    25.4100 
  101.0000     2.1570   -21.2810    71.2640     7.1480     6.7900     7.8130    25.6480 
  101.1250     2.1670   -21.3700    71.2560     7.1930     6.8230     7.4060    25.7800 
  101.2500     2.1930   -21.4560    70.5510     7.2990     6.9000     7.2810    25.6100 
  101.3750     2.2250   -21.4690    68.8010     7.4330     7.0120     7.7540    25.2740 
  101.5000     2.2490   -21.4000    67.4420     7.5360     7.1210     8.5650    25.1100 
  101.6250     2.2510   -21.2450    66.0110     7.5290     7.1590     9.0160    25.1850 
  101.7500     2.2380   -21.0900    63.1680     7.4060     7.1000     8.8680    25.1970 
  101.8750     2.2230   -20.9630    61.5900     7.2020     6.9550     8.4220    25.0560 
  102.0000     2.2140   -20.8350    63.8990     6.9780     6.7650     8.1050    25.0010 
  102.1250     2.2050   -20.7030    66.3740     6.8130     6.5920     7.9380    25.1800 
  102.2500     2.1940   -20.5620    65.8310     6.7540     6.4860     7.5590    25.5630 
  102.3750     2.1870   -20.4300    64.4220     6.8260     6.4780     7.0290    26.0590 
  102.5000     2.1880   -20.2890    64.7210     7.0260     6.5870     6.6780    26.3830 
  102.6250     2.1980   -20.1340    66.2800     7.3430     6.8360     6.6630    26.4210 
  102.7500     2.2070   -19.9610    66.1710     7.7280     7.1920     6.8450    26.3390 
  102.8750     2.2100   -19.7830    65.4900     8.1420     7.6190     7.1700    26.2910 
  103.0000     2.2090   -19.6270    66.2800     8.5460     8.0660     7.7340    26.2430 
  103.1250     2.2100   -19.4570    68.6660     8.8960     8.4770     8.2750    26.0180 
  103.2500     2.2120   -19.2650    69.8020     9.1720     8.8240     8.7160    25.6410 
  103.3750     2.2120   -19.0420    67.9080     9.3560     9.0870     9.3590    25.3100 
  103.5000     2.2110   -18.8180    65.4020     9.4340     9.2430    10.2680    25.1540 
  103.6250     2.2140   -18.6340    63.5080     9.3880     9.2410    10.5730    25.1480 
  103.7500     2.2250   -18.4870    62.9910     9.2580     9.1050    10.1550    25.1880 
  103.8750     2.2390   -18.3720    65.4550     9.1010     8.9000     9.3270    25.2360 
  104.0000     2.2480   -18.2900    69.4390     9.0140     8.7450     8.6350    25.2660 
  104.1250     2.2430   -18.2730    71.7640     9.1480     8.8220    10.2050    25.2820 
  104.2500     2.2300   -18.3440    72.1500     9.5470     9.1880    15.1220    25.3350 
  104.3750     2.2130   -18.5430    71.8320    10.2080     9.8320    23.0970    25.3850 
  104.5000     2.1970   -18.8670    70.9540    11.0250    10.6400    28.1040    25.3140 
  104.6250     2.1870   -19.2880    67.9000    11.7160    11.3470    22.6730    24.9630 
  104.7500     2.1840   -19.7360    66.1900    12.0190    11.7120    15.9550    24.5890 
  104.8750     2.1850   -20.1600    67.2820    11.8530    11.6580    12.2270    24.3800 
  105.0000     2.1820   -20.5550    69.7610    11.3450    11.2850    10.6590    24.3310 
  105.1250     2.1770   -20.9300    70.4900    10.7570    10.7880    11.2850    24.3330 
  105.2500     2.1740   -21.2920    70.6570    10.3210    10.3610    11.3000    24.2900 
  105.3750     2.1730   -21.5950    71.7060    10.1190    10.0940    10.8700    24.2290 
  105.5000     2.1680   -21.7910    72.0140    10.1720    10.0370    10.5910    24.1870 
  105.6250     2.1630   -21.8740    70.7970    10.5370    10.2850    10.7750    24.1560 
  105.7500     2.1610   -21.9180    68.8780    11.1860    10.8320    11.3590    24.1110 
  105.8750     2.1640   -21.9610    66.1130    12.6250    11.6690    12.3070    24.0640 
  106.0000     2.1700   -21.9960    62.5180    14.8330    12.6990    13.8520    24.0150 
  106.1250     2.1720   -22.0050    59.8610    16.1750    13.6650    15.6440    23.9880 
  106.2500     2.1710   -21.9880    60.2320    17.0430    14.2810    16.7150    24.0090 
  106.3750     2.1690   -21.9660    61.5610    17.3130    14.4240    16.4000    24.1380 
  106.5000     2.1700   -21.9250    61.6640    16.8520    14.1910    15.4080    24.3630 
  106.6250     2.1740   -21.8470    62.4820    16.3500    13.8300    14.1660    24.5320 
  106.7500     2.1770   -21.7620    64.6160    16.0410    13.5700    13.3110    24.5010 
  106.8750     2.1810   -21.6960    65.1650    15.8910    13.4420    13.4370    24.2480 
  107.0000     2.1850   -21.6420    63.6830    15.7150    13.3450    14.2870    23.9820 
  107.1250     2.1910   -21.5720    62.5710    15.2900    13.0980    15.2120    23.8980 
  107.2500     2.1940   -21.5030    63.9620    14.6930    12.6880    14.7410    24.0180 
  107.3750     2.1920   -21.4700    67.3870    14.1600    12.2460    13.3600    24.2530 
  107.5000     2.1830   -21.5290    69.4170    13.9430    11.9640    12.2630    24.4300 
  107.6250     2.1700   -21.7050    66.5800    14.1980    12.0310    13.0410    24.5260 
  107.7500     2.1620   -21.9060    62.3460    14.6870    12.3620    14.6320    24.6300 
  107.8750     2.1630   -22.0790    62.1540    15.0830    12.7580    16.6380    24.7110 
  108.0000     2.1670   -22.2220    64.7700    15.0420    12.9380    17.3160    24.7440 
  108.1250     2.1660   -22.3600    65.2010    14.3250    12.6080    16.1980    24.7350 
  108.2500     2.1630   -22.4920    64.5360    13.2720    11.9060    14.6640    24.6910 
  108.3750     2.1670   -22.6010    65.2750    12.2760    11.0990    13.0970    24.6470 
  108.5000     2.1800   -22.6760    66.8620    11.6640    10.4690    12.4340    24.6190 
  108.6250     2.1970   -22.6790    68.4760    11.7230    10.2950    12.5430    24.5720 
  108.7500     2.2140   -22.6110    69.4510    12.3990    10.6130    12.9790    24.4420 
  108.8750     2.2310   -22.5020    66.3420    13.6020    11.4170    13.8230    24.2190 
  109.0000     2.2470   -22.3620    59.8730    15.1010    12.5930    15.6230    24.0150 
  109.1250     2.2620   -22.2270    58.2090    16.4260    13.8270    18.0950    23.9530 
