~V
VERS. 2.00: Ver 2.00
~W
STRT.M 45.0000:
STOP.M 268.0000:
STEP.M 0.1250:
NULL. -999.2500:
UWI. F11184:
~C
DEPT.M :
SP.MV :
GR.API :
RI. :
RML.OHMM :
RXO.OHMM :
DEN.GM/CC :
~A
# ...
  109.3750   -28.4060    70.6100     5.4930     5.9680     5.4190     2.1500 
  109.5000   -28.3570    69.3300     5.8240     6.3150     5.9720     2.2330 
  109.6250   -28.3030    65.2100     6.0210     6.5220     6.7140     2.2900 
  109.7500   -28.2590    62.6440     6.0360     6.5370     7.1000     2.2640 
  109.8750   -28.2390    61.8830     5.8750     6.3680     6.8100     2.1780 
  110.0000   -28.2450    61.7070     5.6270     6.1080     6.6060     2.1170 
  110.1250   -28.2700    62.4220     5.4110     5.8810     6.7190     2.1020 
  110.2500   -28.2960    63.2670     5.2780     5.7420     6.7320     2.0950 
  110.3750   -28.3010    62.0670     5.2520     5.7150     6.6650     2.0800 
  110.5000   -28.2740    60.2480     5.2620     5.7250     6.7110     2.0740 
  110.6250   -28.2060    59.9680     5.2580     5.7210     6.7100     2.0880 
  110.7500   -28.1060    61.3350     5.2210     5.6820     6.5400     2.1090 
  110.8750   -27.9460    62.8850     5.1560     5.6140     6.3710     2.1260 
  111.0000   -27.7550    64.2250     5.1660     5.6240     6.4440     2.1280 
  111.1250   -27.5680    65.4120     5.3360     5.8020     6.5180     2.1210 
  111.2500   -27.3630    66.0800     5.7740     6.2620     6.9990     2.1340 
  111.3750   -27.1560    66.6700     6.4380     6.9590    11.4510     2.1970 
  111.5000   -26.9770    67.1520     7.1850     7.7450    18.2860     2.2950 
  111.6250   -26.8660    68.2020     7.7150     8.3000    19.9700     2.3670 
  111.7500   -26.8450    69.3410     7.7390     8.3260    17.0820     2.3610 
  111.8750   -26.9290    69.6050     7.3030     7.8680    13.1920     2.2800 
  112.0000   -27.0890    68.4220     6.6350     7.1660    11.3900     2.1860 
  112.1250   -27.2940    65.8890     6.0040     6.5050    12.4610     2.1250 
  112.2500   -27.5020    63.6950     5.5750     6.0540    11.1710     2.1010 
  112.3750   -27.6860    61.7710     5.3370     5.8030     7.9860     2.0950 
  112.5000   -27.8310    61.3300     5.2270     5.6880     6.6430     2.0880 
  112.6250   -27.9260    62.9000     5.2160     5.6760     6.3940     2.0830 
  112.7500   -27.9670    63.2440     5.2530     5.7150     6.2760     2.0870 
  112.8750   -27.9440    61.2770     5.3210     5.7870     6.3540     2.0920 
  113.0000   -27.8660    59.9810     5.3820     5.8520     6.2580     2.0910 
  113.1250   -27.7420    61.0170     5.3610     5.8290     5.8770     2.0900 
  113.2500   -27.5880    62.3560     5.1520     5.6090     5.7530     2.0960 
  113.3750   -27.4170    62.2810     4.7990     5.2390     5.7970     2.1010 
  113.5000   -27.2420    64.1200     4.3790     4.7980     5.3790     2.1130 
  113.6250   -27.0840    68.0540     4.0170     4.4180     4.6050     2.1410 
  113.7500   -26.9670    71.5510     3.8390     4.2310     4.1730     2.1700 
  113.8750   -26.9220    71.6400     3.8420     4.2340     4.2830     2.1780 
  114.0000   -26.9560    70.4030     4.0370     4.4390     4.5780     2.1670 
  114.1250   -27.0600    69.5430     4.3680     4.7860     4.9680     2.1500 
  114.2500   -27.1940    68.0330     4.7210     5.1570     5.3160     2.1360 
  114.3750   -27.3160    66.2070     4.9710     5.4190     5.4860     2.1290 
  114.5000   -27.3910    63.3080     4.9800     5.4290     5.5660     2.1270 
  114.6250   -27.4020    62.4680     4.8130     5.2540     5.4890     2.1310 
  114.7500   -27.3630    64.8250     4.6000     5.0300     5.2090     2.1410 
  114.8750   -27.3030    69.1340     4.5610     4.9890     4.8900     2.1650 
  115.0000   -27.2610    71.9560     4.7520     5.1900     5.7120     2.2040 
  115.1250   -27.2760    72.4750     5.0860     5.5410    10.1710     2.2470 
  115.2500   -27.3580    72.5770     5.4630     5.9360    14.7740     2.2710 
  115.3750   -27.5010    69.8090     5.7350     6.2220    12.8920     2.2440 
  115.5000   -27.6680    64.0800     5.8100     6.3010     8.2070     2.1790 
  115.6250   -27.8260    58.2830     5.6970     6.1820     6.3890     2.1250 
  115.7500   -27.9530    55.3910     5.4950     5.9690     6.4840     2.1070 
  115.8750   -28.0430    56.8990     5.3340     5.8000     6.6210     2.1080 
  116.0000   -28.1100    59.8510     5.2770     5.7410     6.2990     2.1040 
  116.1250   -28.1690    60.4840     5.2860     5.7510     6.1340     2.0950 
  116.2500   -28.2290    58.2560     5.3220     5.7880     6.3520     2.0920 
  116.3750   -28.2900    56.2840     5.3870     5.8570     6.5010     2.0990 
  116.5000   -28.3480    58.1510     5.4800     5.9540     6.6130     2.1120 
  116.6250   -28.3930    61.9480     5.5740     6.0520     6.8310     2.1240 
  116.7500   -28.4200    64.0900     5.6670     6.1510     6.9890     2.1290 
  116.8750   -28.4230    63.9100     5.7360     6.2220     7.0490     2.1280 
  117.0000   -28.4050    63.1300     5.7730     6.2620     7.0640     2.1270 
  117.1250   -28.3740    61.8540     5.7900     6.2790     7.1060     2.1270 
  117.2500   -28.3400    59.5550     5.7830     6.2720     7.1260     2.1240 
  117.3750   -28.3100    58.1430     5.7530     6.2410     7.0860     2.1160 
  117.5000   -28.2850    59.3980     5.7020     6.1870     7.0960     2.1070 
  117.6250   -28.2580    62.6090     5.6300     6.1110     7.0060     2.0950 
  117.7500   -28.2190    64.4730     5.5660     6.0440     6.7940     2.0910 
  117.8750   -28.1550    63.7930     5.5200     5.9960     6.6240     2.0990 
  118.0000   -28.0600    61.6950     5.4930     5.9680     6.6270     2.1090 
  118.1250   -27.9300    59.7240     5.4700     5.9440     6.7950     2.1130 
  118.2500   -27.7690    58.3720     5.3980     5.8680     6.8220     2.1110 
  118.3750   -27.5780    59.1890     5.2410     5.7030     6.6910     2.1060 
  118.5000   -27.3680    62.7780     4.9840     5.4330     6.3360     2.0990 
  118.6250   -27.1490    65.8800     4.6720     5.1060     5.4930     2.1060 
  118.7500   -26.9400    65.7780     4.4140     4.8350     4.8420     2.1340 
  118.8750   -26.7640    64.7800     4.2870     4.7010     4.8330     2.1590 
  119.0000   -26.6400    67.1130     4.3260     4.7420     5.0240     2.1520 
  119.1250   -26.5760    71.8530     4.5190     4.9450     5.4140     2.1110 
  119.2500   -26.5550    72.0230     4.7860     5.2250     5.5560     2.0620 
  119.3750   -26.5500    66.7220     5.0050     5.4550     5.1360     2.0320 
  119.5000   -26.5310    60.6950     5.0710     5.5240     5.0220     2.0320 
  119.6250   -26.4790    58.0790     4.9870     5.4360     5.3540     2.0510 
  119.7500   -26.3980    58.1990     4.8030     5.2430     5.4990     2.0760 
  119.8750   -26.3010    59.7950     4.6550     5.0880     5.3270     2.1000 
  120.0000   -26.2030    62.9120     4.5860     5.0150     5.1720     2.1190 
  120.1250   -26.1160    64.8920     4.6300     5.0610     4.9630     2.1230 
  120.2500   -26.0380    64.4640     4.7810     5.2200     4.7000     2.1150 
  120.3750   -25.9580    62.4240     4.9770     5.4260     4.9390     2.1050 
  120.5000   -25.8550    61.5900     5.1750     5.6330     5.4380     2.0980 
  120.6250   -25.6960    62.3390     5.2380     5.7000     5.7140     2.0950 
  120.7500   -25.4610    62.5470     5.1020     5.5570     6.6840     2.0870 
  120.8750   -25.1300    63.2630     4.7710     5.2090     7.7310     2.0830 
  121.0000   -24.7250    66.2780     4.3660     4.7840     6.8480     2.0950 
  121.1250   -24.2790    71.3800     4.0550     4.4580     5.1300     2.1330 
  121.2500   -23.8490    75.8700     3.9050     4.3000     4.1010     2.1720 
  121.3750   -23.4820    79.0970     3.8840     4.2780     4.6980     2.1740 
  121.5000   -23.1940    81.6420     3.9140     4.3100     8.1730     2.1490 
  121.6250   -22.9790    81.8990     3.9170     4.3130    10.7510     2.1410 
  121.7500   -22.8060    80.7670     3.8390     4.2310     8.2280     2.1630 
  121.8750   -22.6640    82.3040     3.6580     4.0410     4.6030     2.1910 
  122.0000   -22.5630    87.5560     3.4620     3.8350     3.5830     2.2010 
  122.1250   -22.5300    91.7470     3.4210     3.7920     3.6150     2.1990 
