~V
VERS. 2.00: Ver 2.00
~W
STRT.M 60.0000:
STOP.M 282.0000:
STEP.M 0.1250:
NULL. -999.2500:
UWI. F11159:
~C
DEPT.M :
GR.API :
RML.OHMM :
RI. :
RXO.OHMM :
CALI.CM :
SP.MV :
DEN.GM/CC :
~A
# ...
  105.0000    67.6030    12.4250    10.9600    14.3490    25.6430   -31.8660     2.0730 
  105.1250    66.9920    11.6120    10.3070    14.0080    25.7320   -31.6970     2.0840 
  105.2500    69.1750    10.8690     9.6390    12.6570    26.0850   -31.5920     2.0910 
  105.3750    71.1630    10.3610     9.1080    10.8960    26.1730   -31.5870     2.0930 
  105.5000    70.8930    10.1520     8.8020    10.4870    25.2700   -31.6590     2.0890 
  105.6250    69.3730    10.2280     8.7700    12.1520    24.6760   -31.8070     2.0840 
  105.7500    68.8180    10.4340     8.9130    13.6300    24.4550   -31.9790     2.0820 
  105.8750    68.8070    10.6830     9.1530    14.6180    24.4220   -32.1790     2.0830 
  106.0000    67.4750    10.9380     9.4290    15.0020    24.4200   -32.3790     2.0900 
  106.1250    64.6650    11.2410     9.7270    14.9260    24.4200   -32.5270     2.0980 
  106.2500    62.1420    11.6280    10.0660    15.0210    24.4200   -32.6050     2.1060 
  106.3750    62.0110    12.0660    10.4380    14.9790    24.4300   -32.6190     2.1120 
  106.5000    64.0690    12.4290    10.7700    14.8410    24.4700   -32.5740     2.1150 
  106.6250    67.7210    12.4990    10.8970    14.6820    24.5860   -32.4980     2.1150 
  106.7500    69.8620    12.2450    10.7580    14.5400    24.4220   -32.3790     2.1140 
  106.8750    68.5340    11.7570    10.3890    14.4140    24.1060   -32.2510     2.1130 
  107.0000    64.4350    11.2190     9.9160    14.2670    23.9050   -32.0980     2.1140 
  107.1250    60.9770    10.8400     9.5010    14.1230    23.8420   -31.9290     2.1150 
  107.2500    60.7020    10.6700     9.2270    14.0530    23.7360   -31.7320     2.1150 
  107.3750    62.1390    10.6790     9.1040    14.0490    23.6230   -31.4890     2.1100 
  107.5000    63.4090    10.7940     9.0980    14.0490    23.5760   -31.1890     2.0990 
  107.6250    63.1600    10.9510     9.1710    14.0190    23.5700   -30.8290     2.0860 
  107.7500    64.2730    11.1310     9.2810    14.0300    23.5690   -30.4380     2.0750 
  107.8750    66.8370    11.3580     9.4320    14.3040    23.5640   -30.0060     2.0710 
  108.0000    67.7530    11.6520     9.6330    14.7720    23.5420   -29.6020     2.0740 
  108.1250    65.0620    12.0120     9.8880    15.3550    23.4980   -29.2590     2.0810 
  108.2500    62.3850    12.3880    10.1710    15.6480    23.4900   -28.9980     2.0880 
  108.3750    62.9820    12.7490    10.4590    16.0490    23.4920   -28.8150     2.0920 
  108.5000    64.8570    13.0770    10.7330    16.3820    23.4870   -28.7410     2.0960 
  108.6250    66.1110    13.3570    10.9700    16.4690    23.4580   -28.7490     2.0990 
  108.7500    68.1060    13.5690    11.1600    16.5930    23.4070   -28.8540     2.1030 
  108.8750    71.8890    13.6770    11.2750    16.5960    23.3680   -29.0370     2.1080 
  109.0000    76.0200    13.6430    11.2820    16.4110    23.2650   -29.2420     2.1150 
  109.1250    75.3080    13.4310    11.1320    15.9050    23.2490   -29.4330     2.1240 
  109.2500    70.5270    13.1060    10.8580    15.2310    23.2640   -29.6110     2.1300 
  109.3750    65.8240    12.7280    10.5040    14.5830    23.3780   -29.7390     2.1320 
  109.5000    63.8390    12.3550    10.1250    14.4460    23.6650   -29.8220     2.1300 
  109.6250    64.2270    12.0480     9.7880    14.6050    23.7740   -29.8290     2.1260 
  109.7500    64.9460    11.8510     9.5370    14.6430    23.7960   -29.7450     2.1230 
  109.8750    66.7130    11.8160     9.4110    14.5940    23.7980   -29.5520     2.1230 
  110.0000    69.4630    11.9770     9.4350    14.7670    23.7980   -29.2780     2.1250 
  110.1250    70.6370    12.3660     9.6380    14.7810    23.7980   -28.9370     2.1240 
  110.2500    69.1450    12.8940     9.9750    15.1610    23.7980   -28.5030     2.1210 
  110.3750    68.0960    13.4600    10.4050    16.6200    23.7980   -28.0380     2.1180 
  110.5000    69.7630    13.9460    10.8620    18.1990    23.7970   -27.4960     2.1170 
  110.6250    72.8540    14.2580    11.2670    18.9010    23.7630   -26.9390     2.1240 
  110.7500    73.7150    14.4900    11.6070    18.6750    23.5800   -26.3340     2.1390 
  110.8750    74.6710    14.8070    11.9510    18.5600    23.1040   -25.7000     2.1640 
  111.0000    78.7070    15.3390    12.3990    18.9000    22.8310   -25.0060     2.1970 
  111.1250    80.7630    15.9890    12.9570    19.6900    22.7820   -24.2280     2.2340 
  111.2500    76.7450    16.3050    13.3550    20.9140    22.7830   -23.3760     2.2640 
  111.3750    69.7950    15.7850    13.1890    23.4020    22.7820   -22.4110     2.2810 
  111.5000    67.0010    14.1860    12.1730    23.8260    22.7620   -21.3500     2.2810 
  111.6250    74.3690    11.7930    10.4010    18.6130    22.6810   -20.1950     2.2680 
  111.7500    86.1670     9.5290     8.5710    11.7390    22.7120   -19.0460     2.2510 
  111.8750    96.0140     7.8930     7.0970     7.8560    23.0390   -17.9700     2.2380 
  112.0000    98.7260     7.0000     6.1360     6.3440    23.5110   -16.9860     2.2350 
  112.1250    95.2680     6.7740     5.7220     6.6130    23.4790   -16.1100     2.2470 
  112.2500    93.5370     6.8410     5.6370     7.1340    23.4050   -15.3440     2.2680 
  112.3750    96.0970     6.9530     5.7150     7.0160    23.5570   -14.6970     2.2860 
  112.5000   100.7220     6.9430     5.7960     6.4960    23.7290   -14.1600     2.2900 
  112.6250   103.4010     6.7700     5.7810     5.9720    24.0130   -13.7690     2.2750 
  112.7500   106.1530     6.5350     5.6840     6.1890    24.4760   -13.4860     2.2530 
  112.8750   108.8450     6.2780     5.5270     6.3990    24.9930   -13.2430     2.2380 
  113.0000   108.8490     5.9940     5.3190     5.7420    25.2410   -13.0680     2.2380 
  113.1250   107.2500     5.6640     5.0570     5.3510    25.1600   -12.9520     2.2570 
  113.2500   109.8520     5.3170     4.7710     5.3070    24.6520   -12.8720     2.2820 
  113.3750   116.3140     5.0040     4.4980     5.2330    24.0070   -12.8250     2.3050 
  113.5000   119.8840     4.7780     4.2830     5.1300    23.7480   -12.8360     2.3240 
  113.6250   119.8590     4.6860     4.1750     4.9740    23.7150   -12.8540     2.3360 
  113.7500   122.0850     4.7110     4.1690     4.7490    23.7110   -12.8540     2.3390 
  113.8750   125.0910     4.8440     4.2620     4.6860    23.7110   -12.8450     2.3310 
  114.0000   124.0480     5.0670     4.4430     4.8420    23.7110   -12.8110     2.3130 
  114.1250   117.3850     5.3440     4.6840     5.1300    23.7110   -12.7580     2.2890 
  114.2500   109.6260     5.6040     4.9170     5.1830    23.7110   -12.7170     2.2710 
  114.3750   104.0170     5.7890     5.0800     5.2680    23.7110   -12.7030     2.2630 
  114.5000   101.2290     5.8450     5.1210     5.6880    23.7110   -12.7140     2.2670 
  114.6250   101.3300     5.7150     4.9910     5.9190    23.7120   -12.7530     2.2790 
  114.7500   104.4360     5.4530     4.7470     5.5190    23.7200   -12.8140     2.2920 
  114.8750   109.9070     5.1250     4.4480     4.8270    23.7690   -12.9120     2.3000 
  115.0000   112.8420     4.8020     4.1510     4.4360    23.7920   -13.0370     2.3030 
  115.1250   110.8820     4.5730     3.9090     4.4130    23.7890   -13.2090     2.3080 
  115.2500   110.1670     4.5140     3.7690     4.5570    23.7870   -13.4190     2.3190 
  115.3750   113.5040     4.7050     3.7860     4.7590    23.7920   -13.6960     2.3400 
  115.5000   116.2500     5.2020     4.0170     4.9830    23.8380   -14.0320     2.3670 
  115.6250   112.3000     6.0530     4.5250     5.2270    24.0250   -14.4970     2.3880 
  115.7500   104.4480     7.0990     5.2280     6.6180    24.2500   -15.0850     2.3890 
  115.8750    95.3770     8.1240     6.0040     9.6780    24.6590   -15.7910     2.3650 
  116.0000    88.1950     8.8720     6.6690    12.5950    24.6760   -16.6020     2.3230 
  116.1250    86.4920     9.1240     7.0190    12.3280    23.9590   -17.5310     2.2770 
