~V
VERS. 2.00: Ver 2.00
~W
STRT.M 60.0000:
STOP.M 282.0000:
STEP.M 0.1250:
NULL. -999.2500:
UWI. F11159:
~C
DEPT.M :
GR.API :
RML.OHMM :
RI. :
RXO.OHMM :
CALI.CM :
SP.MV :
DEN.GM/CC :
~A
# ...
  183.7500    68.3060    88.8400    84.7100    66.3510    24.3120   -27.6120     2.2110 
  183.8750    69.2480    99.7230    95.6030    88.9600    24.6930   -27.6020     2.1910 
  184.0000    67.0200   113.1570   107.7070   128.8280    24.7840   -27.5880     2.1740 
  184.1250    63.9820   122.9110   114.5100   148.5290    24.7890   -27.5650     2.1700 
  184.2500    63.2400   122.5020   110.6410   127.9920    24.7850   -27.5270     2.1790 
  184.3750    63.3210   109.8820    95.7790   114.3960    24.7820   -27.4660     2.2000 
  184.5000    63.0510    89.4610    75.5690   101.0910    24.7880   -27.3740     2.2260 
  184.6250    63.8920    69.3220    57.6780    68.7100    24.7870   -27.2480     2.2480 
  184.7500    66.5700    54.0590    44.8540    46.4550    24.7860   -27.1030     2.2620 
  184.8750    70.5010    43.8940    36.6170    35.3730    24.7900   -26.9580     2.2670 
  185.0000    72.2850    37.5350    31.6020    29.9810    24.7900   -26.8130     2.2660 
  185.1250    72.0630    33.7650    28.7030    28.4630    24.8290   -26.6940     2.2670 
  185.2500    73.0770    31.0670    26.6270    25.6530    24.8510   -26.6110     2.2720 
  185.3750    75.5410    28.8360    24.8740    19.2840    24.8550   -26.5700     2.2810 
  185.5000    78.3910    26.8340    23.2960    14.3520    24.8560   -26.5750     2.2890 
  185.6250    81.6530    25.3200    22.2270    12.8680    24.8550   -26.6220     2.2850 
  185.7500    85.8930    24.6570    22.0860    13.3280    24.8440   -26.6840     2.2670 
  185.8750    85.5290    25.2670    23.3330    14.1180    24.7820   -26.7700     2.2400 
  186.0000    77.8030    27.5350    26.3030    14.5420    24.7060   -26.8800     2.2110 
  186.1250    68.4960    32.0170    31.3510    17.6450    24.6390   -26.9790     2.1920 
  186.2500    63.5320    38.1810    37.7520    26.6720    24.5450   -27.0690     2.1820 
  186.3750    63.3840    45.2100    44.6380    40.4160    24.4760   -27.1540     2.1790 
  186.5000    65.2790    52.8190    49.8820    50.0920    24.3830   -27.2400     2.1770 
  186.6250    68.0160    57.3050    54.2100    48.2210    24.3230   -27.3120     2.1760 
  186.7500    68.6960    60.1190    56.5620    47.8280    24.3120   -27.3930     2.1750 
  186.8750    68.4800    62.1270    57.6910    49.4900    24.3100   -27.4730     2.1750 
  187.0000    69.8100    64.2270    58.5250    52.3530    24.3030   -27.5510     2.1770 
  187.1250    71.6730    66.9580    59.7130    55.3080    24.2620   -27.6170     2.1790 
  187.2500    71.9390    70.1320    61.2880    58.1360    24.1980   -27.6670     2.1810 
  187.3750    71.6020    73.4740    63.0940    60.4010    24.2200   -27.7180     2.1850 
  187.5000    72.9620    76.7650    64.9740    61.8170    24.2430   -27.7590     2.1890 
  187.6250    73.6810    79.9590    66.9210    62.4050    24.3030   -27.8090     2.1940 
  187.7500    71.5840    83.1890    69.0540    63.9700    24.3510   -27.8500     2.1970 
  187.8750    69.3730    86.5390    71.5040    68.2820    24.3900   -27.8870     2.1980 
  188.0000    69.0230    89.9840    74.3340    74.5200    24.4330   -27.9110     2.1960 
  188.1250    69.1410    93.3110    77.5520    78.5560    24.5210   -27.9660     2.1940 
  188.2500    68.4680    96.2130    80.9540    78.4340    24.5190   -28.0330     2.1900 
  188.3750    66.9890    98.2880    84.3310    77.5280    24.4290   -28.0910     2.1860 
  188.5000    65.7800    98.9440    87.2680    79.0040    24.2790   -28.1310     2.1800 
  188.6250    67.4050    97.0160    88.7060    81.3710    24.3160   -28.1300     2.1760 
  188.7500    68.5540    92.4350    87.9630    84.6870    24.4630   -28.1100     2.1760 
  188.8750    65.7670    85.4350    84.6090    86.2170    24.4930   -28.0580     2.1860 
  189.0000    62.6690    76.8090    78.8450    83.5720    24.3460   -27.9850     2.2060 
  189.1250    67.0760    67.5530    71.3000    77.4990    24.2680   -27.8660     2.2320 
  189.2500    74.4250    58.2270    62.8840    68.2290    24.1640   -27.7130     2.2500 
  189.3750    78.8450    48.6640    53.5820    53.7380    23.9540   -27.5470     2.2480 
  189.5000    81.1790    38.8020    43.4030    37.7100    23.5350   -27.3740     2.2200 
  189.6250    80.9340    29.3870    33.2790    29.9190    23.3330   -27.2140     2.1740 
  189.7500    77.8210    21.4280    24.5960    22.6450    23.3410   -27.0630     2.1340 
  189.8750    74.8040    15.5450    18.0740    14.0180    23.6010   -26.9390     2.1110 
  190.0000    77.3100    11.8110    13.7680     8.9010    24.2160   -26.8130     2.1130 
  190.1250    84.0120    10.1630    11.5890     7.3010    24.4700   -26.7010     2.1370 
  190.2500    89.0380     9.9570    10.8570     7.4020    24.3070   -26.6270     2.1700 
  190.3750    91.1080    11.1290    11.4710     7.8480    24.0310   -26.5880     2.2010 
  190.5000    88.2220    13.7640    13.5130     9.1050    23.8610   -26.5810     2.2200 
  190.6250    79.3930    18.1830    17.4420    13.0250    23.4760   -26.6220     2.2210 
  190.7500    70.2620    23.8740    22.9610    20.4750    23.0130   -26.6910     2.2100 
  190.8750    68.6030    30.2000    29.5390    26.7960    22.8920   -26.7960     2.1960 
  191.0000    73.7680    36.3990    36.2210    27.6480    22.8420   -26.9470     2.1860 
  191.1250    75.6070    42.0600    42.0830    25.5290    22.9690   -27.1290     2.1860 
  191.2500    72.8970    47.6960    47.3870    29.0350    23.2110   -27.3310     2.1900 
  191.3750    71.7220    53.8440    52.6830    37.4570    23.4240   -27.5440     2.1950 
  191.5000    72.9320    60.4960    58.0930    48.0300    23.4210   -27.7530     2.1950 
  191.6250    70.0890    66.5960    62.7020    53.9550    23.1220   -27.9460     2.1900 
  191.7500    64.2980    70.8710    65.4660    53.8390    23.0960   -28.1400     2.1830 
  191.8750    61.9260    72.8390    66.0750    50.7000    23.3310   -28.3160     2.1730 
  192.0000    65.3160    73.0410    65.1670    48.1300    24.0750   -28.4730     2.1640 
  192.1250    71.2510    72.5010    63.8190    43.9190    24.6790   -28.6300     2.1590 
  192.2500    74.2150    72.0790    62.8490    42.5410    24.8970   -28.7540     2.1600 
  192.3750    72.3480    72.0070    62.4900    47.3960    24.8210   -28.8310     2.1650 
  192.5000    69.0710    72.3320    62.7750    53.6410    24.4170   -28.9000     2.1730 
  192.6250    67.2760    72.9950    63.6650    54.3170    23.9980   -28.9630     2.1800 
  192.7500    66.2920    73.5790    64.7520    52.3160    23.5950   -28.9950     2.1890 
  192.8750    65.5690    73.5050    65.5330    52.6730    23.2430   -29.0080     2.2000 
  193.0000    65.4310    72.1180    65.3790    57.9420    23.1680   -29.0220     2.2140 
  193.1250    67.3730    68.7820    63.5450    55.8010    23.2320   -29.0360     2.2270 
  193.2500    68.9470    64.1870    60.4000    48.3350    23.2880   -29.0590     2.2350 
  193.3750    69.2970    59.0300    56.7610    41.2970    23.2870   -29.1050     2.2360 
  193.5000    68.6030    54.9200    52.5780    35.7130    23.2420   -29.1690     2.2330 
  193.6250    67.9260    51.7200    49.0600    33.5100    23.2750   -29.2310     2.2330 
  193.7500    68.7250    49.1600    46.2610    32.8330    23.2730   -29.3060     2.2380 
  193.8750    69.0000    47.0860    43.9810    36.2590    23.3600   -29.3940     2.2470 
  194.0000    68.5870    45.3570    42.0920    35.9160    23.3850   -29.4920     2.2550 
  194.1250    69.7060    44.0760    40.7690    31.7190    23.2980   -29.5960     2.2560 
  194.2500    71.0130    43.3970    40.1680    29.7450    23.3420   -29.7150     2.2500 
  194.3750    71.6950    43.5150    40.4360    31.4640    23.6250   -29.8380     2.2410 
  194.5000    72.2770    44.5000    41.5490    33.4110    24.0800   -29.9500     2.2320 
  194.6250    74.9620    46.2950    43.3220    33.5000    24.2260   -30.0770     2.2240 
  194.7500    77.0960    48.3390    45.1930    34.6720    24.2950   -30.2280     2.2200 
  194.8750    76.2500    50.1450    46.7690    38.3020    24.3570   -30.3920     2.2180 
