~V
VERS. 2.00: Ver 2.00
~W
STRT.M 55.0000:
STOP.M 210.0000:
STEP.M 0.1250:
NULL. -999.2500:
UWI. F11105:
~C
DEPT.M :
DEN.GM/CC :
GR.API :
RML.OHMM :
RI. :
RXO.OHMM :
CALI.CM :
SP.MV :
~A
# ...
  100.0000     2.1840    76.7680     5.9530     5.6950     6.3730    23.3970   -27.8800 
  100.1250     2.1790    76.0310     5.8550     5.5370     6.0840    23.3630   -27.6480 
  100.2500     2.1750    70.2640     6.0110     5.5760     6.3320    22.9180   -27.5700 
  100.3750     2.1730    65.0520     6.3560     5.7860     7.1860    22.5760   -27.6490 
  100.5000     2.1730    62.6210     6.7690     6.0980     7.8360    22.1910   -27.8890 
  100.6250     2.1720    59.1100     7.0830     6.3870     8.1320    21.9670   -28.2720 
  100.7500     2.1680    55.4180     7.2120     6.5520     8.0300    22.4270   -28.7560 
  100.8750     2.1620    56.3430     7.1720     6.5670     7.7990    23.0270   -29.3180 
  101.0000     2.1590    61.5090     7.0550     6.4840     7.9900    23.1250   -29.9170 
  101.1250     2.1610    66.4860     6.9840     6.3990     7.7770    22.4900   -30.4670 
  101.2500     2.1640    68.6540     7.0180     6.3870     7.5110    22.4880   -30.9250 
  101.3750     2.1650    68.6180     7.1590     6.4750     7.4690    22.9060   -31.3060 
  101.5000     2.1610    67.3000     7.3700     6.6470     7.5110    23.4470   -31.6220 
  101.6250     2.1540    65.5100     7.5850     6.8590     7.4440    24.0850   -31.8880 
  101.7500     2.1500    65.5500     7.7490     7.0490     7.4870    24.8090   -32.0930 
  101.8750     2.1490    66.9610     7.8440     7.1860     7.6230    24.8170   -32.2380 
  102.0000     2.1480    65.1950     7.8760     7.2610     7.5610    24.9520   -32.3140 
  102.1250     2.1420    59.5830     7.8590     7.2700     7.5620    25.2230   -32.3360 
  102.2500     2.1330    54.8350     7.8190     7.2370     7.5650    25.5050   -32.3480 
  102.3750     2.1270    53.9690     7.7640     7.1740     7.5400    25.4710   -32.3610 
  102.5000     2.1280    55.8210     7.7060     7.0940     7.3250    25.1520   -32.3710 
  102.6250     2.1360    58.3610     7.6760     7.0200     7.0800    24.7340   -32.3330 
  102.7500     2.1430    62.9230     7.6960     6.9780     7.3050    24.6340   -32.2590 
  102.8750     2.1400    66.4400     7.7940     7.0030     8.2200    24.4690   -32.1710 
  103.0000     2.1260    64.9420     7.9920     7.1270     8.9930    24.1730   -32.0920 
  103.1250     2.1050    60.6040     8.3030     7.3710     9.1540    23.9210   -31.9980 
  103.2500     2.0900    58.9430     8.6610     7.6800     9.2060    24.0350   -31.8830 
  103.3750     2.0910    61.3490     8.9730     7.9800     9.7940    24.2180   -31.7300 
  103.5000     2.1100    64.3630     9.1330     8.1790    10.7640    24.0930   -31.5510 
  103.6250     2.1400    66.1050     9.0350     8.1720    10.1250    23.7960   -31.3610 
  103.7500     2.1680    68.2970     8.7550     7.9910     8.5610    23.6750   -31.1550 
  103.8750     2.1820    69.7930     8.4150     7.7040     7.8000    23.9870   -30.9040 
  104.0000     2.1810    69.0650     8.1270     7.3940     7.6760    24.2670   -30.6130 
  104.1250     2.1680    66.0650     7.9490     7.1460     7.7120    24.4200   -30.2290 
  104.2500     2.1520    64.5390     7.8400     6.9820     7.6030    24.6860   -29.7440 
  104.3750     2.1400    66.0170     7.7640     6.9000     7.3220    25.1380   -29.1680 
  104.5000     2.1340    67.9440     7.7120     6.8870     7.1790    25.4800   -28.4850 
  104.6250     2.1340    67.0800     7.7130     6.9360     7.2960    25.2630   -27.7270 
  104.7500     2.1350    64.5550     7.7680     7.0200     7.6240    24.8770   -26.8990 
  104.8750     2.1340    63.8600     7.8300     7.1030     7.8160    25.0150   -25.9790 
  105.0000     2.1340    66.0670     7.8030     7.1210     7.6660    25.3790   -24.9710 
  105.1250     2.1430    67.9870     7.5610     6.9710     7.1330    25.5770   -23.9330 
  105.2500     2.1650    69.3700     7.1280     6.6440     6.7120    25.6540   -22.8820 
  105.3750     2.1960    73.0470     6.5810     6.1830     6.5760    25.7540   -21.8360 
  105.5000     2.2300    82.0050     6.0340     5.6740     5.9570    25.8410   -20.8600 
  105.6250     2.2550    90.0010     5.6150     5.2350     5.0620    26.1270   -20.0160 
  105.7500     2.2700    90.0060     5.3490     4.9200     4.7720    26.4540   -19.3410 
  105.8750     2.2790    85.4930     5.2260     4.7380     4.8940    26.5410   -18.8810 
  106.0000     2.2840    85.7040     5.2170     4.6730     5.1230    26.5670   -18.6400 
  106.1250     2.2830    92.8310     5.3100     4.7230     5.0170    26.5580   -18.6010 
  106.2500     2.2720    96.0930     5.4970     4.8610     4.9130    26.5870   -18.7390 
  106.3750     2.2480    91.4350     5.8170     5.1040     5.1320    26.7280   -19.0600 
  106.5000     2.2160    83.2450     6.3170     5.4810     5.7960    27.0020   -19.5270 
  106.6250     2.1870    77.8310     7.0390     6.0360     6.5850    27.3580   -20.0850 
  106.7500     2.1690    76.5350     7.8700     6.6960     6.8510    27.5480   -20.6850 
  106.8750     2.1630    77.9770     8.6470     7.3490     6.6980    27.4250   -21.2990 
  107.0000     2.1640    78.4500     9.1490     7.8280     6.6170    26.9820   -21.9340 
  107.1250     2.1610    75.6900     9.1270     7.9230     6.9760    26.3590   -22.6490 
  107.2500     2.1510    73.0790     8.7040     7.6860     7.2550    25.8210   -23.3690 
  107.3750     2.1360    72.9850     8.1020     7.2610     7.2210    25.4030   -24.0530 
  107.5000     2.1190    74.5530     7.5770     6.8370     7.0440    25.3630   -24.7070 
  107.6250     2.1090    77.0330     7.3590     6.5910     7.1600    25.2280   -25.3010 
  107.7500     2.1050    80.1650     7.4500     6.5670     7.6680    24.8970   -25.7790 
  107.8750     2.1070    80.5360     7.7980     6.7640     8.2120    24.3180   -26.1060 
  108.0000     2.1150    76.3040     8.2850     7.1220     8.3220    22.9160   -26.2290 
  108.1250     2.1320    70.8170     8.7090     7.5070     8.3400    22.5920   -26.0360 
  108.2500     2.1550    68.8210     8.8790     7.7350     8.6150    22.6540   -25.6100 
  108.3750     2.1820    71.0380     8.6810     7.6780     9.2970    23.0970   -24.9700 
  108.5000     2.2080    76.6550     8.1170     7.2950     9.1990    23.9110   -24.1010 
  108.6250     2.2250    82.5380     7.3100     6.6520     7.4110    24.6130   -23.0510 
  108.7500     2.2360    86.7350     6.5220     5.9650     5.8450    25.3310   -21.9500 
  108.8750     2.2410    89.0980     5.9050     5.3680     5.3280    25.9880   -20.8580 
  109.0000     2.2460    89.7390     5.5260     4.9400     5.2070    26.3340   -19.8180 
  109.1250     2.2520    90.5960     5.4060     4.7370     5.1470    26.4630   -18.9090 
  109.2500     2.2580    92.8420     5.4340     4.7040     5.0950    26.5700   -18.1250 
  109.3750     2.2630    95.5090     5.5330     4.7890     5.1210    26.8000   -17.4700 
  109.5000     2.2660    95.2030     5.6450     4.9290     5.2900    26.9900   -16.9580 
  109.6250     2.2680    91.6520     5.7350     5.0620     5.4830    26.9980   -16.5220 
  109.7500     2.2660    90.2130     5.7870     5.1490     5.3540    27.0880   -16.0920 
  109.8750     2.2580    89.6860     5.7930     5.1760     5.1000    27.3310   -15.7350 
  110.0000     2.2420    87.6560     5.7510     5.1480     5.0050    27.5010   -15.4830 
  110.1250     2.2150    85.8150     5.6740     5.0840     5.0520    27.6140   -15.3110 
  110.2500     2.1820    88.2570     5.5940     5.0140     4.9670    27.6620   -15.2000 
  110.3750     2.1520    91.1380     5.5230     4.9460     4.6140    28.4060   -15.1530 
  110.5000     2.1360    90.4900     5.4590     4.8770     4.3550    29.4750   -15.1730 
  110.6250     2.1410    91.1680     5.3770     4.7940     4.5890    28.6740   -15.3020 
  110.7500     2.1580    96.2080     5.2680     4.6930     4.8900    27.6920   -15.5320 
  110.8750     2.1750    99.8690     5.1490     4.5870     5.0070    27.4420   -15.7750 
  111.0000     2.1830    96.1490     5.0740     4.5130     4.8170    27.3280   -16.0360 
  111.1250     2.1760    89.0360     5.1750     4.5560     4.8090    27.1930   -16.3770 
