~V
VERS. 2.00: Ver 2.00
~W
STRT.M 47.0000:
STOP.M 248.0000:
STEP.M 0.1250:
NULL. -999.2500:
UWI. F11134:
~C
DEPT.M :
GR.API :
RML.OHMM :
RI. :
RXO.OHMM :
CALI.CM :
SP.MV :
DEN.GM/CC :
~A
# ...
  170.7500    52.5720   113.7810   101.7770    94.3750    25.5440   -23.8850     2.2090 
  170.8750    56.0650   115.8010   102.5440    85.0350    25.5890   -23.8900     2.2140 
  171.0000    55.9410   121.6140   107.0580    94.3440    25.6260   -23.8840     2.2090 
  171.1250    53.6870   130.7970   115.1790   118.6090    25.6170   -23.9060     2.1990 
  171.2500    52.7250   142.1450   126.0050   135.3900    25.5210   -23.9610     2.1900 
  171.3750    52.6470   153.1240   137.3730   140.4180    25.3560   -24.0000     2.1890 
  171.5000    51.8230   160.9980   146.6150   143.2030    25.2130   -23.9970     2.1890 
  171.6250    50.1940   164.3030   151.9900   145.0780    25.1540   -23.9870     2.1870 
  171.7500    48.7370   163.1640   153.2180   142.3760    25.1500   -23.9900     2.1850 
  171.8750    47.9030   158.3940   150.7480   134.5850    25.1610   -23.9730     2.1860 
  172.0000    47.2670   150.9400   145.3960   124.9200    25.1890   -23.9320     2.1920 
  172.1250    46.5650   141.1750   137.5130   114.6470    25.2340   -23.8810     2.1990 
  172.2500    46.1410   129.2410   127.1510   102.7220    25.2730   -23.8220     2.2040 
  172.3750    47.5740   115.8810   114.8380    91.1220    25.2890   -23.7650     2.2080 
  172.5000    50.4490   102.6470   102.0220    82.0410    25.2910   -23.7080     2.2140 
  172.6250    51.9320    91.2610    90.4440    74.5740    25.2830   -23.6500     2.2220 
  172.7500    51.0450    83.2380    81.6630    67.6520    25.2590   -23.5870     2.2290 
  172.8750    48.8980    80.4640    77.5660    65.7630    25.2210   -23.5360     2.2270 
  173.0000    47.0260    84.0120    79.2870    68.5680    25.1770   -23.5150     2.2160 
  173.1250    45.2180    94.9020    88.0120    73.4570    25.1490   -23.5160     2.2000 
  173.2500    42.7080   114.9730   105.8020    89.2290    25.1500   -23.5360     2.1840 
  173.3750    41.0790   147.9580   136.0940   121.4340    25.1720   -23.5670     2.1690 
  173.5000    41.7640   195.2170   178.8420   149.3680    25.1820   -23.5760     2.1590 
  173.6250    43.5850   253.9160   229.4220   163.5520    25.1430   -23.5310     2.1550 
  173.7500    44.3990   315.1590   279.1080   182.9330    25.0650   -23.4680     2.1570 
  173.8750    43.4670   360.9020   314.3040   224.4580    25.0180   -23.4240     2.1600 
  174.0000    42.4240   379.6550   327.8680   293.2560    25.0240   -23.3420     2.1630 
  174.1250    42.3130   373.5260   321.8980   349.8920    25.0640   -23.1800     2.1670 
  174.2500    41.8910   350.9260   302.4680   335.5150    25.1180   -22.9890     2.1710 
  174.3750    40.8390   319.6360   275.6730   295.3300    25.1720   -22.8370     2.1740 
  174.5000    41.5020   284.8310   246.1600   258.0700    25.2230   -22.7230     2.1750 
  174.6250    44.5740   248.9510   216.2530   222.3890    25.2860   -22.6170     2.1780 
  174.7500    47.5360   213.4920   186.9470   204.3930    25.3390   -22.5210     2.1810 
  174.8750    48.9260   181.3480   160.0380   184.6800    25.3550   -22.4530     2.1880 
  175.0000    50.7010   155.1300   137.5120   141.8160    25.3410   -22.4020     2.2030 
  175.1250    53.4170   136.0990   120.7460   103.1560    25.3160   -22.3600     2.2260 
  175.2500    54.8540   124.3130   110.2220    88.2010    25.2980   -22.3160     2.2540 
  175.3750    54.0110   119.0640   105.7020    87.4040    25.2840   -22.2460     2.2760 
  175.5000    52.5500   117.8670   105.1810    90.9290    25.2610   -22.1620     2.2910 
  175.6250    51.6740   117.6280   105.9530    93.8360    25.2030   -22.0700     2.3110 
  175.7500    51.4430   115.8110   105.6560    99.1930    25.0840   -21.9340     2.3420 
  175.8750    51.9790   110.7220   102.4170   103.2630    24.9420   -21.7350     2.3740 
  176.0000    53.4060   103.1490    96.5100    97.2020    24.9090   -21.5270     2.3790 
  176.1250    54.9180    95.2470    89.6720    83.1990    24.9930   -21.3270     2.3460 
  176.2500    55.9300    88.7760    83.5810    72.5370    25.0820   -21.0920     2.2990 
  176.3750    57.1840    84.7840    79.4140    68.4860    25.1080   -20.8150     2.2670 
  176.5000    57.8500    82.9560    77.1110    68.6030    25.0930   -20.5250     2.2550 
  176.6250    57.0760    82.2780    75.8780    71.2200    25.0780   -20.2670     2.2500 
  176.7500    56.3420    81.7590    74.8460    74.4880    25.0720   -20.0550     2.2450 
  176.8750    57.0540    80.7350    73.3680    75.9780    25.0660   -19.8370     2.2370 
  177.0000    57.4950    79.5330    71.6700    74.4520    25.0580   -19.6000     2.2280 
  177.1250    55.9670    79.2710    70.7110    70.5960    25.0710   -19.3910     2.2210 
  177.2500    54.4940    81.2480    71.6650    67.7050    25.1180   -19.2290     2.2150 
  177.3750    54.3600    87.0110    76.0720    70.7380    25.1760   -19.0790     2.2110 
  177.5000    54.0780    97.0440    84.6720    84.2530    25.2090   -18.9190     2.2080 
  177.6250    52.9560   110.7920    97.3110   104.8400    25.2190   -18.7480     2.2060 
  177.7500    52.0680   126.9490   113.0900   125.8340    25.2200   -18.5710     2.2050 
  177.8750    52.6100   143.1080   130.0440   140.9680    25.2190   -18.4000     2.2000 
  178.0000    53.6830   156.6020   145.6380   145.6110    25.2190   -18.2110     2.1950 
  178.1250    53.7070   164.5290   157.0850   137.9170    25.2200   -18.0000     2.1920 
  178.2500    52.4840   162.4420   160.1470   128.5440    25.2210   -17.7860     2.1950 
  178.3750    51.7710   144.1850   147.4970   126.1100    25.2210   -17.5570     2.2060 
  178.5000    52.7670   112.6490   119.1920   125.2960    25.2210   -17.3190     2.2250 
  178.6250    54.8430    78.5560    84.8240   110.7680    25.2190   -17.0920     2.2520 
  178.7500    58.4810    50.6910    54.9370    76.1520    25.2080   -16.9010     2.2890 
  178.8750    65.5660    32.7140    35.2720    40.5910    25.1770   -16.7660     2.3360 
  179.0000    73.7460    22.6250    24.3000    20.1770    25.1310   -16.7010     2.3850 
  179.1250    79.2240    17.3510    18.5360    12.7060    25.0880   -16.7180     2.4220 
  179.2500    82.0890    15.2140    15.9540    11.1250    25.0590   -16.8210     2.4350 
  179.3750    82.7010    15.5780    15.7390    11.4700    25.0850   -17.0370     2.4250 
  179.5000    78.3330    18.2310    17.6380    13.2440    25.1710   -17.3540     2.4040 
  179.6250    69.2640    23.3410    21.8740    17.7610    25.2850   -17.7210     2.3780 
  179.7500    61.1670    31.3800    29.1170    27.3360    25.3790   -18.1140     2.3440 
  179.8750    58.5310    42.9770    40.4780    44.1990    25.4220   -18.5520     2.3040 
  180.0000    59.0550    57.5430    55.6690    68.4360    25.4320   -19.0400     2.2680 
  180.1250    58.1870    73.1980    72.5280    91.5890    25.4330   -19.5020     2.2410 
  180.2500    54.2380    87.4300    87.7630   104.2810    25.4330   -19.9000     2.2250 
  180.3750    49.5220    97.8250    98.0120   106.7790    25.4330   -20.2700     2.2190 
  180.5000    47.3990   104.7050   103.2240   105.5840    25.4290   -20.6320     2.2190 
  180.6250    48.6560   110.3210   105.6970   105.1200    25.4100   -20.9650     2.2230 
  180.7500    51.0250   116.8050   107.7330   107.3220    25.3600   -21.2320     2.2270 
  180.8750    51.8890   125.6410   111.0860   114.0380    25.3010   -21.4350     2.2300 
  181.0000    51.2100   136.6940   116.1640   121.5790    25.2600   -21.5890     2.2280 
  181.1250    50.9190   148.7380   122.3880   127.2580    25.2380   -21.7000     2.2250 
  181.2500    52.3630   160.2470   128.8410   132.3810    25.2320   -21.7540     2.2240 
  181.3750    54.3200   169.3960   134.3790   139.3540    25.2440   -21.7580     2.2230 
  181.5000    54.5740   175.2420   138.2810   145.0410    25.2650   -21.7370     2.2210 
  181.6250    53.0530   177.7290   140.3370   146.5180    25.2790   -21.7000     2.2170 
  181.7500    50.9500   177.1900   140.6150   143.2490    25.2810   -21.6400     2.2170 
  181.8750    48.6480   174.0880   139.2700   138.7090    25.2660   -21.5380     2.2220 
