~V
VERS. 2.00: Ver 2.00
~W
STRT.M 50.0000:
STOP.M 209.0000:
STEP.M 0.1250:
NULL. -999.2500:
UWI. F11109:
~C
DEPT.M :
GR.API :
RML.OHMM :
RI. :
RXO.OHMM :
CALI.CM :
SP.MV :
DEN.GM/CC :
~A
# ...
  128.7500    43.8850    19.1920    17.4370    16.7080    25.3920   -16.9210     2.5580 
  128.8750    39.4220    18.9610    17.2580    16.3630    25.4250   -16.9640     2.5590 
  129.0000    36.7490    18.5880    16.9700    15.6160    25.4430   -17.0020     2.5590 
  129.1250    38.4590    17.9700    16.4830    15.3810    25.4660   -17.0550     2.5560 
  129.2500    43.0720    17.1660    15.8330    16.1320    25.4790   -17.1400     2.5510 
  129.3750    49.0350    16.2700    15.0910    15.9470    25.4850   -17.2320     2.5450 
  129.5000    53.9580    15.3980    14.3460    13.7620    25.4890   -17.3250     2.5400 
  129.6250    54.3750    14.6990    13.7180    12.4370    25.4950   -17.4390     2.5350 
  129.7500    51.7600    14.2360    13.2680    12.4640    25.5040   -17.5720     2.5260 
  129.8750    49.7030    14.0530    13.0440    12.6640    25.4970   -17.6850     2.5130 
  130.0000    50.7930    14.1520    13.0600    12.5910    25.4840   -17.7710     2.5000 
  130.1250    53.8190    14.5350    13.3250    12.2780    25.4780   -17.8450     2.4940 
  130.2500    55.1970    15.0810    13.7440    13.1830    25.4770   -17.9030     2.4940 
  130.3750    54.1680    15.6800    14.2260    14.7150    25.4780   -17.9450     2.4980 
  130.5000    52.2920    16.1960    14.6570    15.0330    25.4800   -17.9660     2.4990 
  130.6250    49.3710    16.4620    14.8880    15.1730    25.4790   -17.9710     2.4980 
  130.7500    46.6060    16.4770    14.8990    15.4290    25.4800   -17.9830     2.5020 
  130.8750    45.5010    16.3290    14.7450    15.1470    25.4830   -18.0020     2.5130 
  131.0000    46.6430    16.2050    14.5730    14.5010    25.4830   -18.0150     2.5300 
  131.1250    49.2950    16.3740    14.6030    14.5800    25.4830   -18.0370     2.5440 
  131.2500    52.5940    16.9160    14.9350    15.5350    25.4800   -18.1090     2.5510 
  131.3750    57.8200    17.8250    15.5940    16.4180    25.4640   -18.2200     2.5480 
  131.5000    65.1780    19.0250    16.5400    18.4470    25.4220   -18.3230     2.5360 
  131.6250    71.2270    20.3910    17.6870    21.4410    25.4030   -18.4180     2.5180 
  131.7500    73.6890    21.7070    18.8330    22.8850    25.4430   -18.5220     2.5020 
  131.8750    73.4830    22.7800    19.7980    23.2370    25.5070   -18.6300     2.4950 
  132.0000    72.3300    23.4150    20.4120    21.9890    25.5390   -18.7280     2.4980 
  132.1250    71.2450    23.3120    20.4290    21.5110    25.5250   -18.8100     2.5040 
  132.2500    70.6610    22.4800    19.8500    21.6190    25.4820   -18.8840     2.5010 
  132.3750    71.2110    21.0130    18.7290    19.9940    25.4140   -18.9620     2.4810 
  132.5000    72.2060    19.1790    17.2620    17.0460    25.3200   -19.0420     2.4530 
  132.6250    71.3580    17.3930    15.7600    14.7370    25.2640   -19.1200     2.4310 
  132.7500    68.4470    16.0210    14.5300    13.1970    25.2880   -19.2010     2.4260 
  132.8750    65.6970    15.2920    13.7690    12.3920    25.3870   -19.2740     2.4350 
  133.0000    66.6220    15.3020    13.5810    12.5350    25.4950   -19.3220     2.4550 
  133.1250    71.2510    16.0320    14.0110    13.3080    25.5320   -19.3290     2.4820 
  133.2500    74.8830    16.9890    14.7160    14.3630    25.5410   -19.3250     2.5150 
  133.3750    76.2570    17.6650    15.2990    16.6160    25.5400   -19.3030     2.5490 
  133.5000    76.8440    17.5960    15.3470    19.2360    25.5400   -19.2440     2.5720 
  133.6250    77.4830    16.5500    14.6010    17.8370    25.5330   -19.1450     2.5650 
  133.7500    78.3450    15.1150    13.4970    14.2790    25.5100   -19.0330     2.5360 
  133.8750    77.9440    13.8750    12.4870    11.4320    25.4870   -18.9180     2.5000 
  134.0000    74.7050    13.2500    11.9180    10.2560    25.4720   -18.8100     2.4710 
  134.1250    69.4440    13.4900    12.0290    11.9600    25.4510   -18.6820     2.4540 
  134.2500    67.5340    14.2810    12.6420    14.9870    25.4180   -18.5430     2.4440 
  134.3750    69.1460    15.2560    13.5070    15.8490    25.3890   -18.3920     2.4410 
  134.5000    71.3420    15.9570    14.2420    14.3700    25.3830   -18.2250     2.4480 
  134.6250    72.9510    15.8380    14.3120    13.3280    25.3950   -18.0320     2.4640 
  134.7500    76.4120    14.9140    13.6430    13.3860    25.3740   -17.8500     2.4730 
  134.8750    81.1570    13.3810    12.3870    13.8640    25.3150   -17.7070     2.4610 
  135.0000    84.3550    11.5360    10.8130    12.0380    25.2180   -17.5980     2.4280 
  135.1250    83.6690     9.7190     9.2210     8.5940    25.0790   -17.5430     2.3850 
  135.2500    82.7900     8.1910     7.8420     6.3520    24.9590   -17.5600     2.3530 
  135.3750    84.2390     7.0860     6.7890     5.4140    24.9110   -17.6540     2.3380 
  135.5000    86.7820     6.4620     6.1180     4.8840    24.9300   -17.7970     2.3360 
  135.6250    86.5740     6.4240     5.9320     4.7570    24.9920   -17.9470     2.3370 
  135.7500    86.1680     6.8930     6.1740     5.1550    24.9790   -18.1030     2.3360 
  135.8750    86.8860     7.8610     6.8390     5.8750    24.9760   -18.2910     2.3360 
  136.0000    86.7750     9.2720     7.8920     7.3920    25.0920   -18.4960     2.3410 
  136.1250    82.1840    10.9260     9.2210    10.1650    25.2150   -18.6800     2.3510 
  136.2500    74.9290    12.3330    10.4440    11.9190    25.2670   -18.8390     2.3590 
  136.3750    68.9450    13.0610    11.1810    11.3160    25.2120   -18.9920     2.3550 
  136.5000    67.3330    12.9320    11.2230    10.5060    25.0810   -19.1310     2.3390 
  136.6250    69.9980    12.0880    10.6250     9.9310    24.9600   -19.2140     2.3210 
  136.7500    73.8070    11.1080     9.8500     8.8070    24.8510   -19.2390     2.3100 
  136.8750    76.5990    10.3550     9.1910     7.8940    24.7690   -19.2090     2.3090 
  137.0000    77.3490    10.0160     8.8190     7.8420    24.7370   -19.1400     2.3160 
  137.1250    74.6820    10.1990     8.8380     7.8990    24.7630   -19.0540     2.3250 
  137.2500    72.5550    10.7590     9.1600     8.1260    24.8380   -18.9580     2.3300 
  137.3750    73.2840    11.5390     9.6910     9.3120    24.9460   -18.8760     2.3280 
  137.5000    75.9110    12.2780    10.2490    10.5370    25.0370   -18.8200     2.3190 
  137.6250    78.3970    12.5720    10.5180    10.0150    25.0860   -18.7480     2.3080 
  137.7500    79.7940    12.2700    10.3380     9.2650    25.0870   -18.6360     2.3020 
  137.8750    78.8240    11.4050     9.7010     8.7900    25.1470   -18.5040     2.3040 
  138.0000    74.8480    10.1830     8.7520     7.9020    25.2770   -18.3780     2.3160 
  138.1250    73.0190     8.9510     7.7500     6.6370    25.4800   -18.2240     2.3350 
  138.2500    76.4800     8.0390     6.9600     5.9930    25.2720   -18.0600     2.3520 
  138.3750    80.6760     7.6570     6.5470     5.7250    25.1680   -17.9450     2.3590 
  138.5000    80.9580     7.9470     6.6200     5.8490    25.2670   -17.9060     2.3630 
  138.6250    77.6470     9.1260     7.3570     6.7890    25.3530   -17.9750     2.3740 
  138.7500    73.8290    11.0080     8.6710     9.3550    25.3870   -18.1150     2.3940 
  138.8750    70.2410    13.2490    10.3960    14.0840    25.3730   -18.3040     2.4120 
  139.0000    67.6140    15.1780    12.0940    17.6770    25.3580   -18.5240     2.4120 
  139.1250    67.2870    15.7480    12.9130    15.5330    25.3390   -18.7450     2.3870 
  139.2500    69.1770    14.8830    12.5790    13.4040    25.3380   -18.9090     2.3560 
  139.3750    72.4110    13.0740    11.3640    11.9800    25.3620   -18.9910     2.3340 
  139.5000    76.3840    11.0700     9.8360     9.6460    25.4370   -19.0180     2.3280 
  139.6250    80.9450     9.5260     8.5160     7.4380    25.4410   -18.9880     2.3340 
  139.7500    84.9060     8.5600     7.5720     6.4850    25.3900   -18.9190     2.3420 
  139.8750    86.5940     8.1410     7.0290     6.2230    25.2810   -18.8480     2.3500 
