~V
VERS. 2.00: Ver 2.00
~W
STRT.M 59.0000:
STOP.M 247.0000:
STEP.M 0.1250:
NULL. -999.2500:
UWI. F11130:
~C
DEPT.M :
DEN.GM/CC :
SP.MV :
GR.API :
RML.OHMM :
RI. :
RXO.OHMM :
CALI.CM :
~A
# ...
   92.7500     2.1830   -11.7950    81.8960     8.5420     6.5450     9.2590    25.1930 
   92.8750     2.1790   -11.7460    83.2570     8.6140     6.5980     9.4480    25.1600 
   93.0000     2.1750   -11.7290    83.8960     8.6860     6.6600     9.4830    25.1500 
   93.1250     2.1740   -11.6510    82.4810     8.7260     6.7140     9.4450    25.1610 
   93.2500     2.1770   -11.4630    80.5770     8.7070     6.7430     9.6140    25.1760 
   93.3750     2.1840   -11.1980    80.6530     8.6120     6.7220     9.6620    25.1840 
   93.5000     2.1940   -10.7840    81.9140     8.4490     6.6410     9.5450    25.2070 
   93.6250     2.2060   -10.3490    82.4270     8.2560     6.5130     9.4550    25.2540 
   93.7500     2.2150    -9.9170    82.0940     8.1010     6.3920     9.4220    25.3450 
   93.8750     2.2210    -9.5710    78.2990     8.0400     6.3250     9.2900    25.4520 
   94.0000     2.2220    -9.2990    71.6780     8.1090     6.3520     9.0870    25.5310 
   94.1250     2.2210    -9.0650    68.0310     8.3200     6.5010     9.7410    25.5960 
   94.2500     2.2180    -8.9620    70.8810     8.6060     6.7280    10.2400    25.6890 
   94.3750     2.2140    -8.8590    75.0400     8.8980     6.9880    10.3690    25.7890 
   94.5000     2.2090    -8.7090    75.5760     9.1210     7.2280    10.1540    25.8360 
   94.6250     2.2050    -8.5040    72.8180     9.1620     7.3540     9.9380    25.7950 
   94.7500     2.2070    -8.1570    69.5200     8.9920     7.3050     9.9150    25.6910 
   94.8750     2.2200    -7.7090    67.4010     8.6190     7.0570     9.9840    25.5750 
   95.0000     2.2460    -7.2240    68.4140     8.1280     6.6530     9.6940    25.4530 
   95.1250     2.2740    -6.9170    72.9300     7.6930     6.2210     8.6300    25.2900 
   95.2500     2.2920    -6.8270    77.7450     7.4800     5.9150     7.4210    25.1050 
   95.3750     2.2960    -6.9700    80.9340     7.5850     5.8320     6.9300    24.9670 
   95.5000     2.2900    -7.4270    81.3100     8.0180     6.0160     7.2550    24.8440 
   95.6250     2.2840    -8.0730    77.3870     8.7140     6.4830     8.3710    24.7590 
   95.7500     2.2800    -8.8810    71.6060     9.4520     7.0990     9.6460    24.7690 
   95.8750     2.2740    -9.7700    67.4480    10.0620     7.7240    10.2200    24.8680 
   96.0000     2.2570   -10.5700    65.9030    10.4270     8.2150    10.2730    24.9770 
   96.1250     2.2290   -11.2250    65.8660    10.4910     8.4460    11.0780    25.0310 
   96.2500     2.2020   -11.6010    65.6210    10.3800     8.4770    13.0960    25.0260 
   96.3750     2.1850   -11.7540    64.3110    10.1880     8.3840    15.1170    24.9090 
   96.5000     2.1800   -11.7320    62.2050     9.9840     8.2340    13.3130    24.6320 
   96.6250     2.1870   -11.5620    62.3430     9.8100     8.0760    11.7860    24.4320 
   96.7500     2.1990   -11.3220    66.6800     9.6840     7.9380    11.1190    24.3580 
   96.8750     2.2140   -10.9690    71.7250     9.6250     7.8470    11.0870    24.4010 
   97.0000     2.2280   -10.5770    72.9200     9.6350     7.8190    10.9930    24.5110 
   97.1250     2.2350   -10.0250    70.6160     9.6850     7.8490    10.9350    24.6480 
   97.2500     2.2340    -9.3960    68.6880     9.7060     7.8770    10.8540    24.8020 
   97.3750     2.2270    -8.7920    67.5890     9.6440     7.8500    10.6900    24.9760 
   97.5000     2.2210    -8.1330    67.6320     9.4850     7.7410    10.6680    25.1900 
   97.6250     2.2230    -7.5000    71.2620     9.2690     7.5620    11.0610    25.3750 
   97.7500     2.2300    -6.8990    76.2910     9.0970     7.3920    11.0810    25.4320 
   97.8750     2.2340    -6.3780    79.6220     9.0510     7.2990    10.4290    25.3590 
   98.0000     2.2320    -6.0200    79.3650     9.1710     7.3340     9.6910    25.2250 
   98.1250     2.2220    -5.8420    76.1320     9.4510     7.5270    11.1030    25.0610 
   98.2500     2.2100    -5.8520    73.3450     9.7650     7.8000    13.6320    24.9470 
   98.3750     2.2030    -5.9760    73.6160     9.9990     8.0600    12.9260    24.8160 
   98.5000     2.2030    -6.1980    75.1340    10.0680     8.2140    11.1110    24.6640 
   98.6250     2.2100    -6.5090    74.6330     9.9440     8.1950    10.1870    24.5480 
   98.7500     2.2190    -6.8520    73.2820     9.7450     8.0760    10.2410    24.4870 
   98.8750     2.2290    -7.3140    73.4610     9.5830     7.9420    10.2890    24.4660 
   99.0000     2.2350    -7.7980    74.2640     9.5400     7.8740    10.2640    24.4690 
   99.1250     2.2370    -8.3390    73.7140     9.6620     7.9310    10.2230    24.4830 
   99.2500     2.2360    -8.8960    71.9470     9.8730     8.0780    10.2850    24.4960 
   99.3750     2.2320    -9.3680    70.5650    10.0930     8.2620    10.4230    24.5010 
   99.5000     2.2270    -9.8490    70.8690    10.2480     8.4170    10.4910    24.5010 
   99.6250     2.2240   -10.2930    71.0660    10.2800     8.4790    10.4820    24.5010 
   99.7500     2.2250   -10.7470    70.7860    10.2170     8.4570    10.4740    24.5010 
   99.8750     2.2310   -11.0870    70.2350    10.0990     8.3820    10.4340    24.5010 
  100.0000     2.2370   -11.2840    69.4140     9.9710     8.2920    10.5160    24.5010 
  100.1250     2.2400   -11.3390    68.9320     9.8650     8.2150    10.7390    24.5010 
  100.2500     2.2380   -11.2490    70.3120     9.7850     8.1570    10.9120    24.5020 
  100.3750     2.2350   -11.1770    72.1410     9.7220     8.1110    10.9830    24.5060 
  100.5000     2.2330   -11.1000    71.3080     9.6690     8.0720    11.0330    24.5200 
  100.6250     2.2360   -11.0790    67.4830     9.6260     8.0400    11.0110    24.5510 
  100.7500     2.2420   -11.0810    63.6300     9.5930     8.0160    11.0670    24.6080 
  100.8750     2.2500   -11.1350    61.9410     9.5770     8.0040    11.2090    24.6850 
  101.0000     2.2590   -11.3480    64.3910     9.5860     8.0070    11.3480    24.7750 
  101.1250     2.2660   -11.6270    68.8950     9.6320     8.0340    11.4320    24.9010 
  101.2500     2.2670   -11.9410    70.9780     9.7030     8.0890    11.4640    25.0700 
  101.3750     2.2600   -12.2270    69.9140     9.7760     8.1650    11.5230    25.2370 
  101.5000     2.2460   -12.3890    68.0580     9.8030     8.2270    11.6870    25.3240 
  101.6250     2.2290   -12.3970    67.0510     9.7000     8.2010    12.2300    25.3650 
  101.7500     2.2170   -12.2560    65.6160     9.4500     8.0450    12.3350    25.4370 
  101.8750     2.2130   -12.0050    62.7290     9.0800     7.7570    12.0180    25.5560 
  102.0000     2.2180   -11.6090    60.3800     8.6680     7.3890    11.0150    25.6830 
  102.1250     2.2280   -11.1840    61.8740     8.3520     7.0480     9.9540    25.7300 
  102.2500     2.2370   -10.8500    64.1430     8.2280     6.8340     9.3410    25.7080 
  102.3750     2.2440   -10.5030    63.9130     8.3380     6.8010     9.4280    25.5750 
  102.5000     2.2490   -10.2250    62.8440     8.6610     6.9650     9.7820    25.3730 
  102.6250     2.2530    -9.9650    63.8120     9.1260     7.3060    10.4700    25.2140 
  102.7500     2.2540    -9.7910    63.8330     9.5870     7.7080    11.2380    25.1550 
  102.8750     2.2550    -9.7500    63.8220     9.9440     8.0750    11.5440    25.1410 
  103.0000     2.2540    -9.8320    66.4280    10.1390     8.3320    11.6950    25.1230 
  103.1250     2.2520   -10.0960    69.6530    10.1460     8.4300    11.9400    25.0740 
  103.2500     2.2440   -10.3560    70.3720    10.0360     8.4120    11.6770    25.0250 
  103.3750     2.2320   -10.6740    70.4590     9.8640     8.3190    11.6110    24.9910 
  103.5000     2.2180   -11.0200    71.6500     9.6760     8.1930    11.7490    24.9740 
  103.6250     2.2080   -11.4270    73.7590     9.5100     8.0650    11.8250    24.9680 
  103.7500     2.2040   -11.9210    75.0110     9.3810     7.9500    11.7380    24.9780 
  103.8750     2.2060   -12.3770    73.8780     9.2900     7.8530    11.6580    25.0260 
