~V
VERS. 2.00: Ver 2.00
~W
STRT.M 56.0000:
STOP.M 252.0000:
STEP.M 0.1250:
NULL. -999.2500:
UWI. F11142:
~C
DEPT.M :
SP.MV :
DEN.GM/CC :
GR.API :
RML.OHMM :
RI. :
RXO.OHMM :
CALI.CM :
~A
# ...
  191.0000   -24.7510     2.2070    70.0730    85.1940    72.7090    76.3530    24.0620 
  191.1250   -25.0210     2.1750    69.7380   104.4740    90.8540    92.6030    23.8100 
  191.2500   -25.2730     2.1670    69.1470   122.3480   108.1540   106.7340    23.7930 
  191.3750   -25.5190     2.1750    65.5340   136.5180   122.1440   124.0630    24.0470 
  191.5000   -25.7220     2.1810    62.1260   144.4870   130.2930   144.4750    24.3900 
  191.6250   -25.8180     2.1810    61.9950   146.7460   133.0250   162.2370    24.5640 
  191.7500   -25.8320     2.1790    62.9060   143.6600   130.6690   169.6050    24.6200 
  191.8750   -25.7510     2.1770    62.4050   136.0640   124.0030   160.5260    24.6250 
  192.0000   -25.6230     2.1770    61.9070   125.3830   114.2950   134.4690    24.6070 
  192.1250   -25.5280     2.1820    63.1550   114.6870   104.3780   103.7340    24.5740 
  192.2500   -25.4930     2.1930    64.9270   106.0460    96.2420    80.7570    24.5410 
  192.3750   -25.4940     2.2080    65.3390   100.5420    91.0710    71.2390    24.5370 
  192.5000   -25.4900     2.2250    65.3160    98.5300    89.4760    72.5040    24.5470 
  192.6250   -25.5400     2.2400    66.5140    98.4280    90.0720    78.0560    24.5590 
  192.7500   -25.6360     2.2500    68.2090    98.9080    91.6010    85.9110    24.5640 
  192.8750   -25.7930     2.2560    68.1740    98.7130    92.7460    92.2960    24.5590 
  193.0000   -25.9730     2.2600    66.3770    96.7450    92.2360    91.8180    24.5370 
  193.1250   -26.0860     2.2620    65.8300    93.1670    90.0110    86.8290    24.5000 
  193.2500   -26.1440     2.2590    67.0130    88.3430    86.3090    81.0410    24.4440 
  193.3750   -26.1600     2.2510    68.0790    82.6800    81.4790    74.1180    24.3730 
  193.5000   -26.1460     2.2380    68.6120    76.3930    75.6580    68.6550    24.3760 
  193.6250   -26.0960     2.2270    70.2460    69.8820    69.2610    63.4370    24.4220 
  193.7500   -25.9900     2.2210    73.9940    63.7290    62.8130    57.0540    24.3860 
  193.8750   -25.8360     2.2260    77.6180    58.8680    57.2260    48.7750    24.3480 
  194.0000   -25.6530     2.2410    77.8700    56.9140    54.1150    41.0970    24.3590 
  194.1250   -25.5030     2.2550    75.8140    58.3760    54.1920    38.4480    24.3170 
  194.2500   -25.3770     2.2610    73.6300    63.6110    57.9710    44.3790    24.2600 
  194.3750   -25.2440     2.2510    71.3280    72.4260    65.4370    60.5730    24.2250 
  194.5000   -25.1300     2.2270    67.3710    84.0830    76.0940    81.3210    24.2830 
  194.6250   -24.9790     2.2000    64.6280    96.1070    87.5220   100.3690    24.4690 
  194.7500   -24.8280     2.1810    65.1490   106.3330    97.5220   110.4570    24.5710 
  194.8750   -24.6580     2.1730    66.9970   113.1420   104.3300   106.4040    24.5600 
  195.0000   -24.3880     2.1750    67.5730   116.1030   107.1500    94.9780    24.4720 
  195.1250   -23.9990     2.1770    67.0910   117.9350   108.2880    83.6330    24.2970 
  195.2500   -23.5780     2.1730    66.5590   120.9090   109.8720    76.3730    24.1000 
  195.3750   -23.2180     2.1640    66.0370   126.3120   113.3720    77.0730    23.9720 
  195.5000   -22.8870     2.1570    65.9820   134.4670   119.5010    88.9940    23.9350 
  195.6250   -22.5650     2.1610    66.3970   143.8900   127.1760   103.7640    23.9810 
  195.7500   -22.2240     2.1820    67.2980   153.2970   135.3420   118.4370    24.1020 
  195.8750   -21.8750     2.2240    67.8240   161.5390   142.9710   128.1690    24.2660 
  196.0000   -21.5530     2.3060    66.2150   167.5670   149.1410   132.0540    24.2010 
  196.1250   -21.2920     2.4320    63.9380   171.4550   153.8410   137.0380    23.7480 
  196.2500   -21.0080     2.5710    61.7290   172.6010   156.7180   144.4840    23.2490 
  196.3750   -20.6420     2.6580    59.6390   169.2060   156.4120   146.4540    23.1800 
  196.5000   -20.1920     2.6850    60.1160   156.6860   148.7150   144.1790    23.6020 
  196.6250   -19.7510     2.6990    63.0980   133.7140   131.4160   139.7860    23.8260 
  196.7500   -19.3100     2.7110    65.6980   101.5700   104.2130   131.3940    23.9000 
  196.8750   -18.8540     2.7140    64.9500    66.9420    71.6310   117.1750    24.0180 
  197.0000   -18.3090     2.6930    62.6170    40.1200    43.6140    86.4760    24.1060 
  197.1250   -17.5840     2.6460    61.2730    23.0420    24.8790    45.2330    23.9480 
  197.2500   -16.6720     2.5740    60.1490    13.5250    14.3100    16.8580    23.5410 
  197.3750   -15.6250     2.4940    59.5240     8.6230     8.9930     7.4390    23.3180 
  197.5000   -14.5630     2.4260    59.6080     7.0070     6.7810     5.5690    23.5240 
  197.6250   -13.5010     2.4060    58.6660     6.4880     5.8410     5.2240    23.8180 
  197.7500   -12.4760     2.4300    55.8510     6.4920     5.6150     5.4620    24.0150 
  197.8750   -11.5420     2.4590    53.1100     6.6930     5.7820     5.8450    24.2170 
  198.0000   -10.8030     2.4580    53.4380     6.8820     6.1070     6.1320    24.4530 
  198.1250   -10.3300     2.4350    55.5050     6.9600     6.3780     6.1590    24.7760 
  198.2500   -10.1590     2.4050    57.4040     6.9120     6.5110     5.9440    24.9950 
  198.3750   -10.2540     2.3830    57.4760     6.7580     6.4880     5.5890    24.9640 
  198.5000   -10.4810     2.3780    55.6150     6.5340     6.3340     5.3850    24.9040 
  198.6250   -10.6990     2.3830    54.0980     6.3060     6.1270     5.3110    25.0180 
  198.7500   -10.8310     2.3880    54.3740     6.1220     5.9150     5.2170    25.2050 
  198.8750   -10.9190     2.3880    55.8610     6.0150     5.7330     5.1580    25.1330 
  199.0000   -11.0060     2.3870    55.7570     6.0040     5.6150     5.2250    24.7180 
  199.1250   -11.0630     2.3880    53.9990     6.0560     5.5630     5.3690    24.3900 
  199.2500   -11.1010     2.3930    52.0790     6.1560     5.5720     5.5470    24.3970 
  199.3750   -11.1330     2.4010    51.4480     6.2760     5.6240     5.7350    24.6600 
  199.5000   -11.2170     2.4120    52.8800     6.3890     5.6890     5.9330    24.7900 
  199.6250   -11.4230     2.4240    55.7460     6.4590     5.7370     6.1630    24.8070 
  199.7500   -11.8300     2.4360    58.8780     6.4440     5.7560     6.3670    24.7480 
  199.8750   -12.4270     2.4430    61.6330     6.4040     5.7510     6.4830    24.6120 
  200.0000   -13.2450     2.4420    65.2890     6.4310     5.7410     6.5920    24.2510 
  200.1250   -14.2490     2.4380    73.2370     6.5580     5.7530     6.8320    23.8120 
  200.2500   -15.4040     2.4320    84.5590     6.7780     5.8120     7.1440    23.5790 
  200.3750   -16.6810     2.4260    94.7020     7.0420     5.9310     7.4740    23.6410 
  200.5000   -18.0980     2.4180   100.7650     7.3430     6.1300     7.9030    23.8530 
  200.6250   -19.6840     2.4060   104.4660     7.6710     6.3900     8.6250    24.0570 
  200.7500   -21.4660     2.3920   104.9590     8.0170     6.6970     9.7070    24.2180 
  200.8750   -23.3460     2.3750   101.8320     8.3650     7.0340    11.1530    24.3890 
  201.0000   -25.1840     2.3520    96.6610     8.7000     7.3830    12.7330    24.4530 
  201.1250   -26.9010     2.3310    93.5520     9.0240     7.7320    13.9870    24.2970 
  201.2500   -28.4120     2.3150    92.2760     9.3430     8.0690    14.8920    23.9970 
  201.3750   -29.6630     2.3030    90.8020     9.6460     8.3790    15.4840    23.6660 
  201.5000   -30.5970     2.2930    89.7860     9.8710     8.6110    16.0140    23.3770 
  201.6250   -31.1740     2.2870    90.3580     9.9500     8.7180    16.6300    23.0890 
  201.7500   -31.2970     2.2860    91.7280     9.8400     8.6580    16.9090    22.9250 
  201.8750   -31.0360     2.2900    91.1200     9.5730     8.4300    16.2160    22.9140 
  202.0000   -30.5560     2.3000    88.6240     9.2700     8.0990    14.5300    23.0460 
  202.1250   -30.1020     2.3140    88.4650     9.0760     7.8030    12.6240    23.2500 
