~V
VERS. 2.00: Ver 2.00
~W
STRT.M 59.0000:
STOP.M 247.0000:
STEP.M 0.1250:
NULL. -999.2500:
UWI. F11130:
~C
DEPT.M :
DEN.GM/CC :
SP.MV :
GR.API :
RML.OHMM :
RI. :
RXO.OHMM :
CALI.CM :
~A
# ...
  182.7500     2.2390   -12.7670    67.2130    77.9810    79.1940    69.7390    27.4110 
  182.8750     2.2400   -12.6550    65.5580    69.6670    70.8330    63.2150    27.3750 
  183.0000     2.2390   -12.5130    62.2790    62.3550    63.1790    58.6700    27.2840 
  183.1250     2.2410   -12.3610    59.4620    56.0340    55.9720    57.2450    27.2270 
  183.2500     2.2520   -12.1390    59.1690    50.7230    49.3920    54.6560    27.2230 
  183.3750     2.2690   -11.8740    60.8860    46.9440    44.1230    47.8030    27.2040 
  183.5000     2.2880   -11.6950    61.1730    45.3990    40.9010    38.6560    27.1190 
  183.6250     2.3000   -11.5760    60.9410    47.2960    40.8940    35.1340    27.0280 
  183.7500     2.3000   -11.6410    62.7970    52.4980    44.1420    45.9780    26.9920 
  183.8750     2.2890   -11.7540    66.2520    60.7690    50.7060    62.2180    26.9500 
  184.0000     2.2720   -11.9870    68.3140    71.1850    60.0020    77.2700    26.8470 
  184.1250     2.2570   -12.3180    65.9730    81.8020    70.2890    84.3830    26.7100 
  184.2500     2.2490   -12.7050    63.9640    90.3420    78.7190    86.8170    26.5780 
  184.3750     2.2490   -13.1300    65.4870    95.6330    83.6300    82.2030    26.4510 
  184.5000     2.2550   -13.4290    69.0990    97.8280    85.1250    80.6000    26.3660 
  184.6250     2.2590   -13.6270    70.3550    97.9530    84.5020    76.2970    26.4410 
  184.7500     2.2580   -13.6510    68.8400    97.5760    83.4240    83.8440    26.5710 
  184.8750     2.2510   -13.6030    65.3590    97.1690    82.3280    88.7330    26.6120 
  185.0000     2.2390   -13.4040    61.6820    96.7430    81.3000    88.4940    26.3460 
  185.1250     2.2280   -13.1090    61.8750    96.0770    80.3420    86.0490    25.5800 
  185.2500     2.2240   -12.7120    65.9020    95.0210    79.3940    83.5660    24.7590 
  185.3750     2.2290   -12.2960    70.4720    93.4640    78.3350    81.2310    24.5580 
  185.5000     2.2400   -11.9440    71.1330    91.3850    77.0260    78.6950    24.7960 
  185.6250     2.2560   -11.6140    67.7460    88.8440    75.3780    74.9460    24.9420 
  185.7500     2.2740   -11.3790    65.7680    86.0880    73.5520    72.0410    24.9500 
  185.8750     2.2920   -11.1920    66.3320    83.1140    71.6560    69.9840    24.9170 
  186.0000     2.3070   -11.1190    68.2620    79.5880    69.5430    68.1660    24.8480 
  186.1250     2.3150   -11.0180    69.5750    74.5510    66.2910    66.8630    24.7600 
  186.2500     2.3140   -11.0180    69.9790    67.6230    61.0610    65.8650    24.6880 
  186.3750     2.3050   -11.0420    70.0420    58.9340    53.6170    64.9400    24.7040 
  186.5000     2.2970   -11.0750    70.2800    49.3300    44.7750    56.7310    24.7990 
  186.6250     2.3020   -11.1690    72.4170    40.2840    36.2350    39.0510    24.7850 
  186.7500     2.3240   -11.1670    75.4410    32.8890    29.3020    24.9680    24.6590 
  186.8750     2.3580   -11.1280    78.0440    27.6800    24.4700    17.9560    24.5280 
  187.0000     2.3910   -11.0500    80.5930    24.7950    21.7410    14.1600    24.4480 
  187.1250     2.4070   -11.0680    82.6110    24.4430    21.2270    14.7020    24.3240 
  187.2500     2.4050   -11.0850    83.4080    25.9410    22.5030    19.1560    24.3330 
  187.3750     2.3900   -11.0930    80.7410    28.8370    25.5540    29.6900    24.8290 
  187.5000     2.3740   -11.0890    74.3400    32.4480    30.1410    45.6190    25.3850 
  187.6250     2.3650   -10.9380    68.0380    35.6540    35.3690    50.8470    25.3550 
  187.7500     2.3670   -10.8090    64.0490    37.4480    39.5390    47.6310    24.9900 
  187.8750     2.3790   -10.6100    61.0600    37.2290    41.3410    43.3430    24.6720 
  188.0000     2.3960   -10.2760    58.1440    34.8750    40.1010    36.8090    24.4970 
  188.1250     2.4080    -9.7160    56.4050    30.5050    35.5310    27.6170    24.2570 
  188.2500     2.4070    -9.0260    56.2800    25.1370    29.0890    23.5980    23.9770 
  188.3750     2.3930    -8.2500    60.1460    19.5370    22.0590    20.9610    23.7590 
  188.5000     2.3770    -7.3700    71.0090    14.4760    15.7340    15.6140    23.6100 
  188.6250     2.3820    -6.5590    87.0990    10.8140    11.2480     9.8510    23.5800 
  188.7500     2.4190    -5.8110   101.3520     8.6110     8.4200     6.3460    23.7120 
  188.8750     2.4810    -5.2740   109.5720     7.8320     6.9890     5.2500    23.7910 
  189.0000     2.5470    -4.9830   109.0400     8.4900     6.7640     5.9470    23.7820 
  189.1250     2.5900    -5.0790    96.2430    11.2530     8.1120     9.6310    23.9240 
  189.2500     2.6030    -5.3670    80.0710    16.5560    11.4700    16.8720    24.1420 
  189.3750     2.5910    -5.7940    70.6170    25.1010    17.9230    25.2930    24.2670 
  189.5000     2.5660    -6.3930    69.8710    37.1550    28.7900    34.3090    24.2510 
  189.6250     2.5320    -7.0850    71.0790    51.9860    45.1230    55.0140    24.1600 
  189.7500     2.4890    -7.8940    68.3940    66.2250    62.8600    84.7120    24.2190 
  189.8750     2.4300    -8.6510    63.7270    76.5680    76.4600   103.8400    24.6380 
  190.0000     2.3600    -9.3700    59.9520    80.8970    82.1080   105.9150    25.2980 
  190.1250     2.2910    -9.9370    59.7180    78.8930    79.5340   102.9100    25.7140 
  190.2500     2.2390   -10.4210    61.4590    74.2230    73.5700    82.1500    25.8050 
  190.3750     2.2130   -10.8860    63.2560    69.3700    67.1620    63.8450    25.7340 
  190.5000     2.2100   -11.3260    64.6560    65.7570    62.0520    55.4370    25.5520 
  190.6250     2.2220   -11.8070    66.4840    63.9320    58.9620    57.3070    25.3010 
  190.7500     2.2380   -12.1730    69.2000    63.2210    57.1740    58.0570    25.0590 
  190.8750     2.2530   -12.5070    72.8460    63.1100    56.1890    57.8170    24.8960 
  191.0000     2.2650   -12.7610    75.7710    63.1590    55.6140    55.1390    24.7890 
  191.1250     2.2710   -12.9610    75.4620    63.0040    55.1230    51.3220    24.7590 
  191.2500     2.2730   -13.1070    73.3430    62.5760    54.5170    49.0600    24.7660 
  191.3750     2.2720   -13.1720    71.0330    62.0790    53.8160    48.9910    24.7900 
  191.5000     2.2730   -13.1860    68.9990    62.0010    53.2560    48.6340    24.8680 
  191.6250     2.2760   -13.0930    68.5580    63.4260    53.6000    47.6250    24.9080 
  191.7500     2.2800   -13.0060    70.9170    67.2000    55.7230    45.7270    24.7340 
  191.8750     2.2820   -12.8230    74.0500    74.6170    60.7840    46.3070    24.4100 
  192.0000     2.2790   -12.6090    74.9460    86.6840    70.0730    56.3800    24.1830 
  192.1250     2.2700   -12.3950    72.7780   102.6790    85.6290    78.9930    24.2290 
  192.2500     2.2550   -12.2980    68.8290   121.0260   106.5360   111.7850    24.4380 
  192.3750     2.2340   -12.3110    64.2360   142.4950   131.0090   144.6410    24.7500 
  192.5000     2.2070   -12.3490    60.8000   166.9490   155.8420   168.2930    24.9710 
  192.6250     2.1840   -12.3570    60.0850   190.8470   177.1950   172.2650    24.8950 
  192.7500     2.1900   -12.3240    60.8040   210.9600   194.9020   184.9230    24.7580 
  192.8750     2.2440   -12.4050    60.3140   227.4660   210.5940   209.4600    24.7140 
  193.0000     2.3500   -12.4830    55.6210   239.8830   225.2440   231.4940    24.7550 
  193.1250     2.4910   -12.5800    47.7870   242.1880   234.4760   238.8370    24.6540 
  193.2500     2.6250   -12.6700    44.3440   230.2230   231.5350   224.3700    24.4680 
  193.3750     2.7250   -12.7270    47.8610   203.3570   212.2550   191.4580    24.3030 
  193.5000     2.7830   -12.8390    53.1900   166.5490   179.4920   153.3880    24.1950 
  193.6250     2.8040   -13.0130    55.7450   128.0380   140.9410   123.0370    24.0810 
  193.7500     2.8060   -13.2610    57.0880    94.2040   104.9460    94.0070    23.9940 
  193.8750     2.7910   -13.4280    58.2050    67.0860    75.0790    67.0720    24.0510 
