~V
VERS. 2.00: Ver 2.00
~W
STRT.M 58.0000:
STOP.M 206.0000:
STEP.M 0.1250:
NULL. -999.2500:
UWI. F11128:
~C
DEPT.M :
GR.API :
RML.OHMM :
RI. :
RXO.OHMM :
CALI.CM :
SP.MV :
DEN.GM/CC :
~A
# ...
  181.7500    66.4510     6.6760     6.2050     9.1200    24.0970   -11.3950     2.4510 
  181.8750    65.1120     6.6800     6.2630     8.4760    24.0800   -11.6950     2.4560 
  182.0000    63.5600     6.7220     6.2800     7.6470    24.1350   -12.0330     2.4620 
  182.1250    60.7570     6.8610     6.3500     7.0180    24.2890   -12.4210     2.4670 
  182.2500    58.6460     7.1200     6.5110     6.9510    24.4220   -12.8130     2.4670 
  182.3750    58.4570     7.4560     6.7570     7.5570    24.3790   -13.1900     2.4630 
  182.5000    57.9370     7.8100     7.0450     8.5530    24.2080   -13.5360     2.4580 
  182.6250    55.6580     8.0700     7.2990     9.3690    24.1550   -13.8730     2.4540 
  182.7500    54.4810     8.1640     7.4700     9.3880    24.1780   -14.2660     2.4470 
  182.8750    54.7360     8.1630     7.5400     8.7920    24.2220   -14.7520     2.4330 
  183.0000    54.1770     8.0660     7.5150     8.3220    24.2020   -15.3000     2.4130 
  183.1250    54.0320     7.9750     7.4530     8.2040    24.1030   -15.8360     2.3990 
  183.2500    55.1370     7.9110     7.3900     8.1410    23.9840   -16.3760     2.3980 
  183.3750    55.4980     7.8590     7.3470     8.0790    24.0170   -16.9680     2.4060 
  183.5000    52.7110     7.7960     7.3340     8.2100    24.1230   -17.6010     2.4110 
  183.6250    50.3300     7.7730     7.3480     8.3480    24.2040   -18.2100     2.4100 
  183.7500    50.7470     7.7900     7.3880     8.3650    24.0810   -18.7180     2.4070 
  183.8750    52.4590     7.8580     7.4540     8.3900    23.8250   -19.1040     2.4030 
  184.0000    52.8720     7.9600     7.5400     8.4760    23.6130   -19.4220     2.3940 
  184.1250    52.2760     8.0480     7.6270     8.7980    23.6710   -19.7240     2.3750 
  184.2500    51.0310     8.1290     7.6960     9.1760    23.8200   -20.0080     2.3510 
  184.3750    49.3150     8.1860     7.7310     9.4580    23.9560   -20.2270     2.3370 
  184.5000    49.1760     8.1960     7.7180     9.4780    23.9800   -20.3520     2.3490 
  184.6250    50.3860     8.1790     7.6720     9.2690    24.0330   -20.4100     2.3830 
  184.7500    50.1590     8.1480     7.6010     8.8400    24.0710   -20.4180     2.4190 
  184.8750    47.4520     8.1080     7.5170     8.2780    24.0850   -20.3800     2.4390 
  185.0000    44.9470     8.0550     7.4220     7.9180    24.0910   -20.2820     2.4370 
  185.1250    44.4670     7.9860     7.3180     7.7970    24.1170   -20.1540     2.4280 
  185.2500    44.1370     7.9030     7.2080     7.8070    24.1520   -20.0080     2.4190 
  185.3750    43.1310     7.7670     7.0990     7.7640    24.1840   -19.8430     2.4120 
  185.5000    43.2140     7.6220     7.0050     7.5000    24.1790   -19.6500     2.4100 
  185.6250    44.3280     7.4490     6.9320     7.3460    24.1790   -19.4550     2.4090 
  185.7500    44.4880     7.2180     6.8780     7.3060    24.1750   -19.2830     2.4050 
  185.8750    42.4500     7.1330     6.8290     7.2840    24.1890   -19.1590     2.3950 
  186.0000    40.6410     7.0650     6.7570     7.2820    24.2340   -19.0570     2.3760 
  186.1250    41.2630     6.9500     6.6360     7.1570    24.2010   -18.8750     2.3560 
  186.2500    43.1500     6.7820     6.4560     6.8650    24.0900   -18.5750     2.3400 
  186.3750    44.9740     6.5680     6.2200     6.4160    24.0430   -18.1520     2.3330 
  186.5000    47.7590     6.3330     5.9480     5.9480    24.1450   -17.6180     2.3310 
  186.6250    50.4370     6.1190     5.6860     5.6720    24.2850   -16.9920     2.3320 
  186.7500    51.4430     5.9600     5.4670     5.5700    24.3710   -16.2620     2.3380 
  186.8750    51.3380     5.8800     5.3190     5.4950    24.3310   -15.4180     2.3460 
  187.0000    52.1290     5.9100     5.2740     5.4610    24.2050   -14.4960     2.3520 
  187.1250    54.5910     6.0380     5.3230     5.6040    24.1060   -13.5990     2.3610 
  187.2500    59.4400     6.2660     5.4740     5.8960    24.0450   -12.7800     2.3720 
  187.3750    66.5680     6.5970     5.7300     6.2590    24.0000   -12.0850     2.3840 
  187.5000    72.6250     7.0390     6.1070     6.6860    24.0600   -11.5630     2.3910 
  187.6250    75.7320     7.5400     6.5610     7.1890    24.0950   -11.2030     2.3970 
  187.7500    76.8000     8.0340     7.0390     7.8000    24.0890   -10.9900     2.4090 
  187.8750    77.2520     8.4360     7.4670     8.5740    24.0800   -10.8580     2.4320 
  188.0000    78.6680     8.6280     7.7310     9.3690    24.0900   -10.6920     2.4600 
  188.1250    80.8660     8.6050     7.8010     9.7410    24.1330   -10.4490     2.4750 
  188.2500    82.0600     8.4020     7.6830     9.4800    24.1840   -10.1570     2.4700 
  188.3750    81.1150     8.0990     7.4360     8.5310    24.2170    -9.8510     2.4490 
  188.5000    78.9380     7.8000     7.1500     7.4740    24.2460    -9.5350     2.4250 
  188.6250    77.0580     7.5760     6.9140     7.1430    24.2620    -9.2070     2.4010 
  188.7500    76.1330     7.4420     6.7590     7.2770    24.2420    -8.8700     2.3750 
  188.8750    76.8600     7.3680     6.6780     7.3410    24.1980    -8.5330     2.3510 
  189.0000    78.1390     7.2920     6.6250     7.0710    24.1440    -8.2510     2.3360 
  189.1250    78.7670     7.1600     6.5410     6.7250    24.1130    -7.9960     2.3280 
  189.2500    78.5310     6.9590     6.3950     6.3340    24.0670    -7.7360     2.3250 
  189.3750    77.3740     6.7100     6.1910     6.0010    24.0760    -7.4950     2.3230 
  189.5000    74.6860     6.4750     5.9700     5.7420    24.2040    -7.3580     2.3190 
  189.6250    71.2830     6.3090     5.7900     5.6360    24.2780    -7.2820     2.3130 
  189.7500    68.0140     6.2330     5.6850     5.6740    24.2940    -7.2100     2.3080 
  189.8750    65.1850     6.2350     5.6630     5.7830    24.3580    -7.1600     2.3070 
  190.0000    63.3910     6.2760     5.7040     5.8080    24.4550    -7.1570     2.3180 
  190.1250    62.5490     6.3020     5.7540     5.7050    24.5530    -7.2390     2.3350 
  190.2500    62.8770     6.2870     5.7760     5.6090    24.6460    -7.4040     2.3490 
  190.3750    64.3800     6.2310     5.7570     5.5340    24.7030    -7.5930     2.3600 
  190.5000    65.0480     6.1550     5.7040     5.4360    24.6500    -7.7200     2.3740 
  190.6250    64.6900     6.0930     5.6470     5.4430    24.5070    -7.7550     2.3870 
  190.7500    63.9660     6.0590     5.6040     5.5600    24.3790    -7.7400     2.3900 
  190.8750    63.9870     6.0510     5.5800     5.7660    24.2920    -7.6600     2.3860 
  191.0000    64.4870     6.0530     5.5710     6.0080    24.1940    -7.5180     2.3800 
  191.1250    64.1130     6.0440     5.5580     6.2030    24.1310    -7.3550     2.3730 
  191.2500    63.1380     6.0170     5.5330     6.1310    24.1030    -7.1600     2.3670 
  191.3750    61.9120     5.9780     5.4960     5.9760    24.0700    -6.8670     2.3630 
  191.5000    60.0550     5.9540     5.4620     5.8520    23.9510    -6.5050     2.3620 
  191.6250    56.8780     5.9740     5.4580     5.6220    23.7320    -6.1710     2.3680 
  191.7500    52.8520     6.0590     5.5030     5.2410    23.6270    -5.8600     2.3810 
  191.8750    50.4210     6.2130     5.6070     4.8940    23.8060    -5.5730     2.3970 
  192.0000    51.5020     6.4200     5.7680     4.8250    23.9920    -5.2970     2.4100 
  192.1250    54.4300     6.6310     5.9490     5.0350    24.0680    -5.0300     2.4200 
  192.2500    58.0300     6.8150     6.1200     5.4360    24.0780    -4.8400     2.4270 
  192.3750    61.5000     6.9590     6.2590     5.9040    24.0680    -4.7670     2.4270 
  192.5000    64.6320     7.0750     6.3640     6.3850    24.0530    -4.7340     2.4150 
  192.6250    67.6880     7.2010     6.4640     6.6820    24.0560    -4.6360     2.3950 
  192.7500    70.7560     7.3630     6.5870     6.7440    24.0910    -4.5290     2.3770 
  192.8750    73.5930     7.5750     6.7530     6.8420    24.0580    -4.5110     2.3750 
