~V
VERS. 2.00: Ver 2.00
~W
STRT.M 45.0000:
STOP.M 270.0000:
STEP.M 0.1250:
NULL. -999.2500:
UWI. F11186:
~C
DEPT.M :
SP.MV :
GR.API :
RI. :
RML.OHMM :
RXO.OHMM :
DEN.GM/CC :
~A
# ...
   70.7500   -29.4820    98.9610     4.7560     6.6100     5.7060     2.1400 
   70.8750   -29.8960    95.9950     4.8430     6.6790     5.4360     2.1410 
   71.0000   -30.2830    94.6020     4.8300     6.6390     5.1560     2.1460 
   71.1250   -30.6220    93.5160     4.7230     6.4840     5.3660     2.1520 
   71.2500   -30.9130    93.8630     4.5270     6.2130     5.7180     2.1590 
   71.3750   -31.1690    94.2760     4.3150     5.9040     5.6210     2.1640 
   71.5000   -31.4300    92.4290     4.1670     5.6770     5.4490     2.1640 
   71.6250   -31.7490    91.1370     4.3270     5.9750     5.5130     2.1730 
   71.7500   -32.1600    91.8290     4.8910     6.9500     5.7660     2.2240 
   71.8750   -32.6710    89.1940     5.7800     8.4290     9.1280     2.3000 
   72.0000   -33.2430    80.2120     6.7910    10.1120    15.2470     2.3170 
   72.1250   -33.8290    71.0480     7.4950    11.1550    15.6280     2.2390 
   72.2500   -34.3920    69.2550     7.6440    11.2180    10.3530     2.1440 
   72.3750   -34.9150    71.9490     7.1090    10.2110     7.4450     2.0970 
   72.5000   -35.3970    73.4630     6.3310     8.8950     7.0850     2.0820 
   72.6250   -35.8350    73.2770     5.6160     7.8740     6.8070     2.0730 
   72.7500   -36.2420    74.0440     5.2940     7.5430     6.7000     2.0700 
   72.8750   -36.6330    76.1770     5.3770     7.8270     6.6370     2.0750 
   73.0000   -37.0350    77.4250     5.5750     8.2160     6.4690     2.0830 
   73.1250   -37.4730    76.1900     5.8010     8.6010     6.4890     2.0830 
   73.2500   -37.9550    74.6900     6.0150     8.9650     6.7500     2.0730 
   73.3750   -38.4730    73.8330     6.1760     9.1360     7.0200     2.0620 
   73.5000   -38.9970    73.3790     6.2600     9.1400     7.2040     2.0630 
   73.6250   -39.4800    73.2140     6.2690     8.9890     7.1790     2.0710 
   73.7500   -39.8810    72.5560     6.2450     8.8050     7.1470     2.0740 
   73.8750   -40.1490    69.7090     6.2020     8.6590     7.1920     2.0680 
   74.0000   -40.2670    66.8440     6.1880     8.6190     7.2460     2.0600 
   74.1250   -40.2130    65.3390     6.1760     8.6320     7.3810     2.0560 
   74.2500   -40.0070    64.1080     6.1480     8.6590     7.4310     2.0590 
   74.3750   -39.6580    62.4520     6.1130     8.6890     7.3090     2.0660 
   74.5000   -39.2000    61.4810     6.0850     8.7080     7.1040     2.0680 
   74.6250   -38.6460    62.2010     6.0680     8.7130     6.9500     2.0660 
   74.7500   -38.0180    65.1820     6.0430     8.6380     6.9760     2.0660 
   74.8750   -37.3140    68.9380     5.9950     8.5150     7.1040     2.0790 
   75.0000   -36.5380    70.4730     5.8670     8.2730     7.0860     2.1160 
   75.1250   -35.6960    71.4820     5.6320     7.9060     7.0670     2.1730 
   75.2500   -34.8330    76.4980     5.2880     7.3890     7.2900     2.2140 
   75.3750   -34.0310    84.2860     4.8990     6.7390     7.4530     2.2100 
   75.5000   -33.3850    89.0730     4.5880     6.1480     6.8790     2.1840 
   75.6250   -33.0110    90.4280     4.5680     5.9780     5.7910     2.1890 
   75.7500   -32.9520    91.3740     4.8650     6.2770     5.5020     2.2410 
   75.8750   -33.2480    91.0490     5.3750     6.9170     8.6150     2.2890 
   76.0000   -33.8360    87.1430     6.0200     7.7610    12.7040     2.2770 
   76.1250   -34.6540    80.0160     6.6000     8.4490    11.6640     2.2070 
   76.2500   -35.5760    73.7010     6.8880     8.6600     8.4940     2.1390 
   76.3750   -36.4900    69.9720     6.8060     8.3870     7.5120     2.1030 
   76.5000   -37.3140    67.6050     6.5680     7.9150     7.4610     2.0860 
   76.6250   -38.0050    65.7750     6.2760     7.4410     7.4380     2.0830 
   76.7500   -38.5820    64.2050     6.2110     7.3010     7.4040     2.0890 
   76.8750   -39.0680    62.5130     6.2320     7.2660     7.3990     2.0990 
   77.0000   -39.4940    60.9240     6.2060     7.1910     7.2840     2.1000 
   77.1250   -39.8660    60.2370     6.1330     7.0670     7.1420     2.0900 
   77.2500   -40.1870    59.3970     6.0480     6.9440     7.1990     2.0800 
   77.3750   -40.4490    58.7520     5.9640     6.8400     7.2420     2.0740 
   77.5000   -40.6550    58.1690     5.8680     6.7370     7.0410     2.0720 
   77.6250   -40.8020    57.0560     5.7760     6.6380     6.8540     2.0660 
   77.7500   -40.9010    56.4140     5.6830     6.5310     6.8830     2.0470 
   77.8750   -40.9530    56.3680     5.6100     6.4540     6.7850     2.0220 
   78.0000   -40.9650    56.4430     5.5700     6.4190     6.4210     2.0070 
   78.1250   -40.9370    54.3550     5.5660     6.4580     6.3690     2.0160 
   78.2500   -40.8730    54.0510     5.5800     6.5010     6.7790     2.0330 
   78.3750   -40.7810    57.1470     5.5970     6.5270     7.0380     2.0460 
   78.5000   -40.6720    60.4730     5.6050     6.5620     7.0080     2.0530 
   78.6250   -40.5580    60.9800     5.5980     6.5500     7.0010     2.0510 
   78.7500   -40.4520    60.5200     5.5630     6.4990     7.0050     2.0440 
   78.8750   -40.3680    59.4940     5.5210     6.4110     6.9690     2.0360 
   79.0000   -40.3090    57.4130     5.4740     6.3200     7.0140     2.0300 
   79.1250   -40.2710    56.3670     5.4460     6.2850     7.0970     2.0250 
   79.2500   -40.2360    57.1770     5.4370     6.3050     7.0460     2.0240 
   79.3750   -40.1870    57.2340     5.4520     6.3530     7.0260     2.0280 
   79.5000   -40.1160    55.3530     5.4870     6.4080     7.1660     2.0380 
   79.6250   -40.0310    54.1430     5.5250     6.4580     7.3890     2.0470 
   79.7500   -39.9490    54.2710     5.5550     6.4970     7.5470     2.0510 
   79.8750   -39.8840    54.5230     5.5910     6.5390     7.5410     2.0500 
   80.0000   -39.8310    54.7840     5.6100     6.5820     7.4310     2.0510 
   80.1250   -39.7710    56.2290     5.6140     6.5830     7.2620     2.0540 
   80.2500   -39.6730    58.3910     5.6000     6.5650     7.1100     2.0550 
   80.3750   -39.5090    59.4640     5.5730     6.5250     7.0710     2.0570 
   80.5000   -39.2790    59.1220     5.5440     6.4910     7.4920     2.0640 
   80.6250   -39.0020    59.4000     5.5350     6.4990     8.1060     2.0730 
   80.7500   -38.7370    60.8910     5.5430     6.5370     7.9350     2.0780 
   80.8750   -38.5550    62.2820     5.5600     6.5780     7.1140     2.0770 
   81.0000   -38.4950    61.8300     5.5640     6.5950     6.7600     2.0740 
   81.1250   -38.5650    59.3740     5.5420     6.5770     7.0780     2.0700 
   81.2500   -38.7020    57.7200     5.5090     6.5250     7.3820     2.0680 
   81.3750   -38.8330    58.4820     5.4530     6.4510     7.2630     2.0640 
   81.5000   -38.9020    61.4790     5.4120     6.3690     7.0360     2.0590 
   81.6250   -38.8870    64.2970     5.3890     6.3270     7.0380     2.0590 
   81.7500   -38.8030    64.5250     5.4100     6.3470     7.0770     2.0640 
   81.8750   -38.6570    63.9940     5.4900     6.4610     7.2120     2.0690 
   82.0000   -38.4500    64.0990     5.5960     6.6020     7.3650     2.0730 
   82.1250   -38.1590    63.5420     5.6950     6.7000     7.4490     2.0750 
   82.2500   -37.7680    61.5540     5.7640     6.7580     7.5170     2.0730 
   82.3750   -37.2600    60.6620     5.8100     6.7850     7.3540     2.0680 
   82.5000   -36.6560    62.2270     5.7870     6.7650     7.1920     2.0650 
   82.6250   -35.9890    63.8520     5.6570     6.6220     7.0310     2.0660 
   82.7500   -35.3270    65.2500     5.4240     6.3500     6.6760     2.0820 
   82.8750   -34.7410    68.7450     5.1080     5.9590     6.1610     2.1160 
   83.0000   -34.2810    73.9220     4.8020     5.5520     5.6050     2.1510 
   83.1250   -33.9990    78.2520     4.5260     5.2060     5.3170     2.1710 
   83.2500   -33.9020    81.9120     4.2940     4.9190     5.4950     2.1820 
   83.3750   -34.0150    84.8580     4.1630     4.7500     5.7310     2.1920 
   83.5000   -34.3250    87.4840     4.1790     4.7500     5.3540     2.1940 
