~V
VERS. 2.00: Ver 2.00
~W
STRT.M 50.0000:
STOP.M 209.0000:
STEP.M 0.1250:
NULL. -999.2500:
UWI. F11109:
~C
DEPT.M :
GR.API :
RML.OHMM :
RI. :
RXO.OHMM :
CALI.CM :
SP.MV :
DEN.GM/CC :
~A
# ...
  185.0000    62.2130     7.4560     6.6640     6.6460    24.7200   -13.7920     2.3280 
  185.1250    65.0250     7.5910     6.7740     6.8100    24.5910   -13.8840     2.3300 
  185.2500    68.3120     7.6680     6.8390     6.7190    24.3870   -13.9420     2.3330 
  185.3750    69.3100     7.6480     6.8310     6.4020    24.0280   -13.9790     2.3360 
  185.5000    67.0660     7.5050     6.7240     6.2710    24.0200   -14.0010     2.3430 
  185.6250    63.0810     7.2440     6.5050     6.5710    24.7920   -14.0180     2.3540 
  185.7500    59.6990     6.9440     6.2320     6.5680    25.4870   -14.0220     2.3610 
  185.8750    58.0550     6.6720     5.9610     5.8320    25.2730   -14.0020     2.3620 
  186.0000    58.4380     6.4890     5.7500     5.5640    24.9790   -13.9570     2.3560 
  186.1250    57.7850     6.4500     5.6570     5.2560    25.0430   -13.8880     2.3490 
  186.2500    54.7500     6.5190     5.6640     5.2580    25.0720   -13.8280     2.3440 
  186.3750    52.9520     6.6590     5.7440     5.5380    25.0790   -13.7790     2.3430 
  186.5000    55.4140     6.8300     5.8650     5.8270    25.0810   -13.7270     2.3490 
  186.6250    57.8520     7.0060     6.0000     5.7580    25.0710   -13.6580     2.3510 
  186.7500    57.6230     7.1740     6.1320     5.4330    25.0540   -13.5830     2.3390 
  186.8750    57.3410     7.3160     6.2440     5.1790    25.0460   -13.5100     2.3090 
  187.0000    58.8820     7.3950     6.3070     5.4290    25.0620   -13.4510     2.2720 
  187.1250    60.8940     7.3490     6.2700     5.6260    25.0630   -13.3790     2.2470 
  187.2500    61.5090     7.1910     6.1390     5.4680    25.0480   -13.2920     2.2450 
  187.3750    59.8920     6.9720     5.9460     4.9650    25.0090   -13.2120     2.2680 
  187.5000    56.9100     6.7790     5.7530     4.5830    24.9350   -13.1570     2.3020 
  187.6250    56.9590     6.7410     5.6580     4.8670    24.8550   -13.1400     2.3340 
  187.7500    59.4310     6.8940     5.7020     5.7210    24.9220   -13.1690     2.3570 
  187.8750    60.4370     7.2240     5.8880     6.5190    25.0270   -13.2420     2.3720 
  188.0000    60.2510     7.6680     6.1830     6.9970    25.0770   -13.3560     2.3790 
  188.1250    60.6450     8.1230     6.5250     7.2530    25.0770   -13.5140     2.3780 
  188.2500    59.4340     8.4970     6.8350     7.3800    25.0780   -13.6980     2.3740 
  188.3750    56.0260     8.7500     7.0710     7.2910    25.0800   -13.8820     2.3700 
  188.5000    55.3370     8.8890     7.2230     7.2990    25.0810   -14.0520     2.3740 
  188.6250    59.0250     8.9370     7.2940     7.5660    25.0580   -14.1950     2.3830 
  188.7500    60.0590     8.9410     7.3240     8.0170    25.0890   -14.3140     2.3930 
  188.8750    58.1320     8.9250     7.3310     8.0200    25.1260   -14.4140     2.3990 
  189.0000    57.1580     8.9070     7.3340     8.1300    25.1640   -14.4920     2.3990 
  189.1250    59.1690     8.8810     7.3290     9.0620    25.1990   -14.5380     2.3970 
  189.2500    61.2880     8.8170     7.2980     9.1560    25.2410   -14.5700     2.3950 
  189.3750    62.2810     8.6890     7.2200     8.2030    25.2940   -14.6080     2.3890 
  189.5000    63.9670     8.4900     7.0880     7.6630    25.3560   -14.6650     2.3770 
  189.6250    66.9000     8.2370     6.9040     7.4400    25.4080   -14.7460     2.3610 
  189.7500    70.2590     7.9920     6.7130     6.7950    25.4320   -14.8260     2.3520 
  189.8750    72.8190     7.8180     6.5570     6.2650    25.4210   -14.8950     2.3540 
  190.0000    74.9210     7.7480     6.4660     5.9190    25.3790   -14.9520     2.3660 
  190.1250    75.8870     7.7930     6.4600     5.7910    25.3230   -14.9740     2.3780 
  190.2500    74.0820     7.9090     6.5200     5.8620    25.2880   -14.9540     2.3820 
  190.3750    71.1820     8.0640     6.6320     6.4170    25.2970   -14.9100     2.3800 
  190.5000    70.7370     8.2180     6.7740     6.6830    25.3490   -14.8500     2.3800 
  190.6250    73.4110     8.3340     6.9080     6.4750    25.4010   -14.7940     2.3900 
  190.7500    75.9170     8.3980     7.0040     6.4210    25.3950   -14.7650     2.4040 
  190.8750    77.0750     8.4020     7.0430     6.9710    25.3030   -14.7790     2.4090 
  191.0000    76.0790     8.3430     7.0190     7.9540    25.1420   -14.8490     2.3970 
  191.1250    74.2760     8.2330     6.9360     8.0960    24.9670   -14.9810     2.3650 
  191.2500    73.7640     8.1170     6.8350     7.1800    24.8410   -15.1510     2.3290 
  191.3750    74.5130     8.0310     6.7440     5.8110    24.7860   -15.3430     2.3040 
  191.5000    73.4620     8.0020     6.6890     5.4410    24.7930   -15.5580     2.3000 
  191.6250    69.1290     8.0660     6.7010     6.1370    24.8420   -15.7730     2.3250 
  191.7500    64.7760     8.2170     6.7840     6.3990    24.9020   -15.9630     2.3660 
  191.8750    62.8740     8.4460     6.9290     6.7440    24.9590   -16.1120     2.4100 
  192.0000    64.2180     8.7320     7.1210     6.9120    25.0050   -16.2290     2.4420 
  192.1250    67.3830     9.0340     7.3410     6.9660    25.0350   -16.3250     2.4530 
  192.2500    70.4430     9.2910     7.5570     7.3200    25.0450   -16.4010     2.4520 
  192.3750    73.5540     9.4610     7.7420     8.2100    25.0360   -16.4720     2.4460 
  192.5000    75.4620     9.5300     7.8780     8.8540    25.0160   -16.5310     2.4420 
  192.6250    74.1190     9.4950     7.9370     8.6990    25.0090   -16.5820     2.4300 
  192.7500    72.3150     9.3870     7.9250     7.6720    25.0450   -16.6080     2.4040 
  192.8750    73.3120     9.2270     7.8480     6.8910    25.1380   -16.5970     2.3720 
  193.0000    75.2510     9.0360     7.7270     6.8870    25.2840   -16.5570     2.3500 
  193.1250    74.8910     8.8280     7.5730     6.9350    25.4470   -16.5090     2.3430 
  193.2500    73.9900     8.6160     7.4020     7.1340    25.5740   -16.4350     2.3340 
  193.3750    74.0290     8.4010     7.2230     6.4840    25.6330   -16.3390     2.3120 
  193.5000    72.6620     8.1810     7.0460     5.6500    25.6150   -16.2310     2.2830 
  193.6250    69.9630     7.9710     6.8890     5.2660    25.5250   -16.1370     2.2660 
  193.7500    69.8200     7.7990     6.7680     5.3940    25.4020   -16.0700     2.2740 
  193.8750    71.4370     7.6910     6.6940     5.8050    25.2740   -16.0190     2.3000 
  194.0000    72.5090     7.6620     6.6750     5.8960    25.1710   -15.9880     2.3250 
  194.1250    72.2430     7.7400     6.7330     6.0270    25.1280   -15.9960     2.3320 
  194.2500    70.2210     7.8960     6.8540     6.2230    25.1490   -16.0480     2.3300 
  194.3750    65.6940     8.0990     7.0200     6.2450    25.2260   -16.1370     2.3330 
  194.5000    60.6200     8.3070     7.2000     5.9660    25.3350   -16.2170     2.3450 
  194.6250    60.7220     8.4330     7.3300     5.6830    25.4410   -16.3020     2.3650 
  194.7500    64.0150     8.4230     7.3570     5.6470    25.5210   -16.3850     2.3780 
  194.8750    66.5540     8.2700     7.2610     6.1420    25.5680   -16.4530     2.3730 
  195.0000    67.0080     8.0310     7.0770     6.8170    25.5820   -16.5250     2.3490 
  195.1250    66.7890     7.8350     6.9000     6.8480    25.5520   -16.5840     2.3200 
  195.2500    68.4560     7.8080     6.8350     5.7330    25.4890   -16.6520     2.3010 
  195.3750    70.9430     8.0280     6.9530     5.3530    25.4030   -16.7300     2.3030 
  195.5000    72.0920     8.5090     7.2740     5.9990    25.3150   -16.8180     2.3250 
  195.6250    70.7170     9.1950     7.7780     7.3490    25.2490   -16.9090     2.3620 
  195.7500    69.5530     9.8860     8.3260     8.7090    25.2130   -16.9890     2.4030 
  195.8750    69.5530    10.4090     8.7890     9.4610    25.2000   -17.0660     2.4420 
  196.0000    69.5530    10.6490     9.0620     9.7010    25.1980   -17.1250     2.4700 
  196.1250    69.5530    10.5610     9.0790     9.5420    25.2050   -17.1520     2.4740 
