~V
VERS. 2.00: Ver 2.00
~W
STRT.M 45.0000:
STOP.M 268.0000:
STEP.M 0.1250:
NULL. -999.2500:
UWI. F11184:
~C
DEPT.M :
SP.MV :
GR.API :
RI. :
RML.OHMM :
RXO.OHMM :
DEN.GM/CC :
~A
# ...
   57.8750   -38.8260    64.7330     4.7810     5.2150     6.1820     2.1120 
   58.0000   -38.9560    60.8990     4.8080     5.2480     6.4580     2.1220 
   58.1250   -39.0820    62.4050     4.8260     5.2670     6.7880     2.1210 
   58.2500   -39.2150    67.0930     4.8240     5.2650     6.7010     2.1190 
   58.3750   -39.3640    69.4690     4.7830     5.2230     6.7120     2.1190 
   58.5000   -39.5270    67.7970     4.7120     5.1480     7.1200     2.1090 
   58.6250   -39.6970    66.2040     4.6240     5.0550     6.7210     2.0830 
   58.7500   -39.8610    64.5000     4.5260     4.9520     5.5880     2.0640 
   58.8750   -39.9960    63.0740     4.4620     4.8850     5.1490     2.0650 
   59.0000   -40.0870    62.7230     4.5280     4.9550     5.4500     2.0730 
   59.1250   -40.1260    63.4170     4.7440     5.1810     5.8260     2.0760 
   59.2500   -40.1260    62.9000     5.0380     5.4900     6.0770     2.0820 
   59.3750   -40.1090    61.3950     5.3120     5.7780     6.1580     2.0940 
   59.5000   -40.1030    60.6920     5.4340     5.9060     5.8280     2.0970 
   59.6250   -40.1230    60.4280     5.3390     5.8060     5.3040     2.0860 
   59.7500   -40.1700    59.7570     5.0750     5.5290     5.1480     2.0730 
   59.8750   -40.2380    57.1510     4.7460     5.1830     5.2190     2.0670 
   60.0000   -40.3130    53.5650     4.4540     4.8760     5.1400     2.0660 
   60.1250   -40.3860    50.8970     4.3180     4.7340     4.9940     2.0680 
   60.2500   -40.4530    51.3480     4.2680     4.6810     4.9220     2.0700 
   60.3750   -40.5120    53.1420     4.2590     4.6720     5.0680     2.0680 
   60.5000   -40.5680    53.6920     4.2740     4.6870     5.3430     2.0660 
   60.6250   -40.6310    52.9150     4.2940     4.7090     5.4230     2.0680 
   60.7500   -40.7020    52.1910     4.3020     4.7180     5.5140     2.0750 
   60.8750   -40.7840    52.8920     4.2680     4.6810     5.4860     2.0810 
   61.0000   -40.8680    54.7350     4.1980     4.6080     5.0930     2.0820 
   61.1250   -40.9480    55.4670     4.1110     4.5160     4.8470     2.0720 
   61.2500   -41.0160    54.8440     4.0150     4.4160     4.8700     2.0600 
   61.3750   -41.0690    55.3600     3.9360     4.3330     5.0330     2.0520 
   61.5000   -41.1090    56.2360     3.8810     4.2750     5.3200     2.0490 
   61.6250   -41.1390    55.4160     3.8670     4.2600     5.5250     2.0480 
   61.7500   -41.1610    54.5030     3.8860     4.2800     5.4970     2.0510 
   61.8750   -41.1720    55.7940     3.9350     4.3320     5.5920     2.0600 
   62.0000   -41.1680    58.7720     4.0060     4.4070     5.9780     2.0700 
   62.1250   -41.1450    59.6310     4.0790     4.4830     6.1400     2.0780 
   62.2500   -41.1040    58.6410     4.1130     4.5190     6.1890     2.0830 
   62.3750   -41.0460    58.9320     4.1090     4.5140     6.2840     2.0780 
   62.5000   -40.9740    59.2020     4.0710     4.4750     6.1130     2.0690 
   62.6250   -40.8910    57.0750     4.0390     4.4410     5.8020     2.0660 
   62.7500   -40.7980    55.5710     4.0350     4.4360     5.7650     2.0760 
   62.8750   -40.6900    58.2990     4.0830     4.4870     6.2010     2.0890 
   63.0000   -40.5620    61.5610     4.1760     4.5850     6.6720     2.0950 
   63.1250   -40.4030    60.6430     4.3260     4.7430     6.5860     2.0980 
   63.2500   -40.2060    59.0680     4.5180     4.9440     6.2400     2.1160 
   63.3750   -39.9680    59.7550     4.7070     5.1420     6.2400     2.1450 
   63.5000   -39.7000    60.7850     4.8160     5.2570     6.6680     2.1620 
   63.6250   -39.4230    61.7260     4.8350     5.2770     6.7640     2.1520 
   63.7500   -39.1690    63.7680     4.7710     5.2100     5.9530     2.1280 
   63.8750   -38.9720    66.6470     4.6670     5.1000     5.4400     2.1060 
   64.0000   -38.8450    68.6950     4.5680     4.9960     5.8340     2.0930 
   64.1250   -38.7950    67.9280     4.5070     4.9330     6.0820     2.0850 
   64.2500   -38.7980    66.3610     4.4800     4.9040     5.8580     2.0800 
   64.3750   -38.8290    64.3870     4.4490     4.8720     5.5140     2.0790 
   64.5000   -38.8700    62.1470     4.4090     4.8290     5.3600     2.0810 
   64.6250   -38.9180    59.6440     4.3320     4.7490     5.5280     2.0850 
   64.7500   -38.9830    59.4250     4.2690     4.6820     5.7090     2.0860 
   64.8750   -39.0880    62.4780     4.2480     4.6600     5.7950     2.0850 
   65.0000   -39.2450    64.9840     4.2530     4.6650     5.9040     2.0810 
   65.1250   -39.4580    65.0410     4.2610     4.6740     6.0310     2.0770 
   65.2500   -39.7050    64.0690     4.2590     4.6720     6.1890     2.0790 
   65.3750   -39.9530    62.2760     4.2470     4.6600     6.3120     2.0870 
   65.5000   -40.1710    59.0060     4.2120     4.6230     6.3780     2.0920 
   65.6250   -40.3360    55.6560     4.1700     4.5780     6.4800     2.0860 
   65.7500   -40.4470    53.4380     4.1520     4.5600     6.7290     2.0790 
   65.8750   -40.5100    52.5000     4.1870     4.5970     6.8240     2.0820 
   66.0000   -40.5460    52.4940     4.2620     4.6750     6.4960     2.1020 
   66.1250   -40.5710    54.0760     4.3410     4.7580     6.5510     2.1250 
   66.2500   -40.6000    56.7600     4.3850     4.8050     6.9970     2.1310 
   66.3750   -40.6380    58.4910     4.3450     4.7620     6.7330     2.1100 
   66.5000   -40.6770    58.5700     4.2550     4.6680     5.9610     2.0830 
   66.6250   -40.7070    56.7730     4.1690     4.5780     5.4630     2.0640 
   66.7500   -40.7170    54.5960     4.0960     4.5010     5.2950     2.0570 
   66.8750   -40.7030    53.5020     4.0760     4.4800     5.2900     2.0630 
   67.0000   -40.6740    52.8900     4.1010     4.5060     5.5090     2.0800 
   67.1250   -40.6380    53.4950     4.1210     4.5270     5.6060     2.0940 
   67.2500   -40.6080    55.7870     4.1270     4.5330     5.3470     2.1020 
   67.3750   -40.5860    57.3950     4.1470     4.5540     5.3490     2.1080 
   67.5000   -40.5710    56.6790     4.1670     4.5760     5.6920     2.1130 
   67.6250   -40.5560    54.6030     4.2080     4.6190     5.9240     2.1110 
   67.7500   -40.5360    54.1820     4.2430     4.6550     5.9640     2.1040 
   67.8750   -40.5060    55.1300     4.2410     4.6530     5.9060     2.0990 
   68.0000   -40.4680    55.1470     4.2040     4.6140     5.7170     2.1020 
   68.1250   -40.4240    55.8720     4.1690     4.5780     5.6000     2.1100 
   68.2500   -40.3820    56.5380     4.1990     4.6090     5.7100     2.1060 
   68.3750   -40.3450    56.2090     4.3370     4.7530     5.7100     2.0840 
   68.5000   -40.3140    55.6520     4.5220     4.9490     5.5780     2.0660 
   68.6250   -40.2870    56.1230     4.6610     5.0940     5.8280     2.0720 
   68.7500   -40.2590    55.6970     4.7080     5.1440     6.2490     2.0930 
   68.8750   -40.2270    53.0100     4.5980     5.0280     5.9680     2.1030 
   69.0000   -40.1910    50.4700     4.4110     4.8320     5.3850     2.1000 
   69.1250   -40.1490    50.1130     4.2040     4.6140     5.1680     2.0920 
   69.2500   -40.0980    51.5700     4.0520     4.4540     5.3570     2.0860 
   69.3750   -40.0290    53.2340     4.0190     4.4200     5.8700     2.0880 
   69.5000   -39.9350    54.8930     4.0680     4.4720     6.0070     2.0960 
   69.6250   -39.8110    55.8680     4.1930     4.6030     5.6840     2.1010 
   69.7500   -39.6650    55.5950     4.3900     4.8090     5.5450     2.1050 
   69.8750   -39.5160    56.6160     4.5940     5.0240     5.7000     2.1380 
   70.0000   -39.3870    59.2550     4.7700     5.2090     7.4550     2.1990 
   70.1250   -39.3040    61.6000     4.8430     5.2850    11.6600     2.2290 
   70.2500   -39.2790    61.2550     4.8110     5.2510    12.6560     2.1880 
   70.3750   -39.3150    59.8320     4.6730     5.1070     8.3390     2.1110 
   70.5000   -39.3910    58.9280     4.5090     4.9340     5.4560     2.0610 
   70.6250   -39.4800    58.0500     4.3650     4.7840     5.1720     2.0510 
