~V
VERS. 2.00: Ver 2.00
~W
STRT.M 45.0000:
STOP.M 264.0000:
STEP.M 0.1250:
NULL. -999.2500:
UWI. F11189:
~C
DEPT.M :
SP.MV :
GR.API :
RI. :
RML.OHMM :
RXO.OHMM :
DEN.GM/CC :
~A
# ...
   83.6250   -10.0240    81.4880     5.0290     5.8440     6.5670     2.1670 
   83.7500   -10.0980    78.0430     5.1500     5.9860     6.7280     2.1520 
   83.8750   -10.1870    80.3500     5.2480     6.1050     6.8830     2.1340 
   84.0000   -10.2640    82.0010     5.3230     6.1870     6.9430     2.1180 
   84.1250   -10.3060    78.6410     5.3430     6.1930     6.7540     2.1050 
   84.2500   -10.3110    74.5850     5.3260     6.1500     6.5630     2.1000 
   84.3750   -10.2930    74.2970     5.3000     6.0970     6.4370     2.1010 
   84.5000   -10.2810    76.1080     5.2780     6.0540     6.1740     2.1020 
   84.6250   -10.2950    75.7530     5.2770     6.0350     6.0620     2.0970 
   84.7500   -10.3360    73.5360     5.2920     6.0430     6.2510     2.0850 
   84.8750   -10.3830    72.6840     5.3250     6.0640     6.3000     2.0660 
   85.0000   -10.4120    73.7420     5.3560     6.0800     6.1910     2.0510 
   85.1250   -10.4060    74.9210     5.3660     6.0600     6.1260     2.0500 
   85.2500   -10.3690    76.5490     5.3060     5.9480     6.1300     2.0600 
   85.3750   -10.3100    78.5310     5.1720     5.7500     6.2420     2.0780 
   85.5000   -10.2490    79.5690     5.0550     5.5920     6.3130     2.0940 
   85.6250   -10.2030    78.7650     5.0000     5.5170     6.1360     2.1140 
   85.7500   -10.1780    79.0040     4.9890     5.5040     5.9730     2.1590 
   85.8750   -10.1690    80.2670     4.9200     5.4410     6.9320     2.2290 
   86.0000   -10.1590    81.7670     4.7160     5.2030     8.9680     2.2860 
   86.1250   -10.1320    84.7380     4.3810     4.7860     9.0840     2.2900 
   86.2500   -10.0850    89.4540     4.0220     4.3390     6.8730     2.2660 
   86.3750   -10.0210    93.9330     3.7220     3.9610     5.4100     2.2560 
   86.5000    -9.9540    95.9970     3.5820     3.8050     5.3550     2.2630 
   86.6250    -9.8950    95.8070     3.6350     3.8850     5.9500     2.2540 
   86.7500    -9.8480    95.6130     3.8310     4.1130     6.3770     2.2190 
   86.8750    -9.8090    95.7590     4.0430     4.3190     6.2340     2.1850 
   87.0000    -9.7660    95.6240     4.1480     4.3910     6.1770     2.1750 
   87.1250    -9.7100    95.2240     4.1950     4.3900     6.1170     2.1830 
   87.2500    -9.6420    95.1150     4.2720     4.4380     5.7240     2.1990 
   87.3750    -9.5650    94.7260     4.4190     4.5800     5.5380     2.2370 
   87.5000    -9.4820    95.8200     4.5620     4.7380     6.5290     2.3050 
   87.6250    -9.3910    98.0990     4.6410     4.8320     9.1240     2.3540 
   87.7500    -9.2790    99.6740     4.5590     4.7510    10.0170     2.3300 
   87.8750    -9.1300    99.0810     4.3300     4.5130     7.5270     2.2570 
   88.0000    -8.9300    98.1250     4.0660     4.2530     5.7170     2.2120 
   88.1250    -8.6750    98.2770     3.8360     4.0370     5.5710     2.2140 
   88.2500    -8.3820    98.1680     3.7370     3.9730     5.4010     2.2190 
   88.3750    -8.0840    97.3370     3.7480     4.0130     5.2590     2.2030 
   88.5000    -7.8290    95.8030     3.8050     4.0800     5.3940     2.1880 
   88.6250    -7.6750    95.6880     3.8690     4.1450     5.6270     2.1990 
   88.7500    -7.6470    95.5520     3.9650     4.2480     5.8800     2.2250 
   88.8750    -7.7640    93.3500     4.1790     4.4960     6.3930     2.2340 
   89.0000    -7.9960    90.5850     4.5690     4.9590     6.7600     2.2190 
   89.1250    -8.3050    89.1810     5.0900     5.5770     7.1750     2.2040 
   89.2500    -8.6370    86.6890     5.6520     6.2350     8.8110     2.1950 
   89.3750    -8.9400    81.3210     6.0750     6.6940     9.8480     2.1670 
   89.5000    -9.1790    76.9140     6.2660     6.8670     8.4230     2.1190 
   89.6250    -9.3240    77.9470     6.2410     6.7910     6.8300     2.0850 
   89.7500    -9.3840    79.4210     6.0970     6.5970     6.2680     2.0720 
   89.8750    -9.3690    75.5210     5.9400     6.4250     6.0840     2.0650 
   90.0000    -9.3130    66.6020     5.8430     6.3370     6.0790     2.0610 
   90.1250    -9.2370    60.1330     5.8220     6.3380     6.0940     2.0660 
   90.2500    -9.1560    60.9370     5.8260     6.3640     6.2540     2.0750 
   90.3750    -9.0670    67.1120     5.8360     6.3840     6.4700     2.0780 
   90.5000    -8.9610    71.7110     5.8360     6.3890     6.4490     2.0730 
   90.6250    -8.8250    70.4690     5.8310     6.3850     6.2400     2.0640 
   90.7500    -8.5880    64.4120     5.8420     6.4050     6.2140     2.0590 
   90.8750    -8.3960    63.2120     5.8660     6.4370     6.3940     2.0620 
   91.0000    -8.1920    64.7860     5.8910     6.4700     6.5260     2.0670 
   91.1250    -7.9730    66.3530     5.9080     6.4920     6.5420     2.0720 
   91.2500    -7.7330    65.5580     5.9010     6.4840     6.5660     2.0740 
   91.3750    -7.4720    63.7110     5.8630     6.4470     6.5540     2.0740 
   91.5000    -7.2000    62.5190     5.8170     6.4120     6.3970     2.0770 
   91.6250    -6.9300    62.1780     5.8030     6.4100     6.2860     2.0780 
   91.7500    -6.6730    61.2920     5.8280     6.4520     6.1650     2.0750 
   91.8750    -6.4350    60.2600     5.9020     6.5410     5.9880     2.0680 
   92.0000    -6.2160    60.2000     6.0000     6.6530     5.9570     2.0630 
   92.1250    -6.0220    62.0920     6.0850     6.7460     6.0330     2.0650 
   92.2500    -5.8600    64.4660     6.1390     6.8020     6.2630     2.0710 
   92.3750    -5.7450    65.4670     6.1640     6.8280     6.4470     2.0730 
   92.5000    -5.6840    64.9910     6.1680     6.8250     6.3130     2.0700 
   92.6250    -5.6860    63.9130     6.1640     6.8180     6.2030     2.0690 
   92.7500    -5.7400    64.0860     6.1750     6.8340     6.3270     2.0740 
   92.8750    -5.8390    64.4580     6.1780     6.8390     6.5090     2.0800 
   93.0000    -5.9620    62.9370     6.1640     6.8230     6.5560     2.0820 
   93.1250    -6.0920    59.6330     6.1200     6.7630     6.4000     2.0800 
   93.2500    -6.2210    58.3320     6.0500     6.6630     6.1920     2.0750 
   93.3750    -6.3560    59.4270     5.9490     6.5260     6.0440     2.0630 
   93.5000    -6.5150    59.1920     5.8360     6.3720     5.9850     2.0550 
   93.6250    -6.7220    56.7820     5.7290     6.2320     5.9690     2.0560 
   93.7500    -6.9870    55.9920     5.6440     6.1210     5.9270     2.0600 
   93.8750    -7.3060    57.6650     5.5930     6.0690     5.8810     2.0620 
   94.0000    -7.6450    61.0930     5.5810     6.0750     5.9430     2.0600 
   94.1250    -7.9560    64.4630     5.6410     6.1880     6.1420     2.0520 
   94.2500    -8.2020    67.0940     5.7610     6.3710     6.1880     2.0620 
   94.3750    -8.3590    67.4670     5.7560     6.3860     6.3540     2.1260 
   94.5000    -8.4420    67.8340     5.4990     6.0860     9.0700     2.2190 
   94.6250    -8.4720    70.6400     4.9750     5.4630    11.9050     2.2660 
   94.7500    -8.4750    75.4610     4.3750     4.7570     9.4840     2.2480 
   94.8750    -8.4610    81.9530     3.9120     4.2290     5.6560     2.2140 
   95.0000    -8.4290    89.8740     3.7050     4.0170     4.6350     2.1960 
   95.1250    -8.3770    95.0220     3.7790     4.1420     5.3450     2.1710 
   95.2500    -8.3110    92.9300     4.1030     4.5480     6.3180     2.1290 
   95.3750    -8.2450    83.5650     4.5790     5.0870     6.6710     2.0950 
   95.5000    -8.1940    75.6240     5.0620     5.5870     7.0440     2.0840 
   95.6250    -8.1750    73.4110     5.4040     5.8930     7.3490     2.0830 
   95.7500    -8.1920    73.6090     5.6070     6.0420     7.3250     2.0810 
   95.8750    -8.2460    71.9930     5.6960     6.0730     7.3590     2.0780 
   96.0000    -8.3290    69.3600     5.6670     5.9810     7.4900     2.0860 
   96.1250    -8.4260    70.0870     5.4650     5.7300     7.5540     2.1250 
   96.2500    -8.5190    75.4830     5.0720     5.2950     7.2400     2.2010 
   96.3750    -8.5940    83.2450     4.5580     4.7530     6.3180     2.2750 
