~V
VERS. 2.00: Ver 2.00
~W
STRT.M 45.0000:
STOP.M 270.0000:
STEP.M 0.1250:
NULL. -999.2500:
UWI. F11186:
~C
DEPT.M :
SP.MV :
GR.API :
RI. :
RML.OHMM :
RXO.OHMM :
DEN.GM/CC :
~A
# ...
  122.2500   -24.1030    93.2880     3.2960     3.7230     4.0900     2.1910 
  122.3750   -24.1680    98.6620     3.2730     3.6990     3.7720     2.1790 
  122.5000   -24.2930   101.2230     3.3200     3.7580     3.9450     2.1630 
  122.6250   -24.4820    98.0890     3.3930     3.8420     4.7480     2.1630 
  122.7500   -24.7050    93.0940     3.4520     3.9040     5.2320     2.1820 
  122.8750   -24.9220    90.8320     3.4880     3.9310     5.0180     2.2090 
  123.0000   -25.1050    93.7020     3.5080     3.9410     4.4100     2.2140 
  123.1250   -25.2450    98.7070     3.5300     3.9500     4.1340     2.1910 
  123.2500   -25.3550   100.0860     3.5730     4.0030     4.5230     2.1610 
  123.3750   -25.4350    95.5560     3.6770     4.1450     4.9150     2.1500 
  123.5000   -25.4750    90.6200     3.7790     4.2840     4.9900     2.1480 
  123.6250   -25.4440    88.0060     3.8210     4.3530     5.1030     2.1410 
  123.7500   -25.3270    87.8140     3.7700     4.2980     5.0550     2.1340 
  123.8750   -25.1200    87.3390     3.6520     4.1500     4.4900     2.1410 
  124.0000   -24.8530    85.3330     3.6870     4.2150     4.1130     2.1690 
  124.1250   -24.5680    82.3530     3.9290     4.5450     4.6760     2.2310 
  124.2500   -24.3140    81.3620     4.1570     4.8660     9.1140     2.3240 
  124.3750   -24.1450    82.4830     4.3270     5.0960    17.3240     2.3970 
  124.5000   -24.0950    84.7870     4.3070     5.0170    17.7100     2.3930 
  124.6250   -24.2010    88.1660     4.1230     4.7000     9.1440     2.3120 
  124.7500   -24.4600    89.7590     4.0210     4.4900     4.7670     2.2280 
  124.8750   -24.8730    87.0770     4.1770     4.6570     5.3640     2.2140 
  125.0000   -25.3950    82.3140     4.5720     5.1680     7.4230     2.2700 
  125.1250   -25.9940    80.1430     5.1620     5.9000    11.8120     2.3330 
  125.2500   -26.6260    78.9150     5.6100     6.3930    13.6550     2.3250 
  125.3750   -27.2430    74.9020     5.6520     6.3530    10.2010     2.2420 
  125.5000   -27.7820    71.1450     5.4280     6.0200     6.7640     2.1580 
  125.6250   -28.1520    70.6970     5.0820     5.5970     5.9840     2.1170 
  125.7500   -28.2930    73.0060     4.7780     5.3050     6.4170     2.1030 
  125.8750   -28.1550    75.2950     4.5860     5.1460     7.4000     2.1120 
  126.0000   -27.7890    77.2370     4.4470     5.0150     7.6940     2.1450 
  126.1250   -27.2800    78.6540     4.2650     4.7900     6.7800     2.1780 
  126.2500   -26.7670    80.0260     4.0430     4.5240     5.8850     2.1820 
  126.3750   -26.3690    82.0080     3.8450     4.2820     5.4070     2.1670 
  126.5000   -26.1330    84.0180     3.7340     4.1650     5.1650     2.1570 
  126.6250   -26.0610    85.2000     3.7960     4.2400     5.1850     2.1570 
  126.7500   -26.0960    87.5730     3.9800     4.4670     5.3140     2.1530 
  126.8750   -26.1930    89.9480     4.2810     4.8230     5.6780     2.1350 
  127.0000   -26.2980    88.1580     4.6080     5.2110     6.2340     2.1100 
  127.1250   -26.3500    81.4570     4.7930     5.4000     6.5790     2.1050 
  127.2500   -26.3010    76.3060     4.7930     5.3520     6.3800     2.1320 
  127.3750   -26.1240    74.8770     4.5770     5.0530     5.5770     2.1750 
  127.5000   -25.8710    77.1260     4.2580     4.6380     5.2090     2.2060 
  127.6250   -25.6240    81.9830     3.9960     4.3470     5.5450     2.2120 
  127.7500   -25.4590    85.5810     3.8400     4.1920     5.9240     2.2070 
  127.8750   -25.4150    84.7800     3.7470     4.1050     6.0780     2.2110 
  128.0000   -25.4740    82.0970     3.7540     4.1330     5.4460     2.2280 
  128.1250   -25.6230    82.6560     3.8390     4.2340     5.0330     2.2470 
  128.2500   -25.8420    84.8280     3.9760     4.4060     5.4310     2.2530 
  128.3750   -26.1280    82.6910     4.1910     4.6820     5.6820     2.2340 
  128.5000   -26.4490    77.2730     4.4240     4.9770     5.8700     2.2030 
  128.6250   -26.7680    73.3550     4.6390     5.2160     6.3640     2.1840 
  128.7500   -27.0620    73.7270     4.7640     5.3320     6.5290     2.1820 
  128.8750   -27.3370    74.7560     4.8160     5.3400     6.1680     2.1780 
  129.0000   -27.6130    74.7160     4.8000     5.2790     6.0850     2.1580 
  129.1250   -27.8880    74.2600     4.7960     5.2600     6.4570     2.1370 
  129.2500   -28.1190    73.4720     4.8490     5.3130     6.7260     2.1310 
  129.3750   -28.2420    71.5830     5.0960     5.5920     6.7840     2.1440 
  129.5000   -28.2390    70.1160     5.6200     6.1990     8.6580     2.1870 
  129.6250   -28.1230    69.0170     6.4090     7.1380    13.0770     2.2570 
  129.7500   -27.9650    66.5990     7.3410     8.2720    17.1050     2.3090 
  129.8750   -27.8350    64.0870     8.1700     9.2440    18.3760     2.2860 
  130.0000   -27.7760    62.9470     8.5920     9.6410    15.5180     2.2090 
  130.1250   -27.8010    62.6790     8.4780     9.3770    10.7680     2.1410 
  130.2500   -27.8850    61.0350     8.0330     8.7600     8.5920     2.1150 
  130.3750   -28.0020    58.8990     7.5740     8.2230     8.3140     2.1200 
  130.5000   -28.1290    58.0330     7.3530     8.0550     8.4020     2.1280 
  130.6250   -28.2590    59.0500     7.3920     8.1810     8.8780     2.1250 
  130.7500   -28.3860    61.0870     7.3990     8.2290     8.7660     2.1110 
  130.8750   -28.5000    62.7600     7.2130     8.0200     8.3330     2.1000 
  131.0000   -28.5960    63.5640     6.9130     7.6590     8.3380     2.1040 
  131.1250   -28.6780    63.5880     6.5830     7.2500     7.9760     2.1190 
  131.2500   -28.7640    63.7910     6.3540     6.9750     7.2210     2.1270 
  131.3750   -28.8760    64.3470     6.3470     6.9880     7.4200     2.1220 
  131.5000   -29.0220    66.0790     6.5800     7.3090     8.1780     2.1140 
  131.6250   -29.1890    67.7840     7.0330     7.8950     8.9160     2.1100 
  131.7500   -29.3460    68.0050     7.5400     8.5280     9.7610     2.1100 
  131.8750   -29.4570    67.3110     7.9300     8.9850     9.6400     2.1160 
  132.0000   -29.5050    67.5530     8.0300     9.0510     8.6450     2.1260 
  132.1250   -29.4810    68.8930     7.8360     8.7550     8.1280     2.1250 
  132.2500   -29.3990    68.6480     7.4990     8.2880     8.0270     2.1110 
  132.3750   -29.2670    66.1500     7.1620     7.8590     7.8630     2.0950 
  132.5000   -29.1050    63.5800     6.9250     7.5880     7.8650     2.0870 
  132.6250   -28.9220    62.4080     6.8860     7.6050     8.0490     2.0870 
  132.7500   -28.7290    61.5310     6.9710     7.7500     8.2860     2.0910 
  132.8750   -28.5280    61.4110     7.0990     7.9410     8.6280     2.0960 
  133.0000   -28.3150    61.7730     7.2070     8.1050     8.7750     2.1000 
  133.1250   -28.0780    62.3100     7.2450     8.1910     8.5230     2.1010 
  133.2500   -27.8090    61.2640     7.2140     8.2010     8.1430     2.1000 
  133.3750   -27.4930    60.1670     7.0200     7.9770     7.7930     2.0980 
  133.5000   -27.1260    60.9230     6.5660     7.4040     7.9110     2.1040 
  133.6250   -26.7140    62.9290     5.9470     6.6090     8.0640     2.1320 
  133.7500   -26.2890    65.3300     5.3360     5.8300     6.9520     2.1790 
  133.8750   -25.8960    70.0460     5.0330     5.4490     5.3420     2.2320 
  134.0000   -25.5680    76.6020     5.2490     5.7480     5.1050     2.3130 
  134.1250   -25.3230    79.1110     6.0440     6.8150     5.6360     2.4450 
  134.2500   -25.1400    74.7190     7.1440     8.2510     7.2520     2.5640 
  134.3750   -24.9860    68.1930     7.7670     9.0120     9.4660     2.5630 
  134.5000   -24.8300    64.7630     7.5580     8.6900     8.7630     2.4490 
  134.6250   -24.6660    65.1740     6.3510     7.1340     6.4450     2.3210 
  134.7500   -24.5250    68.6910     4.8690     5.3370     5.0140     2.2600 
  134.8750   -24.4680    73.4500     3.7590     4.0730     4.2860     2.2550 
  135.0000   -24.5500    77.0940     3.1860     3.4850     4.0590     2.2530 
