~V
VERS. 2.00: Ver 2.00
~W
STRT.M 50.0000:
STOP.M 209.0000:
STEP.M 0.1250:
NULL. -999.2500:
UWI. F11109:
~C
DEPT.M :
GR.API :
RML.OHMM :
RI. :
RXO.OHMM :
CALI.CM :
SP.MV :
DEN.GM/CC :
~A
# ...
  140.0000    84.6280     8.2120     6.8700     6.1040    25.1960   -18.8080     2.3590 
  140.1250    81.3820     8.7680     7.1200     6.3900    25.1470   -18.8190     2.3670 
  140.2500    81.7970     9.6330     7.6630     7.3280    25.1520   -18.8600     2.3680 
  140.3750    84.5770    10.6730     8.4130     8.8560    25.2290   -18.9270     2.3590 
  140.5000    86.8580    11.7390     9.2590    10.0910    25.3100   -19.0270     2.3400 
  140.6250    84.3520    12.7210    10.0900    10.8240    25.3980   -19.1920     2.3180 
  140.7500    79.9770    13.6800    10.8860    11.6880    25.4850   -19.3970     2.3030 
  140.8750    78.0960    14.7840    11.7380    12.6790    25.5350   -19.6010     2.2980 
  141.0000    77.6420    16.2260    12.7870    13.5110    25.5360   -19.8010     2.3010 
  141.1250    76.1140    18.1060    14.1610    14.9500    25.5040   -19.9910     2.3060 
  141.2500    73.7760    20.0520    15.6570    17.8250    25.4570   -20.1490     2.3110 
  141.3750    72.0850    21.5250    16.9030    21.5370    25.4260   -20.2640     2.3170 
  141.5000    70.3040    22.0220    17.4810    22.7610    25.4190   -20.3450     2.3240 
  141.6250    69.0850    21.2920    17.1140    19.6660    25.4160   -20.4140     2.3310 
  141.7500    70.5410    20.0410    16.2790    14.9510    25.3620   -20.4740     2.3310 
  141.8750    72.2760    18.9100    15.4420    13.0560    25.2390   -20.5100     2.3230 
  142.0000    70.8460    18.3080    14.9220    13.8100    25.0970   -20.5290     2.3110 
  142.1250    68.3000    18.3480    14.8530    15.3780    24.9490   -20.5450     2.3050 
  142.2500    69.2120    18.6310    15.0000    17.3140    24.8460   -20.5660     2.3050 
  142.3750    72.5960    18.8350    15.1390    18.2830    24.8220   -20.5890     2.3060 
  142.5000    74.9560    18.8430    15.1620    17.5520    24.8770   -20.6220     2.3050 
  142.6250    76.1600    18.8780    15.1940    16.0720    24.9910   -20.6730     2.2990 
  142.7500    76.1930    19.3240    15.4920    15.5940    25.1300   -20.7440     2.2930 
  142.8750    74.8900    20.4630    16.2710    16.6800    25.2830   -20.8390     2.2900 
  143.0000    71.9070    22.4330    17.6790    22.1750    25.4380   -20.9310     2.2920 
  143.1250    68.5000    25.2180    19.8320    30.7670    25.5670   -21.0040     2.2960 
  143.2500    65.9820    28.2220    22.3670    32.1030    25.6460   -21.0680     2.2960 
  143.3750    64.1910    30.7880    24.8020    28.6380    25.6670   -21.1230     2.2880 
  143.5000    62.3460    32.2370    26.5290    31.6010    25.6410   -21.1540     2.2740 
  143.6250    59.6200    31.8410    26.8040    32.7730    25.5900   -21.1680     2.2560 
  143.7500    58.0490    29.9660    25.7610    31.1160    25.5440   -21.1790     2.2430 
  143.8750    60.4540    27.1630    23.7900    25.4490    25.5150   -21.1830     2.2430 
  144.0000    66.0270    24.1170    21.4560    19.7570    25.5100   -21.1730     2.2570 
  144.1250    69.0570    21.4810    19.3040    18.0420    25.5280   -21.1470     2.2800 
  144.2500    68.6310    19.4730    17.5690    16.9430    25.5550   -21.1140     2.2990 
  144.3750    68.3930    18.0950    16.2990    15.3210    25.5790   -21.0760     2.3100 
  144.5000    71.0450    17.2390    15.4600    14.8310    25.5930   -21.0380     2.3130 
  144.6250    74.0870    16.8480    15.0470    14.6640    25.6010   -20.9950     2.3100 
  144.7500    74.4260    16.8200    14.9650    13.5610    25.6220   -20.9810     2.3040 
  144.8750    71.7740    17.2080    15.2340    13.5270    25.6750   -21.0220     2.2960 
  145.0000    68.0330    18.0910    15.8980    15.4630    25.7570   -21.1270     2.2860 
  145.1250    66.1400    19.6110    17.0780    17.8500    25.8250   -21.2920     2.2790 
  145.2500    68.1320    21.6620    18.7190    19.4330    25.8220   -21.4660     2.2790 
  145.3750    72.5170    24.1530    20.7820    19.2000    25.7150   -21.6350     2.2840 
  145.5000    76.0570    26.8700    23.1120    23.6600    25.5250   -21.7910     2.2910 
  145.6250    76.1000    29.2640    25.2640    31.7860    25.3390   -21.9230     2.2940 
  145.7500    72.2950    30.7050    26.6500    34.7100    25.2660   -22.0220     2.2940 
  145.8750    67.1380    30.7930    26.8650    30.0860    25.3650   -22.0800     2.2930 
  146.0000    64.7440    29.7130    26.0020    24.4110    25.6400   -22.1190     2.2960 
  146.1250    67.5000    28.3520    24.7580    22.6560    26.0360   -22.1620     2.3000 
  146.2500    71.8970    27.7820    24.0460    20.9810    26.3940   -22.2280     2.3020 
  146.3750    72.3010    28.5210    24.3400    20.1690    26.5960   -22.3170     2.2960 
  146.5000    66.5430    30.6100    25.7840    22.4950    26.5880   -22.3930     2.2840 
  146.6250    59.2910    33.6660    28.2690    33.0260    26.3940   -22.4290     2.2710 
  146.7500    57.6900    36.6780    31.0130    41.2310    26.1530   -22.4220     2.2620 
  146.8750    62.1110    38.9080    33.3270    40.8290    25.9520   -22.3900     2.2580 
  147.0000    65.5670    39.9960    34.7250    37.0200    25.8220   -22.3430     2.2560 
  147.1250    62.8740    39.9990    35.0450    35.2450    25.7460   -22.2830     2.2510 
  147.2500    58.6750    39.4920    34.7670    35.2830    25.6870   -22.2160     2.2440 
  147.3750    57.3800    38.4740    33.9700    35.3280    25.6420   -22.1650     2.2330 
  147.5000    59.6780    36.5060    32.3400    34.8790    25.6130   -22.1540     2.2240 
  147.6250    62.1180    33.0160    29.3850    32.3740    25.6010   -22.1630     2.2290 
  147.7500    63.4680    28.7320    25.7240    28.9810    25.5980   -22.1630     2.2550 
  147.8750    65.4230    24.6740    22.2130    23.7620    25.5970   -22.1570     2.2970 
  148.0000    69.8940    21.7730    19.5960    17.8930    25.5970   -22.1530     2.3410 
  148.1250    74.8540    20.8970    18.5310    14.5590    25.5950   -22.1550     2.3610 
  148.2500    75.2450    21.8180    18.8930    16.2070    25.5840   -22.1780     2.3500 
  148.3750    71.3340    24.2150    20.5580    20.8140    25.5590   -22.2210     2.3150 
  148.5000    66.1020    27.4030    23.1480    25.3650    25.4060   -22.2720     2.2710 
  148.6250    63.5650    30.1100    25.7540    27.0680    25.4200   -22.3360     2.2420 
  148.7500    63.7580    31.2670    27.2430    26.5700    25.4320   -22.4040     2.2340 
  148.8750    63.9070    30.6170    27.1390    25.6320    25.4150   -22.4560     2.2430 
  149.0000    63.9940    28.7170    25.7770    24.4060    25.3720   -22.5040     2.2580 
  149.1250    67.8300    26.4200    23.8610    21.5860    25.3440   -22.5500     2.2650 
  149.2500    72.8500    24.3440    22.0170    18.5810    25.3620   -22.5960     2.2630 
  149.3750    73.2650    22.6400    20.4310    16.8580    25.4020   -22.6230     2.2600 
  149.5000    67.7850    21.3180    19.1500    16.6030    25.4760   -22.6230     2.2590 
  149.6250    63.5240    20.3970    18.2100    16.8120    25.4930   -22.5990     2.2590 
  149.7500    64.4150    19.7830    17.5380    16.4200    25.4740   -22.5530     2.2570 
  149.8750    69.4850    19.4510    17.1210    15.7190    25.4750   -22.4790     2.2550 
  150.0000    75.1010    19.3700    16.9430    15.5060    25.4910   -22.3870     2.2560 
  150.1250    77.3970    19.4860    16.9820    15.7940    25.4800   -22.2900     2.2610 
  150.2500    76.6190    19.6380    17.1100    16.2130    25.4370   -22.2090     2.2650 
  150.3750    74.3680    19.7060    17.2150    16.0170    25.3110   -22.1440     2.2660 
  150.5000    72.1500    19.6160    17.2090    15.2800    25.1590   -22.1140     2.2670 
  150.6250    70.7480    19.3590    17.0490    14.4230    25.2060   -22.1090     2.2730 
  150.7500    72.0540    19.0540    16.8140    14.1690    25.4270   -22.1010     2.2780 
  150.8750    75.9750    18.7930    16.5830    14.8990    25.6770   -22.0930     2.2790 
  151.0000    79.1380    18.6180    16.4040    15.4700    25.5870   -22.0620     2.2710 
  151.1250    78.3000    18.4970    16.2680    14.8020    25.4950   -21.9820     2.2580 
