~V
VERS. 2.00: Ver 2.00
~W
STRT.M 50.0000:
STOP.M 245.0000:
STEP.M 0.1250:
NULL. -999.2500:
UWI. F11135:
~C
DEPT.M :
GR.API :
RML.OHMM :
RI. :
RXO.OHMM :
CALI.CM :
SP.MV :
DEN.GM/CC :
~A
# ...
  196.2500    47.4280    71.1570    65.6430    52.8050    23.9550   -36.7480     2.2580 
  196.3750    43.0240    80.6980    75.4080    90.4560    24.0320   -36.6960     2.2740 
  196.5000    39.4960    85.6790    81.6410   127.3830    24.0690   -36.5950     2.2750 
  196.6250    40.0140    83.2450    81.1940   105.8720    24.2590   -36.4310     2.2610 
  196.7500    43.8530    76.4660    76.0410    75.0600    24.5580   -36.2520     2.2430 
  196.8750    47.6540    68.9280    69.1280    59.4820    24.9270   -36.0410     2.2270 
  197.0000    48.8180    63.2420    63.1040    55.1030    25.0380   -35.7880     2.2190 
  197.1250    48.0950    60.6030    59.6180    53.6430    25.0470   -35.5080     2.2310 
  197.2500    47.3720    59.8590    58.1110    54.2480    25.0320   -35.1740     2.2670 
  197.3750    46.5320    59.8180    57.6680    53.8680    24.9750   -34.8120     2.3290 
  197.5000    44.9310    59.1450    57.0940    52.9420    24.9120   -34.4380     2.4030 
  197.6250    45.5140    56.2070    54.7900    55.7270    24.9010   -34.0680     2.4600 
  197.7500    48.5710    50.8560    50.2950    52.7000    24.8990   -33.6650     2.4790 
  197.8750    50.4280    43.8160    44.0400    47.4240    24.8990   -33.2480     2.4590 
  198.0000    49.3930    36.5530    37.2440    42.4960    24.9030   -32.8130     2.4180 
  198.1250    49.5750    30.9610    31.5560    34.4200    24.9300   -32.3610     2.3840 
  198.2500    52.9770    27.7850    27.7400    26.4860    25.0020   -31.8750     2.3790 
  198.3750    56.9650    27.2270    26.0740    23.9490    25.0190   -31.3400     2.4090 
  198.5000    58.8110    30.3120    26.6160    25.8820    24.9320   -30.7610     2.4690 
  198.6250    57.7530    34.7770    29.6490    30.1910    24.7350   -30.1370     2.5380 
  198.7500    54.0100    40.1800    34.1400    37.0150    24.5320   -29.5030     2.5940 
  198.8750    48.6800    44.3340    38.2200    47.9060    24.3470   -28.8690     2.6250 
  199.0000    44.6670    44.3630    38.9410    57.4050    24.1480   -28.2630     2.6270 
  199.1250    43.5690    38.2260    33.9100    51.8130    24.0220   -27.6950     2.6040 
  199.2500    43.1520    29.5230    26.3500    36.8530    24.0340   -27.2220     2.5700 
  199.3750    43.7230    21.5350    19.3000    21.4430    24.0300   -26.8590     2.5360 
  199.5000    44.1680    14.4500    14.1980    12.4630    23.9980   -26.6260     2.5070 
  199.6250    43.1680    11.7720    11.3310    10.1330    23.9340   -26.5310     2.4900 
  199.7500    42.2060    10.5880     9.8610     9.5850    23.8880   -26.5560     2.4840 
  199.8750    42.0270    10.4840     9.4450     9.7670    23.9960   -26.6670     2.4870 
  200.0000    41.5170    11.2400     9.8960    10.5260    24.3280   -26.8390     2.5010 
  200.1250    38.9070    12.8630    11.2450    12.4810    24.4020   -27.0700     2.5260 
  200.2500    35.6100    15.0600    13.2710    16.2080    24.4260   -27.3260     2.5530 
  200.3750    32.7920    17.4570    15.7470    20.4220    24.4390   -27.6010     2.5740 
  200.5000    30.7070    19.3560    18.0990    22.5290    24.3890   -27.8810     2.5760 
  200.6250    31.5830    19.4900    18.9670    24.1350    24.3500   -28.1820     2.5430 
  200.7500    35.2010    17.6660    17.7480    25.7590    24.3700   -28.4790     2.4850 
  200.8750    40.6110    14.5560    14.9330    23.0850    24.3490   -28.7940     2.4180 
  201.0000    46.4180    11.3220    11.7230    17.5990    24.3260   -29.1250     2.3620 
  201.1250    51.2160     8.6430     9.2020    12.0410    24.4860   -29.5140     2.3350 
  201.2500    56.2250     7.3490     7.5450     8.2480    24.5750   -29.9880     2.3350 
  201.3750    63.4690     6.8720     6.6640     7.2920    24.6310   -30.5770     2.3490 
  201.5000    72.3400     7.0060     6.3980     8.0940    24.7170   -31.2780     2.3620 
  201.6250    78.2080     7.5630     6.6190     8.5680    24.6990   -32.1050     2.3600 
  201.7500    80.1510     8.2340     7.0560     9.0770    24.5220   -33.0200     2.3460 
  201.8750    78.6130     8.8400     7.5450    10.2490    24.1140   -33.9910     2.3260 
  202.0000    73.4890     9.3010     7.9770    11.2100    23.9160   -34.9820     2.3080 
  202.1250    67.6310     9.6380     8.3150    11.1260    23.8740   -35.9670     2.3000 
  202.2500    66.7310     9.9550     8.6130    10.6420    23.8270   -36.9130     2.3010 
  202.3750    69.2380    10.2900     8.9060    12.0980    23.7440   -37.7440     2.3070 
  202.5000    69.4670    10.6350     9.2050    14.0290    23.6610   -38.3990     2.3140 
  202.6250    65.4340    10.9350     9.4960    15.3060    23.6380   -38.7710     2.3190 
  202.7500    61.6210    11.1940     9.7730    16.0660    23.5740   -38.9110     2.3230 
  202.8750    60.7200    11.4970    10.0650    16.7330    23.4210   -38.8360     2.3350 
  203.0000    61.6810    11.9850    10.4460    17.1410    23.2790   -38.5620     2.3580 
  203.1250    61.9090    12.8090    11.0310    17.5610    23.2610   -38.0520     2.3930 
  203.2500    59.9470    13.7970    11.7610    18.6110    23.3190   -37.3380     2.4290 
  203.3750    57.1620    14.5780    12.4150    20.3420    23.5830   -36.4450     2.4550 
  203.5000    54.7020    14.6760    12.6220    22.2370    23.8550   -35.4300     2.4620 
  203.6250    54.5500    13.6760    11.9600    21.6750    23.9740   -34.4070     2.4470 
  203.7500    57.2230    12.0500    10.6950    18.2670    24.1270   -33.4340     2.4180 
  203.8750    59.7940    10.3930     9.2630    13.2310    24.3940   -32.5970     2.3860 
  204.0000    59.7110     9.2010     8.0730     8.7020    24.8120   -31.9500     2.3600 
  204.1250    59.9800     8.7720     7.4170     7.6870    24.8790   -31.5710     2.3470 
  204.2500    63.3430     8.8960     7.2220     8.1220    24.8730   -31.4240     2.3440 
  204.3750    68.5310     9.3990     7.4070     9.4530    24.7820   -31.5020     2.3460 
  204.5000    72.3670    10.0980     7.8590    11.2070    24.4650   -31.7650     2.3480 
  204.6250    73.5140    10.7810     8.4250    12.2340    24.1630   -32.1600     2.3450 
  204.7500    71.3060    11.2920     8.9150    12.1240    24.0990   -32.6470     2.3350 
  204.8750    67.7640    11.5940     9.2470    11.8780    24.0470   -33.1520     2.3200 
  205.0000    64.7300    11.7410     9.4420    12.8500    23.8430   -33.6260     2.3050 
  205.1250    60.8600    11.8700     9.6040    14.9450    23.7260   -33.9550     2.3010 
  205.2500    57.0780    12.2040     9.9060    14.5970    23.6700   -34.0980     2.3150 
  205.3750    55.9720    12.9550    10.5070    15.4070    23.6420   -33.9850     2.3520 
  205.5000    55.4250    14.2740    11.5280    18.6390    23.6510   -33.6250     2.4070 
  205.6250    51.5680    16.2990    13.1160    22.4750    23.7380   -32.9700     2.4730 
  205.7500    47.6050    18.7020    15.1340    25.4610    23.8180   -32.0430     2.5330 
  205.8750    47.0700    20.8820    17.2370    28.0300    23.9540   -30.8280     2.5760 
  206.0000    47.2540    21.8520    18.6360    29.6400    24.1360   -29.3880     2.5880 
  206.1250    45.3920    20.3490    18.0480    29.6930    24.4180   -27.7790     2.5630 
  206.2500    45.5430    17.0250    15.7130    28.5750    24.6350   -26.1370     2.5130 
  206.3750    49.7560    13.1080    12.5690    24.3110    24.7700   -24.5910     2.4520 
  206.5000    56.1160     9.7790     9.6320    15.0940    24.7820   -23.2400     2.3950 
  206.6250    61.6290     7.7590     7.5870     8.4560    24.7830   -22.1980     2.3550 
  206.7500    65.2610     6.7110     6.3280     6.3150    24.7890   -21.4270     2.3340 
  206.8750    67.1700     6.3240     5.6880     6.1010    24.7910   -20.9310     2.3270 
  207.0000    67.5530     6.3260     5.4850     6.4370    24.7970   -20.6510     2.3270 
  207.1250    67.4000     6.5180     5.5800     6.5250    24.7910   -20.5740     2.3290 
  207.2500    66.7340     6.7530     5.7920     6.5250    24.7910   -20.6230     2.3260 
  207.3750    66.1730     7.0510     6.0780     6.3560    24.7910   -20.8000     2.3170 
