~V
VERS. 2.00: Ver 2.00
~W
STRT.M 63.0000:
STOP.M 219.0000:
STEP.M 0.1250:
NULL. -999.2500:
UWI. F11123:
~C
DEPT.M :
GR.API :
RML.OHMM :
RI. :
RXO.OHMM :
CALI.CM :
SP.MV :
DEN.GM/CC :
~A
# ...
  153.0000    65.7090    13.2490    12.3080    10.7350    24.6040    -1.4140     2.3210 
  153.1250    63.6450    14.0210    13.2520    12.5950    24.6510    -1.3720     2.3030 
  153.2500    64.7880    13.7160    13.1700    12.9500    24.6240    -1.3140     2.2880 
  153.3750    65.6090    12.6190    12.2480    11.2370    24.5990    -1.2470     2.2820 
  153.5000    66.0510    11.3890    11.0620     8.2430    24.6150    -1.1850     2.2880 
  153.6250    68.0850    10.7840    10.2490     7.3690    24.6130    -1.1480     2.2970 
  153.7500    70.0080    10.9750    10.0040     8.3980    24.5770    -1.1440     2.3010 
  153.8750    69.7240    11.8450    10.2930    10.5280    24.6150    -1.1780     2.2990 
  154.0000    68.1990    13.0640    10.9250    11.3710    24.5760    -1.2670     2.2950 
  154.1250    68.0370    14.1130    11.5690    11.1070    24.5440    -1.3960     2.2930 
  154.2500    70.1980    14.7020    11.9630    10.1620    24.5050    -1.5520     2.2910 
  154.3750    73.8150    14.9390    12.1160     9.5040    24.4500    -1.7110     2.2870 
  154.5000    76.6770    15.2120    12.2370     9.4980    24.4260    -1.8590     2.2810 
  154.6250    76.5450    15.9920    12.6360    10.3300    24.3280    -1.9830     2.2780 
  154.7500    74.8890    17.2740    13.3740    11.5250    24.2510    -2.0840     2.2760 
  154.8750    74.1070    18.8020    14.3480    13.1820    24.1530    -2.1590     2.2720 
  155.0000    73.7220    20.1690    15.3220    14.9370    24.1290    -2.2160     2.2660 
  155.1250    71.3970    20.8830    15.9430    17.3870    24.1260    -2.2560     2.2590 
  155.2500    68.8410    20.9450    16.1100    17.6710    24.0990    -2.2680     2.2530 
  155.3750    68.2760    20.5610    15.9010    15.8680    24.0720    -2.2260     2.2470 
  155.5000    68.5550    20.0300    15.5070    14.6120    24.0740    -2.1080     2.2400 
  155.6250    67.2070    19.5940    15.1290    13.6770    24.1010    -1.8990     2.2340 
  155.7500    67.6990    19.3100    14.8590    13.6250    24.2110    -1.6370     2.2320 
  155.8750    70.8500    19.1470    14.7050    13.6790    24.4000    -1.3630     2.2350 
  156.0000    73.8700    19.0500    14.6400    13.8100    24.6150    -1.1120     2.2420 
  156.1250    74.2920    18.9710    14.6300    14.0570    24.7500    -0.9080     2.2490 
  156.2500    72.6550    18.8970    14.6410    14.3050    24.8090    -0.7650     2.2530 
  156.3750    71.3500    18.8170    14.6530    14.4900    24.8150    -0.6680     2.2560 
  156.5000    71.5400    18.6960    14.6330    14.4290    24.8180    -0.6120     2.2590 
  156.6250    72.0730    18.5000    14.5420    13.9520    24.8100    -0.5740     2.2620 
  156.7500    70.8510    18.2590    14.3850    13.6480    24.8100    -0.5430     2.2630 
  156.8750    69.1130    17.9840    14.1810    13.1510    24.8060    -0.4980     2.2610 
  157.0000    69.5380    17.6780    13.9560    12.7440    24.8170    -0.4490     2.2570 
  157.1250    70.6500    17.3210    13.7300    12.6330    24.8180    -0.4090     2.2540 
  157.2500    71.1450    16.8920    13.4890    12.6500    24.8090    -0.3950     2.2520 
  157.3750    71.6240    16.3610    13.1860    12.3480    24.7830    -0.4030     2.2530 
  157.5000    72.6910    15.7260    12.7820    11.7740    24.7730    -0.4260     2.2550 
  157.6250    74.2700    15.0630    12.3010    11.3400    24.8090    -0.4820     2.2610 
  157.7500    76.1350    14.5320    11.8720    11.0180    24.8150    -0.5840     2.2680 
  157.8750    77.8020    14.3050    11.6360    10.3810    24.8170    -0.7610     2.2740 
  158.0000    79.7900    14.5540    11.7160     9.6790    24.8100    -1.0050     2.2760 
  158.1250    80.1530    15.4490    12.2480    11.1280    24.8150    -1.3190     2.2760 
  158.2500    78.1910    16.7880    13.1270    13.2700    24.8100    -1.6670     2.2760 
  158.3750    75.7830    18.3250    14.2140    14.9990    24.8160    -2.0350     2.2780 
  158.5000    76.0190    19.7770    15.3110    15.8240    24.8190    -2.4070     2.2830 
  158.6250    78.1340    20.9060    16.2070    15.9500    24.8160    -2.7410     2.2850 
  158.7500    78.6160    21.8490    16.9240    15.7190    24.8140    -3.0430     2.2820 
  158.8750    78.3280    22.8600    17.6010    16.3890    24.8240    -3.3290     2.2720 
  159.0000    77.4740    24.1560    18.3970    17.8460    24.8640    -3.6420     2.2560 
  159.1250    74.6170    25.7680    19.3680    20.7480    24.8730    -4.0100     2.2410 
  159.2500    71.9990    27.3810    20.3330    22.4700    24.8790    -4.4360     2.2330 
  159.3750    71.1540    28.7640    21.1300    23.4880    24.8720    -4.8950     2.2320 
  159.5000    72.6100    29.9930    21.7810    23.6110    24.8760    -5.3720     2.2340 
  159.6250    73.7240    31.8490    22.7170    23.7600    24.9040    -5.8570     2.2350 
  159.7500    73.1410    35.4660    24.6210    24.7980    24.9740    -6.3300     2.2320 
  159.8750    71.5800    42.3220    28.4600    28.0040    25.0370    -6.7830     2.2260 
  160.0000    68.4780    54.2310    35.6180    39.0710    25.0700    -7.2050     2.2200 
  160.1250    64.5620    74.6890    48.9380    67.5430    25.1090    -7.6390     2.2150 
  160.2500    60.8880   104.0980    68.9560   110.8640    25.1200    -8.0770     2.2120 
  160.3750    59.0700   141.2840    94.7250   146.1350    25.1250    -8.5320     2.2110 
  160.5000    59.7950   179.9110   121.7810   160.1940    25.1280    -8.9850     2.2120 
  160.6250    60.4770   205.2930   140.9480   168.6250    25.1420    -9.4130     2.2090 
  160.7500    60.7880   211.6320   148.3350   175.7770    25.1740    -9.7970     2.2040 
  160.8750    61.0260   203.1630   145.5970   177.4510    25.1790   -10.1350     2.1990 
  161.0000    62.2110   187.6690   137.0790   161.2690    25.1780   -10.4130     2.1980 
  161.1250    63.9950   170.5810   126.3970   125.7580    25.1820   -10.6280     2.2040 
  161.2500    64.4420   155.2200   116.3020    97.7770    25.2150   -10.7950     2.2090 
  161.3750    63.1670   143.4570   108.3320    91.5040    25.2450   -10.9280     2.2130 
  161.5000    61.2690   136.3230   103.4700    97.6370    25.2420   -11.0450     2.2120 
  161.6250    62.7840   137.1450   104.7340    84.4020    25.1980   -11.1740     2.2100 
  161.7500    64.3730   144.3520   110.8260    91.8490    25.1690   -11.3350     2.2080 
  161.8750    64.9770   154.9370   119.8730   112.7190    25.1270   -11.5090     2.2040 
  162.0000    65.3260   166.6560   130.1290   115.7370    25.0660   -11.6880     2.1980 
  162.1250    65.3760   175.7190   138.6340   107.1070    25.0090   -11.8520     2.1920 
  162.2500    65.5290   179.1630   142.9470   112.5620    25.0010   -11.9800     2.1910 
  162.3750    66.9330   175.9010   141.9240   109.8790    25.0030   -12.0720     2.1940 
  162.5000    67.9250   167.9610   136.6590    96.3640    25.0020   -12.1350     2.2010 
  162.6250    66.6840   159.9620   130.3610    88.5720    25.0240   -12.1740     2.2110 
  162.7500    66.0830   155.7340   126.3720    91.5840    25.0370   -12.1960     2.2190 
  162.8750    67.8290   157.1600   126.4720   101.0610    25.0500   -12.2360     2.2240 
  163.0000    70.5040   165.1550   131.7090   105.0840    25.0630   -12.2770     2.2230 
  163.1250    70.5130   179.8050   142.4410   121.0040    25.0590   -12.3360     2.2170 
  163.2500    67.3690   196.6310   155.1990   143.9650    25.0290   -12.4010     2.2060 
  163.3750    62.3010   210.8370   166.3410   162.0540    24.9910   -12.4610     2.2030 
  163.5000    58.6130   218.1970   172.6970   172.8200    24.8910   -12.5290     2.2140 
  163.6250    58.8760   216.5390   172.3910   173.2070    24.8300   -12.5830     2.2320 
  163.7500    59.9220   210.7510   168.6090   159.7310    24.7350   -12.6470     2.2460 
  163.8750    60.2070   205.5180   164.7290   143.6470    24.7120   -12.7080     2.2480 
  164.0000    59.5520   204.0900   163.4500   139.3100    24.7950   -12.7770     2.2360 
  164.1250    57.7500   207.6090   166.0250   151.7080    24.8620   -12.8420     2.2110 
