~V
VERS. 2.00: Ver 2.00
~W
STRT.M 63.0000:
STOP.M 244.0000:
STEP.M 0.1250:
NULL. -999.2500:
UWI. F11131:
~C
DEPT.M :
SP.MV :
DEN.GM/CC :
GR.API :
RML.OHMM :
RI. :
RXO.OHMM :
CALI.CM :
~A
# ...
   96.7500   -23.8160     2.2120    87.8540     6.9490     5.5730     6.2250    25.9050 
   96.8750   -22.9340     2.2270    86.6350     6.6140     5.2460     6.1600    26.3350 
   97.0000   -22.2110     2.2380    85.8440     6.4650     5.0810     5.8050    26.8850 
   97.1250   -21.7150     2.2420    85.6470     6.5420     5.1110     5.6510    27.2520 
   97.2500   -21.4570     2.2350    83.6240     6.8170     5.3050     5.6800    27.1810 
   97.3750   -21.4640     2.2180    80.2010     7.2710     5.6480     6.0430    26.6840 
   97.5000   -21.7410     2.1960    76.1280     7.8440     6.1030     6.9220    25.9930 
   97.6250   -22.2930     2.1780    71.5630     8.4150     6.5950     7.6730    25.4890 
   97.7500   -22.9640     2.1670    67.5200     8.8540     7.0170     8.3110    25.2920 
   97.8750   -23.6450     2.1620    65.3170     9.1000     7.3040     8.8670    25.2900 
   98.0000   -24.2860     2.1600    64.8640     9.1650     7.4420     9.2230    25.3760 
   98.1250   -24.8440     2.1580    65.3640     9.1070     7.4500     9.1570    25.4960 
   98.2500   -25.2590     2.1590    67.2180     9.0270     7.4030     9.1690    25.5930 
   98.3750   -25.4960     2.1630    68.8780     8.9540     7.3280     9.3800    25.6490 
   98.5000   -25.5680     2.1670    69.3450     8.8710     7.2240     9.1340    25.7020 
   98.6250   -25.4840     2.1680    69.5930     8.7330     7.0720     8.3290    25.7930 
   98.7500   -25.3260     2.1640    70.0360     8.5380     6.8830     8.0760    25.8950 
   98.8750   -25.1650     2.1550    68.1350     8.3230     6.6910     8.4520    25.9800 
   99.0000   -25.0370     2.1480    63.4800     8.1680     6.5480     8.4590    26.0450 
   99.1250   -24.9570     2.1470    61.5540     8.1920     6.5280     8.1160    26.0930 
   99.2500   -24.9600     2.1520    63.6550     8.4060     6.6410     8.2320    26.1250 
   99.3750   -25.0640     2.1630    65.6830     8.7650     6.8680     8.7580    26.1390 
   99.5000   -25.2320     2.1760    64.8790     9.1700     7.1550     9.2270    26.1400 
   99.6250   -25.4070     2.1870    63.1030     9.4590     7.3990     9.8400    26.1440 
   99.7500   -25.5860     2.1880    64.0240     9.5360     7.5190    10.5460    26.1440 
   99.8750   -25.7600     2.1780    66.5010     9.3860     7.4830    10.4780    26.0670 
  100.0000   -25.9220     2.1620    68.9920     9.0760     7.3190     9.6280    25.8700 
  100.1250   -26.0910     2.1480    68.2580     8.7180     7.0890     8.9420    25.6410 
  100.2500   -26.2630     2.1350    66.1540     8.4390     6.8840     8.8220    25.5200 
  100.3750   -26.4130     2.1200    65.8700     8.3390     6.7830     8.6150    25.5250 
  100.5000   -26.5380     2.1000    67.7430     8.4970     6.8530     8.3200    25.6300 
  100.6250   -26.6340     2.0870    68.4030     8.8400     7.0700     8.2790    25.8190 
  100.7500   -26.7150     2.0970    67.2850     9.0770     7.2360     8.7290    25.9580 
  100.8750   -26.7960     2.1380    63.2060     9.7020     7.6970    10.8100    26.2950 
  101.0000   -26.8980     2.1940    59.9860    10.2680     8.1700    15.2900    26.4290 
  101.1250   -27.0250     2.2290    60.8340    10.5080     8.4670    17.9210    26.0450 
  101.2500   -27.1760     2.2270    63.1150    10.3860     8.5170    13.9790    25.4020 
  101.3750   -27.3500     2.1990    63.3850    10.0170     8.3580    10.6110    24.8880 
  101.5000   -27.5570     2.1690    59.9620     9.5970     8.1050     9.7390    24.6900 
  101.6250   -27.8440     2.1540    57.7290     9.3270     7.8920     9.8680    24.6990 
  101.7500   -28.2070     2.1510    60.9460     9.2430     7.7850     9.9920    24.7090 
  101.8750   -28.6440     2.1510    67.3080     9.2960     7.7790    10.0190    24.7080 
  102.0000   -29.1010     2.1520    70.0190     9.3790     7.8180     9.9800    24.7060 
  102.1250   -29.5200     2.1500    66.9970     9.3810     7.8210    10.0080    24.7030 
  102.2500   -29.8920     2.1480    64.3050     9.2860     7.7610    10.0010    24.7020 
  102.3750   -30.2320     2.1470    63.1590     9.1030     7.6320     9.8400    24.7020 
  102.5000   -30.5360     2.1490    62.8570     8.8410     7.4390     9.6010    24.7020 
  102.6250   -30.7970     2.1570    64.5230     8.5210     7.1930     9.6080    24.6990 
  102.7500   -31.0180     2.1690    67.3000     8.2110     6.9450     9.5750    24.6990 
  102.8750   -31.1930     2.1820    69.8310     7.9830     6.7460     9.2950    24.7030 
  103.0000   -31.3600     2.1910    70.0150     7.9000     6.6470     8.9980    24.6910 
  103.1250   -31.5570     2.1930    67.9400     8.0310     6.7050     8.9240    24.6420 
  103.2500   -31.7960     2.1920    66.1910     8.3220     6.8950     9.3970    24.5850 
  103.3750   -32.0950     2.1890    65.4270     8.6990     7.1750    10.0110    24.5600 
  103.5000   -32.4400     2.1820    65.3350     9.0660     7.4840    10.3770    24.5910 
  103.6250   -32.8120     2.1750    64.4520     9.3180     7.7430    10.3750    24.6460 
  103.7500   -33.1660     2.1690    62.6370     9.4430     7.9160    10.1650    24.6540 
  103.8750   -33.4880     2.1650    60.6400     9.4780     8.0090     9.9590    24.5970 
  104.0000   -33.7650     2.1630    59.2250     9.4820     8.0500     9.9560    24.5200 
  104.1250   -33.9810     2.1610    59.5110     9.4960     8.0670    10.2190    24.4840 
  104.2500   -34.1120     2.1590    60.4760     9.5070     8.0640    10.4460    24.4920 
  104.3750   -34.1290     2.1560    62.0890     9.4760     8.0190    10.4810    24.5800 
  104.5000   -34.0390     2.1540    63.6020     9.3770     7.9160    10.4230    24.8260 
  104.6250   -33.8160     2.1540    63.1070     9.2120     7.7570    10.3510    25.2290 
  104.7500   -33.5080     2.1540    63.2990     9.0450     7.5890    10.4000    25.6700 
  104.8750   -33.1500     2.1510    65.9830     8.9350     7.4600    10.3630    26.0690 
  105.0000   -32.7640     2.1450    68.6340     8.9170     7.4000    10.2720    26.3630 
  105.1250   -32.3870     2.1380    67.3890     8.9900     7.4230    10.4940    26.4700 
  105.2500   -32.0430     2.1330    65.8090     9.0960     7.4920    10.7500    26.4270 
  105.3750   -31.7600     2.1300    65.3710     9.2010     7.5830    10.7260    26.3150 
  105.5000   -31.5550     2.1290    64.5070     9.2930     7.6810    10.5150    26.1550 
  105.6250   -31.4820     2.1290    65.1370     9.3810     7.7820    10.3280    25.9540 
  105.7500   -31.5090     2.1310    67.5230     9.4790     7.8850    10.2280    25.7860 
  105.8750   -31.6190     2.1380    68.4960     9.5880     7.9880    10.2040    25.7100 
  106.0000   -31.7930     2.1520    65.8970     9.7000     8.0850    10.3850    25.7080 
  106.1250   -31.9840     2.1680    62.5110     9.8020     8.1660    10.7960    25.6900 
  106.2500   -32.1750     2.1820    61.5410     9.8630     8.2120    11.0070    25.6360 
  106.3750   -32.3520     2.1910    61.4320     9.8240     8.1880    10.7710    25.5430 
  106.5000   -32.4830     2.1920    61.2220     9.6180     8.0460    10.2190    25.3820 
  106.6250   -32.5220     2.1860    61.7210     9.1970     7.7520     9.5540    25.1180 
  106.7500   -32.4830     2.1740    63.8180     8.6710     7.3780     9.4780    24.8430 
  106.8750   -32.3650     2.1570    67.8210     8.1780     7.0160     9.7060    24.7100 
  107.0000   -32.1780     2.1400    72.8440     7.8620     6.7630     8.9980    24.8590 
  107.1250   -31.9640     2.1270    74.3350     7.8750     6.7360     7.6820    25.2400 
  107.2500   -31.7470     2.1250    73.4660     8.0050     6.8120     6.8940    25.4570 
  107.3750   -31.5310     2.1330    71.3170     8.2640     6.9950     7.5160    25.5570 
  107.5000   -31.3540     2.1500    68.2410     8.8040     7.4060     8.6380    25.5720 
  107.6250   -31.2450     2.1660    68.1460     9.3750     7.8840     9.6300    25.5110 
  107.7500   -31.1770     2.1760    68.8180     9.7880     8.2610    10.1750    25.5180 
  107.8750   -31.1350     2.1800    69.3240     9.8930     8.4000    10.7060    25.5490 
