~V
VERS. 2.00: Ver 2.00
~W
STRT.M 50.0000:
STOP.M 221.0000:
STEP.M 0.1250:
NULL. -999.2500:
UWI. F11120:
~C
DEPT.M :
DEN.GM/CC :
GR.API :
RML.OHMM :
RI. :
RXO.OHMM :
CALI.CM :
SP.MV :
~A
# ...
  151.2500     2.2580    67.2210    11.6300    12.6880    12.3190    26.6890   -18.2670 
  151.3750     2.2520    74.4030     7.7650     8.9030     6.4200    26.6060   -18.0890 
  151.5000     2.2440    80.8750     5.8160     6.8110     4.9120    26.5510   -17.9070 
  151.6250     2.2500    86.6030     5.1650     5.8970     4.5920    26.4620   -17.7350 
  151.7500     2.2650    89.6620     5.1330     5.6060     4.6290    26.3490   -17.5980 
  151.8750     2.2760    87.4200     5.4650     5.7400     4.8400    26.3300   -17.5100 
  152.0000     2.2750    82.1340     6.0070     6.1460     5.0480    26.4110   -17.4670 
  152.1250     2.2690    77.8440     6.6970     6.7350     5.8700    26.4910   -17.4540 
  152.2500     2.2620    72.5900     7.4870     7.4330     6.6360    26.5200   -17.4510 
  152.3750     2.2530    67.5070     8.3520     8.2250     7.3840    26.5240   -17.4560 
  152.5000     2.2410    66.9730     9.2170     9.0670     8.1980    26.5320   -17.4720 
  152.6250     2.2300    71.9360     9.9040     9.8070     9.3140    26.5540   -17.5070 
  152.7500     2.2250    74.8820    10.2980    10.2740     9.8550    26.5830   -17.5510 
  152.8750     2.2310    73.2100    10.3640    10.3700    10.0530    26.5900   -17.5860 
  153.0000     2.2450    71.7250    10.1910    10.1500     9.7730    26.5820   -17.6070 
  153.1250     2.2560    74.2380     9.9990     9.8130     9.1600    26.5710   -17.6280 
  153.2500     2.2570    77.2340    10.0120     9.6030     8.7930    26.6130   -17.6600 
  153.3750     2.2500    77.6900    10.2940     9.6190     8.9280    26.7070   -17.7050 
  153.5000     2.2420    75.0960    10.7410     9.8180     9.5020    26.7510   -17.7620 
  153.6250     2.2410    72.3280    11.0750    10.0110    10.6380    26.7140   -17.8100 
  153.7500     2.2450    71.5160    11.0530     9.9790    11.1900    26.6720   -17.8380 
  153.8750     2.2510    71.4770    10.6070     9.6350    10.0010    26.7200   -17.8570 
  154.0000     2.2550    70.8800     9.9200     9.0770     7.7540    26.7960   -17.8790 
  154.1250     2.2590    70.3580     9.4530     8.6120     6.8710    26.8340   -17.9010 
  154.2500     2.2630    71.8010     9.5360     8.5010     7.7280    26.8370   -17.9250 
  154.3750     2.2620    73.7920    10.2250     8.8410     8.9350    26.8600   -17.9510 
  154.5000     2.2590    73.6050    11.3280     9.5730    10.4510    26.9190   -17.9760 
  154.6250     2.2600    71.3660    12.3960    10.4670    14.3850    26.9500   -18.0040 
  154.7500     2.2600    70.4610    12.9710    11.1400    18.9030    26.9520   -18.0460 
  154.8750     2.2560    71.0590    12.9680    11.4260    16.9230    26.9260   -18.1070 
  155.0000     2.2480    72.5370    12.7560    11.4790    11.8650    26.8850   -18.1910 
  155.1250     2.2420    74.5200    13.0940    11.7620    10.1970    26.8850   -18.2970 
  155.2500     2.2360    74.4040    14.3810    12.6350    12.9180    26.9350   -18.4090 
  155.3750     2.2260    71.2400    16.6440    14.2660    17.6320    26.9940   -18.5250 
  155.5000     2.2160    67.2200    19.4780    16.5520    21.6270    27.0230   -18.6460 
  155.6250     2.2130    65.0600    21.7780    18.8140    26.2500    27.0250   -18.7660 
  155.7500     2.2170    63.7080    22.4980    19.9840    28.2880    27.0220   -18.8870 
  155.8750     2.2250    62.2480    21.3960    19.5760    25.3870    27.0250   -19.0070 
  156.0000     2.2360    63.4340    19.1500    17.9950    18.4870    27.0410   -19.1200 
  156.1250     2.2490    67.4540    16.8100    16.0910    13.3710    27.0940   -19.2220 
  156.2500     2.2550    70.7230    14.9800    14.4720    11.9850    27.1550   -19.3280 
  156.3750     2.2560    71.8400    13.7290    13.2640    12.0250    27.1950   -19.4460 
  156.5000     2.2580    70.1560    12.9410    12.4280    11.6560    27.2270   -19.5800 
  156.6250     2.2650    68.0330    12.4990    11.9020    11.1490    27.2370   -19.7300 
  156.7500     2.2740    67.3800    12.2500    11.5640    10.2910    27.2320   -19.8830 
  156.8750     2.2790    68.7900    12.2180    11.4260    10.0020    27.2350   -20.0390 
  157.0000     2.2780    70.8360    12.5160    11.5710    10.5330    27.2860   -20.2190 
  157.1250     2.2660    69.8500    13.3680    12.1790    11.6950    27.3950   -20.4640 
  157.2500     2.2480    68.9370    14.7730    13.2590    13.1180    27.5190   -20.7630 
  157.3750     2.2260    70.5790    16.7180    14.8310    15.4720    27.6350   -21.0990 
  157.5000     2.2040    73.7460    19.1110    16.8580    19.7090    27.7170   -21.4660 
  157.6250     2.1930    74.3500    21.7920    19.2480    25.2310    27.7970   -21.8590 
  157.7500     2.1910    72.6740    24.4350    21.6920    30.9070    27.9010   -22.2590 
  157.8750     2.1970    70.3420    26.7520    23.9060    36.1120    27.9960   -22.6460 
  158.0000     2.2040    66.9500    28.4930    25.6460    36.8240    28.0620   -22.9970 
  158.1250     2.2120    63.6970    29.4600    26.7270    33.6310    28.1260   -23.2640 
  158.2500     2.2180    64.1030    29.8830    27.3310    31.3630    28.1760   -23.4430 
  158.3750     2.2220    66.4200    29.9190    27.5710    30.6230    28.2210   -23.5400 
  158.5000     2.2250    66.8740    29.6650    27.5020    30.9820    28.2860   -23.5680 
  158.6250     2.2250    65.0500    29.1620    27.1380    30.7480    28.3880   -23.5440 
  158.7500     2.2180    64.5560    28.5520    26.6460    28.7470    28.5600   -23.4980 
  158.8750     2.2100    65.5530    27.9870    26.2010    25.6280    28.8120   -23.4510 
  159.0000     2.2050    67.1800    27.6520    25.9820    23.7220    29.0650   -23.4050 
  159.1250     2.2010    67.3100    27.7500    26.1670    25.2030    29.2910   -23.3670 
  159.2500     2.1950    65.5680    28.2020    26.6880    27.8250    29.4910   -23.3550 
  159.3750     2.1910    63.0760    28.8780    27.4330    29.5770    29.6670   -23.3880 
  159.5000     2.1920    62.1640    29.6340    28.2680    30.3590    29.8150   -23.4780 
  159.6250     2.1960    63.6060    30.3910    29.0920    30.4700    29.9630   -23.6380 
  159.7500     2.1960    64.7210    31.1760    29.9020    30.7030    30.1140   -23.8560 
  159.8750     2.1930    64.2730    32.0730    30.7550    31.6400    30.2600   -24.1290 
  160.0000     2.1890    62.9710    33.1900    31.7400    33.4990    30.3860   -24.4630 
  160.1250     2.1870    61.5240    34.7220    33.0290    36.1780    30.4980   -24.8860 
  160.2500     2.1880    62.4890    36.8100    34.7660    36.1610    30.6330   -25.3800 
  160.3750     2.1910    64.8800    39.7480    37.2090    34.1380    30.7610   -25.9220 
  160.5000     2.1940    65.1140    43.9020    40.7000    33.7060    30.8700   -26.4870 
  160.6250     2.1900    62.1060    49.8470    45.8280    40.1200    31.0010   -27.0610 
  160.7500     2.1820    58.7210    57.2900    52.4410    47.0830    31.1330   -27.6340 
  160.8750     2.1810    57.3130    65.6230    60.1320    48.9620    31.1890   -28.1950 
  161.0000     2.1960    57.4690    73.5500    67.9080    45.2450    31.1690   -28.7340 
  161.1250     2.2170    56.8150    78.6730    73.8400    41.1940    31.2530   -29.2390 
  161.2500     2.2270    55.7020    80.0030    76.7640    34.4390    31.4900   -29.7150 
  161.3750     2.2220    55.1890    77.7150    76.3550    30.8750    31.8070   -30.1570 
  161.5000     2.2090    55.8190    73.1430    73.3100    28.2360    32.0860   -30.5620 
  161.6250     2.1990    55.3630    68.3990    69.1930    25.9760    32.2870   -30.9350 
  161.7500     2.1920    53.3460    65.4930    66.1350    23.4310    32.3970   -31.2940 
  161.8750     2.1900    51.8280    65.8140    65.6620    23.6150    32.4750   -31.6510 
  162.0000     2.1920    50.5190    70.6690    69.2180    23.9110    32.5950   -32.0110 
  162.1250     2.1850    48.7390    82.7870    79.6820    27.1030    32.7340   -32.3650 
  162.2500     2.1730    48.0210   103.0220    97.9550    42.1460    32.8370   -32.7110 
  162.3750     2.1630    48.5780   132.7710   124.7920    69.7940    32.9660   -33.0590 
