~V
VERS. 2.00: Ver 2.00
~W
STRT.M 59.0000:
STOP.M 247.0000:
STEP.M 0.1250:
NULL. -999.2500:
UWI. F11130:
~C
DEPT.M :
DEN.GM/CC :
SP.MV :
GR.API :
RML.OHMM :
RI. :
RXO.OHMM :
CALI.CM :
~A
# ...
  216.5000     2.3150     2.0670    68.7860    14.3590    12.5470    14.1770    24.7330 
  216.6250     2.3190     1.8340    68.4850    14.6160    12.5010    14.3790    24.7580 
  216.7500     2.3230     1.5310    68.5180    15.1810    12.7500    14.8610    24.7590 
  216.8750     2.3260     1.2130    68.4900    16.0670    13.3130    15.5400    24.7410 
  217.0000     2.3270     0.8670    68.5970    17.3040    14.2500    15.9610    24.7320 
  217.1250     2.3200     0.5390    69.1680    18.9310    15.6630    16.8700    24.7560 
  217.2500     2.3050     0.3120    69.6340    20.7420    17.3950    19.3170    24.7800 
  217.3750     2.2850     0.1560    68.2320    22.4680    19.1980    23.8570    24.7870 
  217.5000     2.2650    -0.0090    65.3600    23.7850    20.6930    27.2140    24.7800 
  217.6250     2.2500    -0.1820    64.2750    24.3850    21.4160    26.3630    24.7980 
  217.7500     2.2340    -0.3930    64.7460    24.5310    21.5060    25.6800    24.8140 
  217.8750     2.2170    -0.6900    66.1540    24.7190    21.3330    26.3730    24.8410 
  218.0000     2.2060    -1.0630    67.6240    25.4230    21.3750    26.1760    24.8620 
  218.1250     2.2210    -1.4840    66.6990    26.4980    22.1670    25.3740    24.8400 
  218.2500     2.2710    -1.9990    64.0730    27.6500    23.7740    28.0070    24.7190 
  218.3750     2.3490    -2.6150    62.7010    29.0820    26.0300    36.5020    24.5980 
  218.5000     2.4330    -3.2220    62.9810    30.7960    28.4470    43.1900    24.5550 
  218.6250     2.4870    -3.7450    62.9740    31.7660    29.9750    40.5870    24.5780 
  218.7500     2.4990    -4.1710    63.7100    31.1130    29.8260    37.2040    24.6420 
  218.8750     2.4740    -4.4010    66.4270    29.0250    27.9180    35.5420    24.8460 
  219.0000     2.4320    -4.4980    69.0100    26.3470    25.0830    32.7690    25.1350 
  219.1250     2.3980    -4.5850    70.8900    24.2320    22.6270    28.1770    25.2310 
  219.2500     2.3850    -4.6030    72.8310    23.2910    21.2740    21.8390    25.1640 
  219.3750     2.3950    -4.6110    73.8890    23.5970    21.2200    18.3700    25.0450 
  219.5000     2.4270    -4.7010    72.9550    24.7770    22.3280    21.1010    24.8830 
  219.6250     2.4710    -4.8130    72.4140    25.9840    24.0550    35.4970    24.8310 
  219.7500     2.5120    -4.9810    72.3280    26.2470    25.2530    42.5200    24.5520 
  219.8750     2.5380    -5.1870    70.1800    25.0520    25.0250    36.7970    24.2430 
  220.0000     2.5420    -5.2480    64.4930    22.4530    23.0630    28.0210    24.0320 
  220.1250     2.5250    -5.1330    56.4860    18.9600    19.7480    21.5250    23.9040 
  220.2500     2.5020    -4.8610    51.0250    15.4300    16.1880    16.6870    23.7250 
  220.3750     2.4800    -4.3640    49.6520    12.2590    12.9240    13.2980    23.5280 
  220.5000     2.4580    -3.6740    51.2060     9.6140    10.1890    10.4260    23.4550 
  220.6250     2.4320    -2.8000    52.3640     7.6460     8.1530     7.9020    23.5950 
  220.7500     2.4050    -1.8110    51.8630     6.2510     6.6870     6.1610    23.8610 
  220.8750     2.3810    -0.9130    53.3470     5.3660     5.7130     5.2810    24.1220 
  221.0000     2.3640    -0.1770    59.0070     4.8800     5.1330     4.8740    24.3140 
  221.1250     2.3550     0.4550    65.4900     4.6930     4.8860     4.7660    24.5180 
  221.2500     2.3470     0.8930    67.6040     4.6560     4.8270     4.6850    24.6340 
  221.3750     2.3420     1.0400    64.9570     4.7060     4.8820     4.6360    24.6310 
  221.5000     2.3400     0.9780    61.0710     4.7930     4.9870     4.6920    24.5900 
  221.6250     2.3410     0.7070    58.9350     4.8530     5.0610     5.0990    24.5580 
  221.7500     2.3440     0.3720    58.6070     4.8410     5.0420     5.3560    24.5530 
  221.8750     2.3450     0.0890    59.1620     4.7600     4.9130     5.3200    24.5350 
  222.0000     2.3440    -0.3110    60.6520     4.6660     4.7160     5.0550    24.4780 
  222.1250     2.3420    -0.9410    66.0880     4.6650     4.5670     4.9070    24.4450 
  222.2500     2.3430    -1.6310    76.3000     4.8150     4.5690     4.8870    24.5230 
  222.3750     2.3520    -2.3500    89.3190     5.1370     4.7750     5.0290    24.5880 
  222.5000     2.3700    -3.1860    98.0460     5.6110     5.1870     5.9220    24.6140 
  222.6250     2.3900    -4.0670    95.8620     6.1840     5.7490     7.5350    24.5740 
  222.7500     2.4030    -4.9580    87.6990     6.7540     6.3120     8.9350    24.6360 
  222.8750     2.4060    -5.8860    80.1290     7.2620     6.7770     8.4120    24.6270 
  223.0000     2.4000    -6.7860    76.7640     7.6810     7.1120     7.9900    24.5450 
  223.1250     2.3920    -7.6670    77.7570     8.0060     7.3500     8.2520    24.3370 
  223.2500     2.3840    -8.5290    80.3450     8.2750     7.5750     8.8070    24.0210 
  223.3750     2.3750    -9.3620    82.4250     8.5060     7.8230     9.3970    23.7260 
  223.5000     2.3640   -10.1250    82.7880     8.7130     8.0890     9.9230    23.5950 
  223.6250     2.3510   -10.8410    81.0260     8.9110     8.3440    10.2070    23.7100 
  223.7500     2.3430   -11.5850    76.0790     9.1100     8.5840    10.0130    23.9680 
  223.8750     2.3390   -12.3110    69.0330     9.3060     8.8150     9.7070    24.2550 
  224.0000     2.3400   -12.8800    63.8810     9.4810     9.0390    10.1510    24.5170 
  224.1250     2.3420   -13.1570    65.4070     9.5990     9.2280    11.0850    24.6680 
  224.2500     2.3440   -13.3090    71.2890     9.6440     9.3410    11.5010    24.7310 
  224.3750     2.3440   -13.2710    76.4480     9.5980     9.3210    11.0820    24.7020 
  224.5000     2.3470   -12.9630    78.5290     9.4470     9.1190    10.3310    24.5750 
  224.6250     2.3550   -12.3700    81.2540     9.1790     8.7060     9.5880    24.4100 
  224.7500     2.3720   -11.5610    88.2140     8.8640     8.1900     9.1110    24.2630 
  224.8750     2.3940   -10.6710    96.2190     8.5910     7.6920     8.5530    24.3020 
  225.0000     2.4140    -9.8410   100.8800     8.4640     7.3430     7.8760    24.4830 
  225.1250     2.4180    -9.2080   100.3570     8.6250     7.2980     7.7050    24.6180 
  225.2500     2.4040    -8.7590    97.5800     9.0840     7.5650     8.3400    24.7160 
  225.3750     2.3770    -8.5140    92.3990     9.8280     8.1470     9.9930    24.8000 
  225.5000     2.3500    -8.4570    85.0010    10.7970     9.0130    12.9710    24.8360 
  225.6250     2.3400    -8.5220    79.0370    11.9030    10.1130    14.9750    24.8100 
  225.7500     2.3480    -8.6420    77.3710    13.0080    11.2970    16.2910    24.7750 
  225.8750     2.3650    -8.6800    77.7100    14.0370    12.4650    17.3990    24.7610 
  226.0000     2.3820    -8.5590    77.0290    14.9430    13.5440    18.5180    24.7830 
  226.1250     2.3940    -8.2170    75.1490    15.6580    14.4610    20.2800    24.8290 
  226.2500     2.4030    -7.6040    73.4150    16.1230    15.1490    21.9640    24.8290 
  226.3750     2.4140    -6.7390    71.8970    16.2180    15.4570    22.0370    24.8120 
  226.5000     2.4300    -5.7220    72.3270    15.8370    15.2270    21.2370    24.7910 
  226.6250     2.4480    -4.7020    78.6050    14.9120    14.3440    20.9990    24.7650 
  226.7500     2.4650    -3.7390    87.6960    13.6880    13.1060    20.3940    24.7220 
  226.8750     2.4770    -2.8570    95.4030    12.4750    11.7990    17.5210    24.6430 
  227.0000     2.4830    -2.0350    99.2350    11.5520    10.6730    13.2580    24.4740 
  227.1250     2.4830    -1.2540    99.5030    11.0210     9.9130    11.9350    24.3450 
  227.2500     2.4780    -0.4700    95.9760    10.6760     9.4610    11.5090    24.3570 
  227.3750     2.4670     0.3380    88.8320    10.4300     9.2440    11.6190    24.3870 
  227.5000     2.4470     1.1770    80.3350    10.2710     9.1490    12.5520    24.4330 
  227.6250     2.4160     2.0400    74.0490    10.1330     9.0380    11.4790    24.4100 
