~V
VERS. 2.00: Ver 2.00
~W
STRT.M 55.0000:
STOP.M 211.0000:
STEP.M 0.1250:
NULL. -999.2500:
UWI. F11125:
~C
DEPT.M :
DEN.GM/CC :
GR.API :
RML.OHMM :
RI. :
RXO.OHMM :
CALI.CM :
SP.MV :
~A
   55.0000  -999.2500  -999.2500  -999.2500  -999.2500  -999.2500  -999.2500   968.0000 
   55.1250  -999.2500  -999.2500  -999.2500  -999.2500  -999.2500  -999.2500   382.2630 
   55.2500  -999.2500  -999.2500  -999.2500  -999.2500  -999.2500  -999.2500   696.6640 
   55.3750  -999.2500  -999.2500  -999.2500  -999.2500  -999.2500  -999.2500   236.0000 
   55.5000  -999.2500    44.1570     0.7210     0.2180    -1.3050    25.2600    67.5290 
   55.6250  -999.2500    44.1570     0.7210     0.2180    -1.3050    25.2600    67.0590 
   55.7500  -999.2500    44.2700     0.6300     0.2190    -1.3150    25.2580    66.6260 
   55.8750  -999.2500    43.3830     0.5790     0.2260    -1.2960    25.2630    66.2700 
   56.0000  -999.2500    43.7560     0.5620     0.2350    -1.2700    25.2700    65.9420 
   56.1250  -999.2500    45.3640     0.5610     0.2410    -1.2350    25.2740    65.6490 
   56.2500  -999.2500    46.1150     0.5600     0.2460    -1.3260    25.2770    65.3780 
   56.3750  -999.2500    45.3650     0.5500     0.2490    -1.3530    25.2810    65.1240 
   56.5000  -999.2500    44.9470     0.5330     0.2520    -1.3520    25.2850    64.8920 
   56.6250  -999.2500    45.1480     0.5120     0.2490    -1.3520    25.2920    64.7260 
   56.7500  -999.2500    43.7580     0.5000     0.2410    -1.3530    25.2970    64.6570 
   56.8750  -999.2500    41.2160     0.4880     0.2300    -1.3490    25.3040    64.6760 
   57.0000  -999.2500    39.5850     0.4580     0.2220    -1.3480    25.3120    64.7640 
   57.1250  -999.2500    40.8640     0.3990     0.2190    -1.3560    25.3150    64.8710 
   57.2500  -999.2500    42.8030     0.3380     0.2200    -1.3560    25.3160    64.9900 
   57.3750  -999.2500    42.9760     0.3100     0.2240    -1.3570    25.3160    65.1780 
   57.5000  -999.2500    43.0480     0.3430     0.2300    -1.3720    25.3180    65.4600 
   57.6250  -999.2500    47.1750     0.4250     0.2380    -1.3900    25.3220    65.7770 
   57.7500  -999.2500    52.5530     0.4930     0.2440    -1.3850    25.3240    66.0730 
   57.8750  -999.2500    55.4360     0.5140     0.2410    -1.3780    25.3240    66.3470 
   58.0000     1.9740    56.7080     0.4880     0.2300    -1.3770    25.3240    66.6320 
   58.1250     1.9740    58.1220     0.4310     0.2170    -1.3810    25.3240    67.0150 
   58.2500     1.9690    57.6540     0.3640     0.2090    -1.3870    25.3240    67.4830 
   58.3750     1.9580    53.0470     0.3050     0.2100    -1.3930    25.3240    67.9930 
   58.5000     1.9550    47.5550     0.2730     0.2190    -1.3940    25.3240    68.5360 
   58.6250     1.9600    45.8780     0.2880     0.2320    -1.3900    25.3240    69.0570 
   58.7500     1.9670    45.7360     0.3330     0.2450    -1.3890    25.3240    69.4640 
   58.8750     1.9690    44.0920     0.3860     0.2570    -1.3890    25.3240    69.6650 
   59.0000     1.9660    39.5970     0.4320     0.2640    -1.3920    25.3240    69.6290 
   59.1250     1.9600    35.6240     0.4630     0.2620    -1.3960    25.3240    69.3370 
   59.2500     1.9560    34.3180     0.4850     0.2540    -1.3950    25.3230    68.9180 
   59.3750     1.9540    34.7610     0.4950     0.2440    -1.3880    25.3210    68.3790 
   59.5000     1.9560    36.1470     0.4900     0.2360    -1.3820    25.3220    67.6940 
   59.6250     1.9650    36.5490     0.4720     0.2310    -1.3800    25.3230    66.9750 
   59.7500     1.9820    35.3070     0.4570     0.2270    -1.3780    25.3240    66.3570 
   59.8750     2.0050    33.6150     0.4510     0.2190    -1.3750    25.3240    65.9040 
   60.0000     2.0280    33.3180     0.4370     0.2080    -1.3770    25.3240    65.6490 
   60.1250     2.0430    35.9300     0.3900     0.1980    -1.3810    25.3240    65.4590 
   60.2500     2.0460    38.1650     0.3230     0.1950    -1.3750    25.3240    65.1640 
   60.3750     2.0400    38.7430     0.2630     0.2010    -1.3570    25.3240    64.7730 
   60.5000     2.0300    38.8380     0.2330     0.2140    -1.3450    25.3240    64.3490 
   60.6250     2.0170    37.3040     0.2430     0.2270    -1.3480    25.3230    63.8930 
   60.7500     1.9990    35.7810     0.2670     0.2360    -1.3640    25.3220    63.3970 
   60.8750     1.9790    38.1430     0.2860     0.2410    -1.3750    25.3210    62.8460 
   61.0000     1.9640    43.9750     0.2830     0.2470    -1.3800    25.3220    62.2190 
   61.1250     1.9690    45.9030     0.2500     0.2530    -1.3730    25.3200    61.5680 
   61.2500     1.9910    43.4510     0.1990     0.2590    -1.3650    25.3190    60.9370 
   61.3750     2.0210    42.2850     0.1480     0.2590    -1.3820    25.3190    60.3160 
   61.5000     2.0500    45.2480     0.1150     0.2500    -1.3830    25.3220    59.6800 
   61.6250     2.0690    49.8260     0.1150     0.2370    -1.3340    25.3230    58.9280 
   61.7500     2.0740    53.4810     0.1380     0.2260    -1.3010    25.3240    58.0110 
   61.8750     2.0700    55.2930     0.1710     0.2220    -1.2150    25.3240    56.9610 
   62.0000     2.0640    54.9330     0.2000     0.2280    -1.1420    25.3240    55.7920 
   62.1250     2.0600    53.2550     0.2190     0.2400    -1.2670    25.3260    54.4430 
   62.2500     2.0560    52.2300     0.2410     0.2500    -1.3320    25.3300    52.9300 
   62.3750     2.0500    50.4970     0.2700     0.2520    -1.3480    25.3350    51.2420 
   62.5000     2.0460    48.5230     0.2950     0.2470    -1.3340    25.3350    49.2920 
   62.6250     2.0630    49.6940     0.2840     0.2320    -1.3100    25.3360    47.0470 
   62.7500     2.1110    52.9350     0.2220     0.2040    -1.3020    25.3360    44.5100 
   62.8750     2.1860    53.4440     0.1320     0.1650    -1.2970    25.3390    41.6060 
   63.0000     2.2770    50.2840     0.0590     0.1230    -1.2900    25.3420    38.2630 
   63.1250     2.3840    49.6970     0.0340     0.0880    -1.2830    25.3400    34.3600 
   63.2500     2.4980    51.6110     0.0420     0.0720    -1.2590    25.3290    29.9100 
   63.3750     2.5850    52.1390     0.0840     0.0950    -1.1150    25.3080    24.9110 
   63.5000     2.5780    50.7460     0.1840     0.1920    -0.5140    25.4750    19.5370 
   63.6250     2.4450    50.1720     0.4590     0.4710     0.8970    26.6580    13.9940 
   63.7500     2.2940    51.6760     1.1510     1.0170     2.8480    29.2510     8.6520 
   63.8750     2.1980    55.7240     2.6590     1.9090     3.8020    31.8560     3.6760 
   64.0000     2.1730    60.8660     4.6340     3.0730     3.1920    32.1260    -0.7810 
   64.1250     2.1920    63.9670     5.3230     4.1240     2.6050    29.0800    -4.4890 
   64.2500     2.2140    67.0910     5.2140     4.7620     3.1240    26.0240    -7.4650 
   64.3750     2.2290    73.0950     5.0270     5.0410     4.1910    24.3740    -9.6850 
   64.5000     2.2370    81.6120     4.9360     5.1670     5.0260    23.8160   -11.2300 
   64.6250     2.2290    85.8970     4.9200     5.2850     5.0080    23.7280   -12.2010 
   64.7500     2.2180    82.7990     4.9590     5.4410     4.4810    23.7350   -12.9420 
   64.8750     2.2140    79.4790     5.0750     5.6450     4.2480    23.7600   -13.5470 
   65.0000     2.2160    82.5040     5.2770     5.8850     4.6140    23.7680   -14.1050 
   65.1250     2.2200    87.7620     5.5280     6.1100     5.2500    23.7680   -14.6210 
   65.2500     2.2220    86.1680     5.7120     6.2610     5.4610    23.7970   -15.1120 
   65.3750     2.2210    82.5720     5.7430     6.3090     5.4550    23.9060   -15.5810 
   65.5000     2.2190    86.4600     5.6510     6.2670     5.4200    24.1350   -16.0710 
   65.6250     2.2200    93.2870     5.5710     6.2040     4.9870    24.4300   -16.6180 
   65.7500     2.2240    94.3320     5.5980     6.2110     4.9900    24.5550   -17.2450 
   65.8750     2.2200    91.7430     5.7560     6.3330     5.4410    24.5070   -17.9550 
   66.0000     2.2000    89.3640     6.0300     6.5670     6.4200    24.3420   -18.7260 
   66.1250     2.1700    85.5610     6.3520     6.8600     7.9050    24.2260   -19.5080 
