~V
VERS. 2.00: Ver 2.00
~W
STRT.M 55.0000:
STOP.M 211.0000:
STEP.M 0.1250:
NULL. -999.2500:
UWI. F11125:
~C
DEPT.M :
DEN.GM/CC :
GR.API :
RML.OHMM :
RI. :
RXO.OHMM :
CALI.CM :
SP.MV :
~A
# ...
  201.2500     2.3650    81.6370    15.5440    14.9800    18.7400    24.2400   -15.4540 
  201.3750     2.3750    81.6370    14.8720    14.6110    18.7350    24.3180   -15.5410 
  201.5000     2.3700    81.6370    13.8430    13.7900    19.0120    24.3120   -15.5090 
  201.6250     2.3460    81.6370    12.6840    12.7360    17.8370    24.2070   -15.3780 
  201.7500     2.3140    81.6370    11.5990    11.6800    15.0420    24.2260   -15.1820 
  201.8750     2.2850    81.6370    10.7000    10.7460    12.6280    24.3010   -14.9180 
  202.0000     2.2700    81.6370    10.0410    10.0100    11.4680    24.4230   -14.6550 
  202.1250     2.2810    81.6370     9.6500     9.5300    11.3750    24.4610   -14.4270 
  202.2500     2.3050    81.6370     9.4260     9.2310    11.4370    24.4590   -14.1910 
  202.3750     2.3230    81.6370     9.3100     9.0610    11.1780    24.4900   -13.8900 
  202.5000     2.3180    81.6370     9.2620     8.9840    10.6020    24.6310   -13.5620 
  202.6250     2.2940    81.6370     9.2910     9.0120    10.1710    24.7020   -13.2430 
  202.7500     2.2740    81.6370     9.3750     9.1210     9.8230    24.6780   -12.8970 
  202.8750     2.2690    81.6370     9.4550     9.2560    10.0940    24.5930   -12.5320 
  203.0000     2.2690    81.6370     9.4230     9.3060    11.1300    24.5140   -12.0910 
  203.1250     2.2550    81.6370     9.1050     9.1020    11.2940    24.4230   -11.5780 
  203.2500     2.2260    81.6370     8.5360     8.6580     9.3100    24.3280   -11.0230 
  203.3750     2.1950    81.6370     7.8660     8.0880     7.5510    24.3070   -10.4810 
  203.5000     2.1770    81.6370     7.2960     7.5560     6.8310    24.2980    -9.9910 
  203.6250     2.1840    81.6370     7.0130     7.2180     7.3980    24.4170    -9.5990 
  203.7500     2.2090    81.6370     6.9790     7.0680     8.1470    24.5550    -9.2680 
  203.8750     2.2350    81.6370     7.0850     7.0480     8.5430    24.5810    -8.9870 
  204.0000     2.2510    81.6370     7.2110     7.0820     8.6590    24.4870    -8.8010 
  204.1250     2.2530    81.6370     7.2770     7.1160     8.5210    24.4100    -8.6850 
  204.2500     2.2420    81.6370     7.3010     7.1420     8.9480    24.3450    -8.6150 
  204.3750     2.2190    81.6370     7.3120     7.1670     8.9470    24.2980    -8.6000 
  204.5000     2.1930    81.6370     7.3350     7.1930     8.4870    24.2630    -8.5690 
  204.6250     2.1800    81.6370     7.3740     7.2040     8.7480    24.2770    -8.5050 
  204.7500     2.1900    81.6370     7.4130     7.1970     9.4640    24.3510    -8.4690 
  204.8750     2.2290    81.6370     7.4350     7.1770    10.8530    24.4180    -8.4410 
  205.0000     2.2850    81.6370     7.4330     7.1560    13.3830    24.3950    -8.4050 
  205.1250     2.3210    81.6370     7.4120     7.1480    14.6440    24.3080    -8.3660 
  205.2500     2.3150    81.6370     7.3950     7.1520    13.8410    24.2650    -8.3740 
  205.3750     2.2810    81.6370     7.3930     7.1660    12.2660    24.3010    -8.3720 
  205.5000     2.2480    81.6370     7.4000     7.1830     9.8960    24.3830    -8.3620 
  205.6250     2.2370    81.6370     7.3970     7.1940     7.9050    24.3820    -8.3500 
  205.7500     2.2380    81.6370     7.3810     7.1960     6.9410    24.3450    -8.3500 
  205.8750     2.2360    81.6370     7.3560     7.1900     6.8010    24.2940    -8.3400 
  206.0000     2.2280    81.6370     7.3340     7.1820     7.0660    24.2750    -8.3070 
  206.1250     2.2310    81.6370     7.3270     7.1800     8.1870    24.2700    -8.2520 
  206.2500     2.2500    81.6370     7.3330     7.1870     9.4840    24.3620    -8.1730 
  206.3750     2.2750    81.6370     7.3440     7.1990    10.2950    24.5360    -8.1250 
  206.5000     2.2960    81.6370     7.3510     7.2090    11.7170    24.6600    -8.1540 
  206.6250     2.3080    81.6370     7.3500     7.2150    13.6770    24.6770    -8.1990 
  206.7500     2.3050    81.6370     7.3450     7.2140    14.1170    24.6060    -8.2210 
  206.8750     2.2910    81.6370     7.3420     7.2130    12.3570    24.4770    -8.2400 
  207.0000     2.2860    81.6370     7.3420     7.2130    10.7110    24.3130    -8.2950 
  207.1250     2.2990    81.6370     7.3420     7.2130    12.4800    24.1630    -8.3830 
  207.2500     2.3090    81.6370     7.3420     7.2130    13.0210    24.1030    -8.4810 
  207.3750     2.3080    81.6370     7.3420     7.2130    10.3870    24.1650    -8.5140 
  207.5000     2.3130    81.6370     7.3420     7.2130     7.5840    24.2870    -8.5140 
  207.6250     2.3350    81.6370     7.3420     7.2130     7.5700    24.2280    -8.5140 
  207.7500     2.3530    81.6370     7.3420     7.2130     8.1480    24.0700  -999.2500 
  207.8750     2.3540    81.6370     7.3420     7.2130     8.3480    23.9440  -999.2500 
  208.0000     2.3450    81.6370     7.3420     7.2130     8.1520    23.9110  -999.2500 
  208.1250     2.3360    81.6370     7.3420     7.2130     8.0340    24.1020  -999.2500 
  208.2500     2.3200    81.6370     7.3420     7.2130     8.2430    24.3850  -999.2500 
  208.3750     2.2850    81.6370     7.3420     7.2130     8.2900    24.6230  -999.2500 
  208.5000     2.2340    81.6370     7.3420     7.2130     8.8000    24.3110  -999.2500 
  208.6250     2.1650    81.6370     7.3420     7.2130     8.9260    22.3350  -999.2500 
  208.7500     2.0570    81.6370     7.3420     7.2130     9.0100    18.9380  -999.2500 
  208.8750     1.9040    81.6370     7.3420     7.2130     8.7670    16.0990  -999.2500 
  209.0000     1.7810    81.6370     7.3420     7.2130     8.5790    14.9080  -999.2500 
  209.1250     1.7160    81.6370     7.3420     7.2130     8.5310    14.7900  -999.2500 
  209.2500     1.6970    81.6370     7.3420     7.2130     8.5310    14.7900  -999.2500 
  209.3750     1.6990    81.6370     7.3420     7.2130     8.5330    14.7900  -999.2500 
  209.5000     1.7010    81.6370     7.3420     7.2130     8.5320    14.7900  -999.2500 
  209.6250     1.7020    81.6370     7.3420     7.2130     8.5300    14.7900  -999.2500 
  209.7500     1.7020    81.6370     7.3420     7.2130     8.5220    14.7900  -999.2500 
  209.8750     1.7020    81.6370     7.3420     7.2130     8.5210    14.7900  -999.2500 
  210.0000     1.7010    81.6370     7.3420     7.2130     8.5220    14.7900  -999.2500 
  210.1250     1.7010    81.6370     7.3420     7.2130     8.5250    14.7900  -999.2500 
  210.2500     1.7010    81.6370     7.3420     7.2130     8.5240    14.7900  -999.2500 
  210.3750     1.7010    81.6370     7.3420     7.2130     8.5200    14.7900  -999.2500 
  210.5000     1.7020    81.6370     7.3420     7.2130     8.5150    14.7900  -999.2500 
  210.6250     1.7040    81.6370     7.3420     7.2130     8.5160    14.7900  -999.2500 
  210.7500     1.7040    81.6370     7.3420     7.2130     8.5210    14.7900  -999.2500 
  210.8750     1.7030    81.6370     7.3420     7.2130     8.5220    14.7890  -999.2500 
  211.0000     1.7020    81.6370     7.3420     7.2130     8.5210    14.7880  -999.2500 
