~V
VERS. 2.00: Ver 2.00
~W
STRT.M 50.0000:
STOP.M 170.0000:
STEP.M 0.1250:
NULL. -999.2500:
UWI. F11116:
~C
DEPT.M :
SP.MV :
DEN.GM/CC :
GR.API :
RML.OHMM :
RI. :
RXO.OHMM :
CALI.CM :
~A
# ...
  151.2500    -4.8920     2.3090    74.9960     7.6410     7.6260    10.1890    25.0890 
  151.3750    -4.7870     2.3230    82.1040     6.0080     6.1120     6.7370    25.0420 
  151.5000    -4.6590     2.3330    85.2860     4.9650     5.1010     4.8180    25.0380 
  151.6250    -4.5310     2.3310    84.5930     4.6150     4.6980     4.3230    25.1190 
  151.7500    -4.4500     2.3170    81.9580     4.8690     4.7990     4.6360    25.2480 
  151.8750    -4.4480     2.2980    77.6460     5.7190     5.3710     5.5460    25.3570 
  152.0000    -4.5220     2.2790    73.2770     7.0540     6.3380     7.1660    25.4000 
  152.1250    -4.6410     2.2660    72.3960     8.5160     7.5150     9.4140    25.3970 
  152.2500    -4.7890     2.2610    72.6480     9.5690     8.5260    11.1940    25.3900 
  152.3750    -4.9410     2.2640    71.1310     9.9220     9.0840    11.6830    25.3740 
  152.5000    -5.0640     2.2720    68.6580     9.6390     9.1010    10.8930    25.3470 
  152.6250    -5.1450     2.2830    69.9210     9.0360     8.7160     9.7130    25.3190 
  152.7500    -5.1940     2.2940    73.6700     8.4990     8.2920     9.2870    25.3010 
  152.8750    -5.2190     2.3010    76.5490     8.1800     8.0080     8.8670    25.2950 
  153.0000    -5.2530     2.3020    75.7230     8.1090     7.9210     8.4700    25.2930 
  153.1250    -5.3030     2.2960    71.5960     8.2530     8.0010     9.0230    25.2880 
  153.2500    -5.3470     2.2880    68.7540     8.4570     8.1010     9.6550    25.2650 
  153.3750    -5.4080     2.2820    68.6800     8.5960     8.1200     9.8350    25.2270 
  153.5000    -5.5080     2.2800    69.5120     8.6080     8.0030     9.8210    25.1930 
  153.6250    -5.6000     2.2830    71.3170     8.5240     7.7700     9.3760    25.1800 
  153.7500    -5.6800     2.2880    75.1090     8.4890     7.5500     8.5750    25.1790 
  153.8750    -5.7710     2.2910    77.9580     8.5950     7.4520     8.0240    25.1780 
  154.0000    -5.8800     2.2910    75.6060     8.8820     7.5540     8.3460    25.1780 
  154.1250    -6.0340     2.2910    71.1950     9.3710     7.9280     9.3080    25.1770 
  154.2500    -6.2340     2.2960    69.7990    10.0070     8.5230    10.0090    25.1770 
  154.3750    -6.4410     2.3060    70.7580    10.7970     9.3130    10.4780    25.1780 
  154.5000    -6.6480     2.3170    71.7010    11.8060    10.2750    11.2110    25.1800 
  154.6250    -6.8420     2.3200    71.8390    13.1210    11.4110    12.8430    25.1780 
  154.7500    -7.0060     2.3120    70.8660    14.5770    12.5900    14.1620    25.1730 
  154.8750    -7.1070     2.2960    68.8760    15.8240    13.6040    16.2440    25.1690 
  155.0000    -7.1510     2.2800    66.2290    16.4060    14.1860    19.2200    25.1690 
  155.1250    -7.1160     2.2710    65.4340    15.9670    14.0830    20.1390    25.1730 
  155.2500    -7.0540     2.2690    66.8510    15.0140    13.5430    17.9780    25.1750 
  155.3750    -6.9680     2.2700    69.0660    14.1100    12.8860    14.7140    25.1760 
  155.5000    -6.8460     2.2700    70.1110    13.6260    12.3670    12.7080    25.1740 
  155.6250    -6.7220     2.2690    69.6560    13.5850    12.0950    12.4270    25.1720 
  155.7500    -6.6240     2.2690    70.6220    13.5870    11.9250    13.1620    25.1710 
  155.8750    -6.5400     2.2710    72.5200    13.3180    11.6980    13.8790    25.1700 
  156.0000    -6.4900     2.2770    74.3560    12.6600    11.2990    13.8910    25.1700 
  156.1250    -6.4930     2.2890    76.2660    11.8240    10.7450    12.1690    25.1730 
  156.2500    -6.5500     2.3010    77.8230    11.2440    10.2650    10.0150    25.1770 
  156.3750    -6.6620     2.3080    79.2870    11.2220    10.0890     9.4760    25.1750 
  156.5000    -6.8310     2.3030    78.8710    11.9450    10.4220     9.8430    25.1700 
  156.6250    -7.0480     2.2850    75.2550    13.6330    11.5320    10.9330    25.1680 
  156.7500    -7.3080     2.2620    70.8250    16.0390    13.3170    14.4880    25.1710 
  156.8750    -7.6250     2.2460    67.7440    18.7470    15.5510    21.0250    25.1720 
  157.0000    -7.9920     2.2420    67.0160    21.1220    17.7670    25.8780    25.1710 
  157.1250    -8.4080     2.2550    66.8250    22.5170    19.3160    27.3350    25.1680 
  157.2500    -8.8490     2.2730    66.3920    23.2990    20.2130    25.0590    25.1670 
  157.3750    -9.2790     2.2870    67.2830    24.3470    20.9580    22.2260    25.1660 
  157.5000    -9.6800     2.2890    69.1620    26.7300    22.2720    22.0190    25.1650 
  157.6250   -10.0250     2.2780    68.7290    31.4660    25.1960    26.0890    25.1640 
  157.7500   -10.3010     2.2590    66.0840    36.9290    30.2450    37.6790    25.1660 
  157.8750   -10.4930     2.2420    65.1450    44.8790    37.8450    41.2000    25.1620 
  158.0000   -10.5890     2.2300    67.9750    55.6540    47.8880    60.3370    25.1480 
  158.1250   -10.5920     2.2230    70.0240    68.8750    59.4160    72.2630    25.1250 
  158.2500   -10.5530     2.2130    69.1480    82.2570    70.3500    73.1660    25.1090 
  158.3750   -10.5060     2.1970    67.9580    93.7300    79.3120    85.6790    25.1050 
  158.5000   -10.4850     2.1800    68.1130   101.8540    85.6380   102.3450    25.1100 
  158.6250   -10.5150     2.1700    67.6330   105.1960    88.6520   126.9780    25.1130 
  158.7500   -10.5920     2.1720    66.0790   104.1390    88.7140   128.2140    25.1120 
  158.8750   -10.7010     2.1850    64.9200    99.4130    86.1380   114.0710    25.1090 
  159.0000   -10.8260     2.2030    64.8290    93.0920    82.0590   102.9440    25.1070 
  159.1250   -10.9440     2.2170    64.9930    88.0790    78.3690    81.9770    25.1060 
  159.2500   -11.0350     2.2240    65.0300    86.0900    76.5900    67.8020    25.1040 
  159.3750   -11.0940     2.2230    65.0300    88.0060    77.5410    68.8280    25.0990 
  159.5000   -11.1210     2.2160    65.0300    94.1710    81.4860    81.4510    25.0880 
  159.6250   -11.1590     2.2040    65.0300   105.0670    88.4530    94.1430    25.0730 
  159.7500   -11.2270     2.1900    65.0300   118.9290    96.8590   119.5000    25.0580 
  159.8750   -11.3160     2.1760    65.0300   133.3820   105.1090   169.3750    25.0550 
  160.0000   -11.3890     2.1660    65.0300   144.9340   111.5260   195.4870    25.0970 
  160.1250   -11.4260     2.1660    65.0300   149.3320   114.4480   193.9430    25.2020 
  160.2500   -11.4700     2.1730    65.0300   146.7900   114.1960   171.7960    25.3030 
  160.3750   -11.5260     2.1780    65.0300   138.1400   110.9900   144.0660    25.3500 
  160.5000   -11.5720     2.1720    65.0300   124.7860   105.0810   114.6590    25.3570 
  160.6250   -11.5990     2.1590    65.0300   108.7130    96.7390   100.6370    25.3730 
  160.7500   -11.5910     2.1530    65.0300    93.0510    87.4440   105.3850    25.3950 
  160.8750   -11.5640     2.1630    65.0300    79.7700    78.4650   105.8820    25.4110 
  161.0000   -11.5180     2.1910    65.0300    69.9790    70.9390    79.7960    25.4250 
  161.1250   -11.4570     2.2170    65.0300    64.1360    65.7680    58.4880    25.4730 
  161.2500   -11.3620     2.2320    65.0300    60.3650    62.0900    55.5300    25.5700 
  161.3750   -11.2690     2.2290    65.0300    57.0430    58.7150    62.0500    25.6890 
  161.5000   -11.1900     2.2100    65.0300    52.8390    54.4520    68.0540    25.7800 
  161.6250   -11.1490     2.1930    65.0300    47.3420    48.7450    61.3220    25.8030 
  161.7500   -11.1130     2.1900    65.0300    41.8070    42.7610    51.1700    25.7870 
  161.8750   -11.0640     2.2080    65.0300    37.4090    37.7960    43.9160    25.7620 
  162.0000   -10.9820     2.2310    65.0300    34.9000    34.8010    40.8610    25.7420 
  162.1250   -10.8510     2.2450    65.0300    34.6730    34.3640    40.0640    25.7480 
  162.2500   -10.7190     2.2420    65.0300    44.3630    38.8810    48.2060    25.8530 
  162.3750   -10.5820     2.2250    65.0300    54.3520    45.3370    57.3420    25.9240 
