~V
VERS. 2.00: Ver 2.00
~W
STRT.M 50.0000:
STOP.M 201.0000:
STEP.M 0.1250:
NULL. -999.2500:
UWI. F11102:
~C
DEPT.M :
GR.API :
RML.OHMM :
RI. :
RXO.OHMM :
CALI.CM :
SP.MV :
DEN.GM/CC :
~A
# ...
   95.0000    53.8720     7.4540     6.5560     7.8310    22.9630   -16.8800     2.1390 
   95.1250    57.6810     7.4410     6.5860     7.8620    22.9040   -16.5640     2.1410 
   95.2500    60.6490     7.4310     6.6280     8.0020    22.9150   -16.1790     2.1450 
   95.3750    61.5040     7.4230     6.6720     8.1570    22.9910   -15.7150     2.1500 
   95.5000    61.0290     7.4110     6.7060     8.2300    23.1730   -15.1480     2.1560 
   95.6250    61.6710     7.3840     6.7120     8.1460    23.3160   -14.5180     2.1630 
   95.7500    63.1960     7.3380     6.6870     7.9240    23.4800   -13.8090     2.1700 
   95.8750    64.2430     7.2630     6.6270     7.8000    23.6880   -13.0590     2.1780 
   96.0000    65.8030     7.1390     6.5210     7.7150    23.9830   -12.3060     2.1860 
   96.1250    68.0020     6.9330     6.3430     7.6290    24.3110   -11.5780     2.1940 
   96.2500    67.8290     6.6470     6.0920     7.5470    24.8040   -10.9180     2.2010 
   96.3750    64.6300     6.2910     5.7720     7.2910    25.3670   -10.3490     2.2070 
   96.5000    62.6600     5.9060     5.4130     6.6640    26.2170    -9.9270     2.2120 
   96.6250    65.3020     5.5880     5.0900     5.9200    26.8340    -9.6960     2.2130 
   96.7500    67.9260     5.4320     4.8860     5.6720    26.9300    -9.6720     2.2100 
   96.8750    68.0590     5.5110     4.8720     5.7370    26.7670    -9.8540     2.2010 
   97.0000    67.7170     5.8660     5.0910     6.0220    26.3070   -10.2400     2.1870 
   97.1250    66.1420     6.5160     5.5850     7.1490    25.5560   -10.8400     2.1710 
   97.2500    62.3490     7.3050     6.2470     9.8910    24.7850   -11.5810     2.1550 
   97.3750    60.6610     8.0580     6.9480    14.9450    24.3260   -12.3990     2.1420 
   97.5000    62.7700     8.5960     7.5280    16.3010    23.8020   -13.2200     2.1340 
   97.6250    63.2740     8.7740     7.8180    12.2700    23.3720   -13.9720     2.1300 
   97.7500    59.8570     8.7120     7.8630    10.0100    23.3010   -14.6340     2.1300 
   97.8750    58.0920     8.5490     7.7600     9.5300    23.3130   -15.1730     2.1320 
   98.0000    59.9180     8.4050     7.6150     9.5400    23.3600   -15.5480     2.1360 
   98.1250    61.5600     8.3350     7.4980     9.5100    23.1010   -15.7390     2.1420 
   98.2500    61.6300     8.2910     7.4030     9.4160    22.9900   -15.7930     2.1500 
   98.3750    61.1740     8.2260     7.3030     9.2640    23.2180   -15.7370     2.1580 
   98.5000    61.7160     8.1210     7.1850     9.1350    23.7150   -15.6170     2.1640 
   98.6250    62.9030     8.0060     7.0670     8.9340    24.1770   -15.4980     2.1680 
   98.7500    63.3270     7.9320     6.9870     8.5390    24.5220   -15.3920     2.1700 
   98.8750    63.2030     7.9400     6.9780     8.4730    24.6040   -15.3170     2.1700 
   99.0000    64.0370     8.0420     7.0590     8.7490    24.4170   -15.2770     2.1680 
   99.1250    65.6300     8.2300     7.2380     9.0120    24.1920   -15.2470     2.1660 
   99.2500    63.8740     8.4520     7.4690     9.2110    24.1190   -15.2100     2.1650 
   99.3750    59.6810     8.6720     7.7120     9.2840    23.8920   -15.1880     2.1660 
   99.5000    57.3890     8.8530     7.9250     9.2030    23.6920   -15.1690     2.1710 
   99.6250    58.5580     8.9280     8.0360     9.2890    23.5660   -15.0910     2.1770 
   99.7500    59.6120     8.8550     8.0110     9.6870    23.4270   -14.9500     2.1820 
   99.8750    59.6980     8.5970     7.8210     9.9550    23.3030   -14.7440     2.1860 
  100.0000    60.9130     8.1560     7.4670     9.6800    23.2170   -14.4930     2.1870 
  100.1250    63.2240     7.5980     6.9890     8.9470    23.2450   -14.2200     2.1870 
  100.2500    64.9310     7.0770     6.5100     8.0850    23.4340   -13.9540     2.1860 
  100.3750    65.9700     6.7240     6.1370     7.2620    23.5840   -13.7010     2.1860 
  100.5000    66.5850     6.6550     5.9670     6.4980    23.7990   -13.4390     2.1870 
  100.6250    66.8770     7.0610     6.1580     6.9920    23.7870   -13.1860     2.1920 
  100.7500    65.3730     7.9820     6.7610     8.6630    23.6910   -12.9150     2.2020 
  100.8750    62.8670     9.4520     7.8440    11.4740    24.1340   -12.6210     2.2200 
  101.0000    61.6630    11.3550     9.4010    17.1480    25.0340   -12.2870     2.2460 
  101.1250    62.7120    13.2600    11.2300    29.8510    26.0530   -11.9210     2.2800 
  101.2500    63.9010    14.4810    12.7380    40.3810    26.6040   -11.5400     2.3120 
  101.3750    64.2020    14.5380    13.3660    41.5590    26.5630   -11.1180     2.3300 
  101.5000    63.7070    13.4690    12.9170    33.4650    26.2310   -10.6650     2.3250 
  101.6250    63.6590    11.8650    11.7040    19.8200    25.3010   -10.1650     2.2980 
  101.7500    63.0080    10.5150    10.4730    13.5900    24.4230    -9.6260     2.2680 
  101.8750    61.4760     9.6930     9.5690    11.3360    23.5670    -9.0400     2.2480 
  102.0000    60.5880     9.3420     9.0640    10.7130    23.0500    -8.3970     2.2400 
  102.1250    63.0290     9.1970     8.8330    10.2830    23.2630    -7.6340     2.2460 
  102.2500    65.0260     8.8890     8.5650    10.1370    23.8940    -6.7340     2.2570 
  102.3750    65.4950     8.2450     8.0650    10.8990    24.6300    -5.7470     2.2680 
  102.5000    67.7100     7.3120     7.3050    10.9720    25.6140    -4.7300     2.2750 
  102.6250    74.5740     6.3320     6.4380     8.1190    26.1660    -3.7360     2.2760 
  102.7500    79.2690     5.5440     5.6750     6.0140    26.4950    -2.8210     2.2740 
  102.8750    80.8980     5.0180     5.1070     5.2520    26.6100    -2.0150     2.2740 
  103.0000    85.9820     4.7410     4.7540     5.1120    26.6910    -1.3320     2.2790 
  103.1250    95.2250     4.6730     4.6150     4.9500    26.8060    -0.8410     2.2900 
  103.2500    99.0880     4.6920     4.5930     4.8950    27.0490    -0.5400     2.3020 
  103.3750    94.6030     4.7310     4.6200     4.8740    27.2990    -0.3890     2.3120 
  103.5000    89.4600     4.7580     4.6500     4.7480    27.3480    -0.3580     2.3180 
  103.6250    89.1790     4.7680     4.6650     4.6790    27.4680    -0.4620     2.3200 
  103.7500    90.0600     4.7720     4.6670     4.7790    27.5900    -0.6610     2.3180 
  103.8750    90.4460     4.7790     4.6630     5.0260    27.6290    -0.9510     2.3110 
  104.0000    90.7290     4.8140     4.6720     5.2350    27.6170    -1.3660     2.2990 
  104.1250    89.6500     4.9520     4.7520     5.4390    27.2680    -1.9250     2.2850 
  104.2500    86.9300     5.2660     4.9570     5.5760    27.0490    -2.6190     2.2680 
  104.3750    85.3120     5.8370     5.3550     5.8490    26.9390    -3.4350     2.2500 
  104.5000    85.6290     6.7030     5.9960     6.6130    26.8820    -4.3650     2.2340 
  104.6250    83.8610     7.8270     6.9000     7.5810    26.6970    -5.3760     2.2230 
  104.7500    77.0870     8.9420     7.8800     8.8010    26.3300    -6.4290     2.2160 
  104.8750    68.7820     9.7480     8.6890    10.5620    25.8630    -7.4910     2.2100 
  105.0000    65.6500     9.9840     9.0610    12.4620    26.0380    -8.5780     2.1980 
  105.1250    70.0400     9.5320     8.8080    11.8190    26.5080    -9.6930     2.1760 
  105.2500    75.2660     8.7720     8.2020     9.6340    26.3720   -10.7980     2.1490 
  105.3750    78.1030     8.0230     7.5140     8.2730    25.6530   -11.8850     2.1250 
  105.5000    78.4180     7.4890     6.9500     8.1810    24.7150   -12.9260     2.1070 
  105.6250    76.2970     7.2890     6.6490     8.1690    24.0450   -13.8970     2.1010 
  105.7500    73.6910     7.3380     6.5770     8.0700    23.7670   -14.8250     2.1030 
  105.8750    71.8370     7.5560     6.6840     7.9360    23.5530   -15.6930     2.1090 
  106.0000    69.5430     7.8510     6.9010     8.0640    23.3650   -16.4680     2.1190 
  106.1250    66.7130     8.1280     7.1480     8.3560    23.2340   -17.0810     2.1300 
