~V
VERS. 2.00: Ver 2.00
~W
STRT.M 53.0000:
STOP.M 212.0000:
STEP.M 0.1250:
NULL. -999.2500:
UWI. F11124:
~C
DEPT.M :
SP.MV :
DEN.GM/CC :
GR.API :
RML.OHMM :
RI. :
RXO.OHMM :
CALI.CM :
~A
# ...
   98.0000   -25.0260     2.1810    62.5630     8.1860     5.8420     8.8050    24.8980 
   98.1250   -24.8040     2.1760    59.0460     8.2370     5.8720     8.9250    24.7610 
   98.2500   -24.5760     2.1720    58.4490     8.2690     5.9080     8.9260    24.7710 
   98.3750   -24.3200     2.1680    59.6870     8.2780     5.9400     8.8610    24.8260 
   98.5000   -24.0030     2.1650    61.0650     8.2740     5.9700     8.8390    24.7310 
   98.6250   -23.6010     2.1630    61.6710     8.2820     6.0100     8.9010    24.5540 
   98.7500   -23.1170     2.1590    61.8410     8.3100     6.0700     8.9680    24.5550 
   98.8750   -22.5500     2.1520    62.1750     8.3350     6.1350     9.0150    24.6460 
   99.0000   -21.8940     2.1440    63.9780     8.3030     6.1700     9.0160    24.6980 
   99.1250   -21.1230     2.1470    67.1810     8.1300     6.1100     8.8470    24.7050 
   99.2500   -20.2570     2.1650    67.4940     7.8130     5.9410     8.4140    24.7480 
   99.3750   -19.3490     2.1950    67.1610     7.3900     5.6800     7.7160    24.8780 
   99.5000   -18.4660     2.2290    71.6540     6.9370     5.3740     6.8760    25.1130 
   99.6250   -17.6630     2.2550    81.2830     6.5550     5.0840     6.2040    25.3470 
   99.7500   -16.9330     2.2690    87.0010     6.2800     4.8550     5.8320    25.5270 
   99.8750   -16.2980     2.2700    85.3610     6.1080     4.7000     5.6980    25.6280 
  100.0000   -15.7950     2.2610    79.9800     6.0070     4.6130     5.6420    25.7360 
  100.1250   -15.4370     2.2440    76.1880     5.9460     4.5790     5.5940    25.8730 
  100.2500   -15.2230     2.2260    77.1450     5.8940     4.5670     5.4820    26.0760 
  100.3750   -15.1320     2.2130    79.6290     5.8450     4.5630     5.3080    26.3950 
  100.5000   -15.0650     2.2040    78.8070     5.8000     4.5610     5.1090    26.8860 
  100.6250   -14.9500     2.1950    75.8710     5.7520     4.5530     5.0110    27.3910 
  100.7500   -14.8220     2.1820    75.0520     5.6950     4.5360     4.9710    27.7570 
  100.8750   -14.6400     2.1700    75.6200     5.6330     4.5110     4.9430    27.9440 
  101.0000   -14.3720     2.1600    77.0890     5.5920     4.4930     4.8630    27.9810 
  101.1250   -14.0600     2.1570    79.8740     5.6220     4.5170     4.7310    27.8190 
  101.2500   -13.6930     2.1640    81.7900     5.7320     4.5970     4.6330    27.4040 
  101.3750   -13.2610     2.1820    80.6430     5.8870     4.7200     4.6550    26.8010 
  101.5000   -12.7940     2.2060    80.3140     6.0050     4.8340     4.8240    26.3110 
  101.6250   -12.3140     2.2290    83.9840     5.9530     4.8390     5.0340    26.1870 
  101.7500   -11.8430     2.2500    86.8270     5.7100     4.6970     5.0050    26.2110 
  101.8750   -11.4180     2.2740    85.5390     5.3470     4.4360     4.6350    26.2390 
  102.0000   -11.0690     2.2980    84.6230     4.9960     4.1410     4.1470    26.2160 
  102.1250   -10.8650     2.3170    91.7010     4.8270     3.9320     3.9700    26.1850 
  102.2500   -10.7860     2.3270   100.2440     4.8730     3.8660     4.1130    26.1720 
  102.3750   -10.7850     2.3280   101.7650     5.1130     3.9500     4.4430    26.1770 
  102.5000   -10.9000     2.3240    96.0860     5.4700     4.1550     4.8020    26.1780 
  102.6250   -11.1510     2.3210    90.0530     5.8250     4.4170     5.0040    26.1830 
  102.7500   -11.4720     2.3190    86.1600     6.0720     4.6510     5.0560    26.2650 
  102.8750   -11.8480     2.3180    84.2240     6.1710     4.8030     5.0700    26.3950 
  103.0000   -12.3000     2.3140    86.0990     6.1460     4.8600     5.0940    26.4450 
  103.1250   -12.7860     2.3100    90.4090     6.0710     4.8470     5.0990    26.4140 
  103.2500   -13.3210     2.3100    94.9390     6.0610     4.8430     5.0800    26.3940 
  103.3750   -13.9470     2.3160    98.5460     6.2040     4.9220     5.1370    26.3790 
  103.5000   -14.6530     2.3240    99.0050     6.5650     5.1410     5.3960    26.3200 
  103.6250   -15.4410     2.3240    92.7800     7.1790     5.5490     6.0120    26.2740 
  103.7500   -16.2770     2.3160    82.5250     7.9060     6.0700     6.8480    26.2360 
  103.8750   -17.1280     2.2960    74.4740     8.5550     6.5860     7.6440    26.1280 
  104.0000   -17.9630     2.2630    70.6450     8.9090     6.9390     8.0340    25.9130 
  104.1250   -18.7760     2.2200    68.1620     8.7690     6.9520     7.7810    25.8170 
  104.2500   -19.5600     2.1870    65.7240     8.3110     6.6960     7.3980    25.9990 
  104.3750   -20.3130     2.1700    64.6970     7.7810     6.3150     7.1590    26.2860 
  104.5000   -21.0230     2.1700    64.6070     7.4660     6.0030     7.0310    26.3730 
  104.6250   -21.6770     2.1920    62.5730     7.7620     6.0360     6.8060    26.0510 
  104.7500   -22.2670     2.2310    59.2050     8.8260     6.5690     7.5390    25.5240 
  104.8750   -22.8060     2.2860    57.7160    10.7640     7.7400    10.3140    25.1710 
  105.0000   -23.3150     2.3550    58.3290    13.4750     9.6030    16.2850    25.2450 
  105.1250   -23.7940     2.4290    58.3340    16.3770    11.9810    24.6610    25.7170 
  105.2500   -24.2130     2.4730    56.4580    18.1940    13.9640    32.6430    26.1070 
  105.3750   -24.5630     2.4500    57.5870    17.8400    14.5240    35.4820    26.1350 
  105.5000   -24.8490     2.3620    61.8770    15.3740    13.3150    27.8260    25.7900 
  105.6250   -25.0510     2.2680    63.5550    12.2190    11.1030    16.1270    25.4470 
  105.7500   -25.1950     2.2140    64.0540     9.7850     9.1000    10.5140    25.4470 
  105.8750   -25.3250     2.1960    66.4410     8.3420     7.6900     8.8870    25.7010 
  106.0000   -25.4250     2.1950    69.7400     7.7120     6.8900     8.5210    26.0570 
  106.1250   -25.4110     2.1860    68.1990     7.6350     6.6160     8.5270    26.5540 
  106.2500   -25.3070     2.1600    64.5050     7.7370     6.5940     8.6490    27.2850 
  106.3750   -25.1130     2.1190    62.8020     7.8310     6.6610     8.7380    28.3430 
  106.5000   -24.8050     2.0750    61.5320     7.8050     6.6910     8.6060    29.5770 
  106.6250   -24.3780     2.0470    59.9100     7.6050     6.5970     8.1310    30.5270 
  106.7500   -23.9150     2.0430    58.7480     7.3070     6.4080     7.4810    30.7870 
  106.8750   -23.4340     2.0640    59.3250     7.0010     6.1840     6.8100    30.3890 
  107.0000   -22.9400     2.1010    61.9870     6.7830     6.0030     6.3030    29.4450 
  107.1250   -22.4840     2.1350    65.0600     6.7390     5.9460     6.2990    28.1730 
  107.2500   -22.0710     2.1480    68.1920     6.8350     6.0010     6.7550    27.2690 
  107.3750   -21.6770     2.1440    70.0720     7.0120     6.1310     7.3840    26.8500 
  107.5000   -21.3190     2.1370    69.2490     7.1990     6.2810     7.6800    26.7430 
  107.6250   -21.0200     2.1260    67.5540     7.3390     6.4010     7.3760    26.8010 
  107.7500   -20.7520     2.1170    66.8620     7.4270     6.4760     6.9970    26.8880 
  107.8750   -20.4890     2.1180    67.7730     7.4770     6.5130     6.8760    26.8280 
  108.0000   -20.1980     2.1330    69.5630     7.5030     6.5220     7.0380    26.6230 
  108.1250   -19.8870     2.1550    71.3140     7.4970     6.5050     7.2150    26.5110 
  108.2500   -19.5980     2.1710    71.3500     7.4460     6.4550     7.2770    26.6570 
  108.3750   -19.3550     2.1820    69.7170     7.3510     6.3700     7.2340    26.8550 
  108.5000   -19.1750     2.1910    67.7500     7.2370     6.2590     7.2150    26.9740 
  108.6250   -19.1040     2.1990    67.0690     7.1580     6.1520     7.2780    26.9940 
  108.7500   -19.1030     2.2070    66.5360     7.1710     6.0950     7.3980    26.9760 
  108.8750   -19.1710     2.2140    65.4710     7.3270     6.1380     7.5020    26.9550 
  109.0000   -19.3360     2.2180    64.2150     7.6630     6.3230     7.6060    26.9210 
  109.1250   -19.6410     2.2200    64.7530     8.2170     6.6980     7.8330    26.8380 
