~V
VERS. 2.00: Ver 2.00
~W
STRT.M 55.0000:
STOP.M 211.0000:
STEP.M 0.1250:
NULL. -999.2500:
UWI. F11125:
~C
DEPT.M :
DEN.GM/CC :
GR.API :
RML.OHMM :
RI. :
RXO.OHMM :
CALI.CM :
SP.MV :
~A
# ...
   66.2500     2.1490    77.8030     6.6120     7.1040     8.8600    24.1990   -20.2610 
   66.3750     2.1450    71.9670     6.7360     7.2220     9.8080    24.2370   -20.9810 
   66.5000     2.1480    70.4410     6.7090     7.1750     8.9280    24.2860   -21.6310 
   66.6250     2.1480    70.5760     6.5730     6.9750     7.0680    24.2890   -22.2030 
   66.7500     2.1410    69.6890     6.4130     6.7130     6.0670    24.2570   -22.6810 
   66.8750     2.1320    69.5630     6.2690     6.4530     5.8440    24.2100   -23.0800 
   67.0000     2.1220    69.9850     6.1780     6.2480     5.9710    24.1400   -23.3950 
   67.1250     2.1170    69.6100     6.2140     6.1790     6.1290    24.0290   -23.7080 
   67.2500     2.1180    68.9830     6.4540     6.3020     6.3620    23.8680   -24.0290 
   67.3750     2.1310    68.3560     7.0110     6.7020     6.8030    23.7170   -24.3560 
   67.5000     2.1670    66.7840     7.9720     7.4550     7.7540    23.5930   -24.6700 
   67.6250     2.2360    64.2970     9.3790     8.6270     9.4270    23.4750   -24.9600 
   67.7500     2.3210    62.1930    10.9780    10.0340    11.4150    23.4900   -25.2200 
   67.8750     2.3980    58.4920    12.4640    11.4530    13.1430    23.7560   -25.4470 
   68.0000     2.4430    53.3270    13.4880    12.5910    13.7350    24.2000   -25.6410 
   68.1250     2.4310    51.2530    13.6900    13.0650    12.4450    24.7430   -25.7610 
   68.2500     2.3820    52.7000    13.2310    12.8790     9.8110    25.2610   -25.8480 
   68.3750     2.3360    55.0700    12.3070    12.1450    10.1320    25.5560   -25.9400 
   68.5000     2.3090    56.6590    11.1070    11.0400    12.8020    25.5040   -26.0500 
   68.6250     2.2750    58.4410     9.8340     9.7590    13.5300    25.2440   -26.2100 
   68.7500     2.2160    59.8560     8.7220     8.5530     9.5040    25.0920   -26.3610 
   68.8750     2.1550    58.5250     7.8970     7.5680     7.2720    25.0820   -26.5030 
   69.0000     2.1190    54.8780     7.3950     6.8700     6.6910    25.1060   -26.6300 
   69.1250     2.1060    54.6440     7.2130     6.5170     6.6600    25.0630   -26.7420 
   69.2500     2.0970    57.9590     7.2010     6.4040     6.7660    24.9770   -26.8220 
   69.3750     2.0900    60.2460     7.2500     6.4350     6.9060    24.8750   -26.8190 
   69.5000     2.0880    58.8870     7.2820     6.5120     6.9850    24.7490   -26.7580 
   69.6250     2.0920    58.4220     7.2640     6.5670     7.0110    24.6090   -26.5730 
   69.7500     2.0990    60.4520     7.2050     6.5860     7.0470    24.4690   -26.3270 
   69.8750     2.1120    62.7020     7.1070     6.5650     7.0940    24.3820   -26.0090 
   70.0000     2.1270    62.8230     6.9810     6.5090     7.1190    24.4120   -25.6350 
   70.1250     2.1390    62.4710     6.8640     6.4330     6.8850    24.6070   -25.1590 
   70.2500     2.1460    63.4070     6.7870     6.3530     6.5070    24.8090   -24.6120 
   70.3750     2.1500    64.6220     6.7570     6.2740     6.2950    24.8640   -24.0110 
   70.5000     2.1530    66.0240     6.7570     6.1930     6.7250    24.7290   -23.3030 
   70.6250     2.1580    69.0290     6.7410     6.0970     6.9770    24.6790   -22.4620 
   70.7500     2.1690    72.5210     6.6860     5.9820     6.8550    24.7840   -21.5300 
   70.8750     2.1860    75.1610     6.5970     5.8540     6.3950    24.9310   -20.5570 
   71.0000     2.2070    76.5520     6.5010     5.7250     6.0110    25.0550   -19.5740 
   71.1250     2.2260    78.2920     6.4300     5.6080     5.9370    25.1130   -18.6840 
   71.2500     2.2390    79.9550     6.3990     5.5100     5.9340    25.1330   -17.8830 
   71.3750     2.2460    85.3590     6.4070     5.4430     5.8950    25.1310   -17.2010 
   71.5000     2.2460    95.0970     6.4480     5.4130     5.7350    25.1150   -16.6690 
   71.6250     2.2390    99.7320     6.5180     5.4310     5.5520    25.0620   -16.3940 
   71.7500     2.2280    95.5450     6.6010     5.4780     5.3680    24.9660   -16.3060 
   71.8750     2.2180    89.0200     6.6790     5.5360     5.2870    24.8280   -16.3730 
   72.0000     2.2140    87.4970     6.7280     5.5780     5.3560    24.6630   -16.5340 
   72.1250     2.2160    89.9690     6.7170     5.5710     5.3520    24.6170   -16.7920 
   72.2500     2.2190    88.2730     6.6490     5.5170     5.2780    24.6900   -17.1230 
   72.3750     2.2180    81.0600     6.5470     5.4300     5.2340    24.8010   -17.5190 
   72.5000     2.2130    73.2340     6.4520     5.3350     5.2540    24.9020   -17.9810 
   72.6250     2.2100    73.0290     6.4170     5.2690     5.1730    24.9690   -18.4840 
   72.7500     2.2120    78.1540     6.4650     5.2540     5.1260    25.0000   -19.0700 
   72.8750     2.2150    81.1070     6.6130     5.3080     5.3440    25.0020   -19.7200 
   73.0000     2.2160    79.6660     6.8700     5.4490     5.9000    24.9440   -20.4470 
   73.1250     2.2110    77.8080     7.2510     5.7040     6.4710    24.8020   -21.1900 
   73.2500     2.2030    77.3610     7.7120     6.0490     6.8380    24.6730   -21.9330 
   73.3750     2.1940    74.6280     8.1970     6.4430     7.1370    24.6870   -22.6670 
   73.5000     2.1830    67.9620     8.6170     6.8140     7.5900    24.8340   -23.4010 
   73.6250     2.1700    63.7700     8.8310     7.0390     8.1180    24.9290   -24.1040 
   73.7500     2.1640    66.4140     8.8030     7.0720     8.0970    24.9410   -24.7650 
   73.8750     2.1680    70.6640     8.5690     6.9240     7.8080    24.9320   -25.3940 
   74.0000     2.1780    70.4520     8.2380     6.6700     7.5620    24.9300   -25.9890 
   74.1250     2.1880    66.2580     7.9500     6.4130     7.5660    24.9270   -26.5840 
   74.2500     2.1950    64.0130     7.7680     6.2230     7.8030    24.9050   -27.1910 
   74.3750     2.1990    63.9860     7.6840     6.1130     8.1760    24.9310   -27.8120 
   74.5000     2.1970    63.2910     7.6410     6.0610     8.3280    25.1880   -28.3870 
   74.6250     2.1860    62.6420     7.5590     6.0230     8.0020    25.7430   -28.9440 
   74.7500     2.1710    62.4270     7.4170     5.9640     7.6470    26.1050   -29.4460 
   74.8750     2.1610    60.0660     7.2370     5.8860     7.6070    26.0270   -29.8750 
   75.0000     2.1540    56.9560     7.0600     5.8090     7.7280    25.7940   -30.2310 
   75.1250     2.1410    57.5600     6.9450     5.7650     7.7000    25.8990   -30.4960 
   75.2500     2.1140    59.2650     6.9080     5.7620     7.6140    26.2160   -30.6640 
   75.3750     2.0810    58.3990     6.9340     5.7880     7.5960    26.4320   -30.7590 
   75.5000     2.0580    56.0440     6.9780     5.8200     7.7140    26.4080   -30.7980 
   75.6250     2.0650    56.1490     6.9770     5.8280     7.7610    26.1320   -30.7630 
   75.7500     2.0890    56.5640     6.9040     5.8020     7.7840    25.8310   -30.6580 
   75.8750     2.1100    55.1720     6.7710     5.7490     7.5530    25.5770   -30.4750 
   76.0000     2.1170    55.3330     6.6210     5.6810     7.2960    25.3230   -30.2250 
   76.1250     2.1220    58.9460     6.5130     5.6200     7.3550    25.0330   -29.9040 
   76.2500     2.1310    60.8840     6.4720     5.5840     7.4800    24.7970   -29.5350 
   76.3750     2.1440    60.1010     6.4940     5.5810     7.5140    24.6900   -29.0740 
   76.5000     2.1550    58.8880     6.5600     5.6070     7.4600    24.6750   -28.5520 
   76.6250     2.1650    59.2080     6.6460     5.6500     7.4400    24.6290   -27.9250 
   76.7500     2.1730    59.2900     6.7170     5.6830     7.4060    24.6540   -27.2430 
   76.8750     2.1800    58.8630     6.7460     5.6870     7.0940    24.8350   -26.5060 
   77.0000     2.1870    59.1610     6.7090     5.6410     6.4550    25.1690   -25.7510 
   77.1250     2.1970    63.0080     6.5820     5.5290     5.8680    25.4350   -25.0010 
   77.2500     2.1970    68.5190     6.3950     5.3760     6.0330    25.4560   -24.2770 
   77.3750     2.1820    70.1340     6.1930     5.2130     6.4590    25.2670   -23.5700 
