~V
VERS. 2.00: Ver 2.00
~W
STRT.M 40.0000:
STOP.M 232.0000:
STEP.M 0.1250:
NULL. -999.2500:
UWI. F11121:
~C
DEPT.M :
SP.MV :
DEN.GM/CC :
GR.API :
RML.OHMM :
RI. :
RXO.OHMM :
CALI.CM :
~A
# ...
  175.0000    -6.6160     2.3520    88.2490    12.7780    11.0760    10.7730    24.5620 
  175.1250    -6.5480     2.3530    87.9080    13.4130    11.4430    11.0180    24.5270 
  175.2500    -6.4770     2.3530    84.1180    14.2100    11.9190    11.4770    24.5040 
  175.3750    -6.4330     2.3540    81.4860    15.1270    12.4790    11.7540    24.4960 
  175.5000    -6.4410     2.3570    81.8130    16.1100    13.0900    12.2210    24.4870 
  175.6250    -6.4840     2.3600    82.6000    17.1580    13.7590    12.8020    24.4650 
  175.7500    -6.5510     2.3610    80.8830    18.3700    14.5390    12.9090    24.4380 
  175.8750    -6.6510     2.3600    76.6280    19.9560    15.5470    12.3770    24.4120 
  176.0000    -6.7780     2.3560    73.0240    22.2040    16.9450    11.9280    24.3890 
  176.1250    -6.9280     2.3450    74.0060    25.6800    19.0750    13.2490    24.3710 
  176.2500    -7.0990     2.3280    75.4910    30.6510    22.1090    15.7340    24.3610 
  176.3750    -7.2930     2.3070    72.7140    37.5730    26.3490    18.7520    24.3580 
  176.5000    -7.4870     2.2890    68.7010    47.0670    32.1820    22.2380    24.3530 
  176.6250    -7.6700     2.2770    69.4390    60.7280    40.5610    24.9980    24.3460 
  176.7500    -7.8360     2.2660    70.6810    79.1500    51.7530    28.2810    24.3300 
  176.8750    -7.9640     2.2530    69.8850   103.1140    66.0350    35.7550    24.3050 
  177.0000    -8.0560     2.2340    68.4720   132.1940    82.8690    46.0960    24.3090 
  177.1250    -8.1130     2.2140    65.4670   162.3550    99.8250    57.2200    24.3920 
  177.2500    -8.1330     2.1980    61.1300   185.0580   112.9960    66.2180    24.4960 
  177.3750    -8.1210     2.1910    58.9760   193.8160   119.6870    76.8430    24.5340 
  177.5000    -8.1060     2.1890    61.2060   188.6060   119.6350    85.6770    24.4050 
  177.6250    -8.1190     2.1890    64.1470   174.7190   114.4730    85.8760    24.0870 
  177.7500    -8.1560     2.1880    63.9370   159.5180   107.7450    82.0840    23.7610 
  177.8750    -8.2200     2.1860    62.4820   144.9610   100.7650    82.7980    23.5770 
  178.0000    -8.2850     2.1870    63.7530   130.8590    93.6600    82.4310    23.5440 
  178.1250    -8.3430     2.1920    66.3370   117.1010    86.2660    76.4240    23.5540 
  178.2500    -8.4200     2.2010    66.5390   104.8160    79.2270    68.5750    23.5570 
  178.3750    -8.5050     2.2100    64.0350    95.6960    73.6340    62.8950    23.5700 
  178.5000    -8.5790     2.2150    61.6090    91.3480    70.6830    57.3020    23.6150 
  178.6250    -8.6300     2.2130    58.7730    94.3030    72.2600    55.1190    23.6990 
  178.7500    -8.6470     2.2080    57.3440   104.5180    78.5580    65.4630    23.7820 
  178.8750    -8.6320     2.2040    60.2110   122.2870    89.6150    83.3160    23.8450 
  179.0000    -8.6230     2.2040    63.0270   147.0300   104.5850   101.2030    23.8940 
  179.1250    -8.6230     2.2050    60.5870   176.5070   121.4130   124.5140    23.9420 
  179.2500    -8.6150     2.1980    57.4140   204.2360   136.5070   156.7620    24.0190 
  179.3750    -8.5920     2.1810    56.0350   224.9830   147.5200   180.1570    24.1530 
  179.5000    -8.5700     2.1560    54.9450   237.4790   154.1200   193.9890    24.3100 
  179.6250    -8.5780     2.1330    51.5450   244.0520   157.4560   201.4540    24.4280 
  179.7500    -8.6190     2.1220    49.7760   248.1770   159.4140   200.3940    24.5820 
  179.8750    -8.6790     2.1230    51.0160   249.8890   160.2430   195.9850    24.8120 
  180.0000    -8.7420     2.1310    54.1970   248.2610   159.6850   199.4620    25.0250 
  180.1250    -8.8220     2.1410    56.3840   242.4640   157.3660   207.5260    25.0970 
  180.2500    -8.9010     2.1490    56.1410   235.3090   154.3760   204.8210    25.0930 
  180.3750    -8.9720     2.1580    55.5350   230.1230   152.2170   191.3230    25.0860 
  180.5000    -9.0300     2.1670    55.5850   229.3750   152.2040   196.7230    25.0850 
  180.6250    -9.0580     2.1730    55.7080   234.1400   155.0530   213.5500    25.0870 
  180.7500    -9.0610     2.1740    54.5210   241.6190   159.4440   234.9130    25.0880 
  180.8750    -9.0510     2.1720    53.0770   248.4250   163.8020   250.8950    25.1080 
  181.0000    -9.0310     2.1690    54.0580   250.2800   166.1870   232.9220    25.1670 
  181.1250    -8.9840     2.1690    57.9840   242.0410   164.0880   209.9000    25.2440 
  181.2500    -8.9250     2.1720    61.1130   225.6720   157.7640   209.9710    25.2880 
  181.3750    -8.8710     2.1780    61.1930   205.7290   148.7220   222.3890    25.2950 
  181.5000    -8.8310     2.1860    59.8140   187.8530   139.5260   221.8440    25.2950 
  181.6250    -8.7840     2.1930    59.4590   177.9590   133.5520   187.6950    25.3070 
  181.7500    -8.7220     2.1940    59.4270   177.6900   132.5010   152.1290    25.3240 
  181.8750    -8.6600     2.1860    57.9770   188.3740   137.3890   140.9810    25.3350 
  182.0000    -8.5950     2.1700    54.2100   210.5190   148.2400   195.6730    25.3330 
  182.1250    -8.5190     2.1530    50.8080   244.4940   164.1930   284.5650    25.3300 
  182.2500    -8.4370     2.1400    50.2990   283.7400   181.3520   361.5680    25.3300 
  182.3750    -8.3550     2.1340    51.8680   320.2270   196.2640   390.2130    25.3260 
  182.5000    -8.2670     2.1340    53.1620   345.2540   206.1800   412.1580    25.3050 
  182.6250    -8.1970     2.1360    54.4520   352.0460   209.3270   433.3940    25.2710 
  182.7500    -8.1540     2.1360    54.7110   345.2550   207.5910   437.3100    25.2430 
  182.8750    -8.1300     2.1350    53.4720   327.4880   201.7270   426.1620    25.2260 
  183.0000    -8.1280     2.1360    52.0390   301.2110   192.2030   426.7330    25.2210 
  183.1250    -8.1630     2.1390    53.7490   270.5750   179.8270   399.6870    25.2220 
  183.2500    -8.2170     2.1440    57.4490   241.8610   167.0890   347.5250    25.2250 
  183.3750    -8.2840     2.1510    58.7200   218.6210   155.8830   278.1080    25.2250 
  183.5000    -8.3490     2.1600    56.9260   202.5180   147.5770   218.6210    25.2190 
  183.6250    -8.4100     2.1680    55.3370   194.9090   143.4670   198.0950    25.2180 
  183.7500    -8.4590     2.1730    56.2890   193.6540   142.8600   207.1030    25.2230 
  183.8750    -8.4900     2.1750    59.3790   197.3230   145.1130   223.6520    25.2280 
  184.0000    -8.4970     2.1740    61.3810   204.0100   149.1940   233.7970    25.2310 
  184.1250    -8.4710     2.1700    59.2670   211.0770   153.6590   236.5380    25.2290 
  184.2500    -8.4150     2.1660    54.7680   215.7060   156.9840   246.0840    25.2270 
  184.3750    -8.3220     2.1610    51.1790   215.6640   158.0480   262.3020    25.2250 
  184.5000    -8.2110     2.1590    51.8340   208.6240   155.6710   265.1350    25.2260 
  184.6250    -8.0920     2.1600    54.2980   191.1440   147.6820   240.4510    25.2220 
  184.7500    -7.9830     2.1660    54.8560   166.4840   134.8260   221.2240    25.2080 
  184.8750    -7.8820     2.1780    53.9640   140.1880   119.3000   216.6090    25.1670 
  185.0000    -7.7850     2.1970    55.3520   118.0200   104.4940   220.2700    25.0520 
  185.1250    -7.6830     2.2210    59.9710   104.4300    94.1140   175.3720    24.8110 
  185.2500    -7.6000     2.2380    61.6810    98.4360    88.8080   111.2690    24.5500 
  185.3750    -7.5440     2.2390    59.7310    99.1490    88.4780    86.5690    24.3900 
  185.5000    -7.5180     2.2260    57.9060   105.3940    92.3710   108.2190    24.3640 
  185.6250    -7.5120     2.2060    55.8750   116.3800    99.6650   123.4630    24.3970 
  185.7500    -7.5100     2.1890    52.4720   130.0320   108.5030   107.3300    24.4130 
  185.8750    -7.5250     2.1780    49.8560   145.6220   118.1360    88.1220    24.4170 
  186.0000    -7.5680     2.1730    49.6510   163.0700   128.3760    96.1490    24.4170 
  186.1250    -7.6450     2.1740    49.9320   182.3250   139.0080   127.7580    24.3820 
