~V
VERS. 2.00: Ver 2.00
~W
STRT.M 50.0000:
STOP.M 248.0000:
STEP.M 0.1250:
NULL. -999.2500:
UWI. F11129:
~C
DEPT.M :
SP.MV :
DEN.GM/CC :
GR.API :
RML.OHMM :
RI. :
RXO.OHMM :
CALI.CM :
~A
# ...
   83.7500   -18.6320     2.3010    90.5080     6.8770     5.9620     6.0510    22.5860 
   83.8750   -18.4330     2.3140    96.7280     6.2790     5.4300     5.2810    22.8680 
   84.0000   -18.4660     2.3220    99.0340     5.7890     4.9480     4.8640    23.0580 
   84.1250   -18.7790     2.3290    97.3190     5.4930     4.5980     4.6000    23.1030 
   84.2500   -19.4170     2.3270    94.1610     5.4730     4.4650     4.5470    23.0490 
   84.3750   -20.3770     2.3070    90.5620     5.7630     4.5940     4.8050    22.9620 
   84.5000   -21.5670     2.2750    86.3240     6.3200     4.9700     5.5650    22.8560 
   84.6250   -22.8360     2.2370    81.7450     7.0780     5.5660     7.3390    22.7000 
   84.7500   -24.0060     2.2000    78.0870     7.8740     6.2940    10.0290    22.5490 
   84.8750   -24.9330     2.1730    75.0920     8.4600     6.9750    11.8880    22.5360 
   85.0000   -25.5420     2.1560    70.9410     8.6290     7.3900    11.9060    22.7490 
   85.1250   -25.7850     2.1470    66.7340     8.3410     7.4260    11.4420    23.2240 
   85.2500   -25.6660     2.1480    67.3100     7.7690     7.1340    10.7940    23.7750 
   85.3750   -25.2460     2.1600    73.3210     7.2070     6.7130     9.7010    24.0710 
   85.5000   -24.6140     2.1790    78.0010     6.8730     6.3740     8.4550    24.0610 
   85.6250   -23.8460     2.1940    78.1690     6.8250     6.2080     7.7460    23.9210 
   85.7500   -23.0210     2.1960    76.5480     7.0060     6.2210     8.0360    23.8150 
   85.8750   -22.1960     2.1910    75.4990     7.2560     6.3290     8.7660    23.7810 
   86.0000   -21.4030     2.1920    74.6780     7.3700     6.3840     8.9830    23.7740 
   86.1250   -20.6700     2.2040    75.1230     7.2110     6.2660     8.7730    23.7700 
   86.2500   -20.0180     2.2250    78.5200     6.7610     5.9210     8.2690    23.7780 
   86.3750   -19.4850     2.2510    82.3850     6.2100     5.4450     7.4310    23.8220 
   86.5000   -19.1270     2.2760    83.4470     5.8750     5.0550     6.4130    23.8910 
   86.6250   -18.9860     2.2950    83.5930     5.9990     4.9410     5.6780    23.9330 
   86.7500   -19.1130     2.3090    86.1090     6.7590     5.2790     5.6810    23.9270 
   86.8750   -19.5850     2.3220    90.2140     8.1740     6.1650     6.8660    23.8920 
   87.0000   -20.4140     2.3390    90.3470     9.9630     7.5140    10.2200    23.8470 
   87.1250   -21.5490     2.3540    83.4970    11.6110     9.0580    16.3450    23.7530 
   87.2500   -22.8770     2.3490    73.1080    12.2950    10.1710    21.6850    23.5170 
   87.3750   -24.2620     2.3080    66.4650    11.5980    10.2670    20.8240    23.1240 
   87.5000   -25.5730     2.2480    67.7230    10.1280     9.4830    15.7360    22.7370 
   87.6250   -26.7570     2.1980    72.3340     8.6730     8.3590    11.8260    22.4790 
   87.7500   -27.7620     2.1720    73.2370     7.7360     7.4170    10.2650    22.3590 
   87.8750   -28.5180     2.1630    70.6700     7.3860     6.8810    10.1320    22.3070 
   88.0000   -28.9950     2.1610    69.7530     7.4010     6.6860    10.5070    22.2670 
   88.1250   -29.2370     2.1620    71.0150     7.5880     6.7070    10.8680    22.2420 
   88.2500   -29.3390     2.1630    71.9310     7.7760     6.8030    10.9530    22.2420 
   88.3750   -29.3600     2.1620    72.9370     7.8700     6.8720    10.6960    22.2590 
   88.5000   -29.3140     2.1610    75.6190     7.8690     6.8820    10.3480    22.2800 
   88.6250   -29.2280     2.1610    77.9110     7.8090     6.8430    10.0970    22.3000 
   88.7500   -29.1620     2.1620    77.7100     7.7340     6.7820    10.0000    22.3340 
   88.8750   -29.1520     2.1620    76.7650     7.6720     6.7190    10.0770    22.3790 
   89.0000   -29.2040     2.1650    76.9470     7.6330     6.6660    10.2460    22.4130 
   89.1250   -29.3140     2.1690    76.3460     7.6210     6.6270    10.3850    22.4420 
   89.2500   -29.4650     2.1730    74.1210     7.6640     6.6180    10.4590    22.5000 
   89.3750   -29.6390     2.1740    73.1370     7.7880     6.6560    10.5070    22.5950 
   89.5000   -29.8270     2.1720    74.2050     7.9950     6.7490    10.5640    22.6910 
   89.6250   -30.0160     2.1700    73.9310     8.2490     6.8860    10.5970    22.7610 
   89.7500   -30.1570     2.1670    71.5640     8.4630     7.0340    10.6420    22.7990 
   89.8750   -30.2140     2.1630    71.0080     8.5530     7.1380    10.7330    22.8210 
   90.0000   -30.1850     2.1590    73.6140     8.4910     7.1550    10.8020    22.8260 
   90.1250   -30.0660     2.1580    75.3720     8.3040     7.0700    10.7050    22.8110 
   90.2500   -29.8280     2.1610    75.2620     8.0450     6.8950    10.3640    22.7930 
   90.3750   -29.5050     2.1640    76.0280     7.7660     6.6660     9.9680    22.7840 
   90.5000   -29.1890     2.1670    77.4450     7.5020     6.4350     9.6360    22.7820 
   90.6250   -28.8950     2.1690    78.0780     7.2750     6.2320     9.1850    22.7860 
   90.7500   -28.6450     2.1730    78.4500     7.1130     6.0740     8.6460    22.7890 
   90.8750   -28.5130     2.1790    78.9690     7.0350     5.9660     8.2290    22.7620 
   91.0000   -28.5340     2.1790    77.3130     7.0340     5.9070     8.0500    22.6510 
   91.1250   -28.6750     2.1710    73.1510     7.1030     5.8990     8.0530    22.4490 
   91.2500   -28.9260     2.1610    71.0020     7.2380     5.9500     8.0870    22.2340 
   91.3750   -29.2750     2.1570    72.9190     7.4370     6.0660     8.2860    22.0910 
   91.5000   -29.6620     2.1590    74.6380     7.6890     6.2410     8.5720    22.0230 
   91.6250   -30.0990     2.1600    73.1900     7.9840     6.4680     8.8830    21.9830 
   91.7500   -30.6030     2.1580    71.7040     8.2850     6.7260     9.1380    21.9170 
   91.8750   -31.1240     2.1600    73.4720     8.5380     6.9750     9.3080    21.7750 
   92.0000   -31.6080     2.1720    74.2060     8.6960     7.1600     9.5490    21.5840 
   92.1250   -32.0750     2.1880    69.9640     8.7260     7.2430     9.9410    21.4590 
   92.2500   -32.5150     2.1900    64.4760     8.6250     7.2010    10.3220    21.5630 
   92.3750   -32.8890     2.1710    62.9940     8.4310     7.0600    10.5290    21.9390 
   92.5000   -33.1980     2.1460    63.7700     8.2160     6.8810    10.6920    22.4010 
   92.6250   -33.4120     2.1290    63.1710     8.0260     6.7120    10.7500    22.8120 
   92.7500   -33.4750     2.1210    61.2740     7.8950     6.5830    10.8440    23.0950 
   92.8750   -33.4350     2.1210    60.3630     7.8350     6.5090    10.9310    23.2160 
   93.0000   -33.3510     2.1240    61.5160     7.8370     6.4780    10.8820    23.2480 
   93.1250   -33.1940     2.1290    63.9420     7.8810     6.4800    10.7360    23.2830 
   93.2500   -32.9650     2.1330    65.2690     7.9440     6.5010    10.6370    23.3580 
   93.3750   -32.7120     2.1350    65.0580     7.9960     6.5200    10.6250    23.4560 
   93.5000   -32.4710     2.1360    64.4990     8.0070     6.5200    10.6500    23.5550 
   93.6250   -32.2550     2.1370    64.0110     7.9590     6.4880    10.6980    23.6380 
   93.7500   -32.0770     2.1390    64.1190     7.8580     6.4230    10.7850    23.6660 
   93.8750   -31.9150     2.1430    65.4220     7.7380     6.3400    10.8770    23.6130 
   94.0000   -31.7600     2.1510    67.6130     7.6490     6.2700    10.9000    23.5150 
   94.1250   -31.6390     2.1600    69.2160     7.6290     6.2410    10.8340    23.4460 
   94.2500   -31.5470     2.1670    68.6830     7.6870     6.2750    10.8430    23.4560 
   94.3750   -31.4450     2.1650    66.4060     7.7870     6.3680    11.0070    23.5610 
   94.5000   -31.2770     2.1510    64.8980     7.8640     6.4810    11.1800    23.8250 
   94.6250   -31.0070     2.1260    65.4470     7.8780     6.5770    11.1970    24.3820 
   94.7500   -30.6090     2.0970    65.6500     7.8080     6.6250    10.9880    25.1550 
   94.8750   -30.0360     2.0800    62.8610     7.6680     6.6130    10.5930    25.6260 
