~V
VERS. 2.00: Ver 2.00
~W
STRT.M 50.0000:
STOP.M 242.0000:
STEP.M 0.1250:
NULL. -999.2500:
UWI. F11136:
~C
DEPT.M :
GR.API :
RML.OHMM :
RI. :
RXO.OHMM :
CALI.CM :
SP.MV :
DEN.GM/CC :
~A
# ...
  207.5000    71.9870    15.8930    14.4480    17.5810    23.8060   -24.9680     2.2660 
  207.6250    75.2150    16.5470    15.0420    18.4880    23.8420   -25.1200     2.2750 
  207.7500    76.8220    17.1260    15.5690    19.4370    23.8350   -25.2560     2.2840 
  207.8750    77.5690    17.5840    15.9850    20.0420    23.7770   -25.3690     2.2900 
  208.0000    79.2560    17.8930    16.2660    19.9640    23.6870   -25.4820     2.2940 
  208.1250    80.2360    18.0270    16.3880    19.7740    23.8090   -25.6250     2.2930 
  208.2500    77.8120    18.0200    16.3820    19.9910    23.9780   -25.7450     2.2910 
  208.3750    75.6620    17.8860    16.2600    20.1260    24.0030   -25.8430     2.2880 
  208.5000    76.1960    17.6490    16.0450    19.9120    23.9970   -25.9290     2.2840 
  208.6250    74.8380    17.3450    15.7680    19.3600    23.9960   -25.9950     2.2800 
  208.7500    71.8130    17.0680    15.5170    19.0800    23.9970   -26.0300     2.2760 
  208.8750    72.0750    16.9440    15.4040    18.8460    23.9840   -26.0290     2.2710 
  209.0000    76.2740    17.1390    15.5810    18.5460    23.9480   -26.0280     2.2680 
  209.1250    79.1270    17.9010    16.2730    18.8400    23.9420   -26.0130     2.2660 
  209.2500    78.2490    19.2240    17.4760    20.5550    23.9400   -26.0230     2.2670 
  209.3750    74.4120    21.0420    19.1290    23.4440    23.9390   -26.0180     2.2690 
  209.5000    69.3490    23.1170    21.0150    26.4540    23.9330   -25.9990     2.2690 
  209.6250    65.7530    24.9200    22.6550    28.0890    23.9390   -25.9620     2.2650 
  209.7500    64.4550    25.9500    23.5910    27.9170    23.9400   -25.9260     2.2580 
  209.8750    64.7170    25.9940    23.6310    27.2080    23.9400   -25.8990     2.2510 
  210.0000    65.8170    25.2330    22.9390    26.4880    23.9400   -25.8470     2.2470 
  210.1250    67.9200    24.1670    21.9700    25.2870    23.9350   -25.7620     2.2460 
  210.2500    69.5580    23.3700    21.2460    24.2490    23.9050   -25.6620     2.2480 
  210.3750    68.9500    23.0720    20.9740    23.5470    23.8650   -25.5800     2.2520 
  210.5000    67.6490    23.2690    21.1540    23.3350    23.8550   -25.5130     2.2550 
  210.6250    69.4340    23.7700    21.6090    24.1780    23.8610   -25.4670     2.2560 
  210.7500    71.5250    24.1780    21.9800    25.8460    23.8570   -25.4190     2.2540 
  210.8750    70.6040    24.2730    22.0660    26.2650    23.8180   -25.3840     2.2520 
  211.0000    67.2330    24.0950    21.9040    25.2010    23.7530   -25.3680     2.2510 
  211.1250    64.2750    24.0670    21.8790    23.0620    23.5840   -25.3860     2.2540 
  211.2500    63.2260    24.6570    22.4150    21.8640    23.3830   -25.3740     2.2590 
  211.3750    64.6420    26.1370    23.7610    23.1130    23.2090   -25.3580     2.2630 
  211.5000    67.3050    28.5450    25.9500    26.7950    23.1000   -25.3260     2.2620 
  211.6250    68.3590    31.7540    28.8670    32.7780    23.2040   -25.2430     2.2560 
  211.7500    67.2180    35.1000    31.9090    37.6720    23.4170   -25.1500     2.2490 
  211.8750    65.1710    37.5880    34.1710    37.9140    23.6410   -25.0390     2.2510 
  212.0000    63.2480    37.6740    34.2490    34.0070    23.8470   -24.9000     2.2680 
  212.1250    61.7300    33.5420    30.4920    32.1670    23.8680   -24.7050     2.2980 
  212.2500    59.7420    26.8030    24.3660    31.6850    23.7670   -24.5160     2.3280 
  212.3750    57.2910    19.7460    17.9510    25.5700    23.7120   -24.2910     2.3430 
  212.5000    54.1450    14.7850    12.8010    14.8660    23.9250   -24.0590     2.3360 
  212.6250    49.4610    11.1350     9.6410     7.9320    24.0930   -23.9050     2.3120 
  212.7500    45.0360     9.1130     7.8900     6.2250    24.1140   -23.8190     2.2890 
  212.8750    42.8420     8.2690     7.1590     6.6280    23.9750   -23.7820     2.2800 
  213.0000    44.0400     8.2200     7.1170     7.6800    23.8460   -23.8100     2.2850 
  213.1250    45.6510     8.6410     7.4810     8.1180    23.7060   -23.8820     2.2970 
  213.2500    46.0710     9.0770     7.8590     7.8170    23.6940   -23.9730     2.3040 
  213.3750    44.6970     9.2870     8.0410     7.4360    23.8000   -24.1090     2.3020 
  213.5000    41.5330     9.2100     7.9740     6.8170    24.1740   -24.2810     2.2960 
  213.6250    40.8860     8.9310     7.7320     6.6640    24.4360   -24.4280     2.2930 
  213.7500    43.5140     8.6370     7.4780     6.6750    24.5190   -24.5380     2.2950 
  213.8750    46.6750     8.4200     7.2900     6.6210    24.3720   -24.6530     2.2990 
  214.0000    46.6710     8.3190     7.2030     6.8300    24.2040   -24.7770     2.3030 
  214.1250    43.3890     8.3400     7.2210     7.5070    24.0890   -24.9280     2.3030 
  214.2500    43.0520     8.4200     7.2900     8.4890    24.0080   -25.1320     2.2970 
  214.3750    47.0220     8.5240     7.3800     8.5800    23.9390   -25.3670     2.2840 
  214.5000    51.6930     8.6530     7.4920     8.2640    23.8110   -25.6210     2.2680 
  214.6250    52.7530     8.8550     7.6670     8.6900    23.6770   -25.8940     2.2580 
  214.7500    52.6710     9.1130     7.8900     9.6460    23.5280   -26.1610     2.2590 
  214.8750    53.0770     9.3450     8.0910     9.8470    23.3540   -26.3460     2.2730 
  215.0000    50.8240     9.4380     8.1710     9.9610    23.2660   -26.4460     2.2940 
  215.1250    46.0370     9.3000     8.0520     9.4950    23.2960   -26.4670     2.3110 
  215.2500    44.0870     9.0200     7.8090     8.9030    23.2530   -26.3980     2.3160 
  215.3750    46.8390     8.7210     7.5510     8.3010    23.4390   -26.2770     2.3080 
  215.5000    50.4020     8.5350     7.3890     8.0620    24.0830   -26.1230     2.2910 
  215.6250    49.1240     8.5820     7.4300     8.3580    24.5480   -25.9880     2.2740 
  215.7500    46.0110     8.8540     7.6660     8.5330    24.6570   -25.8770     2.2680 
  215.8750    44.9520     9.3300     8.0780     9.5660    24.1310   -25.8440     2.2790 
  216.0000    45.8890     9.9410     8.6070    11.3070    23.6240   -25.8810     2.3040 
  216.1250    44.1170    10.5210     9.1090    12.1300    23.7410   -25.9740     2.3370 
  216.2500    39.8700    10.8970     9.4350    12.9790    23.8600   -26.1160     2.3650 
  216.3750    37.5560    11.0070     9.5300    13.5710    23.8140   -26.2860     2.3820 
  216.5000    39.1200    10.9310     9.4640    13.4720    23.7890   -26.4620     2.3870 
  216.6250    40.9790    10.9280     9.4610    11.8960    23.7740   -26.5990     2.3840 
  216.7500    39.8550    11.2520     9.7420    11.8480    23.7720   -26.7220     2.3840 
  216.8750    37.3540    12.0230    10.4100    13.4980    23.8220   -26.8030     2.3920 
  217.0000    36.9790    13.1740    11.4060    17.1340    23.8710   -26.8290     2.4110 
  217.1250    38.7080    14.2880    12.3710    20.9010    23.8250   -26.8310     2.4390 
  217.2500    38.8430    14.7200    12.7450    23.3940    23.8560   -26.8140     2.4640 
  217.3750    38.4210    14.1030    12.2100    19.8580    23.8270   -26.7430     2.4710 
  217.5000    40.1310    12.6340    10.9390    14.3230    23.9420   -26.6290     2.4560 
  217.6250    44.3060    10.9480     9.4790    10.6400    24.1410   -26.5220     2.4210 
  217.7500    46.7070     9.5840     8.2980     9.6650    24.1800   -26.3760     2.3820 
  217.8750    45.9390     8.6970     7.5300     9.5900    24.0660   -26.2480     2.3510 
  218.0000    44.1130     8.2810     7.1700     9.7470    24.1010   -26.1600     2.3330 
  218.1250    43.9060     8.2910     7.1790     9.7300    23.6470   -26.1100     2.3290 
  218.2500    45.9820     8.5230     7.3800    10.0180    23.2840   -26.0720     2.3340 
  218.3750    48.4350     8.8600     7.6710    10.0010    22.6730   -26.0670     2.3440 
  218.5000    49.8220     9.2110     7.9750     9.8530    22.7150   -26.0760     2.3550 
  218.6250    49.9240     9.5610     8.2780    10.1900    23.1390   -26.0500     2.3640 
