~V
VERS. 2.00: Ver 2.00
~W
STRT.M 51.0000:
STOP.M 249.0000:
STEP.M 0.1250:
NULL. -999.2500:
UWI. F11143:
~C
DEPT.M :
GR.API :
RML.OHMM :
RI. :
RXO.OHMM :
CALI.CM :
SP.MV :
DEN.GM/CC :
~A
# ...
  118.5000    72.0380    13.9890    11.0600    17.3560    24.1310   -10.5360     2.4880 
  118.6250    62.5770    15.1930    12.0210    22.4100    24.0900   -10.4380     2.5040 
  118.7500    56.3540    15.5810    12.5730    25.6910    24.0650   -10.3770     2.5260 
  118.8750    53.3220    15.1090    12.5630    25.0090    24.0720   -10.3760     2.5330 
  119.0000    53.4930    14.4010    12.2550    18.7680    24.1540   -10.4260     2.5170 
  119.1250    56.1960    14.7000    12.3330    13.4350    24.2920   -10.5170     2.4930 
  119.2500    57.3570    16.7350    13.3820    15.1960    24.3820   -10.6210     2.4840 
  119.3750    53.3310    22.1220    15.9280    26.2940    24.4160   -10.7330     2.5000 
  119.5000    47.0130    29.6600    20.5530    40.5970    24.4020   -10.8520     2.5270 
  119.6250    43.5620    40.0030    28.2140    46.8730    24.3050   -10.9620     2.5450 
  119.7500    43.1210    51.8370    38.0340    49.2370    24.1590   -11.0560     2.5630 
  119.8750    43.1100    62.5790    47.9760    57.6040    23.9970   -11.1460     2.5920 
  120.0000    41.7540    69.2800    55.2650    71.1600    23.9380   -11.2670     2.6240 
  120.1250    41.0840    69.8980    57.6480    86.2220    23.9430   -11.3960     2.6350 
  120.2500    41.7540    66.6480    56.4220    83.1260    23.9580   -11.5070     2.6290 
  120.3750    41.4550    61.6410    53.0830    64.2280    23.9650   -11.6100     2.6170 
  120.5000    39.6240    56.9180    49.3170    46.8890    23.9530   -11.6690     2.6050 
  120.6250    37.7260    54.0990    46.6180    42.5680    23.9550   -11.6840     2.6000 
  120.7500    38.0620    53.0660    45.2520    43.9460    23.9770   -11.6780     2.6030 
  120.8750    40.3920    53.1840    44.9500    53.8450    24.0020   -11.6490     2.6090 
  121.0000    43.0350    53.4360    45.0730    71.9880    23.9990   -11.5770     2.6130 
  121.1250    44.2950    52.5950    44.7110    72.2100    23.9780   -11.5140     2.6140 
  121.2500    42.6410    50.4990    43.4950    52.6660    23.9540   -11.4790     2.6150 
  121.3750    39.7070    47.6250    41.5940    43.4090    23.9690   -11.4020     2.6180 
  121.5000    38.4030    44.6550    39.4370    41.0020    23.9710   -11.3200     2.6210 
  121.6250    40.6830    42.1020    37.4430    40.1870    23.9690   -11.2830     2.6210 
  121.7500    43.7870    39.9410    35.7240    39.5360    24.0150   -11.2580     2.6150 
  121.8750    46.4370    38.0070    34.2150    40.0330    24.0190   -11.2150     2.6020 
  122.0000    48.1500    36.1920    32.8250    37.7580    23.9890   -11.1790     2.5900 
  122.1250    49.1050    34.6100    31.6000    34.2530    23.9690   -11.1330     2.5870 
  122.2500    50.5080    33.4230    30.6390    31.1750    23.9870   -11.0750     2.5870 
  122.3750    51.7380    32.7110    30.0160    30.0200    24.0040   -11.0440     2.5850 
  122.5000    49.8390    32.3630    29.6800    31.0650    24.0110   -11.0440     2.5810 
  122.6250    44.7400    32.0180    29.3880    31.1080    24.0110   -11.0600     2.5840 
  122.7500    42.0920    31.2500    28.7810    31.4130    24.0070   -11.1110     2.5880 
  122.8750    43.6190    29.8680    27.6540    31.0840    23.9850   -11.1930     2.5840 
  123.0000    47.0650    28.0030    26.0580    30.0180    23.9120   -11.2810     2.5670 
  123.1250    47.8320    26.1100    24.3320    25.4710    23.8220   -11.3470     2.5370 
  123.2500    46.3110    24.6440    22.8950    21.9120    23.7590   -11.3720     2.5030 
  123.3750    44.1020    23.7950    21.9600    20.1920    23.7040   -11.3800     2.4740 
  123.5000    43.5910    23.5570    21.5830    20.4870    23.6270   -11.3540     2.4620 
  123.6250    45.0760    23.8350    21.7460    21.6100    23.6110   -11.2710     2.4740 
  123.7500    45.9210    24.3220    22.1870    23.3940    23.8040   -11.1700     2.5010 
  123.8750    46.3070    24.8360    22.7230    24.8290    24.1220   -11.0510     2.5330 
  124.0000    47.2260    25.2900    23.2280    24.7900    24.3290   -10.9140     2.5610 
  124.1250    47.7430    25.7090    23.6810    24.2870    24.3710   -10.7790     2.5760 
  124.2500    47.3360    26.1620    24.1370    24.6620    24.2990   -10.6780     2.5820 
  124.3750    48.0360    26.6200    24.5940    25.5510    24.1790   -10.5910     2.5890 
  124.5000    52.0510    26.9150    24.9280    26.7980    24.1030   -10.5040     2.6000 
  124.6250    54.9830    26.6720    24.8200    27.9630    24.0860   -10.4290     2.6080 
  124.7500    54.9680    25.7600    24.1200    28.9070    24.0940   -10.3330     2.6020 
  124.8750    53.7980    24.2430    22.8500    26.9080    24.1130   -10.2230     2.5840 
  125.0000    53.2870    22.4160    21.2500    23.1550    24.1280   -10.1370     2.5620 
  125.1250    52.2650    20.7520    19.7220    20.5150    24.1950   -10.1140     2.5470 
  125.2500    50.3370    19.5880    18.5820    19.4160    24.1770   -10.1550     2.5410 
  125.3750    51.2090    19.0430    17.9610    18.7790    24.0890   -10.2510     2.5410 
  125.5000    54.6960    19.0530    17.8470    18.6110    24.0240   -10.4050     2.5370 
  125.6250    56.3130    19.4560    18.1660    19.0030    24.0060   -10.5990     2.5250 
  125.7500    52.9530    19.9320    18.6520    20.6030    23.9960   -10.7860     2.5190 
  125.8750    47.5270    20.2750    19.1100    23.2490    23.9940   -10.9650     2.5270 
  126.0000    45.2320    20.3590    19.3790    24.5510    24.0280   -11.1060     2.5450 
  126.1250    47.8970    20.1380    19.3450    22.5280    24.0990   -11.2330     2.5580 
  126.2500    52.7740    19.7420    19.0880    21.0530    24.1700   -11.3500     2.5630 
  126.3750    55.8950    19.2590    18.6900    20.2450    24.2090   -11.4540     2.5650 
  126.5000    55.0980    18.7750    18.2480    19.0360    24.2120   -11.5510     2.5670 
  126.6250    51.4910    18.3800    17.8780    18.6380    24.1840   -11.6150     2.5700 
  126.7500    48.5750    18.1110    17.6350    19.3630    24.1110   -11.6700     2.5680 
  126.8750    46.5250    18.0100    17.5490    20.5730    24.0610   -11.7160     2.5590 
  127.0000    44.2640    18.1290    17.6550    21.2780    24.0420   -11.7460     2.5430 
  127.1250    42.8920    18.4620    17.9740    20.7760    23.9460   -11.7170     2.5310 
  127.2500    43.8470    18.7700    18.3310    20.1490    23.8960   -11.6360     2.5290 
  127.3750    45.7610    18.7680    18.4720    19.3910    23.9010   -11.5270     2.5280 
  127.5000    46.0350    18.2080    18.1340    19.3180    23.9260   -11.3730     2.5230 
  127.6250    45.0480    16.9740    17.1440    18.7320    23.8400   -11.2080     2.5050 
  127.7500    45.7610    15.4900    15.8540    17.1990    23.6600   -11.0770     2.4780 
  127.8750    48.7790    14.2060    14.6500    14.4100    23.4330   -10.9960     2.4510 
  128.0000    51.4840    13.4900    13.8510    12.5000    23.2980   -10.9940     2.4380 
  128.1250    52.1090    13.5860    13.7060    13.0370    23.3350   -11.0500     2.4500 
  128.2500    52.4910    14.2340    14.0810    14.4330    23.5490   -11.1340     2.4770 
  128.3750    51.9800    15.1520    14.8020    16.0170    23.8220   -11.2310     2.5050 
  128.5000    49.5060    16.0110    15.6020    16.7020    24.0650   -11.3720     2.5240 
  128.6250    47.0030    16.4660    16.1150    16.3390    24.0930   -11.5490     2.5280 
  128.7500    48.6960    16.4910    16.2010    15.5590    24.0890   -11.7100     2.5260 
  128.8750    54.6690    16.2090    15.9150    15.3120    24.0830   -11.8720     2.5210 
  129.0000    59.8430    15.8630    15.4660    15.8620    24.0810   -12.0490     2.5130 
  129.1250    62.1960    15.8300    15.1900    16.1370    24.0530   -12.2530     2.5060 
  129.2500    64.5160    16.3680    15.3480    16.0490    23.9610   -12.4690     2.5080 
  129.3750    68.8110    17.6500    16.1150    15.9300    23.8090   -12.7040     2.5210 
  129.5000    72.5530    19.7330    17.5830    17.4620    23.7300   -12.9390     2.5370 
  129.6250    71.3350    21.1380    19.8340    22.9670    23.7300   -13.1560     2.5450 
