~V
VERS. 2.00: Ver 2.00
~W
STRT.M 62.0000:
STOP.M 217.0000:
STEP.M 0.1250:
NULL. -999.2500:
UWI. F11126:
~C
DEPT.M :
DEN.GM/CC :
SP.MV :
GR.API :
RML.OHMM :
RI. :
RXO.OHMM :
CALI.CM :
~A
# ...
   95.7500     2.1630   -25.7360    66.8090     7.5360     5.9210     9.4710    30.4290 
   95.8750     2.1790   -26.0350    67.0290     7.5100     5.8300     9.3960    29.1670 
   96.0000     2.1810   -26.2140    69.8550     7.5390     5.7950     9.2430    28.2540 
   96.1250     2.1800   -26.2650    72.2860     7.5720     5.7820     9.1570    27.9600 
   96.2500     2.1780   -26.2470    71.8250     7.5880     5.7750     9.1590    27.9420 
   96.3750     2.1800   -26.1830    70.2410     7.5750     5.7650     9.1630    28.0440 
   96.5000     2.1890   -25.9920    70.1720     7.5300     5.7390     9.1610    28.3040 
   96.6250     2.2040   -25.6920    70.8810     7.4700     5.6960     9.0310    28.6660 
   96.7500     2.2190   -25.3230    70.9110     7.4080     5.6440     8.8690    29.0830 
   96.8750     2.2320   -24.9570    70.0600     7.3530     5.5930     8.7270    29.5740 
   97.0000     2.2370   -24.6400    68.0250     7.3160     5.5650     8.5540    30.0770 
   97.1250     2.2240   -24.4600    66.5100     7.3000     5.5670     8.5380    30.4230 
   97.2500     2.1920   -24.3770    67.1590     7.3070     5.5990     8.8730    30.6650 
   97.3750     2.1530   -24.3730    68.6350     7.3290     5.6480     9.4150    31.0790 
   97.5000     2.1240   -24.4600    67.9400     7.3460     5.6900     9.7910    31.6600 
   97.6250     2.1090   -24.6510    66.1150     7.3350     5.7030     9.9230    32.0280 
   97.7500     2.1090   -24.9110    65.5760     7.2800     5.6770     9.9650    32.1110 
   97.8750     2.1190   -25.1490    66.9850     7.1830     5.6220    10.0170    32.2490 
   98.0000     2.1330   -25.3230    67.8900     7.0670     5.5610    10.0120    32.6960 
   98.1250     2.1440   -25.4090    67.0250     6.9740     5.5220    10.0120    33.2070 
   98.2500     2.1500   -25.4310    64.6920     6.9360     5.5180    10.0160    33.4450 
   98.3750     2.1500   -25.4250    62.9580     6.9610     5.5510     9.9900    33.3760 
   98.5000     2.1390   -25.4280    64.0720     7.0300     5.6080     9.9160    33.0630 
   98.6250     2.1220   -25.4620    67.4680     7.0880     5.6630     9.7870    32.4420 
   98.7500     2.1070   -25.5280    70.6190     7.0960     5.6970     9.6600    31.3780 
   98.8750     2.1010   -25.6460    70.0070     7.0360     5.6920     9.5940    30.6330 
   99.0000     2.0980   -25.8030    65.3010     6.9140     5.6400     9.6240    30.6080 
   99.1250     2.0920   -25.9820    62.1740     6.7790     5.5680     9.6140    30.9100 
   99.2500     2.0870   -26.1980    62.5370     6.6690     5.5010     9.5770    31.2010 
   99.3750     2.0870   -26.4220    64.8430     6.6110     5.4630     9.5750    31.4190 
   99.5000     2.0930   -26.6380    66.2480     6.6200     5.4730     9.5980    31.5310 
   99.6250     2.0890   -26.8200    65.7670     6.6670     5.5170     9.6480    31.5340 
   99.7500     2.0690   -26.9420    64.4060     6.7160     5.5740     9.7260    31.4960 
   99.8750     2.0490   -26.9970    62.7080     6.7280     5.6160     9.7100    31.3870 
  100.0000     2.0530   -26.9360    61.1510     6.6600     5.6080     9.7000    31.0380 
  100.1250     2.0790   -26.6990    60.6750     6.5160     5.5400     9.7350    30.6230 
  100.2500     2.1100   -26.2500    61.9540     6.3650     5.4200     9.6300    30.3590 
  100.3750     2.1370   -25.6430    65.5720     6.2350     5.2750     9.3140    30.2870 
  100.5000     2.1630   -24.9540    70.1510     6.2390     5.1580     8.8030    30.2860 
  100.6250     2.1860   -24.2800    73.8350     6.3950     5.1120     8.3230    30.2690 
  100.7500     2.1930   -23.6740    75.2790     6.5570     5.1510     8.1260    30.1910 
  100.8750     2.1790   -23.0930    74.1100     6.6590     5.2610     8.3570    30.0510 
  101.0000     2.1560   -22.4590    71.6460     6.7400     5.3920     8.8020    29.9600 
  101.1250     2.1440   -21.7570    69.0770     6.7340     5.4710     8.8930    30.0940 
  101.2500     2.1520   -20.9600    66.2770     6.6200     5.4540     8.5750    30.5480 
  101.3750     2.1800   -20.0310    64.7290     6.4190     5.3300     7.8490    31.0930 
  101.5000     2.2190   -18.9490    68.0370     6.1830     5.1230     6.9020    31.0080 
  101.6250     2.2490   -17.7360    75.4620     5.9740     4.9030     6.1130    30.4140 
  101.7500     2.2660   -16.4050    83.3820     5.8140     4.7090     5.6160    29.7300 
  101.8750     2.2720   -15.0760    87.4950     5.6960     4.5560     5.3600    29.0900 
  102.0000     2.2740   -13.8850    86.8390     5.6020     4.4410     5.3880    28.7330 
  102.1250     2.2770   -12.9100    86.0050     5.5220     4.3520     5.3150    28.5330 
  102.2500     2.2810   -12.2190    86.9520     5.4840     4.3010     5.1760    28.3810 
  102.3750     2.2830   -11.9030    88.7320     5.5520     4.3280     5.1150    28.2280 
  102.5000     2.2770   -12.0520    90.3320     5.8380     4.5210     5.2640    28.0850 
  102.6250     2.2650   -12.5390    90.8830     6.3570     4.9060     5.8970    27.9870 
  102.7500     2.2540   -13.3050    90.6070     7.0760     5.4870     7.0650    27.9150 
  102.8750     2.2530   -14.2180    89.2780     7.8950     6.2070     8.8820    27.8120 
  103.0000     2.2650   -15.1780    84.8060     8.6280     6.9310    10.7740    27.6820 
  103.1250     2.2730   -16.1530    78.6330     9.1060     7.4880    12.3440    27.6170 
  103.2500     2.2580   -17.0780    74.7140     9.2300     7.7530    13.0070    27.5540 
  103.3750     2.2230   -17.8140    75.7420     9.0030     7.6870    11.5880    27.4360 
  103.5000     2.1900   -18.2050    77.5080     8.5530     7.3420    10.1620    27.3370 
  103.6250     2.1760   -18.2820    76.2480     8.1720     6.9450     9.4960    27.3080 
  103.7500     2.1820   -18.0560    74.3000     8.1000     6.6790     9.2050    27.3480 
  103.8750     2.2110   -17.6380    73.3620     8.5230     6.7120     9.0580    27.4540 
  104.0000     2.2610   -17.1810    73.2810     9.6020     7.2360     9.5230    27.5690 
  104.1250     2.3270   -16.7360    72.9510    11.1030     8.1860    11.5680    27.6280 
  104.2500     2.4070   -16.3820    71.9750    12.6960     9.4090    15.3560    27.6920 
  104.3750     2.4820   -16.1750    70.2390    13.9280    10.6100    19.9580    27.8220 
  104.5000     2.4930   -16.2630    67.5400    14.1820    11.2830    23.2490    27.9340 
  104.6250     2.4260   -16.6760    65.4700    13.4340    11.1910    21.8060    28.0010 
  104.7500     2.3270   -17.3670    65.1130    11.9800    10.3790    16.0670    27.9950 
  104.8750     2.2480   -18.2330    66.4010    10.3790     9.2070    11.4710    27.9220 
  105.0000     2.2130   -19.1620    68.3500     9.2020     8.1560    10.2350    27.8400 
  105.1250     2.1980   -20.0920    69.3690     8.5160     7.4310    10.0820    27.8570 
  105.2500     2.1870   -20.9670    69.8860     8.1830     7.0110    10.0840    27.9490 
  105.3750     2.1740   -21.7560    70.3360     8.0130     6.7890     9.9220    28.1040 
  105.5000     2.1590   -22.2950    70.5050     7.8430     6.6430     9.6020    28.3880 
  105.6250     2.1510   -22.5680    70.1620     7.6120     6.4770     9.2010    28.7840 
  105.7500     2.1540   -22.7090    70.2600     7.3410     6.2740     8.7620    29.1750 
  105.8750     2.1630   -22.8370    72.0680     7.0850     6.0610     8.3430    29.3950 
  106.0000     2.1730   -23.0100    74.5850     6.9150     5.8890     8.2470    29.4240 
  106.1250     2.1790   -23.2070    74.8940     6.8500     5.7860     8.5370    29.4120 
  106.2500     2.1800   -23.4230    73.7110     6.8840     5.7610     8.8510    29.4490 
  106.3750     2.1740   -23.6930    72.5800     6.9860     5.8010     9.0910    29.5100 
  106.5000     2.1560   -24.0610    71.8310     7.1000     5.8770     9.3150    29.6300 
  106.6250     2.1320   -24.4320    69.8560     7.1770     5.9440     9.5320    29.8530 
  106.7500     2.1060   -24.7120    67.6240     7.1960     5.9800     9.6540    30.1760 
  106.8750     2.0860   -24.8780    66.3650     7.1630     5.9780     9.6290    30.5460 
