~V
VERS. 2.00: Ver 2.00
~W
STRT.M 50.0000:
STOP.M 243.0000:
STEP.M 0.1250:
NULL. -999.2500:
UWI. F11115:
~C
DEPT.M :
DEN.GM/CC :
GR.API :
RML.OHMM :
RI. :
RXO.OHMM :
CALI.CM :
SP.MV :
~A
# ...
   61.2500     2.1310    64.7970     2.6090     6.2060     9.9170    26.1480   -32.2400 
   61.3750     2.1690    63.8820     2.5690     6.5380     9.7230    26.1460   -33.4080 
   61.5000     2.2070    64.6280     2.9860     6.7100     9.7680    26.1480   -34.3170 
   61.6250     2.2230    68.8750     3.7880     6.7070    10.0110    26.1520   -35.0420 
   61.7500     2.2110    71.2580     4.5870     6.5930    10.0110    26.1540   -35.6390 
   61.8750     2.1800    70.3960     5.0650     6.4160     9.5480    26.1520   -36.1240 
   62.0000     2.1490    70.9500     5.2110     6.2270     8.7590    26.1480   -36.5400 
   62.1250     2.1330    75.5020     5.3000     6.0900     8.1480    26.1440   -36.9730 
   62.2500     2.1300    77.5080     5.4940     6.0400     8.0390    26.1450   -37.4620 
   62.3750     2.1340    75.4430     5.7370     6.0820     8.2530    26.1480   -38.0220 
   62.5000     2.1380    71.9300     5.9130     6.1870     8.7090    26.1490   -38.6370 
   62.6250     2.1380    71.0500     5.9470     6.2970     9.4770    26.1680   -39.2880 
   62.7500     2.1300    71.6580     5.9170     6.3650     9.9200    26.2220   -39.9330 
   62.8750     2.1190    72.4560     5.9100     6.3760     9.7450    26.3000   -40.5100 
   63.0000     2.1110    72.9740     5.9680     6.3480     9.3320    26.3760   -40.9740 
   63.1250     2.1140    71.1590     6.0730     6.3060     9.4180    26.4340   -41.2900 
   63.2500     2.1250    67.0420     6.1550     6.2680     9.7190    26.4840   -41.4720 
   63.3750     2.1390    63.6210     6.1730     6.2330     9.9390    26.5480   -41.5320 
   63.5000     2.1440    63.1190     6.1320     6.1930    10.0360    26.6650   -41.4980 
   63.6250     2.1320    64.7850     6.1000     6.1520    10.3920    26.8520   -41.4040 
   63.7500     2.1190    65.2270     6.1720     6.1570    10.3530    27.0300   -41.2880 
   63.8750     2.1310    62.9550     6.4090     6.2660    10.1290    27.1530   -41.1680 
   64.0000     2.1900    59.8820     6.7660     6.5110     9.7700    27.2380   -41.0450 
   64.1250     2.2870    58.4300     7.0560     6.8680     9.6990    27.3060   -40.9210 
   64.2500     2.3580    59.0610     7.0850     7.2060     9.8730    27.3470   -40.8220 
   64.3750     2.3620    59.9050     6.8230     7.3870    10.0040    27.3530   -40.7430 
   64.5000     2.3080    59.1750     6.3990     7.3280    10.4660    27.3640   -40.6560 
   64.6250     2.2410    59.1560     6.0980     7.0440    10.8080    27.4470   -40.5810 
   64.7500     2.1960    59.5090     6.0890     6.7120    10.8680    27.5790   -40.5390 
   64.8750     2.1750    59.7470     6.3590     6.4480    10.6700    27.6910   -40.5330 
   65.0000     2.1700    60.6540     6.7920     6.3050    10.5000    27.7340   -40.5670 
   65.1250     2.1680    62.6820     7.2350     6.2830    10.5120    27.7290   -40.6670 
   65.2500     2.1650    64.0920     7.5430     6.3020    10.5850    27.7300   -40.8140 
   65.3750     2.1600    63.0680     7.6630     6.3130    10.6870    27.7530   -40.9850 
   65.5000     2.1530    61.2450     7.6360     6.3010    10.2850    27.8030   -41.1830 
   65.6250     2.1470    59.2920     7.5750     6.2770     9.6180    27.8530   -41.3840 
   65.7500     2.1480    56.7300     7.5080     6.2440     9.5780    27.8740   -41.5620 
   65.8750     2.1560    56.2560     7.4000     6.1860    10.1730    27.8720   -41.7190 
   66.0000     2.1670    58.6800     7.2370     6.0800    10.4090    27.8720   -41.8570 
   66.1250     2.1720    62.3340     7.0480     5.9150    10.2150    27.8780   -41.9890 
   66.2500     2.1660    66.2880     6.8960     5.7320     9.9140    27.8800   -42.1430 
   66.3750     2.1520    69.8400     6.8320     5.5860     9.2530    27.8430   -42.3600 
   66.5000     2.1370    70.8320     6.8810     5.5250     8.9410    27.7300   -42.6280 
   66.6250     2.1300    65.8910     7.0650     5.5880     9.2210    27.5700   -42.9040 
   66.7500     2.1330    59.6210     7.3480     5.7360    10.0820    27.4410   -43.1550 
   66.8750     2.1430    57.2250     7.6860     5.9240    10.5290    27.3570   -43.3430 
   67.0000     2.1550    58.5710     7.9870     6.0940    10.4510    27.2960   -43.4360 
   67.1250     2.1630    59.5330     8.1020     6.1670    10.4080    27.2590   -43.3910 
   67.2500     2.1690    58.3290     8.0210     6.1380    10.5780    27.2510   -43.2020 
   67.3750     2.1780    59.2750     7.8150     6.0300    10.7580    27.2550   -42.8650 
   67.5000     2.1970    62.5330     7.5950     5.8890    10.6450    27.2560   -42.4290 
   67.6250     2.2230    63.2350     7.4740     5.7690    10.0020    27.2660   -41.9900 
   67.7500     2.2390    61.8610     7.4620     5.7000     9.3450    27.2330   -41.5850 
   67.8750     2.2360    60.7100     7.5210     5.6880     9.1460    27.0640   -41.2310 
   68.0000     2.2110    59.3680     7.6010     5.7170     9.6500    26.7670   -40.9480 
   68.1250     2.1770    58.3750     7.6570     5.7630    10.3610    26.5180   -40.7440 
   68.2500     2.1520    61.7370     7.6880     5.7960    10.6620    26.4240   -40.5680 
   68.3750     2.1400    68.0560     7.7080     5.8160    10.6400    26.4230   -40.3570 
   68.5000     2.1360    71.1100     7.7390     5.8330    10.5250    26.4240   -40.0450 
   68.6250     2.1370    68.5060     7.7960     5.8550    10.4980    26.4160   -39.5670 
   68.7500     2.1430    67.9090     7.8360     5.8550    10.5750    26.4160   -38.9240 
   68.8750     2.1630    73.0600     7.7820     5.7850    10.5640    26.4190   -38.1120 
   69.0000     2.2000    82.6020     7.5510     5.6030    10.0630    26.4230   -37.1520 
   69.1250     2.2420    88.7420     7.0880     5.2860     8.7380    26.4240   -36.1030 
   69.2500     2.2650    88.1890     6.5310     4.9170     7.2020    26.4070   -35.0390 
   69.3750     2.2580    84.6710     6.0440     4.5880     6.3620    26.3700   -34.0250 
   69.5000     2.2310    81.9810     5.7970     4.3950     5.6240    26.3280   -33.1160 
   69.6250     2.2150    79.9710     5.9940     4.4650     5.5310    26.2810   -32.3510 
   69.7500     2.2410    78.2830     6.6220     4.8060     6.1840    26.2140   -31.7310 
   69.8750     2.3160    79.2620     7.5890     5.3880     8.0340    26.1350   -31.2500 
   70.0000     2.4130    83.8670     8.6310     6.0710    11.1850    26.0710   -30.8690 
   70.1250     2.4720    90.8900     9.1810     6.5390    14.4570    26.0370   -30.5660 
   70.2500     2.4700    98.8760     8.9330     6.5680    15.3380    26.0170   -30.3210 
   70.3750     2.4270   104.6130     8.0080     6.1600    11.7000    26.0060   -30.1200 
   70.5000     2.3770   104.8460     6.8850     5.5310     7.8430    25.9970   -29.9740 
   70.6250     2.3460    97.5530     6.1010     4.9810     5.2050    25.9710   -29.9360 
   70.7500     2.3300    88.2130     5.7770     4.6540     5.0360    25.9350   -29.9880 
   70.8750     2.3150    81.7070     5.8380     4.5720     6.2120    25.9080   -30.1020 
   71.0000     2.2900    78.6870     6.1280     4.6870     7.8110    25.8990   -30.2700 
   71.1250     2.2560    77.1150     6.4840     4.9270     7.2120    25.8990   -30.4690 
   71.2500     2.2290    77.2800     6.7860     5.1840     6.4520    25.8980   -30.6190 
   71.3750     2.2190    80.4220     6.9880     5.3980     6.7700    25.9030   -30.6780 
   71.5000     2.2280    85.2870     7.0630     5.5250     7.8000    25.9290   -30.6310 
   71.6250     2.2510    91.3400     6.9610     5.5020     7.7330    25.9990   -30.4480 
   71.7500     2.2730    97.6800     6.7020     5.3210     6.4390    26.0940   -30.1990 
   71.8750     2.2840   100.7290     6.3080     4.9900     4.9800    26.1760   -29.9360 
   72.0000     2.2860    98.6690     5.8290     4.5600     4.3460    26.2150   -29.6900 
   72.1250     2.2830    95.8880     5.3730     4.1410     4.4880    26.2130   -29.4890 
   72.2500     2.2780    96.1530     5.1280     3.8770     4.7890    26.2060   -29.3610 
   72.3750     2.2730    98.6360     5.3620     3.9160     4.7310    26.2020   -29.3300 
