~V
VERS. 2.00: Ver 2.00
~W
STRT.M 50.0000:
STOP.M 265.0000:
STEP.M 0.1250:
NULL. -999.2500:
UWI. F11185:
~C
DEPT.M :
SP.MV :
GR.API :
RI. :
RML.OHMM :
RXO.OHMM :
DEN.GM/CC :
~A
# ...
  127.2500  -109.8790    90.8180     3.2000     3.6280     3.0490     2.2830 
  127.3750  -109.8840    92.1150     3.3140     3.7460     3.1410     2.2820 
  127.5000  -110.1010    91.8140     3.6190     4.0640     3.4000     2.2520 
  127.6250  -110.6420    88.4830     4.0390     4.5000     3.7610     2.2080 
  127.7500  -111.4290    82.4710     4.4500     4.9280     4.0630     2.1790 
  127.8750  -112.2980    76.8320     4.7150     5.2040     4.3010     2.1660 
  128.0000  -113.0300    73.5420     4.8470     5.3400     4.4800     2.1600 
  128.1250  -113.4220    71.6110     4.8950     5.3910     4.4430     2.1550 
  128.2500  -113.5110    69.6800     4.8950     5.3910     4.6810     2.1480 
  128.3750  -113.3110    68.1640     4.8790     5.3740     5.8750     2.1340 
  128.5000  -112.8730    65.8370     4.8030     5.2950     6.8890     2.1230 
  128.6250  -112.4450    63.0770     4.6180     5.1030     6.2890     2.1320 
  128.7500  -112.1050    64.2450     4.3440     4.8180     4.9580     2.1630 
  128.8750  -111.6580    69.6840     3.9860     4.4460     4.0370     2.2040 
  129.0000  -111.0080    77.2600     3.6370     4.0820     3.4820     2.2390 
  129.1250  -110.1830    85.9010     3.4050     3.8420     3.1560     2.2500 
  129.2500  -109.3340    92.9700     3.3130     3.7460     3.1170     2.2460 
  129.3750  -108.6300    95.5270     3.3290     3.7620     3.3250     2.2420 
  129.5000  -108.1830    93.9830     3.3850     3.8200     3.5810     2.2380 
  129.6250  -108.0380    91.1800     3.4100     3.8460     3.7810     2.2270 
  129.7500  -108.0570    89.9870     3.4340     3.8710     3.8750     2.2190 
  129.8750  -108.1170    90.4050     3.5670     4.0100     3.7950     2.2270 
  130.0000  -108.1900    90.7860     3.9510     4.4090     3.8290     2.2510 
  130.1250  -108.2190    87.7220     4.4440     4.9210     5.1660     2.3000 
  130.2500  -108.1580    81.9960     4.9330     5.4300     8.4800     2.3720 
  130.3750  -108.0820    76.2990     5.2550     5.7650    11.2640     2.4290 
  130.5000  -108.0540    73.7180     5.2340     5.7430    10.2660     2.4320 
  130.6250  -108.0870    74.3880     4.8750     5.3700     6.9460     2.3830 
  130.7500  -108.1900    76.9360     4.3770     4.8520     4.9170     2.3150 
  130.8750  -108.4030    78.4830     3.9560     4.4140     4.4180     2.2560 
  131.0000  -108.7340    77.3390     3.7680     4.2190     4.2250     2.2270 
  131.1250  -109.1700    74.6690     3.7540     4.2040     4.0640     2.2290 
  131.2500  -109.5960    73.3840     3.7230     4.1720     3.9060     2.2400 
  131.3750  -109.8970    73.8560     3.6460     4.0920     3.6730     2.2500 
  131.5000  -110.0390    74.2290     3.5940     4.0370     3.5100     2.2630 
  131.6250  -109.9750    75.4380     3.6160     4.0600     3.6300     2.2730 
  131.7500  -109.6690    79.5980     3.6850     4.1330     3.8290     2.2740 
  131.8750  -109.3080    84.3000     3.7680     4.2190     3.9150     2.2660 
  132.0000  -109.0810    85.3920     3.8130     4.2660     4.0050     2.2530 
  132.1250  -108.9750    82.2900     3.8180     4.2700     4.0690     2.2530 
  132.2500  -108.9010    79.7920     3.8140     4.2660     3.9690     2.2710 
  132.3750  -108.8950    80.3780     3.8860     4.3410     3.8560     2.2840 
  132.5000  -108.9980    81.9870     4.0400     4.5020     3.9990     2.2660 
  132.6250  -109.2940    80.0360     4.2400     4.7090     4.3700     2.2200 
  132.7500  -109.8200    75.7890     4.4770     4.9560     4.6620     2.1810 
  132.8750  -110.5740    70.9910     4.7650     5.2550     4.7100     2.1750 
  133.0000  -111.4240    68.1850     5.0370     5.5380     4.9290     2.2020 
  133.1250  -112.1400    68.3030     5.2560     5.7670     6.5250     2.2320 
  133.2500  -112.5340    68.3080     5.4850     6.0040     9.0380     2.2260 
  133.3750  -112.6650    67.0730     5.6850     6.2120     9.5710     2.1870 
  133.5000  -112.7260    66.5220     5.8210     6.3540     7.7650     2.1560 
  133.6250  -112.8710    67.3120     5.8600     6.3950     6.2480     2.1540 
  133.7500  -113.1200    67.2350     5.7730     6.3040     5.9130     2.1600 
  133.8750  -113.3870    64.1360     5.6120     6.1360     5.9400     2.1590 
  134.0000  -113.6250    60.5820     5.4830     6.0020     5.9290     2.1560 
  134.1250  -113.8300    58.4710     5.3740     5.8890     5.6680     2.1550 
  134.2500  -114.0060    58.9810     5.3150     5.8280     5.4940     2.1540 
  134.3750  -114.1640    62.3290     5.3610     5.8760     5.5450     2.1530 
  134.5000  -114.3180    65.4610     5.5240     6.0450     5.7290     2.1490 
  134.6250  -114.3770    66.1430     5.7680     6.2990     6.0320     2.1340 
  134.7500  -114.2600    63.2290     6.0370     6.5790     6.4000     2.1120 
  134.8750  -114.0420    59.6640     6.3070     6.8590     6.7020     2.0980 
  135.0000  -113.8740    57.2270     6.5330     7.0940     6.9120     2.1010 
  135.1250  -113.8300    55.1920     6.7450     7.3150     7.0100     2.1070 
  135.2500  -113.9520    52.8640     6.9390     7.5170     7.0020     2.1090 
  135.3750  -114.1700    50.4380     7.1200     7.7050     6.9720     2.1120 
  135.5000  -114.2430    49.0980     7.2740     7.8650     7.0630     2.1250 
  135.6250  -114.1800    50.5010     7.3720     7.9670     7.5550     2.1410 
  135.7500  -114.0890    53.5160     7.3800     7.9750     8.5260     2.1440 
  135.8750  -114.0420    57.1920     7.3100     7.9020     9.4890     2.1310 
  136.0000  -114.0410    60.3970     7.1840     7.7710     9.6240     2.1190 
  136.1250  -114.0210    61.2370     7.0550     7.6370     9.0090     2.1230 
  136.2500  -114.0360    58.7290     6.9420     7.5190     8.5930     2.1350 
  136.3750  -114.0470    56.5590     6.9090     7.4850     8.3570     2.1390 
  136.5000  -114.0210    58.8280     7.0140     7.5940     7.9650     2.1440 
  136.6250  -113.9990    61.2980     7.2890     7.8810     7.6340     2.1970 
  136.7500  -113.9700    60.0310     7.5900     8.1940     7.4060     2.3210 
  136.8750  -113.9470    56.1620     7.7430     8.3530     7.2320     2.4750 
  137.0000  -113.9630    53.8800     7.6370     8.2420     7.1400     2.5440 
  137.1250  -114.0820    54.2910     7.2930     7.8850     7.0140     2.4610 
  137.2500  -114.2850    55.4090     6.7920     7.3640     6.7850     2.3010 
  137.3750  -114.5090    57.0250     6.3360     6.8890     6.6040     2.1810 
  137.5000  -114.7640    59.5110     6.0370     6.5790     6.5770     2.1430 
  137.6250  -115.0850    60.9890     5.9590     6.4980     6.6810     2.1500 
  137.7500  -115.4130    60.3570     6.0650     6.6070     6.8320     2.1540 
  137.8750  -115.6880    58.3110     6.2310     6.7800     6.9430     2.1490 
  138.0000  -115.7920    57.7000     6.3730     6.9280     7.0350     2.1470 
  138.1250  -115.7030    58.9380     6.4800     7.0390     7.2010     2.1520 
  138.2500  -115.6030    60.6120     6.5140     7.0750     7.3270     2.1530 
  138.3750  -115.5310    61.8230     6.4600     7.0190     7.1820     2.1470 
  138.5000  -115.4070    60.4970     6.3660     6.9210     6.7930     2.1410 
  138.6250  -115.2070    56.9220     6.2850     6.8360     6.4010     2.1370 
  138.7500  -114.9860    54.8760     6.2420     6.7920     6.2880     2.1350 
  138.8750  -114.7950    54.3340     6.2820     6.8330     6.4630     2.1340 
  139.0000  -114.6430    53.5340     6.4090     6.9650     6.6260     2.1250 
  139.1250  -114.5280    53.3100     6.2810     6.8320     6.4220     2.1130 
  139.2500  -114.3620    54.6730     5.8790     6.4140     5.8620     2.1130 
  139.3750  -114.0670    55.7140     5.2260     5.7360     5.4350     2.1490 
  139.5000  -113.6860    56.8240     4.4590     4.9370     4.8810     2.2090 
  139.6250  -113.2060    62.2040     3.8260     4.2790     4.1580     2.2520 
  139.7500  -112.6400    70.1890     3.3610     3.7950     3.6740     2.2660 
  139.8750  -112.0590    75.7110     3.1050     3.5290     3.4830     2.2700 
  140.0000  -111.6840    77.2130     3.0430     3.4640     3.3810     2.2780 
