~V
VERS. 2.00: Ver 2.00
~W
STRT.M 55.0000:
STOP.M 240.0000:
STEP.M 0.1250:
NULL. -999.2500:
UWI. F11138:
~C
DEPT.M :
SP.MV :
DEN.GM/CC :
GR.API :
RML.OHMM :
RI. :
RXO.OHMM :
CALI.CM :
~A
# ...
  178.7500   -26.3520     2.0740    69.9570   305.2160   286.0930   129.4170    23.0460 
  178.8750   -25.7340     2.0790    71.4950   252.9860   240.5850   121.6020    22.9560 
  179.0000   -25.1460     2.0770    72.5710   202.5700   193.9940   112.5380    22.9040 
  179.1250   -24.5930     2.0820    73.6250   162.8740   154.1900    97.0370    22.8710 
  179.2500   -24.0600     2.0950    77.2100   134.8720   123.8120    78.5800    22.8210 
  179.3750   -23.6420     2.1130    81.7100   115.5070   103.2170    63.3560    22.7580 
  179.5000   -23.1930     2.1330    83.2190   103.1780    91.2090    54.5240    22.7420 
  179.6250   -22.8930     2.1500    80.9670    98.9540    86.7610    50.2690    22.7710 
  179.7500   -22.6070     2.1610    78.8870    99.1470    86.5720    51.6510    22.8180 
  179.8750   -22.4960     2.1630    78.4220   101.6180    88.7480    56.1530    22.8220 
  180.0000   -22.4610     2.1640    78.9400   104.4660    91.5970    60.5870    22.8080 
  180.1250   -22.5200     2.1720    78.6030   105.9640    93.5840    61.8730    22.7930 
  180.2500   -22.6040     2.1880    77.1600   105.5710    94.0840    59.9540    22.8130 
  180.3750   -22.7160     2.2050    75.5650   103.2040    92.9200    57.1270    22.8420 
  180.5000   -22.8580     2.2160    74.0700    98.9450    90.0820    55.0300    22.8270 
  180.6250   -22.8610     2.2180    72.6080    92.6430    85.3610    53.4940    22.7790 
  180.7500   -22.8520     2.2180    72.9350    85.0770    79.3810    52.5760    22.8220 
  180.8750   -22.7650     2.2250    75.7540    77.2150    72.9390    52.3650    22.9320 
  181.0000   -22.6440     2.2380    78.7200    70.2350    67.0710    50.0350    23.1160 
  181.1250   -22.4400     2.2460    81.3210    65.2130    62.8020    46.8460    23.4120 
  181.2500   -22.2500     2.2460    83.6810    61.5930    59.7850    46.9430    23.8000 
  181.3750   -22.0200     2.2450    84.4220    58.2790    57.0900    51.4550    24.1360 
  181.5000   -21.7470     2.2470    83.6500    54.0250    53.5340    55.1590    24.3010 
  181.6250   -21.4490     2.2590    83.9960    47.9280    48.1110    59.3730    24.3210 
  181.7500   -21.2010     2.2800    86.0050    40.8900    41.5690    56.1350    24.2750 
  181.8750   -20.9560     2.3020    87.3630    34.2310    35.1550    42.5170    24.1670 
  182.0000   -20.7760     2.3140    88.1520    29.1490    30.0690    25.9170    24.0710 
  182.1250   -20.7110     2.3150    88.1510    26.5150    27.2040    18.4120    24.0620 
  182.2500   -20.6790     2.3160    86.3450    25.6640    26.0280    19.1790    24.1050 
  182.3750   -20.6790     2.3200    84.4120    25.9540    26.0090    22.3480    24.1740 
  182.5000   -20.7400     2.3180    85.3730    26.7690    26.6010    24.6720    24.2110 
  182.6250   -20.9430     2.3060    87.5500    27.6890    27.3840    24.5860    24.2200 
  182.7500   -21.1850     2.2910    87.8640    28.6820    28.2050    24.8180    24.2630 
  182.8750   -21.4870     2.2720    87.9330    30.1750    29.3500    24.3270    24.3060 
  183.0000   -21.8510     2.2510    89.2930    32.8930    31.4260    24.8550    24.3270 
  183.1250   -22.3080     2.2290    89.1360    38.1220    35.5740    27.8840    24.3250 
  183.2500   -22.8030     2.2070    87.0300    46.2630    42.2310    31.6860    24.3140 
  183.3750   -23.4250     2.1860    84.6170    57.1520    51.7320    38.2330    24.3160 
  183.5000   -24.0910     2.1670    81.8800    70.6320    63.8830    46.4780    24.3430 
  183.6250   -24.7790     2.1520    78.7190    85.1950    77.7470    65.4330    24.3540 
  183.7500   -25.4450     2.1450    76.5580    98.5870    91.1360    78.4290    24.3320 
  183.8750   -26.1630     2.1470    75.1850   110.4650   102.3550    81.8830    24.3050 
  184.0000   -26.8430     2.1560    73.6040   120.3050   110.4820    82.3420    24.3200 
  184.1250   -27.4520     2.1700    72.8580   126.7890   115.4350    83.2030    24.3720 
  184.2500   -28.0270     2.1830    73.6940   131.7040   118.9180    85.0500    24.4130 
  184.3750   -28.5480     2.1930    74.2560   135.9580   121.7960    88.4780    24.4130 
  184.5000   -28.9860     2.1990    73.2500   139.5110   124.1400    93.3030    24.3930 
  184.6250   -29.3180     2.2010    71.7950   141.0920   125.0110    96.5140    24.3460 
  184.7500   -29.6080     2.2000    71.5600   139.8670   123.7350    96.3710    24.2630 
  184.8750   -29.8250     2.2000    72.9470   135.3500   119.8790    93.6100    24.1760 
  185.0000   -29.9990     2.2050    74.8690   127.8980   113.6370    88.6930    24.0950 
  185.1250   -30.1410     2.2150    75.9160   119.0510   106.1030    81.0820    24.0710 
  185.2500   -30.2760     2.2240    76.9290   111.6010    99.5320    74.3790    24.1110 
  185.3750   -30.3570     2.2280    77.9690   107.6850    95.7800    69.0550    24.2330 
  185.5000   -30.5050     2.2230    78.4420   108.7280    96.2070    63.4490    24.3780 
  185.6250   -30.7480     2.2100    78.8570   116.0720   102.1740    62.2270    24.4740 
  185.7500   -30.9290     2.1960    78.4410   127.8930   112.2430    71.7980    24.5210 
  185.8750   -30.8820     2.1860    75.9490   142.1540   124.7220    86.3880    24.5350 
  186.0000   -30.8100     2.1820    72.5220   156.0390   137.1860    97.0550    24.5370 
  186.1250   -30.6840     2.1820    70.3110   165.7720   146.3810    97.9570    24.5350 
  186.2500   -30.5390     2.1790    69.8390   170.2150   151.1620    97.8900    24.5190 
  186.3750   -30.3340     2.1760    70.8480   170.0740   151.9240    99.5090    24.4780 
  186.5000   -30.1020     2.1750    73.5100   167.6790   150.4460   100.1380    24.4150 
  186.6250   -29.8020     2.1750    75.7730   165.9830   149.1720    97.4560    24.3190 
  186.7500   -29.5590     2.1710    75.5850   166.5730   149.6970    93.7280    24.1730 
  186.8750   -29.5040     2.1650    74.2520   169.7490   152.4770    92.8580    23.9680 
  187.0000   -29.4680     2.1560    73.2830   174.8780   157.1360    93.6370    23.6580 
  187.1250   -29.4660     2.1410    71.9440   180.1440   162.2910    94.8770    23.2510 
  187.2500   -29.4250     2.1250    70.3950   183.3680   165.6110    96.2670    23.0840 
  187.3750   -29.4430     2.1190    70.2300   182.3410   164.9370    96.7290    23.0330 
  187.5000   -29.4130     2.1350    71.9380   175.7900   158.7780    94.2210    22.8200 
  187.6250   -29.3930     2.1670    73.5810   163.2100   146.5620    89.6760    22.2900 
  187.7500   -29.3180     2.1940    73.8280   148.4480   131.9490    84.2170    21.6030 
  187.8750   -29.2570     2.2030    73.1290   133.0600   118.7480    76.3380    21.0810 
  188.0000   -29.1440     2.1970    71.5900   123.9610   110.2940    67.8320    20.8660 
  188.1250   -29.0420     2.1770    68.2430   123.4690   109.1810    62.9010    21.0340 
  188.2500   -28.9520     2.1490    65.6840   128.5080   113.3320    68.7830    21.7360 
  188.3750   -28.9210     2.1260    65.3380   135.5950   120.0380    85.4350    22.9400 
  188.5000   -28.9240     2.1250    66.3530   140.5180   125.7390   109.1190    24.1080 
  188.6250   -28.9090     2.1550    67.4880   138.3340   125.9950   114.6470    24.5770 
  188.7500   -28.9490     2.1910    69.6000   129.0560   120.0670    91.6880    24.6490 
  188.8750   -29.0250     2.2120    72.7830   115.0370   109.2740    71.8480    24.5800 
  189.0000   -29.1500     2.2150    74.8200   100.0230    96.5040    67.3730    24.5050 
  189.1250   -29.3240     2.2170    74.6020    87.6780    85.1230    73.4540    24.3900 
  189.2500   -29.5620     2.2270    74.8110    79.0880    76.7840    71.9790    24.2570 
  189.3750   -29.7730     2.2380    77.9050    74.5750    72.0810    63.9990    24.1570 
  189.5000   -30.0540     2.2410    82.2550    74.1690    71.1550    54.0810    24.1790 
  189.6250   -30.3370     2.2290    82.9850    78.2500    74.4430    52.3810    24.3630 
  189.7500   -30.7040     2.2080    80.2930    85.3500    80.6860    58.6080    24.5560 
  189.8750   -31.0700     2.1910    77.5140    94.1020    88.7000    69.1510    24.6770 
