~V
VERS. 2.00: Ver 2.00
~W
STRT.M 45.0000:
STOP.M 264.0000:
STEP.M 0.1250:
NULL. -999.2500:
UWI. F11189:
~C
DEPT.M :
SP.MV :
GR.API :
RI. :
RML.OHMM :
RXO.OHMM :
DEN.GM/CC :
~A
# ...
   70.7500   -11.0750   100.3310     4.9880     6.7010     6.2190     2.1420 
   70.8750   -10.9970    97.5890     4.8950     6.5390     6.5040     2.1400 
   71.0000   -10.9070    96.7080     4.7720     6.3530     6.2830     2.1680 
   71.1250   -10.7940    98.8270     4.6800     6.2120     6.1650     2.2040 
   71.2500   -10.6580   102.2070     4.6310     6.0950     6.3010     2.2290 
   71.3750   -10.5090   102.9300     4.5950     5.9390     6.3720     2.2210 
   71.5000   -10.3680    99.3350     4.5710     5.7790     6.2650     2.1890 
   71.6250   -10.2610    96.2210     4.5510     5.6250     6.1130     2.1620 
   71.7500   -10.2010    95.4350     4.5330     5.4900     6.1080     2.1540 
   71.8750   -10.1990    95.1310     4.5670     5.4560     6.2280     2.1640 
   72.0000   -10.2410    93.7230     4.6730     5.5380     6.4460     2.2000 
   72.1250   -10.3040    91.1840     4.8100     5.6820     6.2790     2.2560 
   72.2500   -10.3540    88.0320     4.9380     5.8170     5.8430     2.2750 
   72.3750   -10.3610    82.3780     5.0090     5.8880     5.8960     2.2220 
   72.5000   -10.3160    77.1090     5.0110     5.8690     6.0480     2.1440 
   72.6250   -10.2240    75.4750     4.9520     5.7750     5.9350     2.1000 
   72.7500   -10.1080    77.5010     4.8430     5.6240     5.9810     2.0820 
   72.8750    -9.9910    78.2400     4.6890     5.4090     6.2270     2.0670 
   73.0000    -9.8930    76.0440     4.6070     5.2790     6.2230     2.0720 
   73.1250    -9.8320    74.3440     4.6660     5.3210     5.8430     2.1280 
   73.2500    -9.8150    76.4130     4.8350     5.5080     6.0390     2.2190 
   73.3750    -9.8450    80.8820     5.1020     5.8430     9.6470     2.2840 
   73.5000    -9.9120    83.3630     5.5030     6.3580    12.7570     2.2680 
   73.6250   -10.0040    81.7190     5.8270     6.7380     9.9510     2.1840 
   73.7500   -10.1120    77.3990     5.8740     6.7570     7.0790     2.1120 
   73.8750   -10.2290    72.5850     5.6050     6.3780     6.7040     2.1060 
   74.0000   -10.3510    73.4050     5.0510     5.6640     6.1900     2.1440 
   74.1250   -10.4670    82.1960     4.5740     5.1010     5.9190     2.1900 
   74.2500   -10.5690    91.0490     4.3070     4.8080     5.7660     2.2110 
   74.3750   -10.6480    93.2740     4.2340     4.7630     5.5010     2.1950 
   74.5000   -10.7110    91.7450     4.3700     4.9730     5.6860     2.1650 
   74.6250   -10.7640    89.3690     4.6240     5.3110     6.2760     2.1450 
   74.7500   -10.8170    86.9300     4.8770     5.6140     6.4030     2.1330 
   74.8750   -10.8680    84.3980     5.0550     5.7920     6.2210     2.1260 
   75.0000   -10.9060    81.7210     5.1100     5.8160     6.3580     2.1270 
   75.1250   -10.9150    78.2610     5.1460     5.8330     6.5090     2.1300 
   75.2500   -10.8870    74.8140     5.2520     5.9620     6.4350     2.1160 
   75.3750   -10.8200    72.1070     5.4270     6.1940     6.3470     2.0970 
   75.5000   -10.7200    70.8340     5.6510     6.4870     6.4330     2.1010 
   75.6250   -10.5970    70.5950     5.8590     6.7530     6.5340     2.1330 
   75.7500   -10.4620    68.4560     5.9850     6.8890     6.4590     2.1530 
   75.8750   -10.3320    63.3990     5.9630     6.8410     6.4260     2.1340 
   76.0000   -10.2230    60.3100     5.8570     6.6940     6.4320     2.0940 
   76.1250   -10.1480    63.0350     5.7230     6.5250     6.3640     2.0640 
   76.2500   -10.1070    65.6720     5.6350     6.4270     6.3400     2.0580 
   76.3750   -10.0920    64.1470     5.6600     6.4680     6.3630     2.0660 
   76.5000   -10.0770    61.4140     5.7400     6.5670     6.4050     2.0740 
   76.6250   -10.0350    60.8670     5.8180     6.6590     6.5470     2.0770 
   76.7500    -9.9480    61.2540     5.8690     6.7120     6.6670     2.0740 
   76.8750    -9.8020    61.3660     5.8530     6.6810     6.5750     2.0650 
   77.0000    -9.6090    59.9260     5.7840     6.5870     6.2840     2.0530 
   77.1250    -9.3930    59.0310     5.6930     6.4720     5.9890     2.0420 
   77.2500    -9.1920    61.8330     5.5880     6.3430     5.8930     2.0400 
   77.3750    -9.0430    66.4460     5.5010     6.2360     5.9130     2.0420 
   77.5000    -8.9680    67.9770     5.4210     6.1460     5.8980     2.0390 
   77.6250    -8.9840    64.8400     5.3590     6.0690     5.7440     2.0320 
   77.7500    -9.0840    61.2000     5.3130     6.0150     5.5610     2.0270 
   77.8750    -9.2620    59.8410     5.3480     6.0650     5.7700     2.0320 
   78.0000    -9.4910    59.1040     5.4770     6.2210     6.2310     2.0430 
   78.1250    -9.7400    60.3400     5.6640     6.4470     6.3090     2.0510 
   78.2500    -9.9760    62.8720     5.8540     6.6710     6.0800     2.0540 
   78.3750   -10.1680    63.8690     5.9980     6.8250     6.0880     2.0580 
   78.5000   -10.3010    63.1310     6.0620     6.8750     6.2280     2.0660 
   78.6250   -10.3660    62.4610     6.0370     6.8120     6.1990     2.0770 
   78.7500   -10.3800    63.7840     5.9670     6.7100     6.1340     2.0820 
   78.8750   -10.3650    64.8880     5.8680     6.5900     6.0740     2.0810 
   79.0000   -10.3470    63.8880     5.8070     6.5400     5.9880     2.0900 
   79.1250   -10.3450    62.2670     5.7940     6.5390     6.0680     2.1220 
   79.2500   -10.3610    61.3270     5.7740     6.5320     6.3830     2.1580 
   79.3750   -10.3940    60.6040     5.7400     6.5060     6.6650     2.1520 
   79.5000   -10.4340    60.5430     5.6950     6.4690     6.6220     2.1070 
   79.6250   -10.4730    61.9040     5.6550     6.4340     6.4240     2.0640 
   79.7500   -10.5060    63.9000     5.6320     6.4210     6.3100     2.0490 
   79.8750   -10.5290    64.9320     5.6450     6.4520     6.2550     2.0540 
   80.0000   -10.5400    66.1380     5.6990     6.5210     6.2930     2.0680 
   80.1250   -10.5290    67.4910     5.7740     6.6090     6.4330     2.0900 
   80.2500   -10.4880    66.9450     5.8520     6.6960     6.5540     2.1040 
   80.3750   -10.4070    64.8030     5.9120     6.7560     6.5680     2.1010 
   80.5000   -10.2880    64.0060     5.9400     6.7850     6.5010     2.0960 
   80.6250   -10.1360    65.0360     5.9290     6.7760     6.4130     2.0970 
   80.7500    -9.9610    65.9090     5.8830     6.7270     6.3630     2.0950 
   80.8750    -9.7680    64.9460     5.8160     6.6570     6.4150     2.0860 
   81.0000    -9.5720    62.6330     5.7420     6.5760     6.4840     2.0810 
   81.1250    -9.3930    61.1920     5.6770     6.4990     6.4320     2.0770 
   81.2500    -9.2530    62.6260     5.6220     6.4360     6.3140     2.0690 
   81.3750    -9.1750    63.6730     5.5880     6.3930     6.2460     2.0600 
   81.5000    -9.1590    61.6630     5.5680     6.3680     6.2840     2.0560 
   81.6250    -9.2060    59.7810     5.5590     6.3480     6.3420     2.0510 
   81.7500    -9.3030    60.1550     5.5360     6.3070     6.4220     2.0400 
   81.8750    -9.4410    61.1960     5.4920     6.2490     6.6020     2.0360 
   82.0000    -9.6060    60.0510     5.4440     6.1890     6.6370     2.0480 
   82.1250    -9.7820    59.4220     5.3870     6.1360     6.4750     2.0620 
   82.2500    -9.9490    61.1700     5.3310     6.0860     6.3890     2.0660 
   82.3750   -10.0850    64.0230     5.2460     5.9990     6.2990     2.0640 
   82.5000   -10.1830    66.0080     5.1120     5.8460     6.1400     2.0750 
   82.6250   -10.2370    69.0450     4.9430     5.6550     6.1300     2.1030 
   82.7500   -10.2520    75.1620     4.7700     5.4610     6.1000     2.1360 
   82.8750   -10.2300    81.4290     4.6340     5.3180     5.9320     2.1600 
   83.0000   -10.1790    83.9100     4.5690     5.2650     6.0070     2.1710 
   83.1250   -10.1100    84.6180     4.5790     5.2940     6.3580     2.1700 
   83.2500   -10.0410    88.1410     4.6530     5.3990     6.5810     2.1680 
   83.3750    -9.9940    91.1260     4.7750     5.5500     6.5130     2.1700 
   83.5000    -9.9860    88.4980     4.9020     5.6960     6.4360     2.1730 
