~V
VERS. 2.00: Ver 2.00
~W
STRT.M 56.0000:
STOP.M 252.0000:
STEP.M 0.1250:
NULL. -999.2500:
UWI. F11142:
~C
DEPT.M :
SP.MV :
DEN.GM/CC :
GR.API :
RML.OHMM :
RI. :
RXO.OHMM :
CALI.CM :
~A
# ...
  202.2500   -29.8960     2.3310    91.1140     9.0600     7.6350    11.3270    23.4180 
  202.3750   -30.0290     2.3470    93.9570     9.2170     7.6370    11.4900    23.4970 
  202.5000   -30.4690     2.3520    93.6570     9.4700     7.7970    13.0790    23.4760 
  202.6250   -31.1770     2.3450    91.7200     9.6870     8.0000    14.4410    23.4500 
  202.7500   -32.1590     2.3320    89.2070     9.8030     8.1580    14.8770    23.5130 
  202.8750   -33.3190     2.3180    86.2650     9.8180     8.2120    14.8870    23.7320 
  203.0000   -34.5060     2.3060    82.7440     9.8280     8.1660    14.8680    24.0520 
  203.1250   -35.5280     2.2940    79.7100     9.9760     8.1340    14.7900    24.2270 
  203.2500   -36.2120     2.2880    77.0970    10.3500     8.2240    14.8270    24.2660 
  203.3750   -36.4930     2.2970    74.8730    10.9470     8.4940    15.7030    24.2420 
  203.5000   -36.3430     2.3280    74.7980    11.6690     8.9460    17.8630    24.2150 
  203.6250   -35.8520     2.3680    76.2640    12.3480     9.4750    20.7440    24.1650 
  203.7500   -35.0360     2.3990    77.6880    12.9290    10.0210    23.3730    24.1290 
  203.8750   -33.9360     2.4130    78.0150    13.4690    10.5870    23.5010    24.1720 
  204.0000   -32.4810     2.4170    77.5580    14.1320    11.2580    21.3510    24.2610 
  204.1250   -30.7310     2.4310    77.9780    14.9160    12.0370    20.9300    24.3100 
  204.2500   -28.7250     2.4590    79.1090    15.5750    12.7720    23.0080    24.3110 
  204.3750   -26.4590     2.4940    78.4790    15.6820    13.1560    26.2360    24.3040 
  204.5000   -23.9530     2.5090    74.0020    14.6830    12.6990    27.6690    24.3120 
  204.6250   -21.2650     2.4890    68.8670    12.7740    11.4170    24.1130    24.3370 
  204.7500   -18.4570     2.4330    66.8680    10.4620     9.6200    16.8830    24.3750 
  204.8750   -15.6430     2.3600    68.9020     8.3760     7.8320    10.1600    24.4510 
  205.0000   -13.0690     2.3100    73.4670     7.0150     6.5440     6.5340    24.4770 
  205.1250   -10.8130     2.3030    78.2520     6.2560     5.7770     5.6320    24.4760 
  205.2500    -8.9080     2.3270    82.2970     5.8820     5.4340     5.5470    24.4950 
  205.3750    -7.4040     2.3550    85.2660     5.7430     5.3760     5.6680    24.5140 
  205.5000    -6.3490     2.3600    87.9920     5.8150     5.4660     5.8980    24.5460 
  205.6250    -5.6820     2.3520    91.0540     5.8990     5.5530     6.1970    24.6090 
  205.7500    -5.3730     2.3430    92.9910     5.9670     5.5690     6.3620    24.7060 
  205.8750    -5.3340     2.3380    93.2590     6.0010     5.5050     6.2570    24.7660 
  206.0000    -5.4230     2.3340    94.3150     5.9990     5.4040     5.9570    24.7760 
  206.1250    -5.5880     2.3260    96.8570     6.0090     5.3460     5.7840    24.7750 
  206.2500    -5.8170     2.3180    97.5230     6.0920     5.3970     5.8820    24.7880 
  206.3750    -6.1100     2.3100    93.9250     6.3320     5.6070     6.3090    24.8250 
  206.5000    -6.4700     2.3050    89.4310     6.8340     6.0310     7.0640    24.8530 
  206.6250    -6.8690     2.3020    88.4840     7.5430     6.6200     8.1440    24.8700 
  206.7500    -7.2690     2.3000    88.9680     8.3650     7.3130     9.4030    24.8870 
  206.8750    -7.6660     2.3000    87.7240     9.1640     8.0140    10.6260    24.9240 
  207.0000    -8.0580     2.2950    85.4360     9.7660     8.5810    11.5820    24.9750 
  207.1250    -8.4200     2.2810    84.5000    10.1110     8.9450    12.0990    25.0240 
  207.2500    -8.7360     2.2630    84.0650    10.2090     9.1020    11.9340    25.0500 
  207.3750    -8.9540     2.2480    83.3020    10.1450     9.1140    11.4490    25.0310 
  207.5000    -9.0760     2.2290    84.5730    10.0780     9.0960    11.3380    25.0060 
  207.6250    -9.1430     2.1970    87.3020    10.1570     9.1610    11.6780    25.0120 
  207.7500    -9.2010     2.1640    88.0780    10.4520     9.3660    12.1900    25.0400 
  207.8750    -9.2410     2.1580    85.8420    10.9600     9.7310    12.5220    25.0660 
  208.0000    -9.2860     2.1870    82.5340    11.6300    10.2590    12.7520    25.0590 
  208.1250    -9.3780     2.2240    80.6760    12.3360    10.8750    13.1990    25.0660 
  208.2500    -9.5470     2.2460    80.9530    12.9970    11.5210    13.9780    25.0780 
  208.3750    -9.7960     2.2550    82.5510    13.5500    12.1290    14.9440    25.0240 
  208.5000    -9.9880     2.2610    83.7540    13.9150    12.6060    15.7790    24.9370 
  208.6250   -10.1070     2.2670    84.1220    14.0880    12.9080    16.2240    24.8650 
  208.7500   -10.2220     2.2700    84.9290    14.0700    13.0070    16.2800    24.8410 
  208.8750   -10.3450     2.2690    85.8660    13.9000    12.9160    16.0370    24.8410 
  209.0000   -10.4430     2.2680    86.2840    13.6500    12.6790    15.6580    24.8430 
  209.1250   -10.4830     2.2670    85.6710    13.4390    12.4270    15.1060    24.8420 
  209.2500   -10.4490     2.2660    84.1140    13.3670    12.2630    14.6960    24.8390 
  209.3750   -10.3820     2.2580    81.9960    13.5060    12.2690    14.4930    24.8360 
  209.5000   -10.4020     2.2450    81.3150    13.9060    12.5170    14.6990    24.8330 
  209.6250   -10.5070     2.2300    81.8060    14.4550    12.9430    15.0530    24.8080 
  209.7500   -10.6220     2.2180    81.5600    15.0310    13.4760    15.4190    24.6950 
  209.8750   -10.7240     2.2100    80.1570    15.5370    14.0280    15.6520    24.4150 
  210.0000   -10.8090     2.2100    79.2530    15.9150    14.5020    15.7530    23.9690 
  210.1250   -10.9010     2.2170    79.2240    16.2190    14.8650    15.8360    23.6300 
  210.2500   -10.9420     2.2250    79.6200    16.5500    15.1190    15.9870    23.4780 
  210.3750   -10.8950     2.2310    80.5310    16.9200    15.2860    16.0390    23.3800 
  210.5000   -10.7830     2.2320    80.5170    17.1840    15.3860    16.0960    23.2000 
  210.6250   -10.6540     2.2320    78.1020    17.3780    15.4440    16.2390    23.0570 
  210.7500   -10.4970     2.2340    75.1870    17.4560    15.4580    16.6370    23.2780 
  210.8750   -10.3030     2.2360    74.8650    17.4310    15.4170    17.2090    23.8990 
  211.0000   -10.0950     2.2370    77.9330    17.3180    15.2970    17.4760    24.5610 
  211.1250    -9.8750     2.2380    80.2510    16.9840    15.1080    17.4020    24.8500 
  211.2500    -9.6880     2.2410    80.1490    16.6140    14.8570    17.0790    24.9220 
  211.3750    -9.5700     2.2440    78.8800    16.2510    14.5620    16.5000    24.9240 
  211.5000    -9.4630     2.2450    78.2370    15.9260    14.2420    15.6970    24.8710 
  211.6250    -9.2900     2.2440    79.3060    15.6240    13.9190    15.0420    24.7910 
  211.7500    -9.1610     2.2460    81.8580    15.3260    13.6060    14.5990    24.7230 
  211.8750    -9.1740     2.2520    83.8390    15.0410    13.3160    14.2480    24.6820 
  212.0000    -9.2440     2.2610    83.2470    14.8180    13.0790    14.0440    24.6360 
  212.1250    -9.2990     2.2720    81.4790    14.7170    12.9280    13.7920    24.5870 
  212.2500    -9.3810     2.2810    80.2250    14.8070    12.9150    13.7350    24.5500 
  212.3750    -9.4670     2.2850    79.1830    15.1610    13.1050    13.9750    24.5760 
  212.5000    -9.6620     2.2770    77.3150    15.8960    13.6150    14.7390    24.6900 
  212.6250    -9.9980     2.2610    75.5960    17.0080    14.4620    15.8990    24.7840 
  212.7500   -10.3790     2.2390    75.4910    18.5260    15.6910    17.7070    24.8420 
  212.8750   -10.7480     2.2180    76.1300    20.4520    17.3260    20.1440    24.8850 
  213.0000   -11.1860     2.2010    73.9840    22.8090    19.4130    22.7320    24.8890 
  213.1250   -11.7130     2.1880    69.4550    25.4360    21.8130    25.1900    24.8630 
  213.2500   -12.2660     2.1820    65.3630    28.1920    24.4040    28.3270    24.8230 
  213.3750   -12.8420     2.1810    64.3630    30.8790    27.0160    31.9380    24.8140 
