~V
VERS. 2.00: Ver 2.00
~W
STRT.M 53.0000:
STOP.M 252.0000:
STEP.M 0.1250:
NULL. -999.2500:
UWI. F11141:
~C
DEPT.M :
SP.MV :
DEN.GM/CC :
GR.API :
RML.OHMM :
RI. :
RXO.OHMM :
CALI.CM :
~A
# ...
  120.5000    -9.9790     2.4170    86.5050     9.0530     7.3100    16.2980    24.3440 
  120.6250   -10.1960     2.3900    90.8510     9.0160     7.4620    12.9440    24.2850 
  120.7500   -10.3550     2.3660    95.0030     8.9320     7.4990     8.9540    24.2400 
  120.8750   -10.5040     2.3670    93.4810     9.1510     7.6560     7.8100    24.0630 
  121.0000   -10.6260     2.3930    87.4820     9.7850     8.0570     8.5840    23.7650 
  121.1250   -10.6450     2.4150    82.6930    10.6380     8.6720    10.1870    23.5000 
  121.2500   -10.6200     2.4120    80.2510    11.2100     9.2160    12.9340    23.5400 
  121.3750   -10.6190     2.3860    79.8100    11.1380     9.3960    12.3720    23.8230 
  121.5000   -10.6200     2.3510    80.4740    10.4200     9.1000     8.8530    24.1870 
  121.6250   -10.6110     2.3190    80.5170     9.4500     8.4940     7.0700    24.3460 
  121.7500   -10.5990     2.2920    79.5120     8.6620     7.9010     7.4330    24.3360 
  121.8750   -10.5960     2.2630    77.5490     8.1750     7.4550     8.0810    24.2780 
  122.0000   -10.6450     2.2380    74.8530     7.9890     7.2140     7.8060    24.2000 
  122.1250   -10.8140     2.2350    72.8270     8.0860     7.2190     7.2030    24.1410 
  122.2500   -10.9890     2.2610    73.9130     8.3490     7.3830     6.8150    24.1020 
  122.3750   -11.0410     2.3080    76.3860     8.7410     7.6530     7.0810    24.1340 
  122.5000   -11.0410     2.3590    77.6430     9.1860     7.9640     8.5760    24.1470 
  122.6250   -11.1250     2.3850    78.3170     9.4230     8.1480    10.9860    24.1060 
  122.7500   -11.2270     2.3840    77.6780     9.2580     8.0650     9.9020    24.0700 
  122.8750   -11.2470     2.3640    75.3750     8.7810     7.7610     8.0720    24.1480 
  123.0000   -11.1450     2.3440    77.0410     8.3630     7.4770     8.2280    24.2580 
  123.1250   -11.0550     2.3480    84.7800     8.6320     7.6070     8.6420    24.2950 
  123.2500   -11.0530     2.3840    85.4550     9.9640     8.4060     8.3610    24.2710 
  123.3750   -11.0790     2.4440    73.2320    13.1360    10.1330    11.1820    24.2070 
  123.5000   -11.0600     2.5130    57.5540    17.5080    12.9730    20.4960    24.0830 
  123.6250   -11.0530     2.5610    52.5260    22.6820    16.8910    29.1330    23.9710 
  123.7500   -11.1300     2.5770    54.2150    27.2720    20.8540    29.5310    23.9170 
  123.8750   -11.2290     2.5640    54.9510    29.9760    23.7450    27.3400    23.9480 
  124.0000   -11.3220     2.5370    51.9880    30.4150    24.9390    26.6320    23.9470 
  124.1250   -11.3680     2.5060    48.4860    29.3750    24.6690    24.3480    23.8800 
  124.2500   -11.4350     2.4780    47.8630    28.3470    24.0660    24.1770    23.8170 
  124.3750   -11.5430     2.4520    48.6690    27.8340    23.6280    24.7190    23.8010 
  124.5000   -11.6270     2.4280    49.1820    27.8460    23.4900    24.2190    23.8700 
  124.6250   -11.6230     2.4180    48.7280    28.2460    23.6340    23.8080    23.9170 
  124.7500   -11.5630     2.4310    48.0670    28.7530    23.9020    23.2460    23.8920 
  124.8750   -11.5040     2.4660    47.9480    29.1500    24.1640    24.4690    23.8390 
  125.0000   -11.4440     2.5110    46.8200    29.2260    24.2730    24.7710    23.8040 
  125.1250   -11.3660     2.5380    44.8140    28.7710    24.0540    25.1240    23.8190 
  125.2500   -11.2910     2.5340    44.3520    27.8550    23.5020    24.8630    23.8210 
  125.3750   -11.2760     2.5010    46.1270    26.5680    22.6440    22.7660    23.7860 
  125.5000   -11.3340     2.4540    48.1760    25.1030    21.5950    20.3120    23.7190 
  125.6250   -11.3830     2.4120    48.8850    23.8010    20.6020    19.6690    23.6920 
  125.7500   -11.4140     2.3870    49.2380    22.9410    19.9010    18.8570    23.7460 
  125.8750   -11.4760     2.3780    48.4700    22.6930    19.6450    17.6340    23.7810 
  126.0000   -11.6210     2.3830    46.9440    23.1060    19.8990    17.4850    23.7950 
  126.1250   -11.7450     2.4010    47.7220    24.1380    20.6910    19.4210    23.7740 
  126.2500   -11.7430     2.4260    49.3020    25.3870    21.7600    21.8340    23.7860 
  126.3750   -11.6640     2.4590    48.9800    26.5000    22.8470    23.5730    23.7780 
  126.5000   -11.6090     2.4940    47.2480    27.1700    23.6710    24.2650    23.7310 
  126.6250   -11.6040     2.5250    47.9350    27.1340    23.9330    24.7010    23.7260 
  126.7500   -11.5230     2.5460    49.4760    26.5640    23.6950    24.4040    23.7580 
  126.8750   -11.3920     2.5560    50.0330    25.6560    23.0960    24.9320    23.7770 
  127.0000   -11.2490     2.5550    50.1090    24.6130    22.3200    24.8560    23.7620 
  127.1250   -11.0930     2.5440    50.4630    23.5780    21.5140    23.3090    23.7350 
  127.2500   -10.9310     2.5300    49.6290    22.6260    20.7610    20.4520    23.7350 
  127.3750   -10.7930     2.5190    47.4690    21.8340    20.1170    18.5250    23.7950 
  127.5000   -10.6510     2.5150    45.6410    21.2900    19.6560    17.8420    23.8290 
  127.6250   -10.4460     2.5210    46.0990    21.0910    19.4730    17.2370    23.7750 
  127.7500   -10.2050     2.5360    47.7310    21.1310    19.5040    17.2860    23.7670 
  127.8750    -9.9230     2.5540    49.1120    21.2770    19.6480    18.8970    23.8730 
  128.0000    -9.6190     2.5730    49.9370    21.3460    19.7630    21.3950    24.0070 
  128.1250    -9.3580     2.5850    49.0860    21.1390    19.6720    21.5680    24.1430 
  128.2500    -9.1060     2.5890    47.2040    20.6880    19.3700    18.7240    24.2170 
  128.3750    -8.8130     2.5850    46.3060    20.1270    18.9420    16.6900    24.2480 
  128.5000    -8.5140     2.5750    48.1970    19.6450    18.5230    16.3930    24.2670 
  128.6250    -8.3400     2.5670    51.3640    19.4990    18.3140    16.7830    24.2880 
  128.7500    -8.2820     2.5630    51.2140    19.7480    18.3950    17.0390    24.2730 
  128.8750    -8.2430     2.5610    48.6060    20.3260    18.7580    17.3470    24.2380 
  129.0000    -8.1600     2.5580    46.2320    21.0520    19.2970    17.5590    24.2030 
  129.1250    -8.0960     2.5530    45.5510    21.6710    19.8310    18.3090    24.2010 
  129.2500    -8.1510     2.5490    44.7970    22.0220    20.2000    20.9050    24.1740 
  129.3750    -8.2610     2.5470    42.9250    22.0700    20.3450    21.7890    24.0720 
  129.5000    -8.3310     2.5490    42.9970    21.9140    20.3080    20.1990    23.9670 
  129.6250    -8.3100     2.5520    47.0490    21.7690    20.2280    18.9680    23.9520 
  129.7500    -8.2860     2.5550    49.8490    21.8150    20.2540    19.3320    23.9370 
  129.8750    -8.3340     2.5580    50.2170    22.1020    20.4520    19.5990    23.8910 
  130.0000    -8.4660     2.5600    49.8760    22.5660    20.8040    19.9960    23.9340 
  130.1250    -8.5710     2.5600    50.2000    22.9910    21.1740    19.3780    24.0340 
  130.2500    -8.6090     2.5560    49.8820    23.1340    21.3610    19.7020    24.1360 
  130.3750    -8.6880     2.5480    49.5370    22.8810    21.2480    20.1440    24.1750 
  130.5000    -8.8010     2.5390    49.1600    22.2920    20.8590    20.1270    24.1680 
  130.6250    -8.8610     2.5370    48.0200    21.6280    20.3760    19.5890    24.2370 
  130.7500    -8.8840     2.5460    47.6700    21.2260    20.0670    18.7170    24.2790 
  130.8750    -8.9160     2.5620    49.3170    21.2510    20.0700    18.3620    24.2930 
  131.0000    -8.9360     2.5790    51.7980    21.6600    20.3750    18.9600    24.2740 
  131.1250    -8.9420     2.5890    54.8860    22.1800    20.8030    20.4520    24.2180 
  131.2500    -8.9230     2.5890    59.0970    22.4030    21.0350    22.2840    24.1550 
  131.3750    -8.8640     2.5820    60.5760    22.1120    20.8670    21.8900    24.0150 
  131.5000    -8.8440     2.5710    56.7600    21.3400    20.2870    19.6220    23.8210 
  131.6250    -8.9320     2.5590    52.7070    20.3640    19.4760    17.8500    23.7590 
