~V
VERS. 2.00: Ver 2.00
~W
STRT.M 50.0000:
STOP.M 253.0000:
STEP.M 0.1250:
NULL. -999.2500:
UWI. F11132:
~C
DEPT.M :
DEN.GM/CC :
GR.API :
RML.OHMM :
RI. :
RXO.OHMM :
CALI.CM :
SP.MV :
~A
# ...
  162.5000     2.3330    53.3600    22.1410    20.0020    22.9130    25.4720   -15.6590 
  162.6250     2.3340    56.0430    19.6880    18.0150    20.1990    25.4050   -15.5890 
  162.7500     2.3230    59.1550    18.4490    16.7820    17.9210    25.3710   -15.4700 
  162.8750     2.3130    59.7030    18.4530    16.4440    16.0720    25.3590   -15.3560 
  163.0000     2.3080    56.2300    19.3380    16.8760    16.5060    25.3570   -15.2570 
  163.1250     2.3030    52.0890    20.1870    17.5270    21.9200    25.3560   -15.1030 
  163.2500     2.2950    51.7240    19.8830    17.4160    24.3930    25.3550   -14.8940 
  163.3750     2.2850    54.3250    17.9590    15.9840    21.6490    25.3510   -14.6670 
  163.5000     2.2820    56.2710    14.8600    13.4940    16.0160    25.3430   -14.4580 
  163.6250     2.2870    58.8970    11.7080    10.8490    10.1000    25.3470   -14.2880 
  163.7500     2.3020    63.5690     9.3330     8.7540     7.1940    25.3500   -14.1230 
  163.8750     2.3200    67.5020     7.8840     7.3590     6.0890    25.3600   -13.9400 
  164.0000     2.3350    69.5820     7.1870     6.5780     5.7580    25.3820   -13.7820 
  164.1250     2.3440    70.1710     7.0070     6.2790     5.4950    25.4150   -13.7180 
  164.2500     2.3490    69.0560     6.9880     6.1880     5.3820    25.4310   -13.7120 
  164.3750     2.3550    65.7430     6.9610     6.1680     5.3150    25.4360   -13.7430 
  164.5000     2.3620    62.5870     6.8770     6.1590     5.3100    25.4380   -13.8010 
  164.6250     2.3650    62.0860     6.8330     6.2100     5.3930    25.4500   -13.9020 
  164.7500     2.3620    61.9380     6.9870     6.4160     5.5850    25.4700   -14.0610 
  164.8750     2.3520    61.3590     7.4610     6.8690     6.3980    25.4790   -14.2880 
  165.0000     2.3380    61.8750     8.3270     7.6320     7.9680    25.4730   -14.5160 
  165.1250     2.3230    62.8550     9.6250     8.7620     9.7680    25.4780   -14.7000 
  165.2500     2.3080    62.2860    11.1330    10.0980    11.6870    25.4960   -14.8880 
  165.3750     2.2950    60.3300    12.5620    11.4010    13.5050    25.5200   -15.0850 
  165.5000     2.2870    60.5700    13.5510    12.3300    14.3830    25.5530   -15.2850 
  165.6250     2.2850    62.0230    13.6980    12.4940    14.1920    25.5800   -15.4930 
  165.7500     2.2870    60.6420    13.1720    12.0340    14.0520    25.6090   -15.6950 
  165.8750     2.2880    58.6150    12.2840    11.2310    12.9220    25.6330   -15.8740 
  166.0000     2.2880    60.4090    11.4420    10.4280    10.7030    25.6440   -16.0370 
  166.1250     2.2910    64.3870    11.1220    10.0020     9.9810    25.6440   -16.2540 
  166.2500     2.2950    64.9820    11.4770    10.0940    10.3310    25.6440   -16.5200 
  166.3750     2.2930    62.5790    12.5320    10.7750    11.4850    25.6440   -16.8170 
  166.5000     2.2860    60.1130    14.1480    12.0220    13.9120    25.6440   -17.1300 
  166.6250     2.2770    58.4240    15.9640    13.6750    16.6140    25.6420   -17.4300 
  166.7500     2.2680    57.7540    17.4380    15.2570    18.4340    25.6300   -17.7350 
  166.8750     2.2620    60.0440    18.3030    16.4270    18.0050    25.6020   -18.0680 
  167.0000     2.2590    64.9480    18.6750    17.1300    16.9140    25.5810   -18.4310 
  167.1250     2.2610    68.2310    18.9630    17.6030    16.1350    25.5730   -18.7730 
  167.2500     2.2630    66.2030    19.3920    18.0960    16.6270    25.5610   -19.1060 
  167.3750     2.2630    60.8330    19.7150    18.4580    17.7710    25.5320   -19.4440 
  167.5000     2.2640    56.9800    19.3880    18.2400    20.1280    25.5090   -19.7990 
  167.6250     2.2650    58.3100    17.8000    16.8670    20.9550    25.5000   -20.2100 
  167.7500     2.2690    61.7400    15.4130    14.7490    17.7200    25.5000   -20.6420 
  167.8750     2.2800    62.9900    13.0040    12.5700    12.2420    25.5000   -21.0920 
  168.0000     2.2980    62.2510    11.3200    10.9480     9.2280    25.5000   -21.6250 
  168.1250     2.3190    62.6090    11.0090    10.3970     9.7740    25.5000   -22.3150 
  168.2500     2.3360    64.5530    12.0370    10.9260    12.6170    25.5000   -23.0810 
  168.3750     2.3390    63.7240    14.5320    12.7130    15.4230    25.5070   -23.8930 
  168.5000     2.3320    58.7240    18.6730    16.0470    20.3940    25.5250   -24.7810 
  168.6250     2.3180    53.4690    24.9420    21.6490    27.7460    25.5630   -25.7410 
  168.7500     2.3000    50.4170    33.0750    29.4620    36.8040    25.5990   -26.7750 
  168.8750     2.2830    48.1830    43.0360    39.5320    42.2220    25.6510   -27.8670 
  169.0000     2.2700    46.1390    54.7620    51.7480    55.0430    25.7280   -28.9390 
  169.1250     2.2640    46.2850    68.0840    65.7900    75.4150    25.8030   -29.8970 
  169.2500     2.2630    46.8340    81.6320    80.0290    87.0640    25.8300   -30.8070 
  169.3750     2.2650    45.8960    93.6400    92.5900    93.7690    25.7890   -31.7030 
  169.5000     2.2650    45.4490   102.0230   101.3580   100.8360    25.7160   -32.5340 
  169.6250     2.2630    48.1130   104.5770   104.0300    94.9390    25.6320   -33.2670 
  169.7500     2.2580    50.4210   102.9680   102.2610    85.5050    25.5520   -33.8930 
  169.8750     2.2500    50.8140    99.1210    98.0480    79.5790    25.5300   -34.4180 
  170.0000     2.2360    51.6900    94.6730    93.1940    75.9150    25.6400   -34.9100 
  170.1250     2.2190    54.6860    90.8700    89.0930    73.7520    25.8240   -35.3810 
  170.2500     2.2120    55.2120    88.4440    86.5100    71.5090    25.9680   -35.7890 
  170.3750     2.2180    52.3440    87.9860    86.0180    72.0490    26.1280   -36.1550 
  170.5000     2.2310    49.6980    90.0410    88.1200    76.7280    26.3040   -36.5100 
  170.6250     2.2460    51.2670    95.4710    93.7150    83.3040    26.4090   -36.8450 
  170.7500     2.2620    54.0610   103.4050   101.9710    87.3010    26.4170   -37.1690 
  170.8750     2.2750    53.6670   112.3290   111.4140    95.2510    26.3160   -37.4560 
  171.0000     2.2770    50.5740   119.6830   119.5340   107.6020    26.2000   -37.6700 
  171.1250     2.2670    49.6490   121.8350   122.7220   108.2630    26.2140   -37.8330 
  171.2500     2.2510    50.6950   118.9290   120.7160   102.2780    26.2500   -38.0030 
  171.3750     2.2480    49.8000   113.2150   115.2440    92.7230    26.2260   -38.1410 
  171.5000     2.2590    46.1570   107.9330   109.3540    83.1040    26.1780   -38.2200 
  171.6250     2.2680    45.7930   106.3400   106.5200    78.2900    26.1320   -38.2450 
  171.7500     2.2620    48.8830   109.1500   107.9620    80.3190    26.0660   -38.2360 
  171.8750     2.2490    50.0360   116.5250   114.1050    84.7290    25.9760   -38.2220 
  172.0000     2.2430    46.9390   127.9010   124.5420    95.6590    25.8740   -38.2330 
  172.1250     2.2400    43.2330   141.8800   138.0230   108.1850    25.6740   -38.2590 
  172.2500     2.2400    42.7190   155.3710   151.4570   116.8960    25.4010   -38.2400 
  172.3750     2.2490    43.9690   165.9550   162.4330   121.0860    25.1240   -38.1700 
  172.5000     2.2590    44.6870   172.2910   169.4490   125.8550    24.8880   -38.0880 
  172.6250     2.2530    45.8180   174.4660   172.2220   117.4300    24.7190   -38.0400 
  172.7500     2.2300    47.4940   175.1840   173.2610   114.3520    24.6990   -38.0090 
  172.8750     2.2140    47.7440   176.1090   174.2990   112.2920    24.8590   -37.9450 
  173.0000     2.2100    46.5480   177.9180   176.2000   108.6210    25.0940   -37.8080 
  173.1250     2.2130    45.0620   179.6940   178.2990   110.4990    25.2270   -37.6490 
  173.2500     2.2150    44.7940   178.6740   178.0120   112.0380    25.2700   -37.5270 
  173.3750     2.2170    46.9170   172.0810   172.5790   110.4400    25.2760   -37.4010 
  173.5000     2.2170    50.9950   159.2500   160.9330   106.2030    25.2760   -37.2470 
  173.6250     2.2170    52.9140   142.8630   144.8870    96.0320    25.2760   -37.0530 
