~V
VERS. 2.00: Ver 2.00
~W
STRT.M 54.0000:
STOP.M 273.0000:
STEP.M 0.1250:
NULL. -999.2500:
UWI. F11158:
~C
DEPT.M :
SP.MV :
DEN.GM/CC :
GR.API :
RML.OHMM :
RI. :
RXO.OHMM :
CALI.CM :
~A
# ...
  144.0000   -11.5780     2.3590    83.9160     5.5080     4.5430     4.4520    22.1160 
  144.1250   -11.6900     2.3650    86.5560     5.5250     4.5490     4.5030    22.0010 
  144.2500   -11.8310     2.3730    91.6740     5.4960     4.5220     4.5120    21.9850 
  144.3750   -11.9710     2.3770    96.7370     5.4370     4.4680     4.4440    22.0090 
  144.5000   -12.0990     2.3780    99.7420     5.3760     4.4010     4.3210    22.0060 
  144.6250   -12.2420     2.3730   100.4440     5.3390     4.3450     4.2020    21.9750 
  144.7500   -12.3970     2.3650    99.0770     5.3490     4.3210     4.2000    21.9280 
  144.8750   -12.5490     2.3580    96.7530     5.4030     4.3320     4.3010    21.9060 
  145.0000   -12.6740     2.3550    93.1940     5.4920     4.3730     4.4180    21.9250 
  145.1250   -12.7820     2.3580    88.2170     5.6030     4.4300     4.4730    21.9950 
  145.2500   -12.8870     2.3630    84.4110     5.7210     4.4890     4.4960    22.1140 
  145.3750   -12.9940     2.3670    82.6610     5.8310     4.5410     4.5180    22.2260 
  145.5000   -13.1060     2.3660    82.2800     5.9250     4.5830     4.5410    22.3150 
  145.6250   -13.2000     2.3630    84.0520     5.9950     4.6150     4.5810    22.3620 
  145.7500   -13.2480     2.3610    89.1270     6.0350     4.6400     4.6210    22.3820 
  145.8750   -13.2450     2.3580    95.1650     6.0520     4.6580     4.5850    22.3860 
  146.0000   -13.2020     2.3550    97.2150     6.0540     4.6720     4.5620    22.3720 
  146.1250   -13.1260     2.3480    94.2190     6.0550     4.6860     4.5680    22.3570 
  146.2500   -12.9920     2.3450    89.1950     6.0670     4.7020     4.5810    22.3530 
  146.3750   -12.7950     2.3480    86.5490     6.0860     4.7210     4.6020    22.3700 
  146.5000   -12.5260     2.3500    85.8820     6.1040     4.7400     4.6560    22.4220 
  146.6250   -12.1940     2.3480    86.7220     6.1110     4.7520     4.6880    22.4890 
  146.7500   -11.8370     2.3450    90.1490     6.1080     4.7530     4.6640    22.5490 
  146.8750   -11.4900     2.3390    96.9320     6.1020     4.7450     4.5900    22.6900 
  147.0000   -11.1710     2.3280   106.1440     6.1020     4.7330     4.5340    22.9700 
  147.1250   -10.8840     2.3140   113.5550     6.1160     4.7230     4.5230    23.2760 
  147.2500   -10.6320     2.3050   113.7110     6.1390     4.7170     4.5560    23.4730 
  147.3750   -10.4150     2.3020   106.8480     6.1520     4.7130     4.5480    23.5490 
  147.5000   -10.2310     2.2980    98.0640     6.1400     4.7080     4.5310    23.5210 
  147.6250   -10.1140     2.2890    92.2970     6.0940     4.6910     4.5370    23.4060 
  147.7500   -10.0710     2.2830    89.1730     6.0060     4.6510     4.5790    23.3180 
  147.8750   -10.0730     2.2870    86.6890     5.8870     4.5820     4.5120    23.3500 
  148.0000   -10.0950     2.3010    85.8230     5.7430     4.4810     4.3620    23.5140 
  148.1250   -10.1300     2.3170    88.5650     5.5940     4.3630     4.2130    23.7130 
  148.2500   -10.1940     2.3260    91.8150     5.4660     4.2540     4.0960    23.8050 
  148.3750   -10.2870     2.3280    92.4050     5.3860     4.1780     3.9910    23.7550 
  148.5000   -10.4060     2.3280    92.0850     5.3690     4.1490     3.9820    23.6470 
  148.6250   -10.5360     2.3300    91.5720     5.4040     4.1640     4.0910    23.5950 
  148.7500   -10.6680     2.3330    89.8630     5.4690     4.2080     4.1900    23.6070 
  148.8750   -10.7830     2.3350    88.0970     5.5280     4.2560     4.1960    23.6210 
  149.0000   -10.8650     2.3380    87.8830     5.5640     4.2900     4.1800    23.5860 
  149.1250   -10.9190     2.3400    88.6320     5.5670     4.2990     4.1520    23.5000 
  149.2500   -10.9560     2.3360    89.8490     5.5350     4.2830     4.1160    23.4150 
  149.3750   -10.9650     2.3280    92.3460     5.4830     4.2480     4.0800    23.3940 
  149.5000   -10.9540     2.3220    95.2720     5.4200     4.2050     4.1110    23.4130 
  149.6250   -10.9090     2.3230    97.5300     5.3590     4.1620     4.1860    23.4590 
  149.7500   -10.8370     2.3260    98.8150     5.3170     4.1270     4.1710    23.4880 
  149.8750   -10.7820     2.3250    97.4820     5.3040     4.1040     4.0620    23.4990 
  150.0000   -10.7430     2.3240    94.4620     5.3200     4.0960     4.0180    23.5460 
  150.1250   -10.6820     2.3320    94.6400     5.3490     4.0960     4.0680    23.5690 
  150.2500   -10.5690     2.3440    97.3950     5.3600     4.0920     4.0910    23.5750 
  150.3750   -10.4610     2.3470    96.9530     5.3320     4.0740     4.0620    23.5790 
  150.5000   -10.4020     2.3370    95.0290     5.2690     4.0430     3.9950    23.5700 
  150.6250   -10.4100     2.3200    96.1270     5.1910     4.0070     3.9080    23.5030 
  150.7500   -10.4610     2.3090    99.3300     5.1250     3.9780     3.8150    23.3880 
  150.8750   -10.4990     2.3050    99.8680     5.0820     3.9590     3.8030    23.3280 
  151.0000   -10.5060     2.3080    98.2970     5.0600     3.9500     3.9370    23.3870 
  151.1250   -10.4940     2.3110    95.1870     5.0630     3.9560     4.1410    23.5190 
  151.2500   -10.4820     2.3130    90.3700     5.1040     3.9880     4.2040    23.6080 
  151.3750   -10.4480     2.3160    86.7730     5.1900     4.0540     4.0580    23.6370 
  151.5000   -10.3880     2.3200    86.0830     5.3160     4.1530     4.0780    23.6420 
  151.6250   -10.3270     2.3170    85.3190     5.4510     4.2610     4.3770    23.6480 
  151.7500   -10.2710     2.2950    81.3720     5.5450     4.3420     4.5600    23.6700 
  151.8750   -10.2190     2.2640    78.2590     5.5700     4.3730     4.5840    23.7100 
  152.0000   -10.1980     2.2420    81.0960     5.5370     4.3530     4.5640    23.7520 
  152.1250   -10.2280     2.2400    87.9730     5.5040     4.3140     4.5730    23.7830 
  152.2500   -10.2910     2.2580    92.2030     5.5600     4.3190     4.7470    23.7920 
  152.3750   -10.3560     2.2820    92.1190     5.7540     4.4160     4.9790    23.7840 
  152.5000   -10.4110     2.2980    89.7990     6.0840     4.6250     5.2670    23.7490 
  152.6250   -10.4340     2.3040    86.4480     6.4990     4.9350     5.8500    23.6920 
  152.7500   -10.4340     2.3020    83.6320     6.9180     5.3030     6.3690    23.6630 
  152.8750   -10.4450     2.3020    85.0630     7.2870     5.6730     6.6930    23.6270 
  153.0000   -10.4410     2.3040    90.8000     7.6190     6.0310     6.6380    23.5470 
  153.1250   -10.3940     2.3050    96.6300     7.9570     6.3900     6.4410    23.3640 
  153.2500   -10.3060     2.3050    98.1320     8.3190     6.7660     6.5090    23.0860 
  153.3750   -10.1950     2.3030    95.4780     8.6620     7.1460     7.3240    22.8880 
  153.5000   -10.0780     2.2980    90.8560     8.9180     7.4930     8.6390    22.9030 
  153.6250    -9.9690     2.2820    89.4930     9.0300     7.7550     9.4170    23.1700 
  153.7500    -9.8610     2.2610    91.5810     8.9810     7.8890     8.5840    23.4950 
  153.8750    -9.7200     2.2480    90.5670     8.8090     7.8960     8.0110    23.6200 
  154.0000    -9.5460     2.2500    85.8100     8.4930     7.7480     7.7380    23.6290 
  154.1250    -9.3700     2.2590    82.7550     7.9710     7.3940     7.6960    23.6170 
  154.2500    -9.2040     2.2660    84.6880     7.1950     6.8000     7.1850    23.5620 
  154.3750    -9.0640     2.2700    85.8500     6.2760     6.0510     6.1370    23.4620 
  154.5000    -8.9420     2.2780    84.8830     5.3670     5.2680     4.8600    23.3960 
  154.6250    -8.8420     2.2860    85.4420     4.6400     4.5960     3.8690    23.4370 
  154.7500    -8.7920     2.2910    89.2100     4.2280     4.1590     3.4650    23.5270 
  154.8750    -8.8010     2.2870    92.9160     4.0960     3.9590     3.4000    23.6460 
  155.0000    -8.8780     2.2780    93.3540     4.1920     3.9690     3.5200    23.7740 
  155.1250    -9.0040     2.2700    92.5010     4.4360     4.1310     3.7760    23.8540 
