~V
VERS. 2.00: Ver 2.00
~W
STRT.M 56.0000:
STOP.M 252.0000:
STEP.M 0.1250:
NULL. -999.2500:
UWI. F11142:
~C
DEPT.M :
SP.MV :
DEN.GM/CC :
GR.API :
RML.OHMM :
RI. :
RXO.OHMM :
CALI.CM :
~A
# ...
  168.5000   -25.2210     2.1900    74.8850   207.0170   202.6280   183.6400    25.3310 
  168.6250   -25.2380     2.1730    70.5750   208.1230   205.4100   194.9720    25.3560 
  168.7500   -25.2460     2.1480    65.3310   204.9040   204.2550   193.7260    25.3770 
  168.8750   -25.2070     2.1260    64.0290   197.7250   199.0570   182.2480    25.3850 
  169.0000   -25.0790     2.1240    67.4440   187.7040   190.3340   170.4440    25.3750 
  169.1250   -25.0090     2.1370    71.3470   176.6940   179.8880   163.2750    25.3450 
  169.2500   -25.0720     2.1520    73.1050   165.2630   168.4750   156.4060    25.3160 
  169.3750   -25.1280     2.1560    72.6310   153.4840   156.3980   148.9180    25.3230 
  169.5000   -25.1940     2.1470    73.3030   141.4590   143.8320   136.4470    25.3610 
  169.6250   -25.2470     2.1320    77.0010   129.9290   131.5230   119.6090    25.3940 
  169.7500   -25.3330     2.1210    81.6860   119.9900   120.5380   102.8160    25.4560 
  169.8750   -25.4760     2.1230    83.4780   112.8000   112.0700    91.9500    25.5570 
  170.0000   -25.6960     2.1430    81.1710   109.8010   107.6610    87.0000    25.6340 
  170.1250   -25.9030     2.1650    77.7470   110.4540   106.9350    86.3500    25.5060 
  170.2500   -25.9870     2.1720    73.9710   114.1650   109.3840    90.2470    25.2360 
  170.3750   -26.0070     2.1600    69.8370   119.9370   114.0500    98.2340    25.0070 
  170.5000   -26.0650     2.1450    66.2980   126.5640   119.7330   107.7740    24.8680 
  170.6250   -26.1600     2.1500    65.1150   132.8460   125.1360   114.0490    24.7540 
  170.7500   -26.2590     2.1790    66.0430   138.4400   129.7970   113.6870    24.6260 
  170.8750   -26.3490     2.2170    67.3390   143.6310   133.8790   112.7390    24.6030 
  171.0000   -26.3840     2.2460    67.7120   149.1130   138.0140   117.0870    24.8570 
  171.1250   -26.3640     2.2570    68.0060   154.9750   142.5150   120.6290    25.0740 
  171.2500   -26.3080     2.2490    68.9470   160.3880   146.8420   122.5780    25.0560 
  171.3750   -26.1960     2.2260    68.8790   163.9150   149.7690   127.8520    24.8850 
  171.5000   -26.0210     2.2000    66.1310   162.6730   149.5110   142.8290    24.8110 
  171.6250   -25.7900     2.1830    64.0110   158.4130   146.5620   158.3190    24.8350 
  171.7500   -25.5280     2.1720    63.9640   153.2860   142.7250   158.7960    24.8780 
  171.8750   -25.2440     2.1590    64.9110   149.3420   140.8400   144.0210    24.9130 
  172.0000   -24.9660     2.1480    65.6090   156.3440   144.6910   123.3590    24.9360 
  172.1250   -24.7470     2.1450    66.6050   170.0900   154.7530   123.6780    24.8830 
  172.2500   -24.6460     2.1500    67.9510   189.2710   169.9990   146.1030    24.7240 
  172.3750   -24.6640     2.1580    69.1850   210.5950   187.4190   173.4040    24.5410 
  172.5000   -24.5770     2.1630    70.0220   228.2480   201.7130   196.5240    24.4550 
  172.6250   -24.4020     2.1680    69.9570   238.0780   209.2170   205.3280    24.4670 
  172.7500   -24.1990     2.1730    69.3860   238.8390   208.9660   199.4010    24.4690 
  172.8750   -24.0170     2.1760    69.0070   232.5010   202.6890   182.0170    24.4020 
  173.0000   -23.9010     2.1710    67.9910   221.6560   192.6980   173.4130    24.2780 
  173.1250   -23.7300     2.1610    66.0780   207.9240   180.6040   173.8690    24.1820 
  173.2500   -23.4410     2.1530    64.7910   190.5030   165.8610   176.6260    24.1690 
  173.3750   -23.0960     2.1530    66.3190   169.1570   148.1350   172.8380    24.1630 
  173.5000   -22.8520     2.1640    68.8950   145.7250   128.5600   149.9370    24.1310 
  173.6250   -22.7110     2.1820    69.7450   124.4610   110.3930   119.5110    24.0770 
  173.7500   -22.6030     2.2010    69.6940   108.4830    96.3250    97.2780    24.0080 
  173.8750   -22.4670     2.2160    70.9670    99.1720    87.9220    83.5540    23.8870 
  174.0000   -22.2490     2.2240    72.8610    96.7120    86.0420    77.5140    23.7480 
  174.1250   -22.0060     2.2210    72.5170    97.4470    87.9230    79.2660    23.7020 
  174.2500   -21.7360     2.2070    70.4530    97.9300    90.6210    90.2000    23.7560 
  174.3750   -21.4050     2.1890    69.3290    94.6180    90.5830   106.5250    23.8280 
  174.5000   -21.0430     2.1860    70.9110    84.0620    83.6580   108.5770    23.8600 
  174.6250   -20.6330     2.2010    74.0780    68.2270    70.5530    96.3120    23.8380 
  174.7500   -20.1490     2.2310    77.8270    50.8440    54.3040    74.9750    23.7900 
  174.8750   -19.6110     2.2670    82.8270    35.9290    39.1680    45.8110    23.8400 
  175.0000   -19.0800     2.3100    87.7820    26.4490    28.6940    23.5730    23.9710 
  175.1250   -18.6160     2.3500    90.4500    21.0610    22.3160    12.8120    24.1140 
  175.2500   -18.1980     2.3730    91.6880    18.6380    18.9840     9.4060    24.2070 
  175.3750   -17.7860     2.3740    92.5680    18.3240    17.6530     8.7440    24.3070 
  175.5000   -17.3480     2.3700    92.3370    18.3270    17.6500     9.4300    24.4220 
  175.6250   -16.9560     2.3730    90.3030    18.7590    18.1770    10.4520    24.5050 
  175.7500   -16.7330     2.3780    88.1590    19.3770    18.8490    11.6700    24.4540 
  175.8750   -16.7050     2.3740    87.5480    19.8490    19.4380    12.7610    24.4640 
  176.0000   -16.7340     2.3590    88.4280    20.3230    19.9860    12.6920    24.6480 
  176.1250   -16.7720     2.3430    89.3060    21.5600    20.8880    12.5340    24.8490 
  176.2500   -16.8790     2.3300    89.2660    23.9370    22.6610    14.5590    24.9460 
  176.3750   -17.1080     2.3130    88.6380    28.0490    25.7950    19.4520    25.0000 
  176.5000   -17.5060     2.2800    86.5810    34.7150    30.8150    28.0180    25.0420 
  176.6250   -17.9780     2.2440    81.2710    41.8640    37.1330    39.0250    25.0200 
  176.7500   -18.4220     2.2220    74.2280    48.7870    43.8510    49.2340    24.8990 
  176.8750   -18.7930     2.2200    70.2730    53.6020    49.7030    52.3280    24.7320 
  177.0000   -19.1830     2.2330    72.2300    57.4570    53.0890    49.1120    24.6900 
  177.1250   -19.5740     2.2450    73.7620    58.9580    54.0510    46.3070    24.6650 
  177.2500   -19.9230     2.2530    72.0690    58.8780    53.2980    44.9500    24.6270 
  177.3750   -20.2270     2.2560    70.0640    58.3720    51.9640    44.0530    24.5330 
  177.5000   -20.4470     2.2540    72.1830    58.7350    51.2860    42.8370    24.4290 
  177.6250   -20.6080     2.2510    75.9690    60.6490    51.9470    42.5420    24.1930 
  177.7500   -20.7110     2.2510    78.2190    64.5240    54.3720    44.4130    23.9030 
  177.8750   -20.7700     2.2540    77.9880    70.4350    58.7470    50.9690    23.7320 
  178.0000   -20.7720     2.2520    75.7470    78.1120    65.0910    62.3720    23.8080 
  178.1250   -20.7490     2.2350    73.3410    86.2150    72.3280    75.5090    24.0580 
  178.2500   -20.7580     2.2060    71.0650    93.5930    79.4640    87.1090    24.4690 
  178.3750   -20.7950     2.1730    68.7470    99.3350    85.5690    90.9120    24.9520 
  178.5000   -20.8510     2.1490    68.2450   102.7760    89.8260    89.2710    25.2400 
  178.6250   -20.9040     2.1370    69.0630   104.5500    92.5450    88.6630    25.3080 
  178.7500   -20.9720     2.1410    70.4210   105.0220    93.9860    90.8070    25.1630 
  178.8750   -21.0390     2.1580    72.2030   104.2570    94.2550    94.5120    24.8280 
  179.0000   -21.1350     2.1800    74.0000   101.7990    92.9950    96.3640    24.4110 
  179.1250   -21.2460     2.1950    74.1120    97.8950    90.3510    93.2720    24.1910 
  179.2500   -21.3350     2.2020    72.1590    93.1270    86.6900    85.9800    24.1310 
  179.3750   -21.3870     2.2060    70.5680    89.2840    82.8570    78.7080    24.0990 
  179.5000   -21.4100     2.2120    70.6820    87.6040    80.2650    72.8300    24.0620 
  179.6250   -21.4260     2.2170    71.2340    88.9960    79.6900    70.3250    24.0410 
