~V
VERS. 2.00: Ver 2.00
~W
STRT.M 58.0000:
STOP.M 206.0000:
STEP.M 0.1250:
NULL. -999.2500:
UWI. F11128:
~C
DEPT.M :
GR.API :
RML.OHMM :
RI. :
RXO.OHMM :
CALI.CM :
SP.MV :
DEN.GM/CC :
~A
# ...
  170.5000    81.6010    31.7490    31.6050    27.8350    24.7050   -17.7610     2.3420 
  170.6250    78.7620    32.0720    31.8330    29.7460    24.6210   -18.0570     2.3390 
  170.7500    74.9800    31.8680    31.5110    33.5690    24.6920   -18.3630     2.3340 
  170.8750    72.9550    30.9790    30.4050    37.6210    24.8820   -18.6400     2.3260 
  171.0000    74.8700    29.6310    28.5790    35.3010    24.9920   -18.9390     2.3230 
  171.1250    78.8230    28.7190    26.8550    29.3990    24.9370   -19.2510     2.3310 
  171.2500    82.5860    29.1940    26.1130    24.1780    24.8460   -19.5800     2.3460 
  171.3750    84.6300    31.5540    27.1640    24.6940    24.8170   -19.8980     2.3640 
  171.5000    83.8910    36.8630    31.0660    32.5850    24.8430   -20.1520     2.3690 
  171.6250    81.8210    44.3500    37.6300    44.6170    24.8650   -20.3830     2.3530 
  171.7500    79.3750    53.0490    46.4600    57.4390    24.8920   -20.5900     2.3240 
  171.8750    76.8000    63.1650    56.5500    66.4890    24.9690   -20.7520     2.2960 
  172.0000    72.9950    72.5090    66.1510    71.3360    25.1440   -20.8090     2.2790 
  172.1250    70.2620    79.8180    73.8190    76.8800    25.3820   -20.7980     2.2650 
  172.2500    69.6120    84.9050    79.0780    83.1980    25.5470   -20.7460     2.2530 
  172.3750    69.5190    88.2260    82.2990    88.2240    25.5890   -20.6910     2.2440 
  172.5000    67.6700    90.2690    83.9990    90.1960    25.5770   -20.6390     2.2420 
  172.6250    65.1140    91.5770    84.8470    88.7160    25.5710   -20.6240     2.2450 
  172.7500    62.9220    92.2840    85.0350    84.9080    25.5200   -20.7190     2.2540 
  172.8750    60.9710    92.5510    84.7660    80.5260    25.4550   -20.9170     2.2640 
  173.0000    60.1500    92.6100    84.3150    76.0410    25.3980   -21.1240     2.2730 
  173.1250    61.1810    92.7770    84.0250    71.8990    25.4480   -21.3200     2.2770 
  173.2500    63.2250    93.2670    84.1360    71.5180    25.4730   -21.5790     2.2790 
  173.3750    66.6390    94.2490    84.8230    77.5330    25.5040   -21.9240     2.2800 
  173.5000    69.8400    95.9300    86.2990    87.2740    25.6160   -22.3100     2.2700 
  173.6250    71.2880    98.2240    88.4540    95.0840    25.6750   -22.6530     2.2500 
  173.7500    69.3750   101.0570    91.2080    97.9400    25.6610   -22.9010     2.2320 
  173.8750    66.0200   104.2750    94.4180    97.5640    25.6010   -23.0960     2.2240 
  174.0000    64.2620   107.6410    97.8840    97.7200    25.5450   -23.3420     2.2270 
  174.1250    64.4180   110.8120   101.2740   100.3190    25.5260   -23.6270     2.2300 
  174.2500    65.1820   113.4940   104.3000   103.6720    25.5230   -23.9170     2.2320 
  174.3750    65.0980   115.4420   106.6970   104.8330    25.5260   -24.2010     2.2350 
  174.5000    64.8100   116.3780   108.1580   104.5820    25.5220   -24.4950     2.2390 
  174.6250    66.1290   116.5300   108.8530   104.1220    25.5210   -24.8170     2.2430 
  174.7500    67.5240   116.1410   108.9950   105.9280    25.5120   -25.1530     2.2470 
  174.8750    66.6380   115.5210   108.8690   109.4360    25.4790   -25.4580     2.2470 
  175.0000    64.9330   114.9290   108.7000   112.0350    25.4240   -25.7020     2.2360 
  175.1250    65.5040   114.3590   108.4830   112.9380    25.4050   -25.8940     2.2200 
  175.2500    67.3430   113.5430   107.9680   111.7640    25.4000   -26.0130     2.2080 
  175.3750    67.5390   112.1020   106.8140   108.9350    25.3640   -26.0500     2.2060 
  175.5000    66.7050   109.5720   104.6160   105.9620    25.2820   -26.0410     2.2050 
  175.6250    67.9580   106.1800   101.5830   101.4060    25.2100   -26.0160     2.2110 
  175.7500    69.4200   102.3520    98.0670    95.0800    25.1200   -25.9690     2.2220 
  175.8750    68.5960    98.6890    94.5680    87.7200    24.9870   -25.9040     2.2330 
  176.0000    66.6560    95.9860    91.7930    81.3090    24.8220   -25.9310     2.2400 
  176.1250    65.8180    94.5670    90.1340    77.7060    24.6390   -26.1020     2.2440 
  176.2500    65.4470    94.5930    89.8280    76.1900    24.4760   -26.3280     2.2450 
  176.3750    64.2470    95.9870    90.8800    77.4250    24.3900   -26.5440     2.2430 
  176.5000    64.4480    98.5640    93.1750    81.5600    24.4440   -26.6480     2.2410 
  176.6250    66.7790   101.6470    96.0630    88.5930    24.6160   -26.6210     2.2420 
  176.7500    68.7320   104.7820    99.1050    94.9640    24.7730   -26.5020     2.2440 
  176.8750    68.6270   107.6130   101.9430    98.0910    24.8540   -26.2760     2.2480 
  177.0000    66.1550   109.8540   104.2700    97.3870    24.8730   -25.8880     2.2540 
  177.1250    63.3670   111.6080   106.1150    97.7710    24.8680   -25.3450     2.2590 
  177.2500    61.9660   113.0750   107.6080   101.0200    24.8520   -24.7010     2.2610 
  177.3750    63.2280   114.6040   109.0430   105.3890    24.8270   -23.9810     2.2600 
  177.5000    66.6560   116.8420   111.0050   106.1090    24.8490   -23.2440     2.2580 
  177.6250    69.5510   120.2460   113.9880   105.5340    24.8610   -22.5010     2.2570 
  177.7500    71.4760   125.1270   118.3790   107.3600    24.8290   -21.7030     2.2560 
  177.8750    72.2910   131.4170   124.2350   115.6500    24.7880   -20.8680     2.2600 
  178.0000    69.9040   138.4560   131.1020   130.3210    24.7810   -19.9800     2.2780 
  178.1250    65.3230   144.8540   137.6570   145.4260    24.7730   -19.0800     2.3110 
  178.2500    62.1130   150.3890   142.8320   155.0450    24.7170   -18.1980     2.3610 
  178.3750    61.6350   154.4320   146.1380   149.5200    24.6050   -17.3710     2.4290 
  178.5000    61.9060   158.5420   148.0860   134.6370    24.4770   -16.5550     2.5190 
  178.6250    62.0210   164.2710   150.5120   129.7250    24.3830   -15.7470     2.6130 
  178.7500    62.8250   169.6150   154.5280   140.5850    24.3170   -14.9950     2.6870 
  178.8750    63.7660   173.2290   159.8460   169.5400    24.2270   -14.3620     2.7210 
  179.0000    62.8340   174.6900   164.2500   208.0180    24.0930   -13.8930     2.7050 
  179.1250    61.1190   172.8290   165.5950   238.0330    23.9800   -13.4890     2.6660 
  179.2500    59.8960   168.3390   163.3900   257.4280    23.8530   -13.1080     2.6330 
  179.3750    60.1680   163.7890   159.1740   250.0370    23.7590   -12.7200     2.6220 
  179.5000    62.5640   163.5470   156.1020   196.1390    23.7820   -12.4320     2.6290 
  179.6250    64.9590   166.2810   155.2450   164.8060    23.8350   -12.2470     2.6360 
  179.7500    65.3640   164.5620   153.9920   171.0870    23.8850   -12.1490     2.6410 
  179.8750    64.3460   155.5070   147.1640   190.1790    23.9290   -12.0610     2.6480 
  180.0000    62.8600   129.5540   127.7660   195.2860    23.9710   -11.9460     2.6580 
  180.1250    60.6350    89.5020    97.0810   173.9080    23.9760   -11.8260     2.6710 
  180.2500    57.9470    50.8430    62.0460   128.4680    23.9420   -11.6870     2.6770 
  180.3750    56.5390    27.2270    33.3160    70.5430    23.9100   -11.5180     2.6520 
  180.5000    56.8040    14.6330    17.3970    34.1690    23.9160   -11.2630     2.5880 
  180.6250    57.4950     8.2800     9.3060    14.4810    23.9640   -11.0050     2.5210 
  180.7500    59.0460     5.2680     5.5260     8.5170    24.0200   -10.7880     2.4770 
  180.8750    61.7590     4.2660     3.9310     7.9070    24.0730   -10.6450     2.4620 
  181.0000    63.7400     4.2810     3.5740     8.4700    24.1540   -10.5410     2.4640 
  181.1250    64.1420     4.6900     3.7850     9.0010    24.2660   -10.4710     2.4650 
  181.2500    64.3080     5.2950     4.3290     9.1680    24.3430   -10.4740     2.4590 
  181.3750    65.7830     5.9190     5.0070     9.3590    24.3600   -10.5650     2.4520 
  181.5000    67.8030     6.3690     5.6050     9.6340    24.2740   -10.7940     2.4500 
  181.6250    68.0620     6.6040     6.0070     9.5450    24.1630   -11.0900     2.4490 
