~V
VERS. 2.00: Ver 2.00
~W
STRT.M 60.0000:
STOP.M 281.0000:
STEP.M 0.1250:
NULL. -999.2500:
UWI. F11154:
~C
DEPT.M :
DEN.GM/CC :
GR.API :
RML.OHMM :
RI. :
RXO.OHMM :
CALI.CM :
SP.MV :
~A
# ...
  150.0000     2.3780    81.2150     5.8490     4.8310     5.1830    24.2110    -4.8810 
  150.1250     2.3790    78.3960     5.8010     4.7840     5.1460    24.2060    -4.7920 
  150.2500     2.3820    77.4250     5.7370     4.7530     5.1040    24.1880    -4.7280 
  150.3750     2.3820    79.0160     5.6750     4.7410     5.0670    24.1630    -4.6920 
  150.5000     2.3760    81.2030     5.6380     4.7450     5.0280    24.1370    -4.6610 
  150.6250     2.3670    81.9960     5.6410     4.7620     5.0360    24.0980    -4.6180 
  150.7500     2.3610    83.5890     5.6700     4.7830     5.0570    24.0510    -4.5480 
  150.8750     2.3600    87.0420     5.7010     4.8020     5.0830    24.0200    -4.4690 
  151.0000     2.3620    90.1020     5.7170     4.8090     5.1150    24.0040    -4.3930 
  151.1250     2.3630    89.5120     5.6970     4.7940     5.0520    24.0330    -4.2720 
  151.2500     2.3610    86.2560     5.6440     4.7560     4.9920    24.0840    -4.1300 
  151.3750     2.3570    83.3770     5.5690     4.6980     4.9730    24.1590    -4.0160 
  151.5000     2.3530    83.6590     5.4880     4.6280     4.9790    24.2060    -3.9710 
  151.6250     2.3540    86.7920     5.4230     4.5560     4.9510    24.2210    -4.0460 
  151.7500     2.3550    88.6530     5.3810     4.4890     4.9160    24.1350    -4.1940 
  151.8750     2.3520    88.2340     5.3650     4.4340     4.9140    24.0030    -4.3830 
  152.0000     2.3410    87.7750     5.3690     4.3930     4.8900    23.9070    -4.6000 
  152.1250     2.3300    88.7170     5.3850     4.3690     4.8380    24.0210    -4.8880 
  152.2500     2.3260    88.4300     5.4040     4.3580     4.7460    24.1460    -5.1800 
  152.3750     2.3260    86.2100     5.4190     4.3550     4.6660    24.1970    -5.3890 
  152.5000     2.3310    83.8380     5.4240     4.3500     4.6240    24.2970    -5.4790 
  152.6250     2.3400    82.2650     5.4140     4.3350     4.6250    24.4520    -5.4290 
  152.7500     2.3500    82.2100     5.3890     4.3090     4.5880    24.4290    -5.3110 
  152.8750     2.3560    84.6920     5.3550     4.2740     4.5270    24.1140    -5.1250 
  153.0000     2.3540    88.8650     5.3180     4.2400     4.4830    23.7560    -4.8690 
  153.1250     2.3520    91.6810     5.2880     4.2160     4.5020    23.6710    -4.5380 
  153.2500     2.3520    91.5420     5.2730     4.2110     4.5820    23.7930    -4.1670 
  153.3750     2.3540    89.1910     5.2790     4.2290     4.7140    23.9830    -3.8140 
  153.5000     2.3590    85.9750     5.3080     4.2680     4.9020    24.1430    -3.5080 
  153.6250     2.3640    84.6560     5.3570     4.3260     5.0900    24.2110    -3.2590 
  153.7500     2.3640    85.9670     5.4140     4.3860     5.1460    24.2590    -3.0190 
  153.8750     2.3560    87.4400     5.4650     4.4370     5.0170    24.3620    -2.7570 
  154.0000     2.3420    86.7320     5.4960     4.4670     4.8590    24.5220    -2.4760 
  154.1250     2.3300    84.8350     5.4930     4.4700     4.8020    24.6060    -2.2110 
  154.2500     2.3220    85.0830     5.4680     4.4580     4.7170    24.6630    -1.9630 
  154.3750     2.3220    87.8630     5.4350     4.4420     4.6560    24.7210    -1.7800 
  154.5000     2.3280    91.2830     5.4110     4.4330     4.5950    24.6920    -1.6700 
  154.6250     2.3320    92.7470     5.4130     4.4410     4.5380    24.6200    -1.6110 
  154.7500     2.3300    91.4630     5.4450     4.4690     4.5680    24.5810    -1.6150 
  154.8750     2.3240    87.2200     5.5080     4.5230     4.6860    24.5370    -1.7070 
  155.0000     2.3160    82.2750     5.6100     4.6100     4.7820    24.3760    -1.8780 
  155.1250     2.3070    80.8620     5.7710     4.7540     4.9120    24.2440    -2.1530 
  155.2500     2.2980    82.5070     5.9940     4.9520     5.1020    24.1860    -2.4940 
  155.3750     2.2950    83.2470     6.2620     5.1950     5.4220    24.1700    -2.8180 
  155.5000     2.3000    81.4560     6.5320     5.4500     5.8170    24.1440    -3.0930 
  155.6250     2.3130    80.8960     6.7140     5.6490     6.2020    24.1200    -3.3280 
  155.7500     2.3200    80.9000     6.7470     5.7440     6.4470    24.1190    -3.5050 
  155.8750     2.3130    78.9570     6.6150     5.7140     6.3500    24.1410    -3.6400 
  156.0000     2.2990    76.7300     6.3620     5.5800     5.9470    24.1760    -3.7700 
  156.1250     2.2930    78.7220     6.1050     5.4200     5.6960    24.1680    -3.8510 
  156.2500     2.2940    82.9710     5.9740     5.3380     5.6430    24.1450    -3.8800 
  156.3750     2.2920    85.2510     6.0440     5.4010     5.6930    24.1420    -3.8910 
  156.5000     2.2830    85.5500     6.3220     5.6330     5.8510    24.1290    -3.8980 
  156.6250     2.2710    85.8960     6.7380     6.0010     6.2010    24.0990    -3.9260 
  156.7500     2.2610    85.8200     7.1080     6.3670     6.7290    24.0570    -3.9740 
  156.8750     2.2540    84.4440     7.2780     6.5980     7.1380    24.0260    -4.0190 
  157.0000     2.2510    82.4480     7.1510     6.5900     7.1270    24.0800    -4.0080 
  157.1250     2.2580    82.1570     6.7140     6.2880     6.4910    24.2960    -3.9270 
  157.2500     2.2760    83.4380     6.1670     5.8410     5.6880    24.6860    -3.8130 
  157.3750     2.2950    83.9760     5.6770     5.3840     5.0390    25.2120    -3.6620 
  157.5000     2.3070    83.3650     5.3530     5.0260     4.8160    25.6090    -3.4830 
  157.6250     2.3080    83.1390     5.2470     4.8370     4.9200    25.5740    -3.2950 
  157.7500     2.3070    82.8230     5.2890     4.7900     5.0600    25.0390    -3.1260 
  157.8750     2.3070    81.2170     5.4460     4.8690     5.2020    24.4210    -3.0030 
  158.0000     2.3060    80.4260     5.7150     5.0740     5.4630    24.0730    -2.9580 
  158.1250     2.3010    83.3130     6.2060     5.4620     5.9500    24.1310    -2.9960 
  158.2500     2.2910    84.2620     7.0930     6.0750     6.7620    24.2270    -3.1260 
  158.3750     2.2760    80.2680     8.4550     6.9910     8.0990    24.2860    -3.3470 
  158.5000     2.2560    74.9020    10.3410     8.2780    10.0860    24.3210    -3.6480 
  158.6250     2.2320    72.2120    12.9560    10.0220    12.7500    24.3690    -3.9820 
  158.7500     2.2120    69.4640    15.3760    12.0710    15.8260    24.4500    -4.3010 
  158.8750     2.1960    64.8670    17.8100    14.2470    19.0740    24.5690    -4.5650 
  159.0000     2.1880    60.0170    19.9750    16.3100    21.7920    24.7020    -4.7650 
  159.1250     2.1860    57.3550    21.5500    17.9590    23.1530    24.7830    -4.9140 
  159.2500     2.1870    56.7470    22.5850    19.1550    23.2440    24.8030    -5.0030 
  159.3750     2.1870    58.3890    23.2260    19.9690    23.0060    24.7740    -5.0230 
  159.5000     2.1890    62.5720    23.6930    20.5570    22.9950    24.7250    -4.9720 
  159.6250     2.1950    67.5710    24.2180    21.1070    22.9380    24.6580    -4.8880 
  159.7500     2.2000    70.3160    24.9330    21.7800    22.7950    24.5920    -4.8140 
  159.8750     2.1980    69.4950    25.8710    22.6410    22.7290    24.5340    -4.7570 
  160.0000     2.1880    65.9660    26.9710    23.6720    23.1420    24.4770    -4.6980 
  160.1250     2.1780    62.1890    28.0130    24.7280    24.2980    24.4200    -4.6410 
  160.2500     2.1740    60.2630    28.6800    25.5470    25.7430    24.3730    -4.5600 
  160.3750     2.1790    60.5780    28.6940    25.8790    26.7900    24.3470    -4.4480 
  160.5000     2.1950    62.0680    27.9390    25.5770    26.7010    24.3210    -4.3070 
  160.6250     2.2150    63.2120    26.5810    24.6840    25.3090    24.3170    -4.1740 
  160.7500     2.2250    63.3080    25.2890    23.7160    23.7600    24.2300    -4.0690 
  160.8750     2.2200    62.6300    24.6270    23.1560    23.0920    24.0660    -4.0000 
  161.0000     2.2120    62.0920    24.9780    23.3860    23.9030    23.9220    -4.0080 
  161.1250     2.2100    62.7130    26.9120    24.7620    26.5700    24.0410    -4.1390 
