~V
VERS. 2.00: Ver 2.00
~W
STRT.M 50.0000:
STOP.M 240.0000:
STEP.M 0.1250:
NULL. -999.2500:
UWI. F11117:
~C
DEPT.M :
DEN.GM/CC :
GR.API :
RML.OHMM :
RI. :
RXO.OHMM :
CALI.CM :
SP.MV :
~A
# ...
  151.2500     2.2680    66.9660     4.7970     4.2010     4.8830    26.2560   -12.7200 
  151.3750     2.2690    68.7140     4.1060     3.6690     3.7230    27.2770   -12.0740 
  151.5000     2.2650    73.5080     3.6530     3.2680     3.2210    27.9880   -11.5280 
  151.6250     2.2580    78.0900     3.4820     3.0540     3.3430    28.1080   -11.1800 
  151.7500     2.2510    79.3690     3.4940     2.9880     3.6430    28.0390   -10.9500 
  151.8750     2.2440    77.4200     3.6230     3.0360     3.9400    28.0640   -10.8490 
  152.0000     2.2370    76.5540     3.8090     3.1560     4.2180    28.2400   -10.9030 
  152.1250     2.2310    78.9630     4.0140     3.3170     4.3440    28.4500   -11.0840 
  152.2500     2.2260    80.9830     4.2320     3.4940     4.4250    28.4370   -11.3830 
  152.3750     2.2250    79.8300     4.4740     3.6890     4.6280    28.3020   -11.8300 
  152.5000     2.2290    75.4280     4.7410     3.9010     4.9610    28.2750   -12.3650 
  152.6250     2.2350    70.2210     5.0050     4.1130     5.1950    28.1270   -12.9620 
  152.7500     2.2380    64.7280     5.2340     4.3030     5.2920    27.8290   -13.6270 
  152.8750     2.2340    62.5510     5.4280     4.4670     5.8220    27.3570   -14.3140 
  153.0000     2.2230    66.2010     5.6230     4.6220     5.9660    27.0410   -15.0720 
  153.1250     2.2110    71.3970     5.9200     4.8280     5.8330    27.4250   -15.9730 
  153.2500     2.2060    72.1560     6.4140     5.1500     5.6800    27.2720   -16.9230 
  153.3750     2.2090    68.8670     7.1790     5.6520     6.4530    26.4740   -17.8820 
  153.5000     2.2200    64.6450     8.2530     6.3740     8.1050    25.6410   -18.8770 
  153.6250     2.2340    62.1470     9.6350     7.3520     8.9590    25.5630   -19.8450 
  153.7500     2.2400    63.4300    11.1050     8.4620     9.4260    25.6380   -20.7560 
  153.8750     2.2300    65.5590    12.3780     9.5220     9.8970    25.7010   -21.6380 
  154.0000     2.2010    63.4290    13.1540    10.3020     9.9590    25.9260   -22.4390 
  154.1250     2.1580    58.1400    13.2410    10.5930     9.3490    26.4000   -23.0470 
  154.2500     2.1210    56.4050    13.0090    10.5840     8.7120    26.7850   -23.5570 
  154.3750     2.1020    59.3350    12.8760    10.5350     8.2450    27.1830   -24.0260 
  154.5000     2.1060    62.3420    13.2110    10.7160     8.0930    27.4590   -24.4440 
  154.6250     2.1250    62.5180    14.3150    11.4010     8.6320    27.8050   -24.8610 
  154.7500     2.1390    61.2570    15.9820    12.5530     9.7190    27.6220   -25.3400 
  154.8750     2.1370    60.1570    17.9120    14.0310    10.2090    27.3120   -25.8550 
  155.0000     2.1210    58.4520    19.7040    15.5710     9.9920    27.3690   -26.3570 
  155.1250     2.1070    55.6190    20.9240    16.7990     9.5300    27.6100   -26.8980 
  155.2500     2.1060    55.6120    21.6370    17.6190     9.4400    28.0660   -27.4240 
  155.3750     2.1160    59.7660    22.1370    18.1730     9.9180    28.5520   -27.8490 
  155.5000     2.1320    64.3200    22.7800    18.7200    10.8660    28.8350   -28.1980 
  155.6250     2.1440    64.0990    23.8530    19.5190    11.9050    28.5990   -28.5110 
  155.7500     2.1480    61.9370    25.3050    20.5910    12.7550    28.4430   -28.7490 
  155.8750     2.1480    61.2500    27.0640    21.9030    13.4570    28.6710   -28.9170 
  156.0000     2.1490    62.7210    29.0530    23.4020    14.1400    29.2310   -29.0610 
  156.1250     2.1510    62.4510    31.2730    25.0850    14.8950    29.5220   -29.1200 
  156.2500     2.1540    59.6030    33.7230    26.9490    15.7110    29.6390   -29.1360 
  156.3750     2.1520    56.9800    36.4340    29.0280    16.8120    30.0130   -29.2120 
  156.5000     2.1460    56.5900    39.3820    31.3190    18.3940    30.8490   -29.3150 
  156.6250     2.1350    58.1510    42.4820    33.7790    19.1800    31.5970   -29.3580 
  156.7500     2.1240    58.8200    45.5750    36.2780    18.7050    31.1600   -29.3800 
  156.8750     2.1150    58.9890    48.5580    38.7290    17.3630    30.4580   -29.3750 
  157.0000     2.1090    59.7880    51.3480    41.0640    16.3530    30.2480   -29.2810 
  157.1250     2.1060    59.4460    53.7880    43.1740    16.3310    30.4260   -29.1860 
  157.2500     2.1040    55.9130    55.7480    44.9730    16.6500    30.8580   -29.1000 
  157.3750     2.1040    52.2690    57.0450    46.3260    16.4580    31.2690   -28.9360 
  157.5000     2.1080    51.7560    57.5990    47.1490    15.5560    31.6420   -28.7290 
  157.6250     2.1160    52.6790    57.4780    47.4250    14.8810    31.8370   -28.5650 
  157.7500     2.1250    51.9370    57.1820    47.4740    15.3340    32.0900   -28.3860 
  157.8750     2.1320    50.8450    57.1420    47.6020    16.1620    32.2290   -28.2200 
  158.0000     2.1350    49.7170    57.7040    48.1060    16.5540    32.3370   -28.1460 
  158.1250     2.1310    48.1460    59.1540    49.2760    16.6800    32.4100   -28.0890 
  158.2500     2.1240    48.5170    61.2540    50.9960    16.7510    32.5390   -28.0620 
  158.3750     2.1170    51.4750    63.7240    53.0760    16.6020    32.6180   -28.1230 
  158.5000     2.1130    55.2720    66.1980    55.2310    16.0300    32.6610   -28.1860 
  158.6250     2.1130    57.9210    68.1960    57.0680    15.2940    32.6360   -28.2110 
  158.7500     2.1170    58.6440    69.5080    58.3810    15.1380    32.5830   -28.2520 
  158.8750     2.1220    56.4650    70.0590    59.0940    15.8370    32.7000   -28.2140 
  159.0000     2.1290    53.1760    69.9120    59.2480    16.8250    33.1840   -28.0790 
  159.1250     2.1330    51.9770    69.2050    58.9310    17.4630    33.9530   -27.9240 
  159.2500     2.1340    53.5950    68.3300    58.4530    17.8580    34.4210   -27.6990 
  159.3750     2.1330    57.2130    67.5480    58.0360    18.4380    34.6030   -27.3420 
  159.5000     2.1310    58.7610    66.9910    57.8290    19.2890    34.5990   -26.9350 
  159.6250     2.1310    54.8940    66.6370    57.8870    20.1400    34.3470   -26.4950 
  159.7500     2.1340    51.4650    66.2730    58.0680    20.8040    34.1520   -25.9810 
  159.8750     2.1390    53.8500    65.7340    58.2470    21.8800    34.9830   -25.5000 
  160.0000     2.1460    58.1530    64.8910    58.3010    23.6650    35.6800   -25.0700 
  160.1250     2.1530    59.5140    63.4820    58.0000    24.8320    36.2780   -24.5860 
  160.2500     2.1580    60.7150    61.3060    57.1070    25.5460    36.9530   -24.0950 
  160.3750     2.1630    61.4850    58.1230    55.3300    26.4870    37.4160   -23.6780 
  160.5000     2.1680    59.1820    53.8780    52.4780    28.9600    37.8510   -23.2790 
  160.6250     2.1750    55.2280    48.7790    48.5150    30.5360    38.3120   -22.8630 
  160.7500     2.1830    54.3100    43.5790    44.0810    28.9880    39.2210   -22.4930 
  160.8750     2.1950    54.3460    38.8410    39.7340    24.9950    39.8220   -22.1100 
  161.0000     2.2100    52.0930    34.9830    35.9590    21.3880    39.9560   -21.6650 
  161.1250     2.2220    49.0990    32.4650    33.2710    20.0160    39.8320   -21.2780 
  161.2500     2.2280    49.2800    31.2320    31.7000    19.5610    39.6300   -20.9370 
  161.3750     2.2210    52.9430    31.3360    31.3140    20.0220    39.8410   -20.5780 
  161.5000     2.2050    56.1220    32.7750    32.1260    21.2850    40.0350   -20.2890 
  161.6250     2.1860    56.7480    35.7120    34.3080    24.2500    40.2460   -20.1120 
  161.7500     2.1720    57.0010    39.8430    37.6050    28.5420    40.3890   -19.9480 
  161.8750     2.1670    58.4110    45.0480    41.8960    34.3490    40.3550   -19.8350 
  162.0000     2.1650    60.3260    51.1660    46.9800    38.4670    40.1860   -19.7850 
  162.1250     2.1570    61.5610    58.0890    52.6430    43.4720    39.9470   -19.6760 
  162.2500     2.1400    61.6330    65.4060    58.4710    48.0840    39.9910   -19.5640 
  162.3750     2.1160    60.5700    72.7280    64.1340    49.3650    39.8290   -19.4840 
