~V
VERS. 2.00: Ver 2.00
~W
STRT.M 53.0000:
STOP.M 212.0000:
STEP.M 0.1250:
NULL. -999.2500:
UWI. F11124:
~C
DEPT.M :
SP.MV :
DEN.GM/CC :
GR.API :
RML.OHMM :
RI. :
RXO.OHMM :
CALI.CM :
~A
# ...
  131.7500    -9.6440     2.5050    50.2900    15.1230    14.7630    13.2340    26.2220 
  131.8750    -9.7040     2.5010    49.8730    15.1620    14.8550    14.0400    26.2600 
  132.0000    -9.7790     2.4910    53.7290    15.0530    14.8330    14.2410    26.3370 
  132.1250    -9.9080     2.4750    58.1770    14.7680    14.6110    13.6890    26.4250 
  132.2500   -10.0730     2.4610    59.8860    14.4630    14.3030    12.8930    26.4380 
  132.3750   -10.2800     2.4580    58.9470    14.2570    14.0270    12.3910    26.3320 
  132.5000   -10.5200     2.4650    55.8210    14.2040    13.8590    12.3540    26.1940 
  132.6250   -10.7920     2.4770    50.7370    14.2950    13.8190    12.3520    26.1140 
  132.7500   -11.0770     2.4800    47.6510    14.4590    13.8530    12.3070    26.1030 
  132.8750   -11.3470     2.4710    49.7900    14.6800    13.9360    12.3900    26.1080 
  133.0000   -11.6460     2.4570    55.2920    14.9910    14.0860    12.5550    26.1270 
  133.1250   -11.9540     2.4470    61.5220    15.4700    14.3710    13.0310    26.1940 
  133.2500   -12.2360     2.4410    67.5380    16.0930    14.7860    13.8330    26.3230 
  133.3750   -12.4940     2.4390    72.5050    16.7850    15.2840    14.9330    26.4250 
  133.5000   -12.7220     2.4370    74.3090    17.4130    15.7730    16.0300    26.4870 
  133.6250   -12.8820     2.4360    71.5730    17.7770    16.0860    16.9440    26.5460 
  133.7500   -12.9950     2.4340    69.4450    17.8460    16.1540    17.1750    26.6190 
  133.8750   -13.0720     2.4330    71.6430    17.7010    16.0030    16.7230    26.6550 
  134.0000   -13.0730     2.4330    75.9590    17.5200    15.7590    16.1950    26.6710 
  134.1250   -13.0270     2.4330    75.1020    17.5310    15.6120    15.8780    26.7050 
  134.2500   -12.9760     2.4400    71.0250    17.8030    15.6620    15.8400    26.7740 
  134.3750   -12.8970     2.4520    71.5100    18.3090    15.9260    16.1940    26.8540 
  134.5000   -12.7880     2.4630    77.2060    18.9450    16.3420    17.0280    26.9020 
  134.6250   -12.6650     2.4630    82.2170    19.5490    16.7910    18.0070    26.9080 
  134.7500   -12.5270     2.4580    83.7040    19.9990    17.1460    18.3760    26.9110 
  134.8750   -12.3890     2.4540    81.7990    20.2580    17.3520    18.0520    26.9480 
  135.0000   -12.3020     2.4520    78.0400    20.3640    17.4070    17.7460    27.0320 
  135.1250   -12.2110     2.4450    74.1470    20.4130    17.3650    18.1750    27.1330 
  135.2500   -12.1260     2.4290    71.5670    20.5140    17.3310    19.0190    27.1900 
  135.3750   -12.0460     2.4090    68.1570    20.7040    17.3540    19.7810    27.1890 
  135.5000   -11.9750     2.3940    62.5350    20.9660    17.4400    20.2410    27.1670 
  135.6250   -11.9310     2.3970    59.2950    21.2960    17.5810    20.2340    27.1560 
  135.7500   -11.9030     2.4190    62.8530    21.7380    17.7950    20.0500    27.1250 
  135.8750   -11.8880     2.4450    70.8650    22.3700    18.1450    20.0850    27.0860 
  136.0000   -11.8490     2.4640    75.5710    23.2230    18.6750    20.5320    27.0230 
  136.1250   -11.8290     2.4780    71.5820    24.2280    19.3850    21.3750    26.8860 
  136.2500   -11.7990     2.4950    67.1760    25.1500    20.1200    22.7100    26.7560 
  136.3750   -11.7410     2.5130    67.2320    25.7550    20.7120    24.4390    26.6970 
  136.5000   -11.6870     2.5210    69.2460    25.8440    21.0000    25.5380    26.6960 
  136.6250   -11.6130     2.5120    69.6390    25.2190    20.7860    24.5800    26.6990 
  136.7500   -11.5080     2.4980    70.4180    24.0330    20.1070    22.9650    26.6820 
  136.8750   -11.3900     2.4890    72.1920    22.4680    19.0400    21.4860    26.6530 
  137.0000   -11.2500     2.4850    71.4350    20.7700    17.7600    20.0890    26.6180 
  137.1250   -11.0810     2.4810    67.1040    19.1320    16.4450    18.3970    26.5430 
  137.2500   -10.9030     2.4730    65.0350    17.5140    15.1360    16.5460    26.4360 
  137.3750   -10.7160     2.4590    67.0890    15.7750    13.7420    14.7630    26.3110 
  137.5000   -10.5200     2.4370    70.0440    13.8240    12.1800    13.4240    26.2040 
  137.6250   -10.3130     2.4020    71.9130    11.7380    10.4800    12.1430    26.1140 
  137.7500   -10.0940     2.3640    73.8910     9.7850     8.8430    10.4070    26.0630 
  137.8750    -9.8610     2.3340    76.5790     7.8900     7.4400     8.2470    26.0540 
  138.0000    -9.6370     2.3190    77.4520     6.6500     6.3580     6.2920    26.0510 
  138.1250    -9.4300     2.3150    76.1320     5.9500     5.6500     5.3250    26.0510 
  138.2500    -9.2270     2.3160    75.2890     5.5320     5.2100     4.9490    26.0450 
  138.3750    -9.0640     2.3150    77.6390     5.3150     4.9800     4.7610    26.0420 
  138.5000    -8.9440     2.3120    83.3010     5.2430     4.9060     4.6100    26.0320 
  138.6250    -8.8700     2.3080    87.4020     5.2980     4.9610     4.5640    26.0070 
  138.7500    -8.8480     2.3040    84.7020     5.4350     5.0910     4.7130    25.9790 
  138.8750    -8.8570     2.3010    78.2630     5.6050     5.2570     4.9990    25.9630 
  139.0000    -8.8850     2.2980    76.2490     5.7410     5.4030     5.2400    25.9470 
  139.1250    -8.9290     2.2960    79.9770     5.7400     5.4420     5.2470    25.9300 
  139.2500    -8.9990     2.2930    83.0480     5.5830     5.3390     5.0740    25.9290 
  139.3750    -9.0700     2.2920    84.2270     5.3060     5.1030     4.8260    25.9180 
  139.5000    -9.1140     2.2940    85.9210     4.9900     4.7920     4.5820    25.8650 
  139.6250    -9.1780     2.2990    91.2460     4.7600     4.5070     4.3450    25.7970 
  139.7500    -9.2520     2.3050    97.3660     4.6870     4.3360     4.1740    25.7440 
  139.8750    -9.3350     2.3080   101.9650     4.8120     4.3280     4.1520    25.7180 
  140.0000    -9.4460     2.3090   104.4800     5.1400     4.5030     4.3580    25.7280 
  140.1250    -9.5610     2.3020   102.0450     5.6530     4.8680     4.8770    25.7770 
  140.2500    -9.6760     2.2920    96.2850     6.2250     5.3310     5.5310    25.8350 
  140.3750    -9.7910     2.2870    89.8970     6.7420     5.8000     6.1330    25.8780 
  140.5000    -9.9060     2.2870    87.4840     7.1090     6.1870     6.5020    25.8980 
  140.6250   -10.0010     2.2900    88.5790     7.2700     6.4100     6.6100    25.9050 
  140.7500   -10.0720     2.2910    86.1940     7.3060     6.5010     6.6610    25.9150 
  140.8750   -10.1150     2.2920    82.5750     7.2830     6.5050     6.7040    25.9520 
  141.0000   -10.1280     2.2910    80.8280     7.2450     6.4660     6.7310    26.0250 
  141.1250   -10.1350     2.2900    81.0990     7.2060     6.4080     6.7140    26.0810 
  141.2500   -10.1320     2.2900    82.0800     7.1640     6.3430     6.6790    26.1100 
  141.3750   -10.1340     2.2900    84.0870     7.1300     6.2800     6.6180    26.1450 
  141.5000   -10.1670     2.2880    85.7820     7.1230     6.2340     6.5150    26.2120 
  141.6250   -10.2190     2.2840    84.2500     7.1740     6.2340     6.3880    26.2540 
  141.7500   -10.3180     2.2810    80.9070     7.2860     6.2900     6.3200    26.2650 
  141.8750   -10.4620     2.2780    80.0220     7.4520     6.4010     6.3860    26.2200 
  142.0000   -10.6390     2.2760    82.8570     7.6500     6.5560     6.5660    26.1140 
  142.1250   -10.8670     2.2730    86.9890     7.8870     6.7500     6.7850    26.0560 
  142.2500   -11.1350     2.2730    87.9930     8.2040     6.9970     6.9860    26.0410 
  142.3750   -11.4530     2.2780    84.4750     8.6700     7.3410     7.2260    26.0760 
  142.5000   -11.8010     2.2850    80.2840     9.3420     7.8350     7.6620    26.1300 
  142.6250   -12.1620     2.2940    77.1930    10.2550     8.5350     8.5730    26.1770 
  142.7500   -12.5260     2.3050    73.1610    11.2570     9.3580     9.8900    26.2060 
  142.8750   -12.8810     2.3110    70.9650    12.1500    10.1660    11.2100    26.2400 
