~V
VERS. 2.00: Ver 2.00
~W
STRT.M 50.0000:
STOP.M 242.0000:
STEP.M 0.1250:
NULL. -999.2500:
UWI. F11136:
~C
DEPT.M :
GR.API :
RML.OHMM :
RI. :
RXO.OHMM :
CALI.CM :
SP.MV :
DEN.GM/CC :
~A
# ...
  117.5000    60.5000    11.4050     9.6940    20.2020    23.6540   -20.5270     2.1920 
  117.6250    65.3320    10.0140     8.7860    12.5310    23.2770   -20.6470     2.2000 
  117.7500    68.7670     8.9470     7.9510     9.4240    23.1030   -20.7350     2.1960 
  117.8750    71.9050     8.3890     7.3540     8.2960    23.1640   -20.7970     2.1850 
  118.0000    72.5230     8.2870     7.0420     8.1330    23.2910   -20.8460     2.1750 
  118.1250    67.1130     8.4160     7.0100     8.5770    23.4060   -20.8630     2.1670 
  118.2500    62.1490     8.4480     7.1010     9.1790    23.4230   -20.8430     2.1590 
  118.3750    62.8540     8.2580     7.1880     9.3080    23.4260   -20.8100     2.1490 
  118.5000    65.6330     7.9200     7.1680     8.9590    23.4210   -20.7490     2.1430 
  118.6250    65.0600     7.6190     6.9790     8.3470    23.3760   -20.6150     2.1490 
  118.7500    64.1950     7.4020     6.6870     7.8150    23.2360   -20.4600     2.1710 
  118.8750    67.3370     7.1990     6.3720     7.4720    23.1040   -20.3190     2.2060 
  119.0000    72.8490     6.9820     6.1340     7.3140    23.1360   -20.1890     2.2450 
  119.1250    72.8060     6.8890     6.1110     7.3130    23.2720   -20.0570     2.2740 
  119.2500    68.2300     7.0630     6.3420     7.3030    23.4690   -19.9520     2.2850 
  119.3750    63.8000     7.5390     6.8300     7.7840    23.9460   -19.8830     2.2780 
  119.5000    62.5770     8.1910     7.5150     9.2520    24.7130   -19.8060     2.2610 
  119.6250    64.2900     8.7280     8.2800    10.6800    25.0490   -19.6830     2.2430 
  119.7500    65.4770     8.9930     8.9430    10.8490    25.0710   -19.4920     2.2330 
  119.8750    65.8330     9.0560     9.3760    10.6410    24.8960   -19.2420     2.2330 
  120.0000    68.3940     9.0980     9.5300    11.2020    24.6470   -18.9400     2.2420 
  120.1250    73.8880     9.3230     9.4990    13.2550    24.3960   -18.5320     2.2560 
  120.2500    75.7820     9.7760     9.5510    14.1320    24.3010   -18.0130     2.2700 
  120.3750    71.4550    10.4690     9.9020    13.6780    24.1300   -17.4630     2.2840 
  120.5000    66.2400    12.7590    10.6750    15.0880    24.0420   -16.9640     2.3070 
  120.6250    63.0800    13.9220    11.8210    17.6830    23.9440   -16.5300     2.3510 
  120.7500    59.1460    14.7280    12.8260    23.8070    23.9480   -16.1440     2.4140 
  120.8750    55.9470    14.5590    13.0590    25.6830    23.9060   -15.8410     2.4810 
  121.0000    56.6260    13.1530    12.1670    19.2270    23.8690   -15.6350     2.5230 
  121.1250    58.5200    11.0380    10.4730    11.6130    23.8230   -15.5160     2.5090 
  121.2500    59.7690     9.2890     8.9300     9.2490    23.8900   -15.4520     2.4530 
  121.3750    61.4060     8.4600     8.0430     8.9420    23.9500   -15.4300     2.3800 
  121.5000    63.3840     8.7800     8.0380     9.4640    23.9680   -15.4040     2.3180 
  121.6250    61.2410    10.6250     9.2000    10.8410    23.9570   -15.3770     2.2910 
  121.7500    54.3820    13.9960    11.4950    14.6300    23.9150   -15.3470     2.3020 
  121.8750    47.6870    18.9880    15.0590    20.6040    23.9330   -15.2940     2.3490 
  122.0000    44.9270    25.1850    19.8400    26.1720    23.9040   -15.2280     2.4210 
  122.1250    44.4850    30.7610    24.9250    32.6580    23.8990   -15.1780     2.5000 
  122.2500    43.4840    33.0700    28.0950    35.3770    23.8840   -15.1250     2.5610 
  122.3750    42.2470    30.8080    27.6920    35.8170    23.7840   -15.0580     2.5960 
  122.5000    42.0340    25.4540    24.2330    35.2970    24.0000   -15.0100     2.5990 
  122.6250    42.6210    20.4460    20.0620    28.3720    24.1580   -14.9550     2.5700 
  122.7500    45.8970    17.7750    17.0690    19.4450    24.1590   -14.8950     2.5210 
  122.8750    51.6100    17.6070    15.7380    14.3070    24.1330   -14.8380     2.4690 
  123.0000    54.6140    19.5220    16.1300    14.5190    24.1200   -14.7670     2.4330 
  123.1250    50.2190    23.2500    18.4810    21.2680    24.0750   -14.6680     2.4360 
  123.2500    43.2230    27.7890    22.2250    29.8010    23.9200   -14.5660     2.4700 
  123.3750    38.9010    31.9580    26.4510    34.2840    23.9780   -14.4640     2.5150 
  123.5000    39.4620    34.2790    29.6010    32.3340    24.0140   -14.3720     2.5460 
  123.6250    42.6410    33.7050    30.0820    29.3840    24.0830   -14.3050     2.5390 
  123.7500    44.2270    31.7210    28.8080    28.6120    24.1790   -14.2380     2.5090 
  123.8750    43.9950    29.6400    27.0050    29.1140    24.2210   -14.1800     2.4720 
  124.0000    44.2360    28.1620    25.5020    28.2900    24.1630   -14.1470     2.4440 
  124.1250    45.3030    27.4260    24.6340    26.2730    24.0920   -14.1730     2.4320 
  124.2500    45.2130    26.9620    24.1500    24.2960    24.1380   -14.1900     2.4340 
  124.3750    43.8770    26.4530    23.8070    25.0760    24.1890   -14.1840     2.4480 
  124.5000    41.5040    25.7170    23.3910    26.2670    24.1900   -14.1910     2.4700 
  124.6250    39.2120    24.8140    22.7710    24.2440    24.1320   -14.2160     2.4930 
  124.7500    39.1560    24.0540    22.0650    21.3630    24.1070   -14.2310     2.5060 
  124.8750    41.0980    23.6440    21.4600    20.3220    24.1220   -14.2190     2.5010 
  125.0000    42.6340    23.6350    21.1240    20.7100    24.1780   -14.1920     2.4820 
  125.1250    42.1440    23.9800    21.1910    21.8390    24.2220   -14.1390     2.4650 
  125.2500    40.7310    24.4290    21.5220    22.9500    24.1790   -14.0830     2.4630 
  125.3750    39.9450    24.7850    21.9050    23.5640    24.1810   -14.0180     2.4770 
  125.5000    40.6400    24.8940    22.0590    23.4060    24.2350   -13.9130     2.5010 
  125.6250    41.0760    24.5670    21.7180    22.8670    24.3130   -13.7920     2.5240 
  125.7500    39.9430    23.9100    21.0220    22.7000    24.4380   -13.6660     2.5320 
  125.8750    39.4350    23.1900    20.1980    21.9700    24.5890   -13.5170     2.5210 
  126.0000    41.0300    22.7360    19.5310    18.8410    24.5380   -13.3340     2.4960 
  126.1250    41.7360    22.8650    19.3590    17.2020    24.3930   -13.1760     2.4700 
  126.2500    41.1020    23.5020    19.7200    18.3560    24.1980   -13.0540     2.4590 
  126.3750    40.6440    24.5430    20.5520    20.5340    24.0770   -12.9410     2.4680 
  126.5000    40.0130    25.8290    21.6680    22.2190    24.0260   -12.8230     2.4950 
  126.6250    39.3240    26.9650    22.6800    23.7570    23.7890   -12.7390     2.5270 
  126.7500    40.5310    27.4540    23.1660    24.1150    23.5160   -12.7190     2.5490 
  126.8750    43.6380    26.9930    22.9450    22.5780    23.3260   -12.7090     2.5580 
  127.0000    46.4350    25.7210    22.1720    21.0320    23.4410   -12.7140     2.5550 
  127.1250    47.3250    24.2830    21.2370    20.4790    23.7380   -12.7280     2.5480 
  127.2500    46.7780    23.3400    20.5540    21.6630    23.8350   -12.7690     2.5420 
  127.3750    44.2120    23.0430    20.3020    23.6860    24.0320   -12.8160     2.5420 
  127.5000    41.1860    23.1810    20.4730    24.0460    24.1010   -12.8490     2.5460 
  127.6250    40.1520    23.3550    20.9130    24.2440    24.0950   -12.8730     2.5540 
  127.7500    40.1110    23.3770    21.3440    24.6180    24.0660   -12.8990     2.5620 
  127.8750    39.8580    23.3550    21.6540    24.4880    24.0920   -12.9430     2.5670 
  128.0000    39.0400    23.4460    21.8360    23.7140    24.0530   -12.9670     2.5700 
  128.1250    38.3690    23.6480    21.9200    23.3640    24.1130   -12.9610     2.5710 
  128.2500    38.9140    23.7170    21.9150    24.7380    24.2070   -12.9610     2.5720 
  128.3750    40.9010    23.4560    21.7420    26.0300    24.1250   -12.9710     2.5730 
  128.5000    42.4910    22.8260    21.3230    24.8290    24.0680   -12.9620     2.5710 
  128.6250    41.9520    21.9470    20.6650    22.2960    23.9980   -12.9320     2.5650 
