~V
VERS. 2.00: Ver 2.00
~W
STRT.M 63.0000:
STOP.M 219.0000:
STEP.M 0.1250:
NULL. -999.2500:
UWI. F11123:
~C
DEPT.M :
GR.API :
RML.OHMM :
RI. :
RXO.OHMM :
CALI.CM :
SP.MV :
DEN.GM/CC :
~A
# ...
  198.0000    73.6080    20.0540    16.3460    25.2570    24.8050    -5.3100     2.5880 
  198.1250    75.9220    18.1460    15.1990    18.0810    24.8260    -5.1690     2.5780 
  198.2500    83.5560    15.2190    13.1460    12.8460    24.8610    -5.0450     2.5370 
  198.3750    91.5240    12.3280    10.9660    10.2500    24.8760    -4.9830     2.4820 
  198.5000    95.5730    10.1110     9.1630     8.8740    24.9300    -4.9990     2.4270 
  198.6250    93.1770     8.8190     7.9950     8.0130    24.9750    -5.1020     2.3840 
  198.7500    85.7940     8.1390     7.3040     7.2020    24.9410    -5.2520     2.3590 
  198.8750    75.9400     7.8890     6.9790     6.3090    24.8400    -5.3890     2.3500 
  199.0000    65.3910     7.9370     6.9230     5.8600    24.7590    -5.4710     2.3510 
  199.1250    57.1550     8.1900     7.0700     6.0990    24.7180    -5.4550     2.3550 
  199.2500    54.0670     8.4900     7.2960     6.5640    24.6550    -5.2950     2.3550 
  199.3750    56.1070     8.7280     7.5130     6.3880    24.6380    -4.9630     2.3530 
  199.5000    59.0200     8.8350     7.6370     5.9470    24.7800    -4.4720     2.3500 
  199.6250    58.2700     8.7700     7.5930     5.8320    24.8410    -3.8280     2.3490 
  199.7500    57.3840     8.5960     7.4230     5.7240    24.8040    -3.0940     2.3510 
  199.8750    60.5930     8.3590     7.1890     5.4920    24.6410    -2.3320     2.3570 
  200.0000    67.6970     8.1030     6.9580     5.2810    24.5710    -1.5900     2.3630 
  200.1250    73.5330     7.8900     6.7930     5.1730    24.5790    -0.9340     2.3600 
  200.2500    75.9030     7.7650     6.7020     5.2340    24.7630    -0.4300     2.3450 
  200.3750    76.9330     7.7430     6.6720     5.4670    24.9010    -0.0940     2.3230 
  200.5000    77.6990     7.7970     6.6720     5.6870    24.9640     0.1060     2.3010 
  200.6250    76.4260     7.8690     6.6630     5.7210    24.9150     0.1880     2.2950 
  200.7500    75.4080     7.9220     6.6250     5.6130    24.8000     0.1930     2.3060 
  200.8750    77.2850     7.9560     6.5640     5.4830    24.6610     0.1430     2.3260 
  201.0000    81.3330     7.9720     6.5020     5.4570    24.6800     0.0560     2.3420 
  201.1250    84.8580     7.9450     6.4730     5.5660    24.7390    -0.0900     2.3450 
  201.2500    86.1850     7.8680     6.4840     5.7460    24.7730    -0.2580     2.3390 
  201.3750    84.0790     7.7750     6.5320     5.8820    24.7970    -0.4840     2.3320 
  201.5000    79.3560     7.7200     6.6020     6.0520    24.7960    -0.7650     2.3270 
  201.6250    75.2330     7.7260     6.6790     6.1820    24.7990    -1.0940     2.3260 
  201.7500    73.2830     7.7710     6.7500     6.3440    24.8000    -1.4340     2.3260 
  201.8750    72.1870     7.8420     6.8140     6.5450    24.7990    -1.7760     2.3270 
  202.0000    72.2640     7.9710     6.8800     6.6500    24.8050    -2.1110     2.3290 
  202.1250    75.7370     8.2770     6.9890     6.8190    24.8030    -2.4260     2.3320 
  202.2500    80.7330     8.8060     7.1820     7.1310    24.7990    -2.7270     2.3340 
  202.3750    84.6160     9.5680     7.5090     7.5030    24.8000    -2.9980     2.3340 
  202.5000    85.6300    10.5600     8.0280     8.3830    24.8040    -3.2290     2.3300 
  202.6250    83.8170    11.8680     8.8340     9.9480    24.7950    -3.4780     2.3230 
  202.7500    81.5610    13.4690     9.9070    11.5060    24.8020    -3.7460     2.3140 
  202.8750    80.8050    15.3090    11.2260    13.0820    24.7960    -4.0460     2.3030 
  203.0000    80.9280    17.3330    12.7450    15.5360    24.7910    -4.3880     2.2900 
  203.1250    78.8600    19.5870    14.4570    18.8710    24.7480    -4.7840     2.2750 
  203.2500    77.6490    22.1470    16.3460    20.7470    24.7320    -5.2060     2.2590 
  203.3750    79.5590    25.1150    18.4450    21.0650    24.6950    -5.6510     2.2440 
  203.5000    81.2340    28.4140    20.7310    23.6240    24.6820    -6.1190     2.2310 
  203.6250    77.6700    31.5930    22.9940    26.8680    24.7050    -6.5810     2.2240 
  203.7500    72.3700    34.1320    24.9340    34.1950    24.8000    -7.0110     2.2230 
  203.8750    70.3710    35.9080    26.4330    36.4380    24.8620    -7.4210     2.2270 
  204.0000    72.1710    37.4100    27.7020    32.4330    24.8720    -7.8130     2.2300 
  204.1250    73.2380    40.0340    29.5160    27.9590    24.8900    -8.2270     2.2260 
  204.2500    73.4910    45.1030    32.8050    29.5700    24.8700    -8.6610     2.2130 
  204.3750    74.3120    53.6000    38.4200    42.1750    24.8720    -9.1120     2.1930 
  204.5000    75.0080    65.7690    46.7830    57.5130    24.8800    -9.5690     2.1740 
  204.6250    73.3600    80.6550    57.5630    68.1080    24.8700   -10.0230     2.1600 
  204.7500    70.4290    94.5920    68.3050    72.9930    24.8660   -10.4700     2.1550 
  204.8750    70.2700   104.3750    76.7490    78.9670    24.8660   -10.9010     2.1550 
  205.0000    72.2470   108.8490    81.7560    83.2020    24.8580   -11.2970     2.1560 
  205.1250    72.3590   109.0190    83.4740    86.5850    24.8700   -11.6110     2.1560 
  205.2500    72.5990   107.5970    83.5820    89.5090    24.8720   -11.8600     2.1560 
  205.3750    75.0090   105.3740    82.6390    91.8060    24.8620   -12.0280     2.1550 
  205.5000    79.0100   102.4930    80.8660    90.7220    24.8630   -12.1430     2.1540 
  205.6250    80.2110    98.8870    78.4210    88.1010    24.8580   -12.2030     2.1530 
  205.7500    79.0530    94.9230    75.7810    83.2610    24.8600   -12.2240     2.1550 
  205.8750    77.9240    91.1610    73.4060    76.9790    24.8610   -12.2110     2.1600 
  206.0000    77.4030    88.1890    71.7310    71.1400    24.8680   -12.1790     2.1640 
  206.1250    76.4290    86.1740    70.9380    67.2390    24.8570   -12.1620     2.1750 
  206.2500    76.4290    84.1600    70.2870    69.5190    24.8600   -12.1700     2.2040 
  206.3750    76.4290    81.2080    68.9920    82.6570    24.8630   -12.1820     2.2560 
  206.5000    76.4290    77.0080    66.6480    99.5170    24.8540   -12.1550     2.3100 
  206.6250    76.4290    72.0860    63.4190    77.4900    24.9790   -12.0630     2.3270 
  206.7500    76.4290    67.2220    59.9380    50.3240    25.0110   -11.9180     2.3100 
  206.8750    76.4290    62.3180    56.2340    48.0340    25.0390   -11.7090     2.2850 
  207.0000    76.4290    56.6580    51.8120    71.4800    25.0580   -11.4430     2.2890 
  207.1250    76.4290    49.1390    45.6530    98.7840    25.0670   -11.1440     2.3460 
  207.2500    76.4290    40.1920    38.0060    68.0580    25.0670   -10.8370     2.4190 
  207.3750    76.4290    31.0760    29.9880    33.6550    25.0670   -10.5700     2.4620 
  207.5000    76.4290    23.2590    23.0080    19.3650    25.0670   -10.3880     2.4590 
  207.6250    76.4290    17.9940    18.2190    14.5330    25.0600   -10.2770     2.4310 
  207.7500    76.4290    14.9160    15.3010    12.2560    25.0490   -10.2380     2.4040 
  207.8750    76.4290    13.6270    13.9310    11.6540    25.0390   -10.2650     2.3800 
  208.0000    76.4290    13.6180    13.7350    13.6030    25.0300   -10.3550     2.3510 
  208.1250    76.4290    14.3220    14.3310    18.0950    25.0560   -10.4750     2.3170 
  208.2500    76.4290    14.9270    14.9980    18.1590    25.0600   -10.5800     2.2910 
  208.3750    76.4290    14.9390    15.2250    15.9250    25.0620   -10.6620     2.2810 
  208.5000    76.4290    14.1870    14.7520    13.1090    25.0650   -10.6750     2.2920 
  208.6250    76.4290    12.8340    13.6380    11.6630    25.0670   -10.5590     2.3160 
  208.7500    76.4290    11.3920    12.3460    10.4570    25.0670   -10.2820     2.3410 
  208.8750    76.4290    10.1110    11.1320     9.5030    25.0670    -9.8400     2.3600 
  209.0000    76.4290     9.0600    10.0900     8.5060    25.0710    -9.2400     2.3630 
  209.1250    76.4290     8.2370     9.2280     7.1870    25.0900    -8.4870     2.3260 
