~V
VERS. 2.00: Ver 2.00
~W
STRT.M 50.0000:
STOP.M 206.0000:
STEP.M 0.1250:
NULL. -999.2500:
UWI. F11107:
~C
DEPT.M :
DEN.GM/CC :
GR.API :
RML.OHMM :
RI. :
RXO.OHMM :
CALI.CM :
SP.MV :
~A
# ...
  173.7500     2.2780    80.2940    74.2640    70.5510    78.7420    26.0190   -20.0640 
  173.8750     2.2800    81.0140    70.9650    67.2480    64.6970    25.9150   -19.9550 
  174.0000     2.2820    81.4810    69.4960    65.3890    56.0540    25.8490   -19.8810 
  174.1250     2.2810    79.1960    70.7210    65.9260    55.5290    25.8050   -19.7710 
  174.2500     2.2770    75.7490    74.1390    68.6050    64.9800    25.7850   -19.6010 
  174.3750     2.2690    74.4690    79.1730    73.0080    78.9440    25.8620   -19.4110 
  174.5000     2.2590    75.3150    84.9950    78.3890    91.4390    26.0960   -19.2340 
  174.6250     2.2500    77.0000    90.6910    83.8130    96.0660    26.3620   -19.0240 
  174.7500     2.2470    79.0720    95.7870    88.6370    95.9850    26.5460   -18.8710 
  174.8750     2.2500    81.0080   100.3360    92.7800    95.8030    26.6180   -18.8190 
  175.0000     2.2580    79.8690   104.6810    96.5090    96.0570    26.6310   -18.7340 
  175.1250     2.2660    75.0290   109.2340   100.2410    98.7060    26.5870   -18.5920 
  175.2500     2.2700    71.8590   114.0790   104.2060   104.0680    26.5320   -18.5290 
  175.3750     2.2690    72.0230   119.0370   108.3630   109.2880    26.4870   -18.5350 
  175.5000     2.2640    73.1760   123.7690   112.4870   114.2680    26.4690   -18.5450 
  175.6250     2.2570    72.9480   127.7060   116.1420   118.9500    26.4530   -18.6160 
  175.7500     2.2510    71.4050   130.5630   119.0160   123.5720    26.4220   -18.7060 
  175.8750     2.2480    68.2410   132.1300   120.8630   125.5650    26.3830   -18.7280 
  176.0000     2.2480    64.7490   132.4060   121.5800   127.2360    26.3350   -18.7950 
  176.1250     2.2480    66.7020   131.5920   121.1900   127.6710    26.3010   -19.0010 
  176.2500     2.2500    70.6100   130.5270   120.3620   128.1020    26.2630   -19.1760 
  176.3750     2.2540    70.5970   129.9360   119.7370   126.5340    26.2280   -19.3380 
  176.5000     2.2570    67.2640   130.4720   119.9760   117.1790    26.2090   -19.5640 
  176.6250     2.2590    65.6440   132.8960   121.9170   105.9600    26.1590   -19.7070 
  176.7500     2.2570    66.8250   137.0850   125.5990   105.1050    26.1320   -19.8020 
  176.8750     2.2530    68.2920   142.8250   130.9050   108.5240    26.1190   -19.9650 
  177.0000     2.2490    69.3420   149.6160   137.3720   115.4480    26.1070   -20.0770 
  177.1250     2.2450    70.1860   156.7500   144.2530   125.5700    26.0750   -19.9850 
  177.2500     2.2420    70.5490   163.5820   150.7860   143.6180    26.0550   -19.8870 
  177.3750     2.2370    69.9170   170.0680   156.8260   157.7790    26.0420   -19.7940 
  177.5000     2.2310    67.8330   176.7130   162.8180   171.3700    26.0050   -19.5760 
  177.6250     2.2250    66.1650   184.6200   169.8630   177.3540    25.9520   -19.2590 
  177.7500     2.2190    67.9420   194.1230   178.4450   174.2350    25.8530   -19.0050 
  177.8750     2.2130    71.0660   204.5640   188.1120   180.4570    25.7690   -18.7380 
  178.0000     2.2090    70.4000   213.9970   197.1930   200.8840    25.7500   -18.4530 
  178.1250     2.2060    63.1990   218.7400   202.3660   223.3710    25.7550   -18.3220 
  178.2500     2.2060    56.3810   217.6270   202.2630   231.3370    25.7400   -18.1880 
  178.3750     2.2080    55.8750   211.5570   197.2960   228.0490    25.6640   -18.0490 
  178.5000     2.2110    61.2980   203.5470   189.8760   198.7710    25.5360   -18.0750 
  178.6250     2.2130    65.9320   198.1880   184.0900   175.6600    25.3160   -18.2670 
  178.7500     2.2120    66.9530   198.1530   182.9090   177.8530    25.1440   -18.5630 
  178.8750     2.2080    66.0940   204.3690   187.6440   204.7790    25.0830   -19.1290 
  179.0000     2.2020    64.3370   216.2190   198.0560   224.6980    25.0960   -19.9000 
  179.1250     2.1970    61.9140   231.8360   212.6900   229.3360    25.0950   -20.6240 
  179.2500     2.1940    60.9410   247.1120   227.6930   234.2700    25.1670   -21.3950 
  179.3750     2.1930    61.4150   258.8240   240.0650   249.7280    25.2670   -22.1980 
  179.5000     2.1940    63.2910   264.6510   247.5440   263.0680    25.3380   -22.7380 
  179.6250     2.1970    65.1790   262.6950   248.0940   254.5220    25.3280   -23.0170 
  179.7500     2.1990    65.9550   254.9900   243.1100   233.4710    25.1970   -23.0800 
  179.8750     2.1980    64.5240   243.2290   233.8280   224.5720    24.9600   -22.6290 
  180.0000     2.1950    62.6330   229.3380   221.9010   212.1300    24.7640   -21.7730 
  180.1250     2.1920    63.6790   215.3160   209.1720   205.4850    24.6510   -20.8670 
  180.2500     2.1830    64.8910   202.7910   197.4040   188.4490    24.6110   -19.8390 
  180.3750     2.1560    65.4760   192.8350   187.6650   162.7940    24.6170   -18.5680 
  180.5000     2.1040    65.5690   186.3030   180.7780   139.4130    24.5480   -17.3790 
  180.6250     2.0500    64.1130   184.5770   178.0380   100.9360    24.4850   -16.3250 
  180.7500     2.0420    60.9030   187.3290   179.2710    84.2870    24.5760   -15.1760 
  180.8750     2.1120    59.1850   194.6790   184.6700    99.2150    24.6480   -14.1960 
  181.0000     2.2550    61.0660   206.8050   194.4820   120.3940    24.5400   -13.4790 
  181.1250     2.4260    62.3880   224.9690   209.8950   161.5460    24.1550   -12.6760 
  181.2500     2.5600    61.2050   248.5420   230.1370   177.2160    23.7700   -11.9130 
  181.3750     2.6340    59.0170   277.0200   254.4500   163.0930    23.4920   -11.3380 
  181.5000     2.6570    58.4140   309.0540   281.4930   162.7520    23.4610   -10.7440 
  181.6250     2.6610    58.8790   343.0930   310.3170   231.5030    23.7700   -10.2160 
  181.7500     2.6790    59.1830   378.0320   341.0420   320.3130    24.0960    -9.8750 
  181.8750     2.7210    59.7450   412.1470   374.3120   379.6040    24.1900    -9.4550 
  182.0000     2.7810    60.8520   434.2730   404.4930   359.3010    24.1450    -8.9870 
  182.1250     2.8380    61.8900   410.7110   404.5440   384.9090    24.2050    -8.6360 
  182.2500     2.8640    61.6190   333.4770   354.9320   557.8700    24.3730    -8.2270 
  182.3750     2.8340    61.7290   224.5560   261.2350   709.6460    24.4560    -7.8450 
  182.5000     2.7430    66.8250   123.8890   156.3160   533.7190    24.3900    -7.6250 
  182.6250     2.5970    78.4220    63.3300    80.9500   227.9130    24.1290    -7.3550 
  182.7500     2.4450    89.3090    32.1340    38.9380    58.2700    23.8240    -7.0120 
  182.8750     2.3220    95.0680    17.0540    19.3210    18.1390    23.5850    -6.7830 
  183.0000     2.2530    94.9780     9.7240    11.0260     8.6880    23.4030    -6.5270 
  183.1250     2.2400    92.8740     6.7980     8.0250     6.9630    23.1160    -6.2570 
  183.2500     2.2530    91.8190     5.8020     6.7320     6.0890    22.9850    -6.1790 
  183.3750     2.2700    91.2090     5.6660     6.2720     5.5360    23.1090    -6.1510 
  183.5000     2.2820    90.6990     5.7970     6.2770     5.3590    23.2460    -6.0510 
  183.6250     2.2940    91.3720     6.0590     6.5480     5.5040    23.2210    -6.0110 
  183.7500     2.3110    92.6470     6.3100     6.8800     6.1180    23.4230    -6.0690 
  183.8750     2.3290    94.0870     6.4920     7.1690     6.9430    23.7160    -6.1360 
  184.0000     2.3410    96.9960     6.5780     7.3460     7.2020    23.9130    -6.2640 
  184.1250     2.3390    99.9320     6.5600     7.3610     6.9220    24.0080    -6.4440 
  184.2500     2.3300    98.5960     6.4810     7.2560     6.3600    24.0010    -6.5090 
  184.3750     2.3240    93.9710     6.3810     7.0770     5.8290    23.8370    -6.4990 
  184.5000     2.3280    90.1970     6.2930     6.8690     5.7510    23.7240    -6.5150 
  184.6250     2.3420    90.8220     6.2360     6.6650     5.9240    23.8460    -6.5120 
  184.7500     2.3520    93.6520     6.1990     6.4760     6.0570    24.0660    -6.5090 
  184.8750     2.3480    96.9890     6.1650     6.3030     6.1180    24.1980    -6.5280 
