~V
VERS. 2.00: Ver 2.00
~W
STRT.M 63.0000:
STOP.M 246.0000:
STEP.M 0.1250:
NULL. -999.2500:
UWI. F11137:
~C
DEPT.M :
DEN.GM/CC :
GR.API :
RML.OHMM :
RI. :
RXO.OHMM :
CALI.CM :
SP.MV :
~A
# ...
  130.5000     2.4900    52.1050    17.9050    17.6300    18.9130    25.8400    -0.4950 
  130.6250     2.4760    52.2170    18.1340    17.8750    18.6730    25.7610    -0.7830 
  130.7500     2.4680    52.2610    18.3750    18.0710    19.0130    25.5870    -0.9830 
  130.8750     2.4760    53.4600    18.6680    18.3030    19.3780    25.3060    -1.0180 
  131.0000     2.4940    55.4720    18.9810    18.6050    18.2000    24.9440    -0.9160 
  131.1250     2.5080    55.3250    19.1350    18.8450    17.4680    24.5950    -0.6960 
  131.2500     2.5110    53.4780    18.9100    18.7930    17.2780    24.5200    -0.4280 
  131.3750     2.5060    53.7270    18.3020    18.2430    17.7590    24.8400    -0.1130 
  131.5000     2.5060    56.6800    17.4680    17.1160    19.2080    25.3280     0.2320 
  131.6250     2.5160    57.2730    16.4180    16.8050    19.5630    25.3770     0.6180 
  131.7500     2.5300    59.9490    15.1290    15.2220    20.4470    25.5420     0.9150 
  131.8750     2.5400    62.2390    13.7960    13.7180    17.7380    25.5100     1.0480 
  132.0000     2.5440    64.2230    12.8190    12.5970    13.6840    25.4780     1.0370 
  132.1250     2.5470    64.1430    12.5670    12.1150    11.9880    25.6790     0.9920 
  132.2500     2.5540    62.7920    12.9000    12.2190    11.6770    26.0230     0.8940 
  132.3750     2.5590    61.0310    13.6830    12.8540    11.7690    26.2620     0.7500 
  132.5000     2.5600    59.5590    14.6930    13.8700    12.0960    26.3290     0.5370 
  132.6250     2.5580    59.6950    15.6360    15.0090    13.5880    26.2750     0.2420 
  132.7500     2.5620    63.0760    16.2930    15.9480    14.5930    26.1780    -0.0280 
  132.8750     2.5750    67.6990    16.5790    16.5000    15.0900    26.0900    -0.2570 
  133.0000     2.5910    70.7180    16.5200    16.6180    15.9990    25.9230    -0.4820 
  133.1250     2.5920    72.7520    16.1890    16.3640    16.9650    25.7220    -0.7480 
  133.2500     2.5700    74.8100    15.7400    15.9360    16.1560    25.5950    -0.9620 
  133.3750     2.5330    75.9650    15.2480    15.4090    15.2150    25.6000    -1.1520 
  133.5000     2.4940    76.9020    14.7760    14.8350    15.4530    25.6770    -1.3190 
  133.6250     2.4650    78.9040    14.4370    14.3140    15.4370    25.8000    -1.4450 
  133.7500     2.4480    80.6350    14.3130    13.9660    14.5880    25.8930    -1.5510 
  133.8750     2.4460    80.7480    14.4680    13.8900    13.8920    26.0070    -1.6470 
  134.0000     2.4590    80.2240    14.9060    14.1280    14.3090    26.1070    -1.7280 
  134.1250     2.4840    79.9550    15.5900    14.6840    15.6290    26.1520    -1.7670 
  134.2500     2.5090    80.4070    16.3610    15.4040    18.1490    26.1740    -1.8070 
  134.3750     2.5230    81.0650    17.1280    16.1640    19.9550    26.1870    -1.8510 
  134.5000     2.5260    80.1730    17.8690    16.8790    18.9630    26.2060    -1.9230 
  134.6250     2.5200    78.5500    18.6760    17.5890    18.4090    26.1860    -2.0140 
  134.7500     2.5160    79.6950    19.6540    18.4430    19.4020    26.1340    -2.0850 
  134.8750     2.5130    85.2980    20.8180    19.5330    22.4540    26.1190    -2.1140 
  135.0000     2.5060    89.4420    22.0490    20.8130    25.1310    26.2390    -2.1360 
  135.1250     2.4900    88.0050    23.0590    22.0210    27.3670    26.4390    -2.2490 
  135.2500     2.4730    85.8830    23.6520    22.8400    29.4530    26.5940    -2.4170 
  135.3750     2.4640    84.6340    23.7960    23.1250    28.7140    26.6260    -2.5620 
  135.5000     2.4710    83.6330    23.6330    22.9880    26.1610    26.5320    -2.6310 
  135.6250     2.4880    81.8760    23.4040    22.7160    23.4350    26.4170    -2.6800 
  135.7500     2.4980    82.9160    23.2890    22.5590    23.5080    26.3380    -2.7500 
  135.8750     2.4890    86.3670    23.2940    22.5490    24.9740    26.3060    -2.8480 
  136.0000     2.4630    87.5870    23.3290    22.6120    25.8960    26.3050    -2.9540 
  136.1250     2.4370    85.4400    23.2530    22.6090    25.5070    26.2910    -3.0320 
  136.2500     2.4260    83.6800    23.0250    22.4550    24.5600    26.2840    -3.0830 
  136.3750     2.4360    85.0010    22.6840    22.1620    23.9420    26.2720    -3.1420 
  136.5000     2.4590    87.3050    22.3130    21.8060    23.7090    26.2580    -3.2410 
  136.6250     2.4800    85.0990    21.9950    21.4900    23.6650    26.2360    -3.3600 
  136.7500     2.4920    80.8680    21.7260    21.2360    23.5980    26.2260    -3.4640 
  136.8750     2.4920    77.9930    21.4590    21.0060    23.0250    26.2240    -3.5450 
  137.0000     2.4860    78.4930    21.1470    20.7330    22.7740    26.2260    -3.5830 
  137.1250     2.4820    83.5840    20.7800    20.3670    22.0980    26.2340    -3.5770 
  137.2500     2.4810    88.8720    20.4190    19.9650    21.7290    26.2400    -3.5100 
  137.3750     2.4840    91.1620    20.1210    19.5950    20.3830    26.2280    -3.4060 
  137.5000     2.4880    89.7000    19.9190    19.3120    20.0230    26.2030    -3.2350 
  137.6250     2.4960    86.1500    19.8030    19.1450    19.6380    26.1670    -3.0440 
  137.7500     2.5080    84.5250    19.6730    19.0220    20.5500    26.1530    -2.8290 
  137.8750     2.5260    85.1830    19.4220    18.8420    21.0780    26.1500    -2.6100 
  138.0000     2.5460    87.6030    18.9690    18.4870    18.8390    26.1500    -2.3560 
  138.1250     2.5620    87.9830    18.3040    17.8710    18.6970    26.1300    -2.1330 
  138.2500     2.5700    85.3340    17.6190    17.1310    19.2370    26.0770    -1.9720 
  138.3750     2.5700    84.0130    17.1210    16.4850    18.5080    26.0080    -1.9290 
  138.5000     2.5640    86.8310    16.9750    16.1570    16.6360    25.9700    -2.0080 
  138.6250     2.5590    91.1800    17.2330    16.3020    15.6320    25.9610    -2.1260 
  138.7500     2.5580    90.3270    17.6150    16.6980    17.2940    25.9520    -2.2250 
  138.8750     2.5590    84.0170    17.8120    17.0420    22.4990    25.9370    -2.3200 
  139.0000     2.5550    79.3350    17.5550    16.9930    27.5590    25.9290    -2.4290 
  139.1250     2.5430    81.0640    16.6700    16.2360    25.5910    25.9520    -2.5390 
  139.2500     2.5280    83.9430    15.4380    15.0080    18.7340    25.9720    -2.6250 
  139.3750     2.5140    84.6710    14.1540    13.6390    14.1080    26.0000    -2.6780 
  139.5000     2.5010    83.0930    13.0690    12.4220    12.9910    26.0320    -2.6800 
  139.6250     2.4820    81.6620    12.3540    11.5610    13.1240    26.1340    -2.6800 
  139.7500     2.4530    82.1300    11.9220    11.0140    12.1850    26.2570    -2.7160 
  139.8750     2.4160    83.7970    11.6820    10.7140    11.9960    26.4070    -2.7480 
  140.0000     2.3770    84.3430    11.5460    10.5640    11.6640    26.4990    -2.7470 
  140.1250     2.3430    82.4720    11.4690    10.4990    10.6380    26.5050    -2.7380 
  140.2500     2.3150    80.7880    11.4340    10.4770    10.7840    26.4590    -2.7560 
  140.3750     2.2900    79.9380    11.4490    10.4920    11.6050    26.3830    -2.7650 
  140.5000     2.2700    79.9510    11.5140    10.5380    11.8380    26.2920    -2.7470 
  140.6250     2.2570    82.1550    11.6160    10.6260    11.6990    26.2440    -2.6160 
  140.7500     2.2510    83.5640    11.6940    10.7330    11.8960    26.2400    -2.4510 
  140.8750     2.2490    81.3400    11.6720    10.7960    12.3040    26.2510    -2.3130 
  141.0000     2.2500    76.8700    11.4580    10.7090    12.6260    26.2770    -2.2280 
  141.1250     2.2560    74.3410    10.9460    10.3180    12.3070    26.2990    -2.1400 
  141.2500     2.2670    74.1970    10.2050     9.6510    11.7940    26.3010    -2.0480 
  141.3750     2.2830    75.5850     9.3530     8.8100    11.1140    26.2430    -1.9430 
  141.5000     2.3020    78.2540     8.5550     7.9710     9.9420    26.1510    -1.8980 
  141.6250     2.3190    81.8850     8.0150     7.3420     8.3520    26.0690    -1.9820 
