~V
VERS. 2.00: Ver 2.00
~W
STRT.M 50.0000:
STOP.M 170.0000:
STEP.M 0.1250:
NULL. -999.2500:
UWI. F11116:
~C
DEPT.M :
SP.MV :
DEN.GM/CC :
GR.API :
RML.OHMM :
RI. :
RXO.OHMM :
CALI.CM :
~A
# ...
  106.2500   -19.5240     2.1920    60.2280     8.8360     6.5950     9.0390    24.5510 
  106.3750   -19.1600     2.2200    62.9840     9.0550     6.7230     9.2880    24.4380 
  106.5000   -18.8090     2.2410    67.3670     9.5530     7.0370     9.7850    24.4620 
  106.6250   -18.5570     2.2520    68.3180    10.3820     7.6110    10.6010    24.5390 
  106.7500   -18.4490     2.2700    65.4000    11.3800     8.3490    11.7260    24.6510 
  106.8750   -18.5130     2.3100    61.5010    12.3090     9.0880    14.4680    24.7840 
  107.0000   -18.7660     2.3630    59.4790    12.8390     9.5930    21.0890    24.9140 
  107.1250   -19.2150     2.3930    59.0950    12.5590     9.5880    27.8410    25.0070 
  107.2500   -19.7890     2.3740    58.8810    11.6250     9.1500    26.9730    25.0490 
  107.3750   -20.4440     2.3160    59.1540    10.3790     8.4610    18.6720    25.0560 
  107.5000   -21.1190     2.2430    59.9370     9.2220     7.7390    12.1830    25.0570 
  107.6250   -21.7470     2.1820    60.3750     8.4820     7.1630     9.9090    25.0590 
  107.7500   -22.2950     2.1430    61.9410     8.1320     6.7780     9.3280    25.0450 
  107.8750   -22.7280     2.1320    64.0720     8.0680     6.5820     9.4010    25.0220 
  108.0000   -23.0090     2.1420    63.9330     8.1410     6.5400     9.5450    25.0070 
  108.1250   -23.1020     2.1440    62.1960     8.2290     6.6030     9.6280    25.0000 
  108.2500   -23.0550     2.1150    61.6690     8.2830     6.6970     9.4370    25.0020 
  108.3750   -22.8910     2.0640    60.8830     8.3070     6.7890     9.2010    25.0520 
  108.5000   -22.6460     2.0190    58.5390     8.3050     6.8640     9.0110    25.1560 
  108.6250   -22.3610     2.0240    57.0880     8.2730     6.9030     9.8430    25.2190 
  108.7500   -22.0740     2.0910    59.0460     8.2120     6.8990    12.9070    25.1920 
  108.8750   -21.8170     2.1920    61.2900     8.1100     6.8520    16.8240    25.1590 
  109.0000   -21.6050     2.2690    61.7630     7.9510     6.7740    13.5750    25.2040 
  109.1250   -21.4290     2.2820    61.4660     7.7310     6.6840    11.4750    25.2100 
  109.2500   -21.2620     2.2680    61.7900     7.5000     6.5960    10.2520    25.0660 
  109.3750   -21.0920     2.2530    63.4610     7.3080     6.5090     9.2450    24.8510 
  109.5000   -20.9080     2.2430    65.7230     7.1860     6.4150     8.8440    24.7110 
  109.6250   -20.7170     2.2300    66.2480     7.1300     6.3080     8.9260    24.6950 
  109.7500   -20.5230     2.2080    66.5860     7.0850     6.1980     8.4000    24.7040 
  109.8750   -20.3200     2.1800    67.9290     7.0210     6.0990     8.0020    24.7070 
  110.0000   -20.1090     2.1550    69.2080     6.9400     6.0230     7.8180    24.7080 
  110.1250   -19.8930     2.1420    69.0070     6.8900     5.9710     7.8670    24.6700 
  110.2500   -19.6690     2.1400    69.9040     6.8940     5.9320     7.7310    24.5700 
  110.3750   -19.4330     2.1430    73.1430     6.9260     5.8980     7.5880    24.4730 
  110.5000   -19.1960     2.1460    75.7080     6.9490     5.8650     7.4630    24.4970 
  110.6250   -18.9780     2.1480    75.1740     6.9400     5.8400     7.3710    24.6760 
  110.7500   -18.7930     2.1530    74.0390     6.9210     5.8260     7.2730    24.8600 
  110.8750   -18.6510     2.1630    72.9960     6.9120     5.8210     7.1890    24.9790 
  111.0000   -18.5610     2.1760    71.8930     6.9270     5.8190     7.1560    25.0580 
  111.1250   -18.5140     2.1880    70.6000     6.9620     5.8170     7.4430    25.1490 
  111.2500   -18.4910     2.1820    69.2240     6.9880     5.8130     7.9220    25.2390 
  111.3750   -18.4580     2.1420    67.7650     7.0050     5.8090     8.2090    25.2980 
  111.5000   -18.3840     2.0670    66.5240     7.0670     5.8330     8.2810    25.3190 
  111.6250   -18.2220     1.9850    65.8020     7.3250     5.9820     7.7260    25.3090 
  111.7500   -17.9560     1.9340    64.6260     7.9160     6.3440     7.1000    25.2840 
  111.8750   -17.5760     1.9510    64.2010     8.9850     7.0170     7.6990    25.2490 
  112.0000   -17.0950     2.0610    66.1130    10.5950     8.0580     9.9290    25.2220 
  112.1250   -16.5410     2.2430    67.6390    12.5960     9.4320    13.7700    25.2090 
  112.2500   -15.9660     2.3950    66.7770    14.3310    10.7530    16.2120    25.0800 
  112.3750   -15.3970     2.4530    65.9250    15.1170    11.5590    16.6200    24.7480 
  112.5000   -14.8580     2.4270    67.1550    14.5630    11.5080    16.7050    24.3980 
  112.6250   -14.3710     2.3530    68.9600    12.8250    10.5540    14.8580    24.4180 
  112.7500   -13.9160     2.2780    69.3990    10.8540     9.2770    11.7530    24.7350 
  112.8750   -13.4700     2.2240    70.7020     9.1890     8.0580     9.5380    25.0440 
  113.0000   -12.9970     2.2060    74.3760     8.0340     7.0950     8.4180    25.1650 
  113.1250   -12.4520     2.2230    79.7630     7.4260     6.4890     8.1030    25.1690 
  113.2500   -11.8680     2.2440    82.9320     7.1920     6.1750     7.6410    25.1740 
  113.3750   -11.2840     2.2500    83.0440     7.2640     6.1300     7.1560    25.1900 
  113.5000   -10.7310     2.2410    82.8960     7.5970     6.3300     7.2380    25.2050 
  113.6250   -10.2520     2.2260    84.3400     8.2540     6.8100     8.2720    25.2120 
  113.7500    -9.8570     2.2110    84.3010     9.2390     7.5350     9.4960    25.2180 
  113.8750    -9.5410     2.1940    81.9430    10.4820     8.4620     9.6750    25.2240 
  114.0000    -9.2800     2.1820    79.4160    11.7250     9.4430     6.9850    25.1880 
  114.1250    -9.0720     2.1880    78.1000    12.4220    10.1270     6.4510    25.0530 
  114.2500    -8.8820     2.2210    77.7250    12.2620    10.2430     8.9790    24.8880 
  114.3750    -8.6830     2.2710    78.1750    11.2490     9.7120    12.7080    24.7790 
  114.5000    -8.4850     2.3070    79.1830     9.7540     8.7130    12.8890    24.7540 
  114.6250    -8.3120     2.3000    81.6460     8.3210     7.5760     9.2770    24.7640 
  114.7500    -8.1720     2.2730    86.0030     7.2330     6.5810     7.4410    24.7330 
  114.8750    -8.0600     2.2550    91.2930     6.5060     5.8190     6.2010    24.6210 
  115.0000    -7.9790     2.2570    95.8520     6.0520     5.2930     5.6020    24.4550 
  115.1250    -7.9250     2.2760   100.4000     5.7520     4.9660     5.3610    24.3270 
  115.2500    -7.9230     2.2940   104.4810     5.4850     4.7290     5.3070    24.2710 
  115.3750    -8.0160     2.3080   104.7870     5.2590     4.5490     5.2190    24.2540 
  115.5000    -8.2250     2.3230   102.2890     5.1460     4.4440     5.0260    24.2420 
  115.6250    -8.5920     2.3430   100.2320     5.2600     4.4800     4.9860    24.2270 
  115.7500    -9.1100     2.3560    98.0190     5.6110     4.6770     5.1530    24.2120 
  115.8750    -9.7930     2.3540    92.4600     6.1820     5.0390     5.5950    24.1930 
  116.0000   -10.6230     2.3350    85.2480     6.8810     5.5190     6.7110    24.2110 
  116.1250   -11.5660     2.3040    80.3380     7.5160     6.0080     7.8200    24.3880 
  116.2500   -12.5330     2.2680    76.5080     7.9130     6.3820     8.0450    24.6570 
  116.3750   -13.4650     2.2320    71.7890     7.9920     6.5760     7.8390    24.8400 
  116.5000   -14.3230     2.2010    67.5020     7.8120     6.5910     7.7510    24.8470 
  116.6250   -15.0450     2.1820    68.8240     7.5480     6.4830     7.8750    24.7830 
  116.7500   -15.6040     2.1750    72.0110     7.3770     6.3580     7.9160    24.7670 
  116.8750   -15.9820     2.1780    72.0540     7.3450     6.2660     7.9890    24.7700 
  117.0000   -16.1750     2.1850    68.8590     7.4300     6.2340     8.0300    24.7690 
  117.1250   -16.2040     2.1900    66.3100     7.5790     6.2880     7.9670    24.7710 
  117.2500   -16.1230     2.1880    66.0810     7.7400     6.3970     7.9920    24.7720 
  117.3750   -15.9570     2.1800    65.7040     7.8980     6.5230     8.0380    24.7720 
