~V
VERS. 2.00: Ver 2.00
~W
STRT.M 52.0000:
STOP.M 240.0000:
STEP.M 0.1250:
NULL. -999.2500:
UWI. F11139:
~C
DEPT.M :
GR.API :
RML.OHMM :
RI. :
RXO.OHMM :
CALI.CM :
SP.MV :
DEN.GM/CC :
~A
# ...
   85.7500    94.6880     5.1890     4.0250     5.1810    26.5210   -14.9050     2.2210 
   85.8750    93.3010     5.5560     4.1790     5.8750    26.4180   -14.9440     2.1940 
   86.0000    89.9600     6.0890     4.5140     7.0580    26.2960   -15.4540     2.1680 
   86.1250    85.0020     6.6770     4.9760     8.5760    26.1620   -16.4920     2.1540 
   86.2500    80.4880     7.1900     5.4470     9.9130    26.0120   -17.7830     2.1470 
   86.3750    78.3640     7.5480     5.8440    10.5450    25.9010   -19.0960     2.1400 
   86.5000    78.5110     7.7240     6.1080    10.7020    25.8120   -20.3920     2.1330 
   86.6250    78.5400     7.7300     6.2070    10.8180    25.7120   -21.3490     2.1280 
   86.7500    78.1080     7.6650     6.2010    10.9150    25.5980   -21.9790     2.1300 
   86.8750    78.7360     7.5860     6.1390    10.9600    25.5000   -22.2930     2.1370 
   87.0000    79.2390     7.5250     6.0610    10.8790    25.4240   -22.3690     2.1450 
   87.1250    77.2410     7.4870     5.9880    10.6680    25.3750   -22.3710     2.1510 
   87.2500    74.1200     7.4610     5.9230    10.5270    25.3270   -22.2840     2.1520 
   87.3750    72.3770     7.4340     5.8610    10.5060    25.2570   -22.2430     2.1470 
   87.5000    73.1980     7.3960     5.8010    10.5210    25.1760   -22.2170     2.1400 
   87.6250    76.5910     7.3390     5.7410    10.4260    25.1020   -22.2400     2.1370 
   87.7500    80.5740     7.2740     5.6860    10.2960    24.9990   -22.3140     2.1480 
   87.8750    81.3810     7.2160     5.6410    10.2750    24.8710   -22.4170     2.1650 
   88.0000    77.9180     7.1820     5.6130    10.2610    24.8540   -22.6620     2.1670 
   88.1250    75.1410     7.1860     5.6070    10.1630    24.9870   -22.9080     2.1430 
   88.2500    76.8380     7.2170     5.6180    10.0870    25.1550   -23.1540     2.1160 
   88.3750    79.6890     7.2580     5.6360    10.1000    25.2140   -23.4180     2.1020 
   88.5000    78.7790     7.2960     5.6530    10.1440    25.1860   -23.6140     2.1060 
   88.6250    75.0070     7.3170     5.6600    10.1160    25.1270   -23.8140     2.1180 
   88.7500    73.2740     7.3240     5.6590    10.1080    25.0400   -24.0110     2.1300 
   88.8750    74.1870     7.3230     5.6550    10.1320    24.9120   -24.2130     2.1430 
   89.0000    74.9500     7.3220     5.6530    10.1980    24.7800   -24.4260     2.1560 
   89.1250    73.8800     7.3290     5.6600    10.3110    24.7000   -24.6410     2.1620 
   89.2500    72.9580     7.3430     5.6720    10.4500    24.6830   -24.9110     2.1620 
   89.3750    72.8710     7.3570     5.6840    10.6440    24.7000   -25.0950     2.1570 
   89.5000    73.5670     7.3570     5.6890    10.8560    24.7400   -25.2680     2.1530 
   89.6250    74.7850     7.3260     5.6820    11.0280    24.8330   -25.4070     2.1490 
   89.7500    75.7390     7.2660     5.6620    11.0510    24.9580   -25.4640     2.1450 
   89.8750    75.8400     7.1840     5.6320    10.9180    25.0600   -25.4650     2.1460 
   90.0000    75.1610     7.0990     5.5970    10.7490    25.1080   -25.2680     2.1490 
   90.1250    74.8970     7.0280     5.5650    10.6990    25.0890   -24.9720     2.1530 
   90.2500    74.3660     6.9800     5.5400    10.7290    25.0370   -24.5850     2.1540 
   90.3750    73.8940     6.9530     5.5230    10.8430    24.9970   -24.1610     2.1500 
   90.5000    73.1450     6.9500     5.5220    10.9770    24.9770   -23.6820     2.1410 
   90.6250    72.0520     7.0340     5.5570    11.0580    24.9640   -23.0320     2.1330 
   90.7500    70.9870     7.1890     5.6390    11.0510    24.9560   -22.3510     2.1350 
   90.8750    70.2560     7.4210     5.7750    10.9310    24.9620   -21.5560     2.1480 
   91.0000    70.0830     7.7430     5.9490    11.0410    24.9630   -20.6910     2.1660 
   91.1250    70.9550     7.8450     6.1020    11.3790    24.9340   -19.6470     2.1830 
   91.2500    73.6170     7.8070     6.1610    11.4450    24.8830   -18.3470     2.2000 
   91.3750    77.9410     7.5950     6.0790    11.0150    24.8370   -16.9100     2.2140 
   91.5000    82.6470     7.2370     5.8540     9.9670    24.8300   -15.3750     2.2220 
   91.6250    87.7270     6.8320     5.5410     8.2320    24.9310   -14.0620     2.2170 
   91.7500    92.0040     6.5150     5.2530     6.7860    25.1880   -12.9460     2.2040 
   91.8750    93.8550     6.3540     5.0620     6.2970    25.4450   -12.0390     2.1890 
   92.0000    93.1520     6.3550     4.9980     6.5330    25.4810   -11.3890     2.1780 
   92.1250    91.5830     6.4810     5.0640     7.0520    25.2850   -10.9540     2.1810 
   92.2500    91.0860     6.6340     5.1930     7.4350    25.0680   -10.7880     2.2010 
   92.3750    90.6820     6.7510     5.3350     7.5820    24.9230   -10.6900     2.2300 
   92.5000    89.6220     6.7940     5.4440     7.5580    24.8310   -10.6140     2.2550 
   92.6250    89.3390     6.7480     5.4890     7.3510    24.7760   -10.3730     2.2610 
   92.7500    89.6120     6.6470     5.4830     6.9550    24.7310    -9.9460     2.2610 
   92.8750    89.7690     6.5250     5.4460     6.5130    24.6860    -9.4500     2.2630 
   93.0000    89.5240     6.4100     5.4000     6.0560    24.6890    -8.8500     2.2670 
   93.1250    90.7370     6.3350     5.3670     5.7870    24.7900    -8.3210     2.2680 
   93.2500    91.6210     6.3060     5.3580     5.6530    24.8420    -7.8120     2.2630 
   93.3750    89.9370     6.3220     5.3770     5.6730    24.7250    -7.4140     2.2580 
   93.5000    87.8240     6.3740     5.4200     5.7900    24.6140    -7.1590     2.2570 
   93.6250    89.3870     6.4530     5.4840     5.9620    24.6360    -6.9460     2.2610 
   93.7500    93.2760     6.5400     5.5540     6.1680    24.7220    -6.7750     2.2640 
   93.8750    95.9020     6.6150     5.6140     6.4090    24.8000    -6.5720     2.2640 
   94.0000    96.1080     6.6570     5.6490     6.7370    24.8650    -6.4270     2.2590 
   94.1250    95.2720     6.6500     5.6380     7.1110    24.9580    -6.2620     2.2530 
   94.2500    94.0880     6.6390     5.6020     7.4500    24.9970    -6.1710     2.2460 
   94.3750    93.1510     6.7210     5.5950     7.5840    24.9940    -6.1290     2.2410 
   94.5000    92.7930     7.0390     5.7160     7.3680    24.9700    -6.1710     2.2410 
   94.6250    91.8500     7.8360     6.1710     7.6990    24.9150    -6.4040     2.2530 
   94.7500    88.5790     9.1140     7.0350     9.1390    24.8140    -6.8730     2.2770 
   94.8750    82.8130    10.7400     8.2920    11.7940    24.6350    -7.5840     2.3080 
   95.0000    77.4980    12.3680     9.7490    15.0730    24.3220    -8.4840     2.3520 
   95.1250    75.6740    13.3610    10.9430    17.9030    23.9230    -9.5350     2.4080 
   95.2500    74.9520    13.3790    11.4530    17.9710    23.8170   -10.6380     2.4570 
   95.3750    73.1920    12.4590    11.1160    13.9670    24.1700   -11.7780     2.4640 
   95.5000    71.0600    11.1650    10.2260    10.5430    24.7490   -12.8540     2.4120 
   95.6250    70.5090    10.4910     9.5150    10.3710    25.0740   -13.8150     2.3360 
   95.7500    70.6450    10.9440     9.5500    11.9150    25.1370   -14.6390     2.2970 
   95.8750    70.4690    12.6400    10.5910    15.2400    25.0290   -15.3080     2.3150 
   96.0000    69.4640    15.3580    12.6480    21.1240    24.8890   -15.7960     2.3720 
   96.1250    69.0440    18.4260    15.3930    29.1770    24.7820   -16.1930     2.4420 
   96.2500    71.2310    20.7090    17.8640    36.6290    24.6740   -16.6500     2.5030 
   96.3750    75.2160    21.2600    19.1270    42.3050    24.5550   -17.2550     2.5350 
   96.5000    78.2620    19.6330    18.5170    42.0020    24.4180   -18.0480     2.5140 
   96.6250    78.6860    16.3460    16.0900    31.8170    24.3060   -18.9970     2.4320 
   96.7500    77.9440    13.1160    13.2880    20.2400    24.2820   -19.9370     2.3290 
   96.8750    75.5620    10.7380    10.9430    14.0880    24.4840   -20.8220     2.2310 
