~V
VERS. 2.00: Ver 2.00
~W
STRT.M 50.0000:
STOP.M 240.0000:
STEP.M 0.1250:
NULL. -999.2500:
UWI. F11117:
~C
DEPT.M :
DEN.GM/CC :
GR.API :
RML.OHMM :
RI. :
RXO.OHMM :
CALI.CM :
SP.MV :
~A
# ...
  218.7500     2.1200    59.7170     6.9940     5.9160     8.0100    24.5770    -7.1650 
  218.8750     2.1440    58.0530     7.1570     6.0810     8.5880    25.2620    -7.3350 
  219.0000     2.1920    55.6210     7.3250     6.2500     7.9470    25.9190    -7.5140 
  219.1250     2.2600    57.2270     7.4720     6.4080     7.3650    25.5960    -7.6810 
  219.2500     2.3280    62.5870     7.5880     6.5550     7.5260    24.6830    -7.8550 
  219.3750     2.3770    65.3680     7.6810     6.6910     8.0050    24.0490    -7.9870 
  219.5000     2.3980    62.9400     7.7720     6.8190     8.3620    24.1520    -8.0730 
  219.6250     2.3940    60.5780     7.8930     6.9340     8.1170    24.3530    -8.1330 
  219.7500     2.3840    62.4230     8.0450     7.0280     7.6880    24.5700    -8.1660 
  219.8750     2.3800    64.5440     8.1950     7.0950     7.2960    25.1740    -8.1710 
  220.0000     2.3810    62.2890     8.2960     7.1390     7.3280    26.2180    -8.1550 
  220.1250     2.3790    58.4090     8.3100     7.1740     7.2840    26.8560    -8.1710 
  220.2500     2.3690    58.3550     8.2700     7.2140     7.1180    26.0560    -8.2120 
  220.3750     2.3570    60.5530     8.2170     7.2570     6.7500    25.9760    -8.3030 
  220.5000     2.3530    61.4030     8.1770     7.2890     6.6940    25.8130    -8.4270 
  220.6250     2.3640    61.5200     8.1500     7.2860     6.9920    25.3570    -8.5060 
  220.7500     2.3790    61.7560     8.1130     7.2500     6.7660    24.4870    -8.6180 
  220.8750     2.3740    61.3980     8.0530     7.1960     6.4820    24.3310    -8.7070 
  221.0000     2.3290    61.4680     7.9750     7.1490     6.3160    24.6910    -8.7720 
  221.1250     2.2470    63.0350     7.9090     7.1430     6.0920    25.3070    -8.8220 
  221.2500     2.1710    63.8000     7.8800     7.1840     5.8540    25.8700    -8.8500 
  221.3750     2.1380    64.2710     7.9120     7.2710     5.7150    26.8320    -8.8830 
  221.5000     2.1680    65.5400     8.0260     7.4020     5.6100    27.7880    -8.9150 
  221.6250     2.2540    64.8750     8.2490     7.5900     5.8160    27.7280    -8.9860 
  221.7500     2.3460    61.8430     8.5570     7.8270     6.5080    26.1550    -9.0600 
  221.8750     2.4000    58.7110     8.9270     8.1060     7.3930    25.0570    -9.1760 
  222.0000     2.4020    58.4250     9.3190     8.4150     9.8100    24.4690    -9.3210 
  222.1250     2.3770    60.9490     9.6760     8.7230    15.6020    23.9980    -9.4990 
  222.2500     2.3650    64.5410     9.9660     8.9910    18.5290    23.6400    -9.6590 
  222.3750     2.3810    67.7920    10.1910     9.1910    13.0050    23.7450    -9.7860 
  222.5000     2.4220    66.6890    10.3750     9.3110     9.4200    23.7230    -9.8560 
  222.6250     2.4670    62.2000    10.5320     9.3560     9.1790    23.6580    -9.9070 
  222.7500     2.4950    59.1740    10.6630     9.3760     9.9910    23.6640    -9.9400 
  222.8750     2.5010    59.0860    10.7530     9.4110    10.2420    23.6040    -9.9130 
  223.0000     2.4920    61.2030    10.7970     9.4800    10.5470    23.7160    -9.8590 
  223.1250     2.4820    63.4940    10.8270     9.5920     9.9220    23.7330    -9.7630 
  223.2500     2.4780    65.3920    10.8970     9.7320     9.9390    23.8020    -9.6710 
  223.3750     2.4790    66.3120    11.0150     9.8800    10.4210    23.9200    -9.6200 
  223.5000     2.4840    67.2820    11.1270     9.9940    11.5310    23.9670    -9.6730 
  223.6250     2.4900    69.6230    11.1120     9.9940    12.5760    23.7330    -9.7730 
  223.7500     2.4960    70.4380    10.9200     9.8570    12.1830    23.4900    -9.9240 
  223.8750     2.5000    68.0130    10.5780     9.5970    10.8300    23.3560   -10.1500 
  224.0000     2.5000    64.6960    10.1930     9.2800     9.7890    23.3790   -10.3900 
  224.1250     2.4950    62.4300     9.9070     9.0060     9.6720    23.7380   -10.6940 
  224.2500     2.4870    61.5730     9.7610     8.8380    10.3930    24.0140   -11.0410 
  224.3750     2.4790    61.1110     9.7300     8.7890    11.3570    23.9370   -11.3750 
  224.5000     2.4740    60.5680     9.7650     8.8320    11.6190    24.0240   -11.6930 
  224.6250     2.4720    60.8790     9.8040     8.9210    10.2370    23.9010   -12.0130 
  224.7500     2.4710    61.7440     9.8080     8.9940     8.5430    23.9200   -12.2900 
  224.8750     2.4690    62.9040     9.7750     9.0280     7.5660    23.9200   -12.5160 
  225.0000     2.4700    63.3040     9.7200     9.0240     7.0340    23.6620   -12.7340 
  225.1250     2.4720    62.5430     9.6640     9.0000     6.9320    23.7680   -12.9220 
  225.2500     2.4760    60.9270     9.6320     8.9760     7.1830    23.8980   -13.0890 
  225.3750     2.4760    58.0240     9.6340     8.9620     7.1900    24.0820   -13.2430 
  225.5000     2.4710    57.0720     9.6650     8.9580     7.3560    24.0300   -13.3350 
  225.6250     2.4630    59.1070     9.7030     8.9580     7.7510    23.9310   -13.4030 
  225.7500     2.4580    60.8310     9.7140     8.9480     8.0160    23.8020   -13.4650 
  225.8750     2.4600    60.8590     9.6750     8.9240     7.8890    23.7020   -13.6040 
  226.0000     2.4680    59.8910     9.5910     8.8890     7.8390    23.7720   -13.8020 
  226.1250     2.4760    59.1490     9.5060     8.8500     7.8000    23.9930   -13.9590 
  226.2500     2.4790    58.5690     9.4670     8.8090     7.6740    24.2160   -14.1120 
  226.3750     2.4770    57.9400     9.4800     8.7580     7.4710    24.5990   -14.2650 
  226.5000     2.4740    56.3660     9.5090     8.6910     7.4360    25.0440   -14.4220 
  226.6250     2.4740    55.0110     9.4960     8.6170     7.5830    25.1820   -14.5370 
  226.7500     2.4770    56.7900     9.4200     8.5620     7.7380    25.3380   -14.6580 
  226.8750     2.4790    59.6890     9.2990     8.5430     7.6710    25.4960   -14.7020 
  227.0000     2.4770    59.8360     9.1710     8.5540     7.5740    25.5750   -14.7180 
  227.1250     2.4690    57.6030     9.0720     8.5690     7.7480    25.7170   -14.7490 
  227.2500     2.4600    58.1390     8.9990     8.5530     8.0360    25.6720   -14.7320 
  227.3750     2.4520    60.4990     8.9410     8.4910     7.8530    25.6810   -14.6910 
  227.5000     2.4470    62.3040     8.8970     8.3920     7.2060    25.7220   -14.6600 
  227.6250     2.4390    63.4890     8.8840     8.2790     6.9190    25.6480   -14.6590 
  227.7500     2.4170    63.3780     8.9170     8.1850     6.9120    25.3240   -14.6400 
  227.8750     2.3760    63.0150     8.9870     8.1320     6.8950    25.0250   -14.5890 
  228.0000     2.3240    63.8200     9.0670     8.1340     6.6110    25.0260   -14.4370 
  228.1250     2.2820    64.7620     9.1200     8.2100     6.2230    25.3730   -14.1720 
  228.2500     2.2650    63.8790     9.1390     8.3400     6.4030    25.5270   -13.8130 
  228.3750     2.2790    62.0290     9.1660     8.5010     7.5990    24.7760   -13.4030 
  228.5000     2.3140    60.6530     9.2630     8.6620     9.5120    24.3390   -12.9450 
  228.6250     2.3560    57.9580     9.4800     8.7930    10.5430    24.2560   -12.4220 
  228.7500     2.3890    55.5550     9.7500     8.8890     9.6790    24.2540   -11.8420 
  228.8750     2.4110    56.3540     9.9880     8.9500     8.4580    24.2030   -11.2200 
  229.0000     2.4230    58.6410    10.1330     8.9740     7.9830    24.1120   -10.5430 
  229.1250     2.4270    58.2010    10.1430     8.9550     7.9940    24.0870    -9.7720 
  229.2500     2.4270    55.8210    10.0630     8.9100     7.8430    24.1080    -8.9520 
  229.3750     2.4270    54.6360     9.9350     8.8650     7.6840    24.1610    -8.0910 
  229.5000     2.4270    54.5500     9.8110     8.8510     7.7350    24.1850    -7.2930 
  229.6250     2.4270    54.5500     9.7870     8.8930     7.9290    24.1660    -6.5660 
  229.7500     2.4240    54.5500     9.9120     8.9840     8.1100    24.1320    -5.9460 
  229.8750     2.4210    54.5500    10.1750     9.1130     8.0830    24.1240    -5.4080 
