~V
VERS. 2.00: Ver 2.00
~W
STRT.M 45.0000:
STOP.M 264.0000:
STEP.M 0.1250:
NULL. -999.2500:
UWI. F11189:
~C
DEPT.M :
SP.MV :
GR.API :
RI. :
RML.OHMM :
RXO.OHMM :
DEN.GM/CC :
~A
# ...
   96.5000    -8.6490    88.8410     4.0390     4.2190     5.3070     2.3010 
   96.6250    -8.6880    91.0110     3.6230     3.8060     5.0120     2.2760 
   96.7500    -8.7160    93.8080     3.3600     3.5760     5.1970     2.2450 
   96.8750    -8.7340    99.2560     3.2390     3.5010     5.2610     2.2330 
   97.0000    -8.7390   105.2170     3.1870     3.4840     5.1520     2.2260 
   97.1250    -8.7280   106.9350     3.1360     3.4320     5.0510     2.2260 
   97.2500    -8.7040   104.8650     3.0380     3.2990     5.0730     2.2440 
   97.3750    -8.6680   101.8990     2.9340     3.1560     5.0370     2.2710 
   97.5000    -8.6220   100.2870     2.9160     3.1100     4.8010     2.2810 
   97.6250    -8.5580    99.3550     3.1000     3.3120     4.7420     2.2770 
   97.7500    -8.4720    97.6900     3.4380     3.7110     4.9920     2.2770 
   97.8750    -8.3640    95.8150     3.9600     4.3380     7.1240     2.2660 
   98.0000    -8.2530    92.2580     4.6230     5.1260     9.2490     2.2140 
   98.1250    -8.1750    84.3690     5.2240     5.7880     7.4630     2.1240 
   98.2500    -8.1630    73.1090     5.4890     6.0350     5.4570     2.0520 
   98.3750    -8.2480    65.2000     5.2560     5.7090     5.4610     2.0490 
   98.5000    -8.4240    65.5310     4.7240     5.0550     5.5770     2.1180 
   98.6250    -8.6720    73.9160     4.1430     4.3960     5.2040     2.2020 
   98.7500    -8.9520    84.4490     3.7860     4.0070     4.6250     2.2290 
   98.8750    -9.2310    92.3780     3.6540     3.8950     4.9640     2.2000 
   99.0000    -9.4930    95.3920     3.7180     4.0190     5.6520     2.1670 
   99.1250    -9.7350    92.5260     3.9200     4.2990     5.7050     2.1550 
   99.2500    -9.9580    87.9000     4.1770     4.6250     5.7180     2.1480 
   99.3750   -10.1540    84.9490     4.3760     4.8570     6.0520     2.1580 
   99.5000   -10.3090    83.6870     4.4560     4.9340     6.1490     2.1860 
   99.6250   -10.4070    83.1470     4.4240     4.8710     5.9230     2.2070 
   99.7500   -10.4510    82.0490     4.3230     4.7270     6.0860     2.2040 
   99.8750   -10.4490    80.4540     4.1700     4.5330     6.1920     2.1900 
  100.0000   -10.4260    80.0990     4.0380     4.3750     5.6280     2.1850 
  100.1250   -10.4050    80.3530     3.9880     4.3240     5.3910     2.1900 
  100.2500   -10.3990    79.4270     4.0350     4.3960     5.4970     2.1960 
  100.3750   -10.4110    77.0820     4.1500     4.5530     5.5870     2.1960 
  100.5000   -10.4210    77.5040     4.2710     4.7160     6.0060     2.1870 
  100.6250   -10.3960    80.3270     4.3410     4.8060     6.2360     2.1710 
  100.7500   -10.3120    80.1810     4.3520     4.8120     5.9900     2.1620 
  100.8750   -10.1560    77.9430     4.3070     4.7470     5.6530     2.1710 
  101.0000    -9.9480    76.1060     4.2370     4.6590     5.4900     2.1990 
  101.1250    -9.7200    76.5480     4.1550     4.5680     5.7060     2.2360 
  101.2500    -9.5030    77.0430     4.1170     4.5310     5.9120     2.2520 
  101.3750    -9.3190    77.6060     4.1460     4.5690     5.7980     2.2350 
  101.5000    -9.1730    78.5970     4.2170     4.6520     5.7870     2.2180 
  101.6250    -9.0710    80.0990     4.3330     4.7910     6.3830     2.2230 
  101.7500    -9.0210    81.3110     4.4600     4.9370     6.9630     2.2170 
  101.8750    -9.0380    80.3360     4.5770     5.0660     6.7660     2.1810 
  102.0000    -9.1210    76.8880     4.6620     5.1460     6.6090     2.1470 
  102.1250    -9.2640    74.0440     4.6910     5.1580     6.5680     2.1370 
  102.2500    -9.4390    73.9550     4.6810     5.1260     6.2270     2.1380 
  102.3750    -9.6170    75.0520     4.7160     5.1550     5.9860     2.1360 
  102.5000    -9.7720    74.4490     4.8920     5.3620     6.0970     2.1430 
  102.6250    -9.8750    72.8350     5.1890     5.7170     6.4220     2.1890 
  102.7500    -9.9160    71.0530     5.4800     6.0750     6.9610     2.2850 
  102.8750    -9.8890    70.9110     5.6480     6.2670     8.4350     2.4040 
  103.0000    -9.8170    72.7360     5.5640     6.1360     9.5670     2.4660 
  103.1250    -9.7320    75.5330     5.2620     5.7330     8.4380     2.4170 
  103.2500    -9.6690    76.4530     4.9340     5.3110     6.8710     2.3010 
  103.3750    -9.6490    75.4030     4.7380     5.0850     6.3100     2.2090 
  103.5000    -9.6620    73.6630     4.8460     5.2570     6.0730     2.1950 
  103.6250    -9.6910    69.0020     5.2380     5.7610     6.0190     2.2650 
  103.7500    -9.7130    63.7750     5.7040     6.3240     5.9500     2.3560 
  103.8750    -9.7200    61.9220     6.0340     6.6810     5.8550     2.3770 
  104.0000    -9.7220    63.1290     6.0870     6.6880     5.9150     2.3010 
  104.1250    -9.7390    65.4850     5.8800     6.3990     5.9170     2.1890 
  104.2500    -9.7890    67.6620     5.5610     6.0150     5.7620     2.1180 
  104.3750    -9.8820    69.3660     5.2430     5.6680     5.6050     2.1020 
  104.5000   -10.0010    70.9410     5.0310     5.4570     5.4820     2.1060 
  104.6250   -10.1200    73.3620     4.9090     5.3430     5.4380     2.1150 
  104.7500   -10.2070    75.2250     4.8210     5.2610     5.4780     2.1290 
  104.8750   -10.2330    75.3100     4.7830     5.2340     5.3390     2.1410 
  105.0000   -10.1950    75.3550     4.7960     5.2630     5.0400     2.1450 
  105.1250   -10.1000    77.8710     4.8630     5.3600     4.9280     2.1410 
  105.2500    -9.9740    79.5600     4.9550     5.4720     5.1560     2.1320 
  105.3750    -9.8400    78.7520     5.0490     5.5750     5.7740     2.1230 
  105.5000    -9.7110    75.7670     5.1420     5.6710     6.4460     2.1190 
  105.6250    -9.5870    72.5450     5.2240     5.7490     6.6780     2.1210 
  105.7500    -9.4670    68.9290     5.2880     5.8160     6.7170     2.1220 
  105.8750    -9.3600    66.0350     5.3410     5.8720     6.8860     2.1170 
  106.0000    -9.2880    65.3760     5.4090     5.9580     7.0410     2.1100 
  106.1250    -9.2880    66.1360     5.4910     6.0600     7.0790     2.1130 
  106.2500    -9.3760    67.5160     5.5790     6.1720     7.1030     2.1250 
  106.3750    -9.5530    68.5850     5.6870     6.3210     7.0980     2.1340 
  106.5000    -9.7840    68.3730     5.8310     6.5170     6.7740     2.1290 
  106.6250   -10.0250    66.9960     6.0100     6.7570     6.1620     2.1150 
  106.7500   -10.2390    64.3360     6.2040     7.0100     5.9150     2.1030 
  106.8750   -10.4000    60.6630     6.3530     7.1770     6.1990     2.0990 
  107.0000   -10.5070    59.3320     6.4050     7.1930     6.3290     2.1000 
  107.1250   -10.5640    62.0430     6.3560     7.0720     6.1890     2.1000 
  107.2500   -10.5880    65.9050     6.2200     6.8430     6.2820     2.0990 
  107.3750   -10.5830    65.8130     6.0330     6.5830     6.4750     2.1010 
  107.5000   -10.5560    63.7950     5.8750     6.3820     6.4420     2.1090 
  107.6250   -10.5070    62.9140     5.7950     6.2870     6.4000     2.1150 
  107.7500   -10.4400    62.7590     5.7780     6.2770     6.4990     2.1100 
  107.8750   -10.3530    62.7380     5.8180     6.3540     6.5980     2.0990 
  108.0000   -10.2510    62.7030     5.8600     6.4360     6.5770     2.0950 
  108.1250   -10.1380    62.9540     5.8060     6.3910     6.5200     2.0970 
  108.2500   -10.0320    63.8960     5.5410     6.0810     6.5610     2.0990 
  108.3750    -9.9570    65.4800     5.1230     5.5840     6.5590     2.1110 
  108.5000    -9.9250    67.7990     4.6270     4.9950     6.2030     2.1380 
  108.6250    -9.9340    71.6400     4.2270     4.5230     5.6340     2.1670 
  108.7500    -9.9590    76.3530     4.0490     4.3240     5.4470     2.1780 
  108.8750    -9.9720    77.2600     4.2790     4.6160     5.6630     2.1670 
  109.0000    -9.9520    74.1160     4.9660     5.4560     6.0570     2.1560 
  109.1250    -9.8920    70.5860     5.9320     6.5990     7.6200     2.1920 
  109.2500    -9.8070    67.6840     6.8530     7.6630    16.3640     2.2850 
