~V
VERS. 2.00: Ver 2.00
~W
STRT.M 58.0000:
STOP.M 206.0000:
STEP.M 0.1250:
NULL. -999.2500:
UWI. F11128:
~C
DEPT.M :
GR.API :
RML.OHMM :
RI. :
RXO.OHMM :
CALI.CM :
SP.MV :
DEN.GM/CC :
~A
# ...
  136.7500    76.9870    12.7740    11.7590    12.1960    25.5600    -5.0540     2.2450 
  136.8750    76.8280    11.5330    10.6000     9.4080    25.3140    -5.0780     2.2040 
  137.0000    76.0120    10.5610     9.6340     8.1510    24.9870    -5.1260     2.1970 
  137.1250    74.9460     9.8570     8.8960     8.0750    24.8470    -5.2000     2.2220 
  137.2500    74.4060     9.3530     8.3450     8.2750    24.8180    -5.3580     2.2540 
  137.3750    75.5270     8.8640     7.9040     8.1770    24.8360    -5.5970     2.2700 
  137.5000    77.9480     8.3610     7.5050     7.6720    24.8480    -5.8890     2.2690 
  137.6250    79.5780     7.7830     7.1160     6.9630    24.8730    -6.1620     2.2650 
  137.7500    80.6070     7.1220     6.7590     6.3160    24.9700    -6.3520     2.2640 
  137.8750    80.8680     6.8240     6.4760     5.9860    25.0480    -6.5000     2.2680 
  138.0000    79.7280     6.7510     6.3170     6.0710    24.9690    -6.6620     2.2730 
  138.1250    79.1430     6.7900     6.2680     6.3550    24.7710    -6.8150     2.2780 
  138.2500    80.0330     6.9250     6.3170     6.6510    24.5740    -6.9030     2.2820 
  138.3750    81.5660     7.1420     6.4500     6.9310    24.4600    -6.9340     2.2870 
  138.5000    80.4790     7.4440     6.6700     7.1420    24.4800    -6.9060     2.2930 
  138.6250    77.0090     7.8060     6.9540     7.3820    24.5740    -6.8180     2.3000 
  138.7500    73.2640     8.1980     7.2840     7.8140    24.6970    -6.6930     2.3080 
  138.8750    70.1630     8.5690     7.6210     8.2830    24.8150    -6.5130     2.3110 
  139.0000    68.8300     8.8310     7.8910     8.7030    24.8630    -6.2790     2.3000 
  139.1250    69.6370     8.9510     8.0460     8.9260    24.8770    -6.0240     2.2800 
  139.2500    71.1440     8.9260     8.0670     8.8920    24.9070    -5.7700     2.2620 
  139.3750    71.1990     8.7970     7.9730     8.5790    25.0080    -5.5180     2.2490 
  139.5000    70.4720     8.6330     7.8140     8.2080    25.1120    -5.3000     2.2410 
  139.6250    70.7960     8.4940     7.6580     8.2210    25.2110    -5.1360     2.2330 
  139.7500    71.1120     8.3860     7.5230     8.5160    25.2540    -5.0050     2.2280 
  139.8750    70.8650     8.2740     7.3930     8.8670    25.1710    -4.8950     2.2300 
  140.0000    70.8690     8.0840     7.2160     8.9210    24.9610    -4.7590     2.2430 
  140.1250    71.6860     7.7830     6.9550     8.5670    24.7550    -4.5990     2.2620 
  140.2500    72.3110     7.3840     6.6080     7.9540    24.5980    -4.4390     2.2760 
  140.3750    73.7750     6.9480     6.2150     7.3060    24.5550    -4.2790     2.2830 
  140.5000    77.0760     6.5910     5.8640     6.7030    24.5750    -4.1190     2.2800 
  140.6250    80.7850     6.3900     5.6310     6.2220    24.6400    -3.9680     2.2680 
  140.7500    83.5290     6.3760     5.5540     5.9620    24.6820    -3.8440     2.2550 
  140.8750    83.9100     6.5290     5.6350     6.0340    24.6920    -3.7600     2.2510 
  141.0000    81.9580     6.7930     5.8490     6.4440    24.6790    -3.7920     2.2700 
  141.1250    80.0430     7.0540     6.1020     6.9920    24.6620    -3.9130     2.2980 
  141.2500    80.5090     7.2360     6.3220     7.4140    24.6440    -4.1020     2.3160 
  141.3750    82.2840     7.2920     6.4520     7.6420    24.6210    -4.3460     2.3130 
  141.5000    82.0530     7.1930     6.4410     7.6640    24.5720    -4.6050     2.2960 
  141.6250    81.8040     6.9860     6.3130     7.6400    24.5240    -4.8560     2.2810 
  141.7500    82.8200     6.7050     6.0890     7.3850    24.5050    -5.0740     2.2720 
  141.8750    83.6110     6.3790     5.8010     6.7830    24.4800    -5.2490     2.2700 
  142.0000    82.0840     6.0400     5.4790     6.2320    24.4700    -5.3440     2.2760 
  142.1250    80.9370     5.7260     5.1670     5.6420    24.4430    -5.3680     2.2840 
  142.2500    82.4270     5.4750     4.8980     5.2030    24.4300    -5.3330     2.2910 
  142.3750    85.0720     5.3200     4.7060     5.0660    24.4260    -5.2610     2.2940 
  142.5000    86.0970     5.3100     4.6340     5.0190    24.4390    -5.1650     2.2910 
  142.6250    85.9660     5.4330     4.6820     4.9350    24.4640    -5.0570     2.2850 
  142.7500    86.3100     5.6690     4.8470     4.9460    24.4830    -4.9810     2.2770 
  142.8750    87.7350     5.9710     5.1020     5.2060    24.5220    -4.9620     2.2710 
  143.0000    89.6690     6.2470     5.3800     5.7060    24.5100    -5.0130     2.2690 
  143.1250    91.0690     6.4030     5.5850     6.2370    24.3970    -5.0690     2.2720 
  143.2500    90.7230     6.3760     5.6400     6.5870    24.1650    -5.0620     2.2780 
  143.3750    88.7590     6.1590     5.5100     6.5320    24.0070    -4.9560     2.2850 
  143.5000    86.0100     5.8110     5.2110     5.9990    23.9740    -4.8190     2.2910 
  143.6250    84.2500     5.4870     4.8790     5.3800    23.9520    -4.7240     2.2960 
  143.7500    85.0010     5.3050     4.6270     4.9430    23.9430    -4.6660     2.3020 
  143.8750    88.0620     5.3410     4.5420     4.8730    23.9170    -4.6330     2.3060 
  144.0000    90.2250     5.6630     4.7060     5.2640    23.9070    -4.5890     2.3040 
  144.1250    90.2990     6.2100     5.0890     6.1520    23.9160    -4.5720     2.3010 
  144.2500    90.4590     6.9470     5.6730     7.2820    23.9400    -4.6280     2.3010 
  144.3750    90.5070     7.8300     6.4250     8.3890    23.9790    -4.7790     2.3040 
  144.5000    87.6930     8.8050     7.3130     9.3070    24.0120    -4.9820     2.3040 
  144.6250    84.2410     9.7610     8.2340     9.8640    24.0230    -5.1580     2.3000 
  144.7500    82.6000    10.5600     9.0700    10.5640    23.9630    -5.2740     2.2950 
  144.8750    81.4700    11.0210     9.6590    11.7360    23.8780    -5.3160     2.2910 
  145.0000    78.5880    10.8660     9.7330    12.6940    23.8970    -5.3010     2.2850 
  145.1250    75.0190    10.1460     9.2720    12.4780    24.0200    -5.2400     2.2780 
  145.2500    72.2960     9.0350     8.3820    11.1500    24.1620    -5.1520     2.2740 
  145.3750    71.7150     7.8640     7.3250     9.1910    24.1320    -5.0480     2.2800 
  145.5000    73.9540     7.0780     6.4820     7.0600    23.9580    -4.9030     2.2940 
  145.6250    75.7200     6.8640     6.0620     5.6990    23.7610    -4.7090     2.3090 
  145.7500    75.1970     7.2840     6.1600     5.5770    23.6680    -4.4740     2.3200 
  145.8750    73.4620     8.2980     6.8030     6.3790    23.7020    -4.2360     2.3240 
  146.0000    72.5770     9.8250     8.0260     7.9790    23.8180    -4.0000     2.3190 
  146.1250    72.9820    11.5060     9.5800    10.0620    23.9380    -3.7660     2.3090 
  146.2500    73.3510    12.9860    11.1860    12.2110    24.0470    -3.5190     2.2920 
  146.3750    72.7850    13.9000    12.4780    14.1810    24.1230    -3.2350     2.2690 
  146.5000    72.2030    13.8540    12.9670    15.2060    24.1550    -2.9990     2.2440 
  146.6250    72.7890    13.0290    12.6300    14.7400    24.1200    -2.9090     2.2270 
  146.7500    73.9810    11.7160    11.6460    13.1570    24.0280    -2.9330     2.2250 
  146.8750    74.2410    10.2920    10.3570    11.0860    23.9610    -2.9730     2.2370 
  147.0000    75.3010     9.1230     9.1320     9.4800    23.8950    -3.0260     2.2580 
  147.1250    78.5620     8.3240     8.1700     8.5170    23.8920    -3.1280     2.2780 
  147.2500    81.9460     7.9040     7.5310     8.2370    23.9210    -3.2950     2.2930 
  147.3750    83.7200     7.8310     7.2190     8.2460    23.9700    -3.5340     2.2990 
  147.5000    82.9490     8.1150     7.2720     8.2860    24.0090    -3.7710     2.3000 
  147.6250    80.6850     8.6780     7.6200     8.5470    24.0380    -3.9190     2.3010 
  147.7500    77.5400     9.5030     8.2500     9.2620    24.0580    -4.0260     2.3030 
  147.8750    74.0410    10.5680     9.1440    10.5260    24.0830    -4.1750     2.3040 
