~V
VERS. 2.00: Ver 2.00
~W
STRT.M 50.0000:
STOP.M 242.0000:
STEP.M 0.1250:
NULL. -999.2500:
UWI. F11136:
~C
DEPT.M :
GR.API :
RML.OHMM :
RI. :
RXO.OHMM :
CALI.CM :
SP.MV :
DEN.GM/CC :
~A
# ...
   61.2500    41.6190     0.5350     0.1650     0.3470    25.2620    20.6310     2.1300 
   61.3750    39.2530     0.4750     0.1540     0.3590    25.2620    20.2000     2.1180 
   61.5000    38.6500     0.5010     0.1760     0.4220    25.2620    19.8400     2.0890 
   61.6250    41.0710     0.5040     0.2130     0.5040    25.2620    19.4860     2.0550 
   61.7500    44.7150     0.4290     0.2420     0.5540    25.2620    19.1040     2.0250 
   61.8750    46.7870     0.3380     0.2460     0.5940    25.2620    18.6630     2.0040 
   62.0000    44.4250     0.3070     0.2250     0.6730    25.2620    18.1850     1.9900 
   62.1250    40.1150     0.3500     0.2040     0.7660    25.2620    17.6140     1.9850 
   62.2500    39.4080     0.3800     0.2060     0.8300    25.2620    16.9630     1.9850 
   62.3750    42.2510     0.3520     0.2320     1.0130    25.2620    16.1850     1.9930 
   62.5000    45.5340     0.2950     0.2620     1.3450    25.2600    15.2720     2.0100 
   62.6250    47.1720     0.2670     0.2670     1.6160    25.2390    14.1470     2.0470 
   62.7500    49.8720     0.2680     0.2400     2.0390    25.1500    12.7630     2.1100 
   62.8750    52.2110     0.2580     0.1920     2.9210    24.8760    11.0080     2.2050 
   63.0000    52.6690     0.2090     0.1420     3.5640    24.4730     8.7580     2.3270 
   63.1250    53.8040     0.1440     0.1070     3.6820    24.2320     5.9150     2.4510 
   63.2500    57.0000     0.1150     0.0900     3.0580    24.1140     2.5630     2.5290 
   63.3750    60.2640     0.1690     0.1020     2.3820    24.0040    -1.2020     2.5310 
   63.5000    60.4340     0.3880     0.1620     1.7570    23.8880    -5.2010     2.4550 
   63.6250    58.9470     0.8500     0.3320     1.8240    24.2700    -9.1890     2.3280 
   63.7500    58.5260     1.1390     0.6600     2.4010    25.7580   -13.0730     2.1920 
   63.8750    59.5880     1.6270     1.2070     3.5200    27.0650   -16.6950     2.0620 
   64.0000    62.3920     2.4730     1.9910     4.5730    26.4830   -19.9120     1.9520 
   64.1250    64.3250     3.5150     2.9590     5.3720    23.8390   -22.5980     1.8900 
   64.2500    62.3370     4.6690     3.9300     5.7000    22.2040   -24.7220     1.8920 
   64.3750    58.7700     5.6620     4.7660     6.0070    21.7220   -26.3390     1.9750 
   64.5000    59.0280     6.3920     5.3810     6.3260    21.5590   -27.5920     2.1280 
   64.6250    64.9810     6.7990     5.7230     6.5760    21.3470   -28.5820     2.2990 
   64.7500    70.4430     7.0100     5.9010     6.5860    21.4260   -29.3230     2.4130 
   64.8750    74.4350     7.1510     6.0200     6.2340    22.1050   -29.8610     2.4420 
   65.0000    76.1330     7.3450     6.1820     5.9030    22.8920   -30.3270     2.4060 
   65.1250    72.6880     7.6950     6.4770     6.1050    22.4800   -30.7760     2.3500 
   65.2500    67.1820     8.1610     6.8700     6.6700    21.3880   -31.2070     2.3020 
   65.3750    63.0600     8.6610     7.2910     7.1890    20.2350   -31.6240     2.2660 
   65.5000    60.0870     9.1110     7.6690     7.5210    19.8300   -32.0370     2.2380 
   65.6250    56.4800     9.4270     7.9350     8.0000    19.9280   -32.4560     2.2090 
   65.7500    56.2610     9.6020     8.0820     9.0090    20.0770   -32.9020     2.1750 
   65.8750    58.1830     9.6400     8.1140    10.4240    20.0990   -33.3290     2.1410 
   66.0000    56.4650     9.5450     8.0350    11.0120    20.0330   -33.6440     2.1140 
   66.1250    51.8470     9.2910     7.8210     9.0220    19.9030   -33.8230     2.1020 
   66.2500    51.9500     8.9540     7.5370     7.7920    19.8960   -33.9830     2.0930 
   66.3750    56.9110     8.6900     7.3150     7.4060    19.9540   -34.1440     2.0810 
   66.5000    61.6460     8.6900     7.3140     7.5170    20.0350   -34.2620     2.0620 
   66.6250    61.0860     9.1290     7.6840     7.8790    20.1650   -34.3140     2.0480 
   66.7500    58.7110     9.8890     8.3240     8.8950    20.3870   -34.3600     2.0600 
   66.8750    59.2900    10.7530     9.0510    11.7400    20.7280   -34.4430     2.1060 
   67.0000    61.2750    11.3670     9.5680    17.9790    21.0480   -34.5500     2.1740 
   67.1250    59.1160    11.2860     9.5000    18.2570    20.7520   -34.5990     2.2320 
   67.2500    57.7070    10.6230     8.9420    12.5280    20.4290   -34.6240     2.2540 
   67.3750    61.6050     9.6900     8.1560     9.0940    20.3430   -34.6480     2.2400 
   67.5000    66.9120     8.8230     7.4270     8.0620    20.2690   -34.6790     2.2070 
   67.6250    64.1610     8.3070     6.9920     7.8780    20.2050   -34.7190     2.1740 
   67.7500    58.1480     8.1450     6.8560     7.7920    20.1910   -34.7100     2.1430 
   67.8750    55.1980     8.2510     6.9450     7.8140    20.1770   -34.6560     2.1070 
   68.0000    55.2890     8.4810     7.1390     7.9470    20.1360   -34.5890     2.0640 
   68.1250    55.6320     8.7030     7.3260     8.1160    20.2690   -34.5650     2.0280 
   68.2500    56.3000     8.8580     7.4560     8.2330    20.4400   -34.4980     2.0170 
   68.3750    56.9930     8.9470     7.5310     8.2980    20.5040   -34.3720     2.0450 
   68.5000    56.5770     9.0020     7.5780     8.2670    20.4960   -34.2540     2.1060 
   68.6250    55.4490     9.0510     7.6190     8.1780    20.4860   -34.1520     2.1790 
   68.7500    55.2010     9.0930     7.6540     8.0870    20.5620   -34.0720     2.2340 
   68.8750    55.7610     9.1160     7.6730     8.0380    20.6330   -34.0140     2.2620 
   69.0000    56.2040     9.1070     7.6660     7.9790    20.6490   -33.9990     2.2680 
   69.1250    55.6160     9.0610     7.6270     7.8470    20.6400   -34.0540     2.2560 
   69.2500    54.3460     9.0150     7.5880     7.6950    20.6100   -34.1550     2.2290 
   69.3750    53.9770     9.0050     7.5800     7.5760    20.6180   -34.2930     2.1860 
   69.5000    56.1070     9.0440     7.6130     7.4660    20.7900   -34.4460     2.1330 
   69.6250    57.4130     9.0970     7.6580     7.4540    20.9470   -34.6290     2.0850 
   69.7500    55.4220     9.0950     7.6560     7.5540    21.0060   -34.8370     2.0580 
   69.8750    54.1750     8.9820     7.5610     7.7200    20.8350   -35.0220     2.0580 
   70.0000    56.7210     8.7500     7.3650     7.8650    20.8330   -35.1370     2.0890 
   70.1250    61.3320     8.4510     7.1140     7.7050    20.9200   -35.1650     2.1490 
   70.2500    65.5740     8.1910     6.8940     7.1040    20.9830   -35.1740     2.2200 
   70.3750    68.9960     8.0410     6.7680     6.4710    21.2370   -35.1420     2.2780 
   70.5000    68.8830     8.0430     6.7700     6.4330    21.5510   -35.0040     2.2990 
   70.6250    62.6130     8.2130     6.9130     7.1750    21.6960   -34.7460     2.2640 
   70.7500    56.3330     8.4540     7.1160     7.8400    21.6630   -34.4160     2.2040 
   70.8750    54.0620     8.6560     7.2860     7.9820    21.2890   -34.0660     2.1500 
   71.0000    53.5240     8.7160     7.3370     7.8900    20.7500   -33.7170     2.1280 
   71.1250    52.4130     8.5650     7.2100     7.8170    20.5560   -33.3590     2.1520 
   71.2500    54.0140     8.3200     7.0030     7.6840    20.7380   -33.0010     2.1990 
   71.3750    60.0100     8.1180     6.8340     7.5270    21.2040   -32.6930     2.2420 
   71.5000    66.3110     8.0800     6.8020     7.5580    21.7990   -32.4610     2.2590 
   71.6250    66.7040     8.2800     6.9690     7.9970    21.7380   -32.2690     2.2410 
   71.7500    63.0250     8.6000     7.2390     8.5270    21.4060   -32.1020     2.2110 
   71.8750    60.0550     8.8750     7.4710     8.8350    21.0220   -31.9620     2.1920 
   72.0000    59.6290     8.9090     7.4990     8.7130    20.7900   -31.8700     2.2020 
   72.1250    62.5800     8.5220     7.1740     8.2570    21.1580   -31.8200     2.2450 
   72.2500    68.3320     7.8770     6.6310     7.4930    21.8020   -31.7700     2.2890 
   72.3750    75.0510     7.2000     6.0610     6.7800    22.4950   -31.7110     2.3070 
