~V
VERS. 2.00: Ver 2.00
~W
STRT.M 55.0000:
STOP.M 207.0000:
STEP.M 0.1250:
NULL. -999.2500:
UWI. F11112:
~C
DEPT.M :
SP.MV :
RML.OHMM :
RI. :
RXO.OHMM :
CALI.CM :
DEN.GM/CC :
GR.API :
~A
# ...
  201.2500    -8.3360     6.0310     5.3220     4.5780    25.1780     2.0460    79.4910 
  201.3750    -8.3400     6.0130     5.2890     4.8850    24.6460     2.0620    79.4910 
  201.5000    -8.2490     6.0050     5.2830     5.3290    24.4210     2.1520    79.4910 
  201.6250    -8.0840     6.0020     5.2840     5.7440    24.3740     2.2660    79.4910 
  201.7500    -7.8820     6.0020     5.2850     5.7990    24.3470     2.3370    79.4910 
  201.8750    -7.6370     6.0030     5.2860     5.5580    24.3040     2.3620    79.4910 
  202.0000    -7.3520     6.0020     5.2860     5.3500    24.2650     2.3660    79.4910 
  202.1250    -7.1180     5.9980     5.2860     5.3500    24.2220     2.3660    79.4910 
  202.2500    -6.8490     5.9930     5.2860     5.5400    24.1780     2.3640    79.4910 
  202.3750    -6.6140     5.9880     5.2850     5.6870    24.1980     2.3570    79.4910 
  202.5000    -6.4750     5.9870     5.2830     5.8700    24.2720     2.3500    79.4910 
  202.6250    -6.3840     5.9880     5.2820     6.1010    24.3140     2.3530    79.4910 
  202.7500    -6.2330     5.9880     5.2820     6.4520    24.2930     2.3640    79.4910 
  202.8750    -6.0820     5.9880     5.2820     6.8350    24.2740     2.3690    79.4910 
  203.0000    -5.9170     5.9880     5.2820     7.2310    24.2440     2.3730    79.4910 
  203.1250    -5.7610     5.9880     5.2820     7.6600    24.1850     2.3920    79.4910 
  203.2500    -5.8170     5.9880     5.2820     7.9570    24.1400     2.4210    79.4910 
  203.3750    -5.9000     5.9880     5.2820     8.0150    24.1940     2.4300    79.4910 
  203.5000    -5.9840     5.9880     5.2820     7.9990    24.2640     2.4150    79.4910 
  203.6250    -6.0340     5.9880     5.2820     7.5500    24.2900     2.3910    79.4910 
  203.7500    -6.2020     5.9880     5.2820     6.8540    24.3010     2.3690    79.4910 
  203.8750    -6.3810     5.9880     5.2820     6.2960    24.3030     2.3500    79.4910 
  204.0000    -6.6440     5.9880     5.2820     6.0000    24.3060     2.3360    79.4910 
  204.1250    -6.9120     5.9880     5.2820     5.9500    24.3170     2.3310    79.4910 
  204.2500    -7.0150     5.9880     5.2820     6.0310    24.3240     2.3330    79.4910 
  204.3750    -7.0820     5.9880     5.2820     6.1600    24.3300     2.3400    79.4910 
  204.5000    -7.0940     5.9880     5.2820     6.3600    24.3330     2.3430    79.4910 
  204.6250    -7.1000     5.9880     5.2820     6.7830    24.3360     2.3570    79.4910 
  204.7500    -7.7140     5.9880     5.2820     7.1250    24.3370     2.3860    79.4910 
  204.8750  -999.2500     5.9880     5.2820     7.2740    24.3440     2.4220    79.4910 
  205.0000  -999.2500     5.9880     5.2820     7.5080    24.3540     2.4400    79.4910 
  205.1250  -999.2500     5.9880     5.2820     8.0180    24.3910     2.4160    79.4910 
  205.2500  -999.2500     5.9880     5.2820     8.3960    24.4610     2.3360    79.4910 
  205.3750  -999.2500     5.9880     5.2820     9.0720    24.7160     2.1990    79.4910 
  205.5000  -999.2500     5.9880     5.2820     8.4690    24.9150     2.0120    79.4910 
  205.6250  -999.2500     5.9880     5.2820     6.5430    24.9230     1.8140    79.4910 
  205.7500  -999.2500     5.9880     5.2820     5.2110    24.2890     1.6420    79.4910 
  205.8750  -999.2500     5.9880     5.2820     4.5820    22.7850     1.5190    79.4910 
  206.0000  -999.2500     5.9880     5.2820     4.1430    21.1050     1.4570    79.4910 
  206.1250  -999.2500     5.9880     5.2820     3.9760    20.4230     1.4320    79.4910 
  206.2500  -999.2500     5.9880     5.2820     3.9340    20.2840     1.4260    79.4910 
  206.3750  -999.2500     5.9880     5.2820     3.9330    20.2840     1.4260    79.4910 
  206.5000  -999.2500     5.9880     5.2820     3.9330    20.2840     1.4260    79.4910 
  206.6250  -999.2500     5.9880     5.2820     3.9320    20.2840     1.4240    79.4910 
  206.7500  -999.2500     5.9880     5.2820     3.9310    20.2830     1.4230    79.4910 
  206.8750  -999.2500     5.9880     5.2820     3.9290    20.2820     1.4220    79.4910 
  207.0000  -999.2500     5.9880     5.2820     3.9270    20.2800     1.1160    79.4910 
