~V
VERS. 2.00: Ver 2.00
~W
STRT.M 55.0000:
STOP.M 240.0000:
STEP.M 0.1250:
NULL. -999.2500:
UWI. F11138:
~C
DEPT.M :
SP.MV :
DEN.GM/CC :
GR.API :
RML.OHMM :
RI. :
RXO.OHMM :
CALI.CM :
~A
# ...
  190.0000   -31.5120     2.1800    76.5370   102.7550    96.8700    82.3610    24.6980 
  190.1250   -31.9180     2.1630    75.5180   109.2920   103.1950    87.1500    24.6370 
  190.2500   -32.3360     2.1310    74.2540   113.5090   107.2200    90.4620    24.5830 
  190.3750   -32.7540     2.0810    74.1750   116.3840   109.6520    97.2460    24.5990 
  190.5000   -33.1480     2.0180    74.2230   119.6740   112.0550   106.1270    24.6730 
  190.6250   -33.5660     1.9590    71.2050   125.4900   116.5020   123.1120    24.7640 
  190.7500   -33.9230     1.9260    67.8260   134.1100   123.5710   116.5340    24.7350 
  190.8750   -34.2570     1.9270    68.1340   144.8820   132.9020   107.2220    24.5290 
  191.0000   -34.5030     1.9600    71.3380   156.1460   143.1460   101.2210    24.0270 
  191.1250   -34.6590     2.0090    73.8730   164.7620   151.5980   116.0260    22.9740 
  191.2500   -34.6830     2.0510    74.9530   168.4230   155.9810   126.9640    21.6080 
  191.3750   -34.6480     2.0740    75.5710   165.9880   155.0300   138.1540    20.6090 
  191.5000   -34.4480     2.0840    76.1310   158.0430   148.9520   158.0590    20.3210 
  191.6250   -34.1380     2.0910    76.9350   146.3290   138.9360   155.8720    20.4270 
  191.7500   -33.7130     2.0990    77.0750   133.8850   127.7130   135.7580    20.5420 
  191.8750   -33.2690     2.1030    76.2960   122.3320   116.8680   118.5170    20.5500 
  192.0000   -32.8060     2.0910    75.4550   112.8370   107.6500   108.9040    20.5380 
  192.1250   -32.4050     2.0620    75.6590   107.0710   101.7950    99.2750    20.6530 
  192.2500   -32.0860     2.0360    76.1550   105.6620   100.0780    87.0660    20.9180 
  192.3750   -31.9050     2.0230    76.0710   109.6440   103.5930    79.2750    21.1100 
  192.5000   -31.9270     2.0250    73.8510   119.9610   113.3390    88.7390    21.1830 
  192.6250   -32.0850     2.0390    69.1920   138.2490   130.9790   107.3020    21.2290 
  192.7500   -32.4000     2.0630    64.8140   162.2490   154.2700   137.9550    21.2720 
  192.8750   -32.7850     2.0940    62.1790   188.4260   179.7360   175.1700    21.3070 
  193.0000   -33.3130     2.1290    60.6930   210.7530   201.5660   207.1210    21.3700 
  193.1250   -33.8330     2.1590    60.8630   219.2320   210.3250   233.9550    21.3660 
  193.2500   -34.4050     2.1830    62.4860   210.6220   203.1520   242.6580    21.2880 
  193.3750   -34.8770     2.1990    63.7010   186.7050   181.6510   226.3690    21.2200 
  193.5000   -35.2230     2.2100    64.6020   155.4940   152.6570   193.4840    21.1590 
  193.6250   -35.4700     2.2200    66.3790   127.9380   125.7430   153.2500    21.2000 
  193.7500   -35.6170     2.2290    68.1720   109.0900   106.3910   111.6460    21.4420 
  193.8750   -35.6810     2.2310    68.7800    99.7370    96.0650    79.3260    21.8790 
  194.0000   -35.6020     2.2220    68.4710    99.1840    94.4900    66.8670    22.2900 
  194.1250   -35.5330     2.2050    68.2410   107.3470   101.7050    71.6330    22.4460 
  194.2500   -35.3550     2.1940    67.5720   120.9240   114.3980    83.0650    22.4330 
  194.3750   -35.1490     2.1950    66.4090   136.7810   129.5730   101.5300    22.3580 
  194.5000   -34.8140     2.2040    65.7350   150.5090   143.1020   126.6990    22.2800 
  194.6250   -34.3520     2.2160    65.1000   155.6130   148.9850   149.6280    22.2220 
  194.7500   -33.7430     2.2280    64.5020   150.6150   145.6570   157.8150    22.1780 
  194.8750   -33.0380     2.2390    65.1660   137.8240   134.6810   144.3090    22.1320 
  195.0000   -32.2330     2.2430    67.9790   122.9990   120.6860   116.7170    22.1460 
  195.1250   -31.3020     2.2300    71.1850   112.9460   109.8390    91.7290    22.1700 
  195.2500   -30.2980     2.2080    73.3190   110.0150   105.2060    67.7040    22.2060 
  195.3750   -29.1520     2.1870    74.9940   114.9020   107.8810    51.3850    22.1740 
  195.5000   -27.9910     2.1740    74.8040   127.7330   118.0310    42.5450    21.9300 
  195.6250   -26.9770     2.1640    70.7870   149.9080   136.6400    33.6190    21.7530 
  195.7500   -26.2510     2.1500    66.3460   180.1590   162.1450    30.8920    21.6900 
  195.8750   -25.5940     2.1360    65.2200   218.5140   194.1850    41.1530    21.6700 
  196.0000   -25.0670     2.1240    65.8860   265.1190   232.5310    68.8400    21.6360 
  196.1250   -24.5830     2.1160    64.2030   322.2550   278.5930   124.8680    21.6780 
  196.2500   -24.1700     2.1130    61.6380   389.4700   331.9060   213.6090    22.0790 
  196.3750   -23.8430     2.1260    60.5460   464.1590   391.1570   306.7870    22.7210 
  196.5000   -23.6450     2.1740    60.5790   534.2770   449.5930   358.2370    23.1260 
  196.6250   -23.4370     2.2790    59.9110   570.9110   488.0180   388.1750    23.2670 
  196.7500   -23.0650     2.4230    59.0880   553.2400   489.1100   432.5850    23.2170 
  196.8750   -22.7110     2.5580    58.6370   469.5620   440.5730   498.9620    22.9530 
  197.0000   -22.2960     2.6230    59.2250   342.5620   348.8660   621.8950    22.5720 
  197.1250   -21.9730     2.6190    61.5870   231.4880   247.9360   765.3330    22.4350 
  197.2500   -21.6490     2.6070    64.7680   159.3990   170.8610   738.1750    22.3970 
  197.3750   -21.4030     2.5940    67.0840   118.6680   122.8600   427.2670    22.3120 
  197.5000   -21.1360     2.5960    68.2710    98.0490    97.5310   203.6330    22.2010 
  197.6250   -20.8620     2.6070    69.7710    89.8230    87.4360   143.3370    22.1650 
  197.7500   -20.5900     2.6220    71.4010    85.0310    82.0770   135.7690    22.2850 
  197.8750   -20.3320     2.6330    71.4540    78.6230    75.8090   134.7660    22.4820 
  198.0000   -20.0930     2.6220    70.1910    66.9130    64.7770   126.0110    22.6090 
  198.1250   -19.7450     2.5810    69.9200    49.2640    47.8030   112.1200    22.6360 
  198.2500   -19.3480     2.5100    70.2470    31.4260    30.5870    91.1920    22.5960 
  198.3750   -18.8000     2.4130    69.9030    17.8100    17.7050    61.0640    22.5790 
  198.5000   -18.2680     2.2970    68.2000    10.1600    10.0450    36.5410    22.7390 
  198.6250   -17.7170     2.1810    65.4610     6.8730     6.5540    19.9970    23.2750 
  198.7500   -17.2030     2.1050    62.2910     5.5380     4.9840    11.3530    24.0230 
  198.8750   -16.6980     2.0890    60.1020     5.2850     4.4920     6.9710    24.4880 
  199.0000   -16.2780     2.1150    61.5820     5.6060     4.6320     5.6230    24.3500 
  199.1250   -15.9850     2.1420    66.5300     6.1770     5.1590     5.5160    24.0130 
  199.2500   -15.9060     2.1510    70.3550     6.7190     5.7760     5.5130    24.1820 
  199.3750   -16.0550     2.1600    69.7730     7.1200     6.3220     5.4760    24.5920 
  199.5000   -16.3210     2.1910    64.6790     7.3730     6.7220     5.4830    24.5930 
  199.6250   -16.7110     2.2390    58.5820     7.5350     6.9720     5.6670    24.2600 
  199.7500   -17.1390     2.2750    55.0390     7.6890     7.1490     5.9730    23.8980 
  199.8750   -17.6250     2.2780    53.3930     7.8660     7.2870     6.1770    23.8130 
  200.0000   -18.0660     2.2480    51.5340     8.0230     7.4050     6.2550    23.8430 
  200.1250   -18.4970     2.1950    50.1040     8.1610     7.4920     6.3480    24.0300 
  200.2500   -18.7930     2.1470    50.9090     8.2060     7.5300     6.5480    24.2470 
  200.3750   -19.0110     2.1230    52.7560     8.0720     7.4980     6.7910    24.4150 
  200.5000   -19.1650     2.1260    53.6910     7.9670     7.3970     6.8140    24.3060 
  200.6250   -19.2210     2.1180    55.9680     7.8780     7.2710     6.5850    23.7480 
  200.7500   -19.2630     2.0860    61.6100     7.9090     7.2080     6.3970    23.1150 
  200.8750   -19.2810     2.0780    71.3300     8.2180     7.2800     6.2660    22.7790 
  201.0000   -19.3850     2.1330    83.6100     8.7780     7.5240     6.3540    22.7720 
  201.1250   -19.4870     2.2330    93.3260     9.4920     7.9270     7.2390    22.7470 
