~V
VERS. 2.00: Ver 2.00
~W
STRT.M 63.0000:
STOP.M 219.0000:
STEP.M 0.1250:
NULL. -999.2500:
UWI. F11123:
~C
DEPT.M :
GR.API :
RML.OHMM :
RI. :
RXO.OHMM :
CALI.CM :
SP.MV :
DEN.GM/CC :
~A
# ...
  141.7500    78.0110     7.0800     6.0330     5.3390    24.9620     0.4410     2.3250 
  141.8750    79.1530     7.3880     6.0730     5.2960    24.9620     0.4340     2.3190 
  142.0000    80.2370     7.6280     6.0660     5.3130    24.9180     0.4390     2.3140 
  142.1250    82.8800     7.7230     6.0350     5.3890    24.7600     0.4350     2.3110 
  142.2500    84.9690     7.6860     5.9960     5.5120    24.8830     0.4110     2.3100 
  142.3750    84.1650     7.5640     5.9490     5.5230    24.8380     0.3700     2.3090 
  142.5000    81.3150     7.4370     5.8990     5.4470    24.8210     0.3370     2.3070 
  142.6250    79.9290     7.4340     5.8760     5.4160    24.8050     0.3180     2.3000 
  142.7500    80.1660     7.5920     5.9150     5.4780    24.7680     0.3130     2.2910 
  142.8750    80.9860     7.9140     6.0500     5.6780    24.7660     0.3040     2.2840 
  143.0000    80.5430     8.3870     6.2950     6.1860    24.6660     0.3110     2.2840 
  143.1250    78.3910     8.9350     6.6430     6.9890    24.7050     0.3250     2.2930 
  143.2500    77.7550     9.4190     7.0240     7.6130    24.8000     0.3640     2.3040 
  143.3750    79.3120     9.7680     7.3780     8.1870    24.8220     0.4030     2.3100 
  143.5000    79.3770     9.9720     7.6530     8.2430    24.8680     0.4470     2.3060 
  143.6250    76.5600    10.0400     7.8060     7.6550    24.8970     0.4950     2.2930 
  143.7500    74.7690    10.0350     7.8740     7.1960    24.9320     0.5640     2.2800 
  143.8750    73.5800    10.0160     7.8910     7.4820    24.9430     0.6510     2.2720 
  144.0000    71.3950    10.0340     7.8900     7.8140    24.9300     0.7320     2.2700 
  144.1250    69.8390    10.1120     7.8850     8.1020    24.9110     0.7690     2.2730 
  144.2500    70.9110    10.2230     7.8830     8.1620    24.8980     0.7500     2.2750 
  144.3750    72.9470    10.3360     7.8870     8.2530    24.8980     0.6820     2.2740 
  144.5000    74.9370    10.4490     7.9210     8.3960    24.9390     0.5700     2.2710 
  144.6250    76.1150    10.7150     8.0840     8.6030    24.9420     0.4100     2.2670 
  144.7500    74.7400    11.3700     8.4890     8.9140    24.9430     0.2220     2.2670 
  144.8750    71.7220    12.6870     9.2780     9.6620    24.9400     0.0210     2.2690 
  145.0000    68.3040    14.8450    10.5760    10.8640    24.9420    -0.1900     2.2690 
  145.1250    66.9230    17.7780    12.4520    13.1510    24.9700    -0.3860     2.2610 
  145.2500    67.5040    20.5660    14.4200    16.9640    25.0270    -0.5800     2.2490 
  145.3750    67.5240    22.0130    15.6980    20.3860    25.0540    -0.7780     2.2400 
  145.5000    66.2670    21.1920    15.5310    20.7850    25.0190    -0.9620     2.2420 
  145.6250    65.9490    18.2200    13.8100    15.9290    24.9930    -1.1100     2.2580 
  145.7500    68.7110    15.0160    11.7480    10.8700    24.9550    -1.1970     2.2810 
  145.8750    71.0880    12.7850    10.1380     8.0960    24.9710    -1.2480     2.2980 
  146.0000    70.3210    11.9990     9.3460     7.4710    24.9970    -1.2780     2.3040 
  146.1250    68.3670    12.8490     9.5970     9.0230    25.0060    -1.3280     2.2950 
  146.2500    67.1960    14.7990    10.6910    12.5820    25.0130    -1.4000     2.2810 
  146.3750    66.6290    17.3660    12.4540    16.7790    25.0390    -1.5070     2.2680 
  146.5000    67.3040    19.8630    14.4910    18.4920    25.0260    -1.6580     2.2610 
  146.6250    69.2190    21.4490    16.1310    15.3660    25.0040    -1.8190     2.2610 
  146.7500    69.5540    22.0820    17.0770    13.8310    24.9960    -1.9840     2.2640 
  146.8750    67.0200    22.0400    17.4070    13.5780    24.9820    -2.1150     2.2670 
  147.0000    63.5960    21.6090    17.3330    13.6790    24.8480    -2.2060     2.2690 
  147.1250    61.3640    20.7990    16.9050    12.9470    24.8160    -2.2420     2.2670 
  147.2500    60.7280    19.4990    16.0740    13.0630    24.8150    -2.2600     2.2630 
  147.3750    62.6060    17.6300    14.7640    13.1520    24.7980    -2.2540     2.2570 
  147.5000    67.2700    15.4220    13.1530    11.7380    24.7270    -2.2250     2.2550 
  147.6250    72.2520    13.4650    11.7050     9.0250    24.6970    -2.1760     2.2620 
  147.7500    75.8740    12.2410    10.7700     7.5040    24.6830    -2.1340     2.2800 
  147.8750    78.3390    12.0240    10.5140     7.0300    24.6520    -2.1080     2.3040 
  148.0000    78.3060    12.8930    10.9870     8.6410    24.6480    -2.1010     2.3220 
  148.1250    73.7830    14.6560    12.1250    12.0630    24.6980    -2.1300     2.3210 
  148.2500    69.6830    16.3600    13.3230    14.4250    24.8520    -2.1890     2.3030 
  148.3750    69.5770    17.1060    13.9140    13.6190    24.9290    -2.2640     2.2780 
  148.5000    72.0290    16.5210    13.5380    11.8200    24.9550    -2.3410     2.2580 
  148.6250    74.2340    15.2510    12.5470     9.9840    24.8970    -2.4030     2.2550 
  148.7500    74.6820    14.6850    11.8870     8.9090    24.7550    -2.4210     2.2650 
  148.8750    73.6630    15.8370    12.2060     9.1290    24.6110    -2.3920     2.2750 
  149.0000    71.1590    19.5650    14.0810    11.8980    24.5210    -2.3060     2.2720 
  149.1250    66.2680    27.2040    18.6450    23.3770    24.5290    -2.1710     2.2460 
  149.2500    59.5060    38.4200    26.1200    44.9610    24.5980    -2.0100     2.2060 
  149.3750    54.1050    51.9580    36.0610    58.5270    24.7060    -1.8440     2.1650 
  149.5000    52.6900    64.3030    46.1250    56.9010    24.7450    -1.6870     2.1350 
  149.6250    52.9740    69.4970    51.6300    59.8380    24.7190    -1.5190     2.1290 
  149.7500    53.8890    67.7560    51.7870    59.9580    24.6020    -1.3670     2.1380 
  149.8750    56.3740    62.6060    48.6560    54.4760    24.5230    -1.2350     2.1550 
  150.0000    58.6960    57.5310    44.8220    46.4450    24.5320    -1.1390     2.1730 
  150.1250    57.9380    54.4580    42.0420    39.4400    24.5310    -1.0870     2.1860 
  150.2500    56.4300    53.4020    40.6780    34.8600    24.5910    -1.0560     2.1910 
  150.3750    55.2220    54.2300    40.8020    33.0640    24.6540    -1.0550     2.1860 
  150.5000    53.4800    56.5680    42.2800    35.7960    24.7970    -1.0710     2.1740 
  150.6250    52.7540    59.7490    44.8140    44.0220    24.9330    -1.1200     2.1590 
  150.7500    54.6000    62.7170    47.6270    51.9720    25.0780    -1.1620     2.1510 
  150.8750    56.5380    64.8660    50.2260    57.6150    25.1430    -1.1920     2.1520 
  151.0000    55.8640    65.8830    52.2420    58.9320    25.2770    -1.1990     2.1600 
  151.1250    53.5520    65.2070    53.0380    57.6290    25.2870    -1.2070     2.1720 
  151.2500    52.9500    62.4900    52.0830    58.4660    25.2570    -1.2250     2.1820 
  151.3750    53.4990    57.0280    48.5690    60.6520    25.2460    -1.2420     2.1970 
  151.5000    53.4790    48.5250    42.0580    56.3860    25.2230    -1.2700     2.2240 
  151.6250    55.0470    37.8370    33.2810    41.4860    25.1610    -1.2850     2.2710 
  151.7500    59.3010    27.5010    24.7070    27.1160    25.0450    -1.2950     2.3250 
  151.8750    63.7860    19.0760    17.7250    17.4370    24.8610    -1.3010     2.3660 
  152.0000    68.4820    13.1320    12.7400    11.2200    24.6990    -1.3150     2.3780 
  152.1250    73.9240     9.7490     9.7530     7.1250    24.6120    -1.3260     2.3590 
  152.2500    77.6480     7.9510     8.0220     6.0070    24.6150    -1.3470     2.3320 
  152.3750    78.5990     7.2720     7.2290     5.7690    24.6050    -1.3810     2.3140 
  152.5000    79.2040     7.4190     7.1750     6.0270    24.5620    -1.4140     2.3110 
  152.6250    80.6230     8.3500     7.8540     6.4580    24.5490    -1.4480     2.3190 
  152.7500    79.0740     9.8250     9.0750     6.9800    24.5430    -1.4600     2.3280 
  152.8750    72.6560    11.6020    10.6770     8.3310    24.4830    -1.4510     2.3300 
