~V
VERS. 2.00: Ver 2.00
~W
STRT.M 52.0000:
STOP.M 240.0000:
STEP.M 0.1250:
NULL. -999.2500:
UWI. F11139:
~C
DEPT.M :
GR.API :
RML.OHMM :
RI. :
RXO.OHMM :
CALI.CM :
SP.MV :
DEN.GM/CC :
~A
# ...
  164.5000    68.5360    39.2780    36.2890    50.1780    24.5750    -4.3760     2.2060 
  164.6250    71.1020    36.1840    31.4460    37.0200    24.5690    -4.2790     2.2140 
  164.7500    73.6960    32.2270    27.9060    26.8830    24.5420    -4.1900     2.2240 
  164.8750    74.7990    30.9180    26.3780    22.8290    24.5060    -4.1020     2.2350 
  165.0000    74.9450    32.3040    27.1510    23.3240    24.4920    -4.0220     2.2420 
  165.1250    76.5100    36.2600    30.4750    27.5610    24.5100    -3.9460     2.2430 
  165.2500    78.6280    41.1560    35.1650    34.3660    24.5280    -3.8600     2.2400 
  165.3750    79.1720    45.1650    39.6910    42.4150    24.5460    -3.8440     2.2350 
  165.5000    77.9480    46.2670    42.0740    49.4090    24.5680    -3.8570     2.2280 
  165.6250    76.7970    42.3060    39.8720    51.3260    24.5730    -3.8380     2.2230 
  165.7500    76.5710    34.9140    33.8980    44.9610    24.5600    -3.7170     2.2240 
  165.8750    78.4540    26.9510    26.4540    31.4760    24.5280    -3.5600     2.2350 
  166.0000    81.9320    21.0640    20.1990    19.2820    24.4750    -3.4120     2.2530 
  166.1250    83.6990    18.9230    17.0500    14.0300    24.4430    -3.3540     2.2720 
  166.2500    83.4310    20.1250    16.8960    14.7200    24.4340    -3.4330     2.2840 
  166.3750    82.5980    24.8410    20.0430    21.3490    24.4550    -3.7140     2.2830 
  166.5000    81.4470    33.4620    27.1010    34.9500    24.4810    -4.1750     2.2730 
  166.6250    78.5950    46.7840    39.2540    53.8550    24.5120    -4.8110     2.2560 
  166.7500    74.6850    62.9780    54.9670    73.5950    24.5340    -5.6460     2.2340 
  166.8750    71.6430    79.4960    71.8660    87.9430    24.5210    -6.6680     2.2070 
  167.0000    70.4290    92.7660    86.3580    92.2020    24.4430    -7.8370     2.1840 
  167.1250    70.9610    98.2540    93.8350    90.9900    24.2360    -9.0640     2.1810 
  167.2500    71.6660    97.1970    94.7650    88.2820    24.0470   -10.2690     2.1870 
  167.3750    71.3470    92.7760    91.3820    87.5310    24.0460   -11.3510     2.1830 
  167.5000    71.3340    88.2880    86.5210    83.5680    24.2600   -12.3840     2.1580 
  167.6250    73.4190    86.5920    83.0980    75.4400    24.4200   -13.3990     2.1290 
  167.7500    75.4730    88.9150    83.0170    69.4970    24.3830   -14.4200     2.1210 
  167.8750    75.4680    96.4750    87.8310    73.1440    24.1810   -15.3530     2.1410 
  168.0000    73.3080   110.6020    99.0270    89.4580    23.8980   -16.2350     2.1820 
  168.1250    71.3440   134.4410   119.6280   116.2930    23.6970   -17.0870     2.2210 
  168.2500    69.3880   168.3240   149.7170   147.8010    23.6180   -17.9290     2.2390 
  168.3750    67.5150   213.1190   189.8870   179.0560    23.6000   -18.7800     2.2400 
  168.5000    66.6490   268.3000   239.5910   207.2370    23.6160   -19.6110     2.2340 
  168.6250    66.4000   331.1510   296.8500   242.9390    23.6720   -20.3960     2.2190 
  168.7500    65.0010   392.6790   354.2520   281.0100    23.7720   -21.1060     2.1920 
  168.8750    62.1640   443.2800   403.6050   306.3120    23.9450   -21.8060     2.1550 
  169.0000    59.2920   473.4260   436.0770   308.0280    24.1770   -22.4970     2.1180 
  169.1250    58.2410   473.1500   441.4010   292.0190    24.4090   -23.1600     2.0960 
  169.2500    58.5200   451.3110   425.4320   272.6910    24.5070   -23.7760     2.0930 
  169.3750    58.8290   419.5640   397.4330   253.4020    24.4620   -24.3790     2.1070 
  169.5000    58.1740   389.7140   368.5500   235.2000    24.3350   -24.9630     2.1300 
  169.6250    57.4110   370.7880   348.7000   224.7110    24.1990   -25.5100     2.1500 
  169.7500    57.1200   363.1010   339.7980   227.0360    24.1200   -26.0440     2.1600 
  169.8750    57.3870   365.7640   341.5740   240.0270    24.1390   -26.6230     2.1590 
  170.0000    58.1830   376.9710   352.4580   256.7860    24.2580   -27.1000     2.1520 
  170.1250    59.1260   394.8180   370.7310   278.2300    24.3620   -27.4890     2.1390 
  170.2500    59.3190   414.7360   391.7430   296.7960    24.4460   -27.7590     2.1250 
  170.3750    59.0750   433.1970   411.9550   307.3030    24.5090   -27.9830     2.1150 
  170.5000    59.3050   446.8870   427.9970   308.1950    24.5100   -28.1190     2.1120 
  170.6250    58.6970   451.9180   435.8360   301.8450    24.4010   -28.2130     2.1210 
  170.7500    57.7030   448.7680   435.4930   293.3500    24.2170   -28.1710     2.1380 
  170.8750    57.5720   438.6070   427.7410   285.4470    24.0890   -27.9720     2.1570 
  171.0000    58.9150   423.7330   414.5690   277.2730    24.0940   -27.7470     2.1700 
  171.1250    60.0710   406.8550   398.3890   269.1630    24.2110   -27.5150     2.1680 
  171.2500    59.1860   390.9160   382.3030   259.0610    24.3550   -27.3010     2.1530 
  171.3750    57.5170   377.7540   368.2650   249.0320    24.5880   -27.0320     2.1300 
  171.5000    56.5250   368.7690   357.8330   245.8690    24.7800   -26.7210     2.1080 
  171.6250    57.1820   365.9460   353.1050   248.5840    24.8830   -26.4340     2.0970 
  171.7500    57.7590   368.9940   354.0400   255.8870    25.0420   -26.1870     2.1000 
  171.8750    57.7580   377.8630   360.7660   260.6610    25.1910   -26.0180     2.1140 
  172.0000    58.6990   391.8600   372.8150   267.4120    25.2850   -25.7570     2.1300 
  172.1250    60.5780   409.7700   389.4410   279.5230    25.3360   -25.4650     2.1420 
  172.2500    61.1940   428.1740   407.6340   292.3900    25.4010   -25.1190     2.1450 
  172.3750    60.0920   443.6740   424.4830   303.8640    25.5020   -24.8050     2.1370 
  172.5000    59.5030   452.4770   436.5250   309.3450    25.5810   -24.5480     2.1170 
  172.6250    61.3990   449.2600   438.5810   311.5720    25.5840   -24.2950     2.0920 
  172.7500    62.1980   434.3060   429.8830   310.4550    25.4070   -24.0200     2.0730 
  172.8750    60.3480   409.0080   410.8680   305.2250    25.0660   -23.7460     2.0610 
  173.0000    58.5460   376.5590   384.0330   291.6330    24.7210   -23.5780     2.0530 
  173.1250    60.9230   339.5210   351.8850   261.5960    24.5020   -23.4510     2.0600 
  173.2500    65.8450   299.1190   316.1780   231.8650    24.3390   -23.3340     2.0880 
  173.3750    70.4000   254.4420   275.7170   212.8660    24.2130   -23.1700     2.1320 
  173.5000    72.8480   206.3400   229.9450   201.6590    24.1940   -22.9550     2.1750 
  173.6250    73.2720   159.4380   181.8650   187.4040    24.2280   -22.7510     2.2030 
  173.7500    74.4480   120.7790   138.5180   147.9230    24.3110   -22.5710     2.2260 
  173.8750    77.9760    93.8360   105.0540    92.5990    24.4090   -22.4000     2.2480 
  174.0000    81.6820    77.4520    83.3680    58.1010    24.4110   -22.1860     2.2640 
  174.1250    81.3760    72.4300    74.0270    51.1060    24.3470   -22.0180     2.2710 
  174.2500    78.0610    73.7790    72.9630    55.6630    24.2720   -21.9850     2.2700 
  174.3750    74.6750    78.0840    78.3290    65.8400    24.2480   -22.0570     2.2640 
  174.5000    72.4030    87.0060    88.4500    79.5760    24.2580   -22.2410     2.2550 
  174.6250    70.4030    99.6980   101.6110    95.5780    24.2840   -22.4090     2.2490 
  174.7500    69.3400   113.1820   114.9100   106.9300    24.2990   -22.5770     2.2460 
  174.8750    69.8960   125.7960   126.2960   114.0700    24.3470   -22.6850     2.2410 
  175.0000    71.8040   136.3510   134.3970   119.8390    24.3980   -22.8640     2.2320 
  175.1250    72.9540   144.7750   138.3190   125.4840    24.4370   -22.9140     2.2270 
  175.2500    72.7340   147.9970   139.3500   129.9210    24.4480   -22.8270     2.2300 
  175.3750    72.2530   148.2170   138.4430   131.3520    24.4170   -22.6440     2.2380 
  175.5000    71.7780   147.2280   136.5310   128.4880    24.3380   -22.4060     2.2440 
  175.6250    70.0130   146.0310   134.5730   123.8010    24.1950   -22.1340     2.2450 
