~V
VERS. 2.00: Ver 2.00
~W
STRT.M 59.0000:
STOP.M 221.0000:
STEP.M 0.1250:
NULL. -999.2500:
UWI. F11122:
~C
DEPT.M :
GR.API :
RML.OHMM :
RI. :
RXO.OHMM :
CALI.CM :
SP.MV :
DEN.GM/CC :
~A
# ...
   92.7500    84.5110     8.1570     6.3810     8.7980    25.0730   -10.4740     2.1300 
   92.8750    86.2870     8.1610     6.4020     8.9230    24.9910   -10.6020     2.1440 
   93.0000    87.7670     8.1690     6.4310     8.8260    24.9500   -10.6330     2.1590 
   93.1250    89.3040     8.1520     6.4470     8.4720    24.9470   -10.5670     2.1680 
   93.2500    89.8980     8.0980     6.4360     8.3360    24.9920   -10.4930     2.1710 
   93.3750    89.0900     8.0010     6.3920     8.3420    25.0710   -10.4500     2.1750 
   93.5000    87.3310     7.8710     6.3160     8.3050    25.1450   -10.4500     2.1800 
   93.6250    87.6960     7.7260     6.2170     8.2830    25.1620   -10.4790     2.1840 
   93.7500    90.2430     7.5930     6.1140     8.3010    25.1730   -10.5510     2.1830 
   93.8750    89.9570     7.4830     6.0200     8.2510    25.2730   -10.6640     2.1770 
   94.0000    86.3720     7.4020     5.9450     7.9850    25.4490   -10.7730     2.1700 
   94.1250    84.7370     7.3580     5.8990     7.6090    25.5480   -10.8340     2.1720 
   94.2500    85.1790     7.3480     5.8820     7.5260    25.4630   -10.8530     2.1810 
   94.3750    84.2000     7.3750     5.8970     7.7890    25.4370   -10.8530     2.1900 
   94.5000    82.7280     7.4380     5.9430     8.1120    25.6770   -10.8590     2.1880 
   94.6250    86.0190     7.5340     6.0190     8.1800    25.9910   -10.8730     2.1650 
   94.7500    89.6190     7.6390     6.1100     8.0400    26.2170   -10.8620     2.1340 
   94.8750    88.7340     7.7370     6.2020     8.0430    26.1820   -10.7920     2.1110 
   95.0000    85.5770     7.8120     6.2830     8.3340    25.8480   -10.6570     2.1110 
   95.1250    84.2920     7.8480     6.3390     8.5140    25.4450   -10.4880     2.1360 
   95.2500    86.1490     7.8460     6.3700     8.6850    25.2480   -10.3190     2.1670 
   95.3750    89.2170     7.8120     6.3800     8.8900    25.2610   -10.1680     2.1870 
   95.5000    89.8330     7.7580     6.3750     8.9450    25.4470   -10.0230     2.1900 
   95.6250    86.5070     7.7030     6.3640     8.7020    25.6800    -9.9040     2.1820 
   95.7500    84.2490     7.6680     6.3610     8.5770    25.7130    -9.8060     2.1780 
   95.8750    86.7900     7.6650     6.3760     8.6790    25.4810    -9.7450     2.1810 
   96.0000    91.5030     7.6980     6.4140     8.7960    25.2100    -9.7170     2.1870 
   96.1250    92.6830     7.7470     6.4720     9.1750    25.0850    -9.6670     2.1790 
   96.2500    90.7890     7.7700     6.5260     9.4090    25.0020    -9.5280     2.1570 
   96.3750    88.4140     7.7320     6.5440     9.4400    25.0240    -9.2570     2.1310 
   96.5000    85.6810     7.6130     6.5030     9.2010    25.0830    -8.8630     2.1200 
   96.6250    83.6060     7.4190     6.3850     8.8350    24.8040    -8.3790     2.1390 
   96.7500    83.8490     7.2050     6.2250     8.0220    24.2870    -7.8380     2.1770 
   96.8750    85.7140     7.0160     6.0570     7.0590    23.8400    -7.2640     2.2200 
   97.0000    86.7090     6.8850     5.9130     6.7480    23.5450    -6.7020     2.2560 
   97.1250    85.1910     6.8310     5.8230     6.9770    23.3670    -6.2200     2.2810 
   97.2500    84.8080     6.8230     5.7790     7.1660    23.2630    -5.8270     2.3020 
   97.3750    86.3920     6.8360     5.7660     7.1680    23.2220    -5.5520     2.3180 
   97.5000    86.1600     6.8500     5.7690     7.1030    23.2090    -5.4020     2.3260 
   97.6250    82.0610     6.8920     5.7910     7.3960    23.2830    -5.3950     2.3160 
   97.7500    78.7860     7.0400     5.8740     7.5770    23.5500    -5.5180     2.2940 
   97.8750    77.8220     7.4050     6.0930     7.6770    24.0110    -5.7330     2.2640 
   98.0000    76.8390     8.0780     6.5330     7.7610    24.4560    -5.9640     2.2270 
   98.1250    75.5760     9.1010     7.2850     8.4560    24.7130    -6.1680     2.1810 
   98.2500    77.5000    10.2390     8.2300    11.3010    24.8200    -6.3670     2.1280 
   98.3750    80.9000    11.1960     9.1650    19.2750    24.8050    -6.5420     2.0770 
   98.5000    82.2170    11.6620     9.8170    29.1150    24.7220    -6.6540     2.0420 
   98.6250    82.2040    11.3830     9.8790    25.5890    24.3600    -6.6690     2.0440 
   98.7500    83.0910    10.6210     9.4570    16.0300    23.8300    -6.6020     2.0780 
   98.8750    82.9470     9.6860     8.7580    10.5550    23.3970    -6.4930     2.1330 
   99.0000    79.9770     8.8650     8.0270     8.8250    23.2330    -6.3910     2.1890 
   99.1250    76.8660     8.3760     7.4800     8.6970    23.3280    -6.3160     2.2180 
   99.2500    77.0020     8.1860     7.1620     8.7760    23.6070    -6.2420     2.2100 
   99.3750    78.7720     8.2360     7.0650     8.8000    23.9070    -6.1620     2.1700 
   99.5000    79.1830     8.4490     7.1480     8.7070    24.0850    -6.0920     2.1250 
   99.6250    80.2730     8.7410     7.3610     8.5940    24.2820    -6.0200     2.1110 
   99.7500    83.9620     9.0000     7.6020     8.5630    24.4700    -5.9940     2.1390 
   99.8750    87.8570     9.1420     7.7930     8.8900    24.2360    -6.0420     2.1950 
  100.0000    88.0170     9.1150     7.8670     9.1800    23.8080    -6.1350     2.2510 
  100.1250    85.7310     8.9090     7.7790     9.3000    23.6260    -6.2370     2.2810 
  100.2500    86.6880     8.6400     7.5980     9.3890    23.6440    -6.3150     2.2900 
  100.3750    89.1420     8.4150     7.4030     9.3240    23.7770    -6.3790     2.2920 
  100.5000    87.9130     8.3160     7.2730     8.9630    23.9710    -6.4340     2.2970 
  100.6250    84.5850     8.3830     7.2670     8.6540    24.1200    -6.4980     2.3010 
  100.7500    84.5350     8.5250     7.3460     8.9030    24.1030    -6.5620     2.2970 
  100.8750    86.9040     8.6480     7.4450    10.8470    23.9790    -6.5940     2.2850 
  101.0000    87.4330     8.6810     7.5040    15.2640    23.9630    -6.6230     2.2710 
  101.1250    86.0330     8.6000     7.4790    16.3200    24.0880    -6.6980     2.2600 
  101.2500    86.2970     8.4820     7.4110    12.6400    24.1960    -6.8580     2.2480 
  101.3750    86.1770     8.4000     7.3500     9.8360    24.3210    -7.0910     2.2270 
  101.5000    84.1700     8.3990     7.3390     9.9780    24.5550    -7.3550     2.1970 
  101.6250    81.5890     8.4720     7.3950    13.7540    24.7800    -7.6030     2.1680 
  101.7500    80.3110     8.5380     7.4700    18.3560    24.8750    -7.7770     2.1550 
  101.8750    79.8540     8.5350     7.5110    16.5800    24.7750    -7.8910     2.1650 
  102.0000    78.7920     8.4350     7.4830    11.6660    24.5600    -7.9720     2.1890 
  102.1250    78.8020     8.2450     7.3690     9.7750    24.4150    -8.0250     2.2100 
  102.2500    80.1460     8.0210     7.2020     9.6560    24.4060    -8.0330     2.2180 
  102.3750    81.7880     7.7960     7.0120     9.4990    24.3730    -8.0130     2.2160 
  102.5000    83.6080     7.5880     6.8230     9.2430    24.3100    -8.0090     2.2130 
  102.6250    85.5420     7.4100     6.6570     9.0860    24.3740    -8.0020     2.2150 
  102.7500    86.4860     7.2540     6.5180     8.4760    24.5380    -7.9600     2.2150 
  102.8750    86.3400     7.1080     6.4000     7.6160    24.8220    -7.8760     2.2060 
  103.0000    85.8520     6.9530     6.2880     6.9370    25.2090    -7.7280     2.1940 
  103.1250    83.4530     6.7780     6.1650     7.5710    25.4050    -7.5020     2.1910 
  103.2500    81.7010     6.6020     6.0380     8.1670    25.2790    -7.2640     2.2050 
  103.3750    83.3780     6.4590     5.9240     7.8770    25.2110    -7.0580     2.2320 
  103.5000    87.5810     6.3790     5.8460     6.9940    25.2730    -6.9220     2.2580 
  103.6250    88.2130     6.3930     5.8290     7.0130    25.2950    -6.9110     2.2690 
  103.7500    85.0100     6.4740     5.8640     7.7850    25.1960    -6.9980     2.2680 
  103.8750    82.6900     6.5920     5.9380     8.0960    25.0610    -7.1270     2.2630 
