~V
VERS. 2.00: Ver 2.00
~W
STRT.M 62.0000:
STOP.M 277.0000:
STEP.M 0.1250:
NULL. -999.2500:
UWI. F11155:
~C
DEPT.M :
SP.MV :
DEN.GM/CC :
GR.API :
RML.OHMM :
RI. :
RXO.OHMM :
CALI.CM :
~A
# ...
  118.2500   -23.7660     2.1440    63.7960     8.4570     7.1570    10.2660    23.7720 
  118.3750   -23.8070     2.1250    63.5430     8.4970     7.1780    10.1520    23.8480 
  118.5000   -23.7930     2.1130    65.6810     8.5280     7.1910     9.9940    23.7340 
  118.6250   -23.7120     2.1160    69.0510     8.5360     7.1880    10.0280    23.4790 
  118.7500   -23.5660     2.1330    69.0240     8.4970     7.1580     9.9490    23.2690 
  118.8750   -23.3640     2.1450    65.9470     8.4010     7.0990     9.6570    23.2640 
  119.0000   -23.0990     2.1380    62.8100     8.2450     7.0080     9.2640    23.5230 
  119.1250   -22.7420     2.1180    61.1300     8.0480     6.8890     9.0020    24.0400 
  119.2500   -22.2670     2.1050    61.9700     7.8730     6.7710     8.9650    24.1640 
  119.3750   -21.6830     2.1070    61.6160     7.8290     6.7200     8.8820    23.9530 
  119.5000   -20.9840     2.1150    59.8060     8.0330     6.8250     9.0000    23.7600 
  119.6250   -20.1840     2.1160    58.9820     8.5430     7.1570     9.5050    23.8960 
  119.7500   -19.2700     2.1050    61.2860     9.3180     7.7420    11.5340    24.2410 
  119.8750   -18.2740     2.0870    63.6640    10.0470     8.3760    16.2380    24.2780 
  120.0000   -17.2130     2.0680    64.4510    10.3660     8.7780    23.3080    24.0420 
  120.1250   -16.1440     2.0440    66.9390     9.9910     8.6640    23.0180    23.8830 
  120.2500   -15.1470     2.0230    73.4240     8.8990     7.9170    13.9850    23.8220 
  120.3750   -14.2820     2.0250    78.7670     7.6770     6.9490     8.1420    23.5040 
  120.5000   -13.6050     2.0600    80.2230     6.7570     6.1030     6.3220    23.1890 
  120.6250   -13.1470     2.1140    79.7860     6.3500     5.5950     6.0730    22.9220 
  120.7500   -12.9700     2.1560    79.6290     6.5460     5.5660     6.3550    22.8040 
  120.8750   -13.0160     2.1820    77.8270     7.1210     5.9170     6.9120    22.8100 
  121.0000   -13.2720     2.2050    74.3340     7.8870     6.5490     7.8610    22.8940 
  121.1250   -13.7020     2.2350    70.3170     8.6120     7.2990     9.0720    22.9320 
  121.2500   -14.2560     2.2580    65.7060     9.0220     7.9200     9.8670    22.8650 
  121.3750   -14.8160     2.2460    60.1760     9.1010     8.2800    10.1510    22.8560 
  121.5000   -15.3080     2.1960    57.2310     8.9500     8.3880    10.4840    23.0950 
  121.6250   -15.6620     2.1430    59.2910     8.7220     8.3450    10.7100    23.6070 
  121.7500   -15.7850     2.1260    62.5650     8.5220     8.2470    10.6780    24.2510 
  121.8750   -15.6770     2.1360    62.3060     8.3140     8.1150    10.5770    24.7260 
  122.0000   -15.3210     2.1580    61.0270     8.0160     7.8860    10.3070    24.9370 
  122.1250   -14.7340     2.1780    63.3950     7.5750     7.5080     9.8400    24.8930 
  122.2500   -13.9040     2.1960    69.3610     7.0200     6.9890     8.8850    24.6900 
  122.3750   -12.9760     2.2240    75.8690     6.4750     6.4480     7.4270    24.4030 
  122.5000   -12.0440     2.2620    79.8080     6.0300     5.9790     6.1890    24.0690 
  122.6250   -11.1690     2.2950    79.2420     5.7410     5.6470     5.9170    23.8200 
  122.7500   -10.4540     2.3060    77.6300     5.6460     5.5010     6.1930    23.8790 
  122.8750    -9.9330     2.3010    78.3050     5.7010     5.5110     6.3810    24.2040 
  123.0000    -9.6240     2.2900    78.8270     5.8950     5.6680     6.3880    24.5120 
  123.1250    -9.5280     2.2740    75.7200     6.2290     5.9670     6.5340    24.6040 
  123.2500    -9.6080     2.2530    71.4410     6.7660     6.4460     7.1110    24.5130 
  123.3750    -9.7320     2.2390    68.6860     7.5030     7.0940     7.8610    24.4280 
  123.5000    -9.7920     2.2370    65.1110     8.3850     7.8870     9.0210    24.4090 
  123.6250    -9.6980     2.2430    60.5680     9.2390     8.7020    10.1770    24.4960 
  123.7500    -9.3890     2.2540    56.1100     9.6820     9.2170    11.0730    24.6040 
  123.8750    -8.9290     2.2790    52.8150     9.5480     9.2280    11.7950    24.6340 
  124.0000    -8.3560     2.3200    52.5360     8.9650     8.7750    11.7010    24.5560 
  124.1250    -7.6900     2.3660    56.2540     8.3500     8.1640    10.4500    24.4020 
  124.2500    -6.9930     2.3910    62.0940     8.3750     7.9020     8.8400    24.2900 
  124.3750    -6.3420     2.4060    64.6790     9.4310     8.3420     8.7850    24.2620 
  124.5000    -5.8040     2.4350    62.3020    11.8090     9.7950    11.6990    24.3360 
  124.6250    -5.4380     2.4870    58.2310    17.2020    12.5510    19.8710    24.4940 
  124.7500    -5.2660     2.5420    54.2230    22.8390    16.9130    28.7290    24.6730 
  124.8750    -5.1910     2.5770    50.5110    28.3070    21.8910    32.9170    24.7350 
  125.0000    -5.1800     2.5850    47.4180    31.7090    25.8530    32.8490    24.7130 
  125.1250    -5.2060     2.5730    47.3380    32.0180    27.4120    29.7260    24.6240 
  125.2500    -5.2780     2.5430    49.6620    30.0370    26.5760    25.0930    24.4660 
  125.3750    -5.3560     2.5010    49.6830    27.9070    25.0870    22.1640    24.3230 
  125.5000    -5.4150     2.4550    47.2790    26.4060    23.7570    21.1150    24.2570 
  125.6250    -5.4570     2.4160    45.0910    25.6420    22.8710    21.2670    24.2670 
  125.7500    -5.4980     2.3900    44.8030    25.4900    22.4830    22.6250    24.3360 
  125.8750    -5.5510     2.3710    46.3070    25.6000    22.3750    22.7950    24.3900 
  126.0000    -5.6050     2.3490    48.7580    25.8130    22.4290    22.7610    24.3720 
  126.1250    -5.6640     2.3220    51.8910    26.0650    22.5790    22.9500    24.0630 
  126.2500    -5.7160     2.3130    54.0260    26.3460    22.8030    22.0700    23.4030 
  126.3750    -5.7620     2.3310    55.4110    26.6310    23.0680    22.1490    22.9080 
  126.5000    -5.8030     2.3670    55.0750    26.9000    23.3480    23.3160    22.7360 
  126.6250    -5.8410     2.4010    53.7060    27.1200    23.6090    23.8720    22.7340 
  126.7500    -5.8620     2.4230    52.7860    27.3040    23.8320    23.2450    22.8450 
  126.8750    -5.8320     2.4360    52.4450    27.5530    24.0690    22.5280    23.1030 
  127.0000    -5.7600     2.4470    51.7810    27.9570    24.3970    23.0470    23.4100 
  127.1250    -5.6580     2.4630    51.5230    28.5280    24.8570    24.3870    23.6160 
  127.2500    -5.5450     2.4870    51.2100    29.0930    25.3840    25.3390    23.7320 
  127.3750    -5.4440     2.5090    48.4330    29.3220    25.7490    25.3270    23.8180 
  127.5000    -5.3570     2.5210    43.7740    28.9260    25.6970    26.1570    23.8780 
  127.6250    -5.2860     2.5200    40.9160    27.8070    25.0720    27.0130    23.9150 
  127.7500    -5.2310     2.5110    42.4530    26.1610    23.9080    24.6780    23.9230 
  127.8750    -5.2150     2.5030    46.3700    24.5220    22.6130    20.9720    23.9090 
  128.0000    -5.2410     2.5000    51.0820    23.2170    21.4730    18.8840    23.8970 
  128.1250    -5.3160     2.5000    54.8130    22.4050    20.6670    18.3820    23.8730 
  128.2500    -5.4140     2.4970    54.3050    22.1350    20.3100    18.4070    23.8270 
  128.3750    -5.5050     2.4980    50.8330    22.1720    20.2630    18.5990    23.7800 
  128.5000    -5.5970     2.5040    48.1300    22.3350    20.3930    18.7300    23.7820 
  128.6250    -5.6820     2.5090    49.1020    22.4730    20.5610    18.7600    23.8430 
  128.7500    -5.7500     2.5010    52.4970    22.4950    20.6440    18.6980    23.9160 
  128.8750    -5.8110     2.4890    53.1900    22.4280    20.6260    19.2040    23.9110 
  129.0000    -5.8620     2.4830    50.9930    22.3440    20.5550    19.7600    23.8430 
  129.1250    -5.8720     2.4870    47.8570    22.3240    20.5080    19.0980    23.7350 
  129.2500    -5.8440     2.4970    45.1350    22.4010    20.5510    18.6180    23.5450 
  129.3750    -5.7860     2.5080    43.6450    22.4920    20.6470    18.3970    23.4780 
