~V
VERS. 2.00: Ver 2.00
~W
STRT.M 56.0000:
STOP.M 269.0000:
STEP.M 0.1250:
NULL. -999.2500:
UWI. F11148:
~C
DEPT.M :
GR.API :
RML.OHMM :
RI. :
RXO.OHMM :
SP.MV :
DEN.GM/CC :
CALI.CM :
~A
# ...
  236.0000    69.0960    22.8460    20.2820    25.4690   -15.0900     2.3260    24.8440 
  236.1250    67.8250    20.9180    18.7070    21.7760   -14.8480     2.3270    24.8860 
  236.2500    72.0140    18.8950    16.9780    19.3780   -14.6330     2.3300    24.8610 
  236.3750    78.2200    17.0200    15.3280    17.0020   -14.4600     2.3350    24.7460 
  236.5000    82.7680    15.4700    13.9160    13.5860   -14.3100     2.3410    24.6160 
  236.6250    84.6650    14.3850    12.8670     9.3510   -14.1820     2.3460    24.5520 
  236.7500    81.7240    13.9600    12.3510     7.6480   -14.0840     2.3450    24.5850 
  236.8750    75.8070    14.1340    12.3350     8.5560   -14.0010     2.3410    24.6800 
  237.0000    70.9760    14.8750    12.8130    10.3610   -13.9280     2.3430    24.7840 
  237.1250    69.6670    16.0790    13.7280    12.0760   -13.8630     2.3500    24.8370 
  237.2500    68.5090    17.5790    14.9860    13.2380   -13.8130     2.3560    24.8450 
  237.3750    64.9170    19.0820    16.3320    14.6060   -13.7470     2.3550    24.8490 
  237.5000    62.3770    20.3960    17.5770    16.4740   -13.6950     2.3470    24.8670 
  237.6250    62.5500    21.4330    18.5930    18.5920   -13.6790     2.3350    24.8940 
  237.7500    61.0120    22.1960    19.3310    19.9940   -13.6880     2.3210    24.9080 
  237.8750    57.2970    22.8150    19.9010    19.9750   -13.7060     2.3070    24.9190 
  238.0000    56.4980    23.2960    20.3280    19.5500   -13.7010     2.2930    24.9390 
  238.1250    59.6080    23.5620    20.5690    20.3120   -13.6780     2.2810    24.9630 
  238.2500    61.1840    23.5000    20.5340    22.9370   -13.6790     2.2740    24.9640 
  238.3750    59.3630    23.2550    20.3340    23.7280   -13.7410     2.2730    24.9480 
  238.5000    57.7650    23.0250    20.1280    21.7720   -13.8270     2.2770    24.9380 
  238.6250    58.1280    22.9500    20.0410    19.8500   -13.8720     2.2840    24.9590 
  238.7500    58.8410    22.9760    20.0650    19.2560   -13.8640     2.2880    24.9720 
  238.8750    59.0720    22.8360    20.0030    19.9960   -13.8290     2.2900    24.9620 
  239.0000    59.5430    22.3120    19.6570    20.9730   -13.8120     2.2940    24.9340 
  239.1250    61.3900    21.3760    18.9570    21.7870   -13.8280     2.3040    24.9100 
  239.2500    63.7340    20.3090    18.0650    21.3880   -13.8460     2.3230    24.8490 
  239.3750    64.7030    19.5070    17.3010    18.7960   -13.8370     2.3430    24.6540 
  239.5000    63.6380    19.0450    16.7590    16.2210   -13.7810     2.3630    24.3290 
  239.6250    64.4040    18.7490    16.3460    15.5350   -13.6990     2.3900    24.1890 
  239.7500    69.8580    18.3260    15.8790    16.3150   -13.6160     2.4280    24.2420 
  239.8750    74.6890    17.6690    15.2790    16.7070   -13.5550     2.4530    24.3240 
  240.0000    75.3420    16.9180    14.6290    15.9530   -13.5030     2.4360    24.3940 
  240.1250    72.0600    16.4280    14.1500    13.9640   -13.4470     2.3760    24.5290 
  240.2500    68.0940    16.7450    14.2190    14.0460   -13.3950     2.3150    24.6870 
  240.3750    63.9020    17.9460    14.9450    17.0650   -13.3220     2.2830    24.7740 
  240.5000    61.1940    19.9720    16.3800    19.7910   -13.2440     2.2750    24.8120 
  240.6250    61.9670    22.6110    18.4670    20.8450   -13.1650     2.2750    24.8670 
  240.7500    63.8980    25.4550    20.9810    24.1990   -13.1090     2.2720    24.8930 
  240.8750    65.0930    27.9680    23.3720    26.6250   -13.0860     2.2660    24.8890 
  241.0000    63.5750    29.8370    25.2570    26.2100   -13.0850     2.2600    24.8760 
  241.1250    59.5790    30.8810    26.4140    26.4970   -13.0910     2.2580    24.8540 
  241.2500    57.3780    30.7740    26.5320    27.6270   -13.0620     2.2630    24.8300 
  241.3750    59.2790    29.6430    25.7210    28.6350   -13.0110     2.2730    24.7930 
  241.5000    63.9140    27.7440    24.2050    28.7900   -12.9790     2.2840    24.7750 
  241.6250    65.6490    25.5350    22.3840    27.8030   -13.0170     2.2930    24.7890 
  241.7500    63.2050    23.5520    20.6940    23.5920   -13.1130     2.3000    24.8210 
  241.8750    62.3140    22.0490    19.3530    18.8900   -13.1900     2.3040    24.8830 
  242.0000    64.5420    21.0500    18.3960    15.9120   -13.2260     2.3080    24.9370 
  242.1250    67.0470    20.4550    17.7670    15.2270   -13.2110     2.3140    24.9080 
  242.2500    66.4140    20.1340    17.3820    15.8330   -13.1940     2.3200    24.6730 
  242.3750    66.3960    19.8930    17.0750    15.5980   -13.2230     2.3230    24.2670 
  242.5000    69.3830    19.6300    16.7580    15.0420   -13.2830     2.3230    23.8970 
  242.6250    74.5170    19.2520    16.3690    16.0890   -13.3320     2.3240    23.6680 
  242.7500    77.5580    18.6340    15.8320    17.0960   -13.3440     2.3230    23.6130 
  242.8750    77.0510    17.8370    15.1890    16.1680   -13.3430     2.3240    23.6550 
  243.0000    74.1280    17.0450    14.5700    13.9670   -13.3340     2.3330    23.7110 
  243.1250    70.9870    16.5640    14.1710    12.8300   -13.3310     2.3460    23.6620 
  243.2500    68.8080    16.8800    14.3050    12.5010   -13.3090     2.3700    23.5010 
  243.3750    65.9930    18.0610    15.0470    12.8910   -13.2540     2.4120    23.4180 
  243.5000    61.8050    19.8710    16.3130    13.7310   -13.1530     2.4650    23.4010 
  243.6250    56.0110    21.6290    17.6730    14.7050   -13.0240     2.5070    23.4310 
  243.7500    49.9850    22.0860    18.1400    15.2090   -12.8930     2.5190    23.5470 
  243.8750    47.3900    20.8130    17.2400    14.8520   -12.7640     2.5110    23.6080 
  244.0000    49.9970    18.1970    15.2530    13.5850   -12.6270     2.4910    23.5280 
  244.1250    55.5420    15.2040    12.9480    10.3320   -12.4680     2.4580    23.3990 
  244.2500    59.7030    12.8640    11.0810     8.4910   -12.3420     2.4180    23.4310 
  244.3750    62.6990    11.4090     9.8290     7.5970   -12.2630     2.3910    23.4990 
  244.5000    66.9050    10.7170     9.1340     7.4610   -12.2430     2.3870    23.3800 
  244.6250    69.6590    10.5210     8.8520     7.3190   -12.2470     2.3930    23.1450 
  244.7500    66.9310    10.5410     8.8210     7.1050   -12.2240     2.3970    23.0500 
  244.8750    62.9350    10.5320     8.8350     6.9080   -12.1700     2.3970    23.1640 
  245.0000    61.7860    10.4350     8.8140     6.8800   -12.1210     2.3980    23.4510 
  245.1250    62.5920    10.2860     8.7460     6.7830   -12.1300     2.4020    23.7150 
  245.2500    62.0440    10.1740     8.6750     6.4130   -12.1840     2.4090    23.9140 
  245.3750    61.4950    10.1620     8.6510     6.0980   -12.2480     2.4160    24.0380 
  245.5000    62.0550    10.2710     8.6960     6.0790   -12.2750     2.4230    24.1140 
  245.6250    63.6310    10.4940     8.8080     6.3550   -12.2630     2.4280    24.1450 
  245.7500    63.8810    10.8090     8.9740     7.0490   -12.2920     2.4290    24.1520 
  245.8750    63.0900    11.1540     9.1520     7.5580   -12.3630     2.4280    24.1520 
  246.0000    62.0520    11.4870     9.3140     7.7230   -12.4660     2.4280    24.1420 
  246.1250    61.7440    11.7780     9.4430     7.7020   -12.5610     2.4320    24.0980 
  246.2500    62.2360    12.0080     9.5350     7.6900   -12.6340     2.4350    23.9920 
  246.3750    64.7080    12.2090     9.6130     7.6970   -12.6850     2.4300    23.8990 
  246.5000    67.4500    12.4120     9.7000     7.8020   -12.7140     2.4190    23.8630 
  246.6250    67.2160    12.6440     9.8150     7.9600   -12.7430     2.4080    23.8600 
  246.7500    64.5750    12.9130     9.9690     8.3590   -12.7120     2.4030    23.8990 
  246.8750    63.5310    13.1880    10.1480     9.4290   -12.6540     2.4100    23.9980 
  247.0000    65.0540    13.4520    10.3460    11.5670   -12.5910     2.4270    24.1470 
  247.1250    66.7140    13.7160    10.5680    13.3160   -12.5520     2.4480    24.3120 
