~V
VERS. 2.00: Ver 2.00
~W
STRT.M 50.0000:
STOP.M 253.0000:
STEP.M 0.1250:
NULL. -999.2500:
UWI. F11132:
~C
DEPT.M :
DEN.GM/CC :
GR.API :
RML.OHMM :
RI. :
RXO.OHMM :
CALI.CM :
SP.MV :
~A
# ...
   61.2500     2.3160    53.2850     8.1630     7.4540    10.1350    24.4640   -30.6130 
   61.3750     2.3270    51.1560     8.3460     7.4450     9.7320    24.4930   -31.8360 
   61.5000     2.2660    49.7280     8.4880     7.4400     9.2780    24.6120   -32.9480 
   61.6250     2.1880    49.3250     8.5990     7.4750     9.0250    24.7910   -33.9210 
   61.7500     2.1440    49.4120     8.6940     7.5650     8.9290    24.9690   -34.7490 
   61.8750     2.1380    48.7650     8.7540     7.7020     9.0850    25.1000   -35.3770 
   62.0000     2.1340    46.1760     8.7640     7.8630     9.2760    25.1530   -35.7320 
   62.1250     2.1310    42.9080     8.7480     8.0190     9.3310    25.1440   -35.7490 
   62.2500     2.1300    40.3850     8.7670     8.1660     9.2990    25.1160   -35.4060 
   62.3750     2.1370    39.4550     8.8750     8.3240     9.2720    25.0980   -34.6370 
   62.5000     2.1480    40.5250     9.0980     8.5110     9.2770    25.0920   -33.5120 
   62.6250     2.1620    42.4390     9.4000     8.6960     9.3770    25.0920   -31.9630 
   62.7500     2.1860    43.3950     9.6230     8.7770     9.6060    25.0920   -30.0600 
   62.8750     2.2240    44.6770     9.5630     8.6310     9.7490    25.0940   -27.8920 
   63.0000     2.2740    48.6770     9.0480     8.1840     9.2460    25.1210   -25.5960 
   63.1250     2.3360    56.8040     8.0810     7.4420     7.6190    25.2150   -23.2660 
   63.2500     2.4050    66.4880     7.0570     6.6210     5.6790    25.3480   -21.1010 
   63.3750     2.4720    75.7580     6.2710     5.9130     4.5960    25.4320   -19.1930 
   63.5000     2.4810    80.7650     5.8770     5.4860     4.2330    25.4570   -17.5460 
   63.6250     2.4290    77.5900     6.0210     5.5440     4.2460    25.4100   -16.3000 
   63.7500     2.3620    71.1740     6.6820     6.0890     4.5520    25.2650   -15.4590 
   63.8750     2.3320    66.8880     7.8690     7.0850     6.0800    25.0490   -15.0360 
   64.0000     2.3330    65.0770     9.3660     8.3310     9.0090    24.9120   -14.9470 
   64.1250     2.3530    63.6770    10.3330     9.2810    12.8550    24.8620   -15.1920 
   64.2500     2.3830    63.6480    10.1280     9.4710    11.5780    24.8530   -15.5610 
   64.3750     2.4050    66.8080     9.0210     8.8810     8.2490    24.9250   -15.9400 
   64.5000     2.3900    72.0410     7.7750     7.9090     5.3410    25.1440   -16.3150 
   64.6250     2.3400    76.7230     6.9960     7.0710     4.4720    25.3060   -16.7300 
   64.7500     2.2940    78.2900     6.7220     6.5870     4.4800    25.2660   -17.2040 
   64.8750     2.2860    74.3000     6.8540     6.4590     5.1060    25.0610   -17.7410 
   65.0000     2.2980    67.0710     7.2050     6.5870     5.9440    24.8470   -18.3060 
   65.1250     2.2950    64.6560     7.5200     6.8220     6.2560    24.7910   -18.8550 
   65.2500     2.2550    68.5790     7.6920     7.0410     5.8480    24.7710   -19.4170 
   65.3750     2.2050    71.4190     7.8190     7.2580     6.0860    24.7320   -20.0570 
   65.5000     2.1840    68.0900     8.0660     7.5620     6.7670    24.6830   -20.7600 
   65.6250     2.2060    63.0260     8.5970     8.0820     7.8260    24.6970   -21.4900 
   65.7500     2.2530    61.0060     9.4140     8.8130     8.2090    24.7570   -22.2320 
   65.8750     2.2970    60.8490    10.4510     9.6620     9.7750    24.7660   -22.9870 
   66.0000     2.3190    58.5330    11.4860    10.4130    10.2540    24.6960   -23.7880 
   66.1250     2.3130    54.1920    12.0370    10.7000    10.7400    24.6180   -24.6320 
   66.2500     2.2820    50.7840    11.9360    10.4500    10.0240    24.5910   -25.4890 
   66.3750     2.2300    49.9790    11.2840     9.7530     9.2990    24.5860   -26.3220 
   66.5000     2.1740    51.9150    10.3240     8.8080     8.4470    24.5930   -27.0850 
   66.6250     2.1400    54.8390     9.3950     7.8820     7.7520    24.6180   -27.7440 
   66.7500     2.1610    56.0480     8.8690     7.2360     7.5790    24.6580   -28.3180 
   66.8750     2.2350    54.9600     9.0670     7.0700     7.9340    24.6900   -28.8100 
   67.0000     2.3050    53.2540    10.2500     7.5540     8.0590    24.7110   -29.2530 
   67.1250     2.3470    54.2170    12.7380     8.9670     9.7070    24.7370   -29.6740 
   67.2500     2.3810    55.5570    16.0440    11.1360    17.5400    24.7680   -30.0980 
   67.3750     2.4310    54.2350    19.1740    13.5380    34.6830    24.7850   -30.5500 
   67.5000     2.4670    50.6860    20.6090    15.0820    40.9570    24.7610   -31.0780 
   67.6250     2.4490    47.2320    19.1350    14.5950    25.2170    24.6790   -31.7160 
   67.7500     2.3590    45.2330    16.2840    12.9050    13.7480    24.6590   -32.4000 
   67.8750     2.2280    43.7970    13.5500    11.0290     9.9930    24.8220   -33.0570 
   68.0000     2.1410    42.1750    11.7620     9.5870     9.1600    25.0550   -33.6310 
   68.1250     2.1300    41.8250    11.1830     8.8450     9.0560    25.2010   -34.0840 
   68.2500     2.1490    42.9040    11.2970     8.5920     8.9170    25.2750   -34.4030 
   68.3750     2.1810    44.5600    11.7110     8.6460     8.7360    25.3060   -34.5710 
   68.5000     2.2220    45.3160    12.1070     8.8310     8.6240    25.3040   -34.5830 
   68.6250     2.2700    45.5070    12.3030     9.0220     8.7100    25.2500   -34.3840 
   68.7500     2.3030    47.1910    12.3620     9.1790     8.9540    25.1330   -34.0440 
   68.8750     2.3220    49.6490    12.3560     9.2940     9.2020    24.9800   -33.6030 
   69.0000     2.3170    50.9370    12.3140     9.3560     9.3510    24.8640   -33.0770 
   69.1250     2.2610    50.2540    12.2370     9.3540     9.3780    24.8300   -32.4570 
   69.2500     2.1720    49.9520    12.1720     9.3240     9.4720    24.8420   -31.7710 
   69.3750     2.1100    50.5700    12.1880     9.3110     9.4180    24.8990   -31.0200 
   69.5000     2.0950    50.6800    12.3240     9.3480     9.1250    25.0040   -30.2270 
   69.6250     2.1120    48.8560    12.5410     9.4180     9.1460    25.0980   -29.3530 
   69.7500     2.1440    46.5460    12.6650     9.4300     9.4690    25.1630   -28.3450 
   69.8750     2.1990    47.2780    12.5170     9.2840     9.5200    25.2050   -27.2080 
   70.0000     2.2600    52.9410    11.9860     8.9100     9.0290    25.1900   -25.9860 
   70.1250     2.2880    61.4840    11.0720     8.3030     8.0490    25.0520   -24.7020 
   70.2500     2.2670    65.7700    10.0430     7.6290     7.3090    24.8440   -23.4050 
   70.3750     2.2430    64.2430     9.1390     7.0350     6.7620    24.7020   -22.1400 
   70.5000     2.2570    60.6480     8.5700     6.6490     6.5080    24.6550   -20.9210 
   70.6250     2.2870    59.3000     8.5640     6.6100     6.5330    24.6550   -19.7780 
   70.7500     2.2920    59.1990     9.0770     6.8970     7.0130    24.6550   -18.7240 
   70.8750     2.2660    57.8010     9.9780     7.4490     7.8290    24.6550   -17.7480 
   71.0000     2.2430    55.1830    10.9330     8.0870     8.4440    24.6550   -16.8260 
   71.1250     2.2370    53.5340    11.3170     8.4350     8.8250    24.6550   -15.9280 
   71.2500     2.2490    54.2150    10.8510     8.2620     9.0410    24.6600   -15.0230 
   71.3750     2.2760    57.9500     9.6960     7.6140     8.5600    24.6980   -14.0870 
   71.5000     2.3020    64.4670     8.3960     6.7940     6.6250    24.8220   -13.1040 
   71.6250     2.3240    71.9630     7.6570     6.2330     4.6530    25.0040   -12.1480 
   71.7500     2.3510    76.7200     7.6950     6.1240     4.4410    25.0560   -11.2800 
   71.8750     2.3860    76.3780     8.4810     6.5090     5.4840    24.9550   -10.5670 
   72.0000     2.4090    71.7010     9.7830     7.3010     7.9500    24.8410   -10.0170 
   72.1250     2.4180    66.1110    11.0230     8.1900    11.4680    24.7790    -9.6730 
   72.2500     2.4290    62.9480    11.4990     8.6670    10.9610    24.7020    -9.4920 
   72.3750     2.4470    62.3370    10.9610     8.4830     8.1910    24.6110    -9.4430 
