~V
VERS. 2.00: Ver 2.00
~W
STRT.M 59.0000:
STOP.M 247.0000:
STEP.M 0.1250:
NULL. -999.2500:
UWI. F11130:
~C
DEPT.M :
DEN.GM/CC :
SP.MV :
GR.API :
RML.OHMM :
RI. :
RXO.OHMM :
CALI.CM :
~A
# ...
  104.0000     2.2070   -12.7910    69.8080     9.2340     7.7750    11.5810    25.1190 
  104.1250     2.2020   -13.0070    65.3840     9.2060     7.7190    11.4370    25.1870 
  104.2500     2.1930   -13.1120    62.4390     9.1880     7.6800    11.2460    25.2040 
  104.3750     2.1850   -13.1500    59.4870     9.1580     7.6490    11.1390    25.1750 
  104.5000     2.1850   -13.0710    58.2200     9.0880     7.6030    11.1890    25.0970 
  104.6250     2.1940   -12.8720    60.0150     8.9520     7.5120    11.4250    25.0230 
  104.7500     2.2060   -12.5310    60.6840     8.7810     7.3810    11.5520    24.9870 
  104.8750     2.2190   -12.1620    61.2410     8.6300     7.2410    11.4420    24.9910 
  105.0000     2.2270   -11.8200    65.7170     8.5670     7.1440    10.8460    24.9890 
  105.1250     2.2300   -11.5600    74.2830     8.6640     7.1550    10.3630    24.9300 
  105.2500     2.2280   -11.4370    78.4240     8.8830     7.2730    10.5220    24.8380 
  105.3750     2.2230   -11.3030    75.3750     9.1530     7.4670    11.3600    24.7960 
  105.5000     2.2190   -11.2110    69.9760     9.3810     7.6770    11.9480    24.8150 
  105.6250     2.2180   -11.2320    68.5110     9.4680     7.8190    11.9430    24.8470 
  105.7500     2.2220   -11.2750    68.8530     9.4200     7.8610    11.6070    24.8930 
  105.8750     2.2310   -11.2990    67.3190     9.2790     7.8050    10.9380    24.9550 
  106.0000     2.2400   -11.2120    64.6030     9.1050     7.6810    10.3510    25.0190 
  106.1250     2.2450   -11.1040    64.7210     8.9390     7.5290    10.9540    25.0760 
  106.2500     2.2430   -10.8980    66.2100     8.7900     7.3920    11.1980    25.1140 
  106.3750     2.2340   -10.7010    66.0140     8.6470     7.2840    11.1730    25.1280 
  106.5000     2.2200   -10.5770    65.0620     8.5090     7.2120    11.0900    25.1020 
  106.6250     2.2070   -10.3890    66.7730     8.3910     7.1870    11.1310    25.0040 
  106.7500     2.1980   -10.2290    70.2580     8.3120     7.2030    11.2050    24.8990 
  106.8750     2.1930   -10.0490    72.3780     8.2860     7.2560    11.3280    24.8200 
  107.0000     2.1920    -9.8670    72.9570     8.3220     7.3430    11.4360    24.8040 
  107.1250     2.1940    -9.5320    72.9270     8.4300     7.4640    11.4600    24.8300 
  107.2500     2.1950    -9.0200    72.3900     8.5860     7.6030    11.3170    24.8640 
  107.3750     2.1940    -8.3640    70.9420     8.7520     7.7410    11.3260    24.8970 
  107.5000     2.1930    -7.4680    69.5470     8.8570     7.8270    11.2400    24.8810 
  107.6250     2.1980    -6.3730    71.2550     8.7550     7.7240    10.8130    24.7890 
  107.7500     2.2140    -5.1100    75.5980     8.3580     7.3480    10.3580    24.6490 
  107.8750     2.2390    -3.7280    80.9680     7.6360     6.6770    10.0830    24.5470 
  108.0000     2.2660    -2.3840    88.4530     6.6910     5.8050     9.3410    24.5130 
  108.1250     2.2890    -1.2410    99.1860     5.8180     4.9690     7.4400    24.5770 
  108.2500     2.3160    -0.4000   108.8350     5.3570     4.4130     5.5370    24.7360 
  108.3750     2.3640     0.0690   110.8690     5.5620     4.2960     4.6380    24.9410 
  108.5000     2.4380     0.0980   105.4920     6.5730     4.7340     4.8590    25.0980 
  108.6250     2.5130    -0.4970    97.5230     8.4500     5.9450     8.2930    25.1420 
  108.7500     2.5510    -1.4670    89.9320    10.6400     7.7840    18.5220    25.1840 
  108.8750     2.5300    -2.7180    83.7420    12.4320     9.8120    30.6500    25.2090 
  109.0000     2.4550    -4.0600    80.0600    13.1340    11.1590    27.7090    25.1320 
  109.1250     2.3600    -5.3680    80.6720    12.3630    10.9720    15.9910    24.6640 
  109.2500     2.2820    -6.6280    81.3710    10.9090     9.9110    11.9050    24.3690 
  109.3750     2.2310    -7.6830    78.6040     9.4930     8.7100    10.7860    24.2530 
  109.5000     2.2040    -8.5550    74.1380     8.5570     7.8060    10.3910    24.2420 
  109.6250     2.1920    -9.1290    72.6250     8.2370     7.3650    10.0620    24.2450 
  109.7500     2.1900    -9.5230    72.2200     8.2540     7.2230     9.9520    24.2510 
  109.8750     2.1930    -9.8260    71.1200     8.4320     7.2560    10.1990    24.2660 
  110.0000     2.1970   -10.0210    70.6140     8.6620     7.3780    10.4140    24.2960 
  110.1250     2.1930   -10.2090    71.1510     8.8810     7.5410    10.5520    24.3310 
  110.2500     2.1760   -10.3580    71.1200     9.0600     7.7010    10.7300    24.4480 
  110.3750     2.1530   -10.5170    71.3580     9.1790     7.8320    10.8910    24.7600 
  110.5000     2.1400   -10.6380    72.1760     9.2220     7.9120    10.6960    25.2190 
  110.6250     2.1510   -10.6310    68.7280     9.1820     7.9250    10.1150    25.4460 
  110.7500     2.1760   -10.5960    63.2260     9.0990     7.8860    10.0060    25.1160 
  110.8750     2.1960   -10.5090    61.4460     9.0070     7.8110    10.4570    24.6520 
  111.0000     2.1960   -10.4790    64.6910     8.9310     7.7150    11.0370    24.4890 
  111.1250     2.1750   -10.4900    68.7310     8.8840     7.6040    13.8490    24.6950 
  111.2500     2.1540   -10.4760    69.6590     8.8600     7.4920    20.0260    24.9030 
  111.3750     2.1510   -10.4910    68.0710     8.8710     7.4020    21.4030    24.9160 
  111.5000     2.1700   -10.5300    65.8190     8.9450     7.3710    14.1880    24.7710 
  111.6250     2.2010   -10.6570    67.3970     9.1300     7.4570    11.4710    24.5690 
  111.7500     2.2230   -10.8960    72.8540     9.4000     7.6460    10.9090    24.5200 
  111.8750     2.2260   -11.2240    77.2490     9.6910     7.9010    11.3180    24.6160 
  112.0000     2.2130   -11.5720    77.8870     9.9050     8.1460    12.3820    24.7670 
  112.1250     2.1920   -11.7620    76.3300     9.9170     8.2620    12.0280    24.7840 
  112.2500     2.1770   -11.8830    74.2690     9.7430     8.2130    11.3120    24.7160 
  112.3750     2.1720   -11.8470    71.5920     9.4650     8.0370    10.6480    24.6790 
  112.5000     2.1750   -11.6670    69.4300     9.2100     7.8280    10.2920    24.7380 
  112.6250     2.1800   -11.3580    69.1320     9.1160     7.7190    10.0140    24.8380 
  112.7500     2.1770   -10.7500    69.4500     9.1710     7.7470     9.6680    24.8710 
  112.8750     2.1670    -9.8570    69.9220     9.2800     7.8680     9.3160    24.8310 
  113.0000     2.1590    -8.6340    71.7000     9.2960     7.9630     9.8570    24.8280 
  113.1250     2.1670    -7.2020    75.4110     9.0510     7.8490    10.3520    24.9470 
  113.2500     2.1940    -5.7230    81.8980     8.5710     7.4980    10.2160    25.1170 
  113.3750     2.2340    -4.2540    90.2670     7.9620     6.9820     8.9260    25.2210 
  113.5000     2.2780    -2.9080    96.8380     7.3850     6.4450     7.0040    25.1260 
  113.6250     2.3140    -1.6600    98.4540     7.0160     6.0540     6.3680    25.0480 
  113.7500     2.3400    -0.5950    98.5730     6.8730     5.8560     6.4890    25.0170 
  113.8750     2.3550     0.2410    99.5210     6.9030     5.8350     6.6930    25.0100 
  114.0000     2.3610     0.8360   100.9270     7.0070     5.9230     6.7200    24.9870 
  114.1250     2.3600     1.1040   102.0710     7.0640     6.0180     6.7480    24.9310 
  114.2500     2.3590     1.2110   103.2990     7.0210     6.0370     6.9400    24.8630 
  114.3750     2.3590     1.1980   106.7360     6.8900     5.9670     6.8940    24.7860 
  114.5000     2.3610     1.1280   111.4620     6.7200     5.8380     6.4320    24.6870 
  114.6250     2.3600     1.0450   112.6270     6.5790     5.7040     6.0660    24.5220 
  114.7500     2.3560     0.9090   108.8830     6.4960     5.5990     6.0330    24.3900 
  114.8750     2.3520     0.7150   104.3530     6.4640     5.5330     6.1760    24.3930 
  115.0000     2.3480     0.4550   103.3590     6.4650     5.4980     6.3900    24.4270 
  115.1250     2.3460     0.1170   105.5210     6.4880     5.4890     6.3740    24.4480 
