~V
VERS. 2.00: Ver 2.00
~W
STRT.M 60.0000:
STOP.M 281.0000:
STEP.M 0.1250:
NULL. -999.2500:
UWI. F11154:
~C
DEPT.M :
DEN.GM/CC :
GR.API :
RML.OHMM :
RI. :
RXO.OHMM :
CALI.CM :
SP.MV :
~A
# ...
  217.5000     2.1600    45.6380    69.6570    63.5330    48.8210    31.1390   -15.2630 
  217.6250     2.1900    47.5300    68.1760    62.2390    36.5840    30.8480   -15.2920 
  217.7500     2.2080    49.2290    67.6780    61.8900    26.2050    30.1160   -15.3210 
  217.8750     2.2050    50.5000    68.5110    62.7840    20.0830    29.0750   -15.3640 
  218.0000     2.1750    52.1610    70.8180    65.0530    22.6070    28.1400   -15.4090 
  218.1250     2.1350    54.4870    74.9780    68.8610    32.8330    27.4920   -15.4430 
  218.2500     2.1190    54.9850    81.1990    73.7540    45.6800    26.8800   -15.4400 
  218.3750     2.1370    52.7230    88.8630    79.3810    56.6390    26.0560   -15.3820 
  218.5000     2.1760    49.0490    97.1930    85.2620    57.5140    25.1110   -15.2450 
  218.6250     2.2090    46.3480   106.2680    90.6410    44.3770    24.8940   -15.0040 
  218.7500     2.2210    45.7180   110.1100    94.8290    29.7350    25.0240   -14.6860 
  218.8750     2.2150    46.5850   111.6390    97.1550    20.7690    25.3510   -14.3410 
  219.0000     2.1970    47.1260   110.3630    97.0520    16.0380    25.7640   -14.0300 
  219.1250     2.1740    46.9720   105.8190    93.9020    13.8040    26.4080   -13.7190 
  219.2500     2.1510    47.1030    99.2660    88.6950    12.8860    26.9410   -13.4230 
  219.3750     2.1360    47.9330    92.0040    82.5390    13.2330    27.1590   -13.1820 
  219.5000     2.1380    48.7050    85.4910    76.7740    14.5750    27.0220   -13.0530 
  219.6250     2.1580    48.7840    81.2480    72.8890    16.2310    26.6870   -12.9740 
  219.7500     2.1680    49.1070    79.2480    71.0880    17.4820    26.1750   -12.8430 
  219.8750     2.1540    50.0390    79.0140    71.1020    18.5600    25.6360   -12.6700 
  220.0000     2.1280    52.1380    79.6910    72.2700    21.1940    25.2910   -12.4610 
  220.1250     2.1180    54.3790    80.3010    73.7970    26.3110    25.6450   -12.3560 
  220.2500     2.1320    55.1140    80.4050    75.1380    32.7700    26.4010   -12.3420 
  220.3750     2.1620    54.7010    80.3740    76.4620    40.2950    27.2580   -12.4020 
  220.5000     2.1960    54.3610    81.1630    78.4800    47.7910    28.0660   -12.5040 
  220.6250     2.2150    54.3940    84.1490    82.4000    57.7540    28.5410   -12.6510 
  220.7500     2.2160    53.5690    89.0080    88.0740    72.6030    28.8440   -12.8460 
  220.8750     2.2050    51.9750    94.1340    94.1610    92.6330    29.1680   -13.0640 
  221.0000     2.1920    50.2700    96.6640    97.9720   112.9250    29.6910   -13.2670 
  221.1250     2.1860    49.2150    92.1640    94.9930   121.4650    30.2280   -13.3590 
  221.2500     2.1950    49.4500    80.3400    84.4190   115.1790    30.7250   -13.3830 
  221.3750     2.2170    50.9420    63.7360    68.1660    96.2720    31.2230   -13.3940 
  221.5000     2.2430    52.7680    47.2190    50.9150    68.1270    31.6290   -13.4380 
  221.6250     2.2560    54.3650    35.5880    38.0490    39.9630    31.5250   -13.5450 
  221.7500     2.2490    55.9940    29.1560    30.5210    25.2040    30.5490   -13.6880 
  221.8750     2.2150    57.5740    27.4890    27.8760    24.0740    29.1150   -13.8590 
  222.0000     2.1600    58.3210    30.1680    29.5530    32.1220    27.6700   -14.0610 
  222.1250     2.1020    57.7430    37.7380    36.1490    45.4240    26.6000   -14.2730 
  222.2500     2.0630    56.9750    49.1930    46.9140    56.2750    26.4490   -14.5210 
  222.3750     2.0480    55.8710    63.4610    61.0100    58.1860    27.4300   -14.7980 
  222.5000     2.0540    52.9030    78.4180    76.3790    48.1270    28.7590   -15.0680 
  222.6250     2.0630    49.5190    90.3140    89.1180    32.3560    29.4980   -15.3420 
  222.7500     2.0560    48.1370    96.7810    96.4990    22.5620    30.0100   -15.6050 
  222.8750     2.0270    47.8520    97.3760    97.8560    19.7400    30.5670   -15.7980 
  223.0000     1.9870    46.2530    93.8560    94.6620    22.4290    31.2500   -15.9400 
  223.1250     1.9680    44.1960    88.9630    89.3330    30.8510    32.3070   -16.1230 
  223.2500     1.9880    44.7810    84.7530    84.1440    41.0080    33.6790   -16.2940 
  223.3750     2.0480    46.1380    81.5910    79.7390    48.2190    34.8660   -16.4520 
  223.5000     2.1340    46.0160    79.2620    76.1800    48.6770    35.4990   -16.6480 
  223.6250     2.2220    44.7940    77.3860    73.3670    35.8900    35.2250   -16.8910 
  223.7500     2.2810    44.3750    75.5280    70.9240    20.1490    34.0610   -17.2190 
  223.8750     2.2930    46.1380    73.5600    68.6760    11.4380    31.9480   -17.6340 
  224.0000     2.2670    49.9390    71.5400    66.5580     8.8320    29.6060   -18.0770 
  224.1250     2.2210    54.3810    69.7290    64.6840     8.1560    27.6090   -18.4720 
  224.2500     2.1670    56.5940    68.3960    63.2190     7.6600    26.0400   -18.8060 
  224.3750     2.1070    55.8680    67.7970    62.3860     7.2650    24.9240   -19.0580 
  224.5000     2.0520    53.9390    68.1200    62.3750     7.0200    24.3210   -19.2120 
  224.6250     2.0040    52.2440    69.6040    63.4430     7.2020    24.4200   -19.3400 
  224.7500     1.9610    50.4910    71.9810    65.3550     8.1890    25.3030   -19.4590 
  224.8750     1.9390    48.3590    74.9730    67.8500    10.7650    27.2080   -19.5640 
  225.0000     1.9460    46.8180    78.1400    70.5100    16.0770    30.1060   -19.6450 
  225.1250     1.9670    47.3810    80.8300    72.7320    25.8560    32.8900   -19.6600 
  225.2500     1.9870    48.8470    82.6480    74.1630    38.1970    34.6180   -19.6180 
  225.3750     2.0060    49.2670    83.4610    74.6920    51.0480    35.4170   -19.4610 
  225.5000     2.0290    48.6150    83.4510    74.4740    61.3200    35.8550   -19.1870 
  225.6250     2.0510    48.4860    83.1350    73.9270    65.0060    36.0070   -18.8030 
  225.7500     2.0670    49.0090    83.2940    73.7140    68.4060    36.0440   -18.3730 
  225.8750     2.0810    49.4750    84.5120    74.3550    73.6150    36.0590   -17.9380 
  226.0000     2.0970    49.1430    87.0950    76.1820    77.9770    36.0860   -17.5090 
  226.1250     2.1160    48.5130    90.9380    79.2730    82.6700    36.0830   -17.0740 
  226.2500     2.1390    48.0200    94.7920    82.6750    87.8480    36.0250   -16.6390 
  226.3750     2.1710    48.4430    97.1920    85.1800    91.4850    35.8580   -16.3230 
  226.5000     2.2130    49.0310    96.6610    85.4460    90.8140    35.4220   -16.0810 
  226.6250     2.2690    47.5900    91.8230    82.0540    75.5650    34.4340   -15.8240 
  226.7500     2.3330    45.1580    84.1560    75.9380    51.5050    32.7870   -15.5410 
  226.8750     2.3990    44.5970    75.4930    68.4890    29.4980    30.3010   -15.2710 
  227.0000     2.4470    46.4910    67.6040    61.2980    16.8760    26.9990   -15.0800 
  227.1250     2.4610    48.0130    61.8890    55.8280    12.9380    24.2070   -15.0250 
  227.2500     2.4620    48.3700    58.2590    52.2620    13.5490    22.5960   -15.1070 
  227.3750     2.4790    49.5980    56.5050    50.5170    19.7900    22.2790   -15.2260 
  227.5000     2.5190    51.9730    56.3420    50.3830    32.2640    22.9850   -15.3610 
  227.6250     2.5410    55.0690    57.7260    51.8750    50.0450    23.8400   -15.5180 
  227.7500     2.5170    57.5140    60.2660    54.6040    68.1750    24.3300   -15.7080 
  227.8750     2.4780    58.0880    63.8900    58.4830    79.8050    24.3680   -15.9080 
  228.0000     2.4460    55.9410    68.5090    63.4130    79.7610    24.1980   -16.0750 
  228.1250     2.4720    53.1980    73.7110    69.0540    79.1450    24.1910   -16.2070 
  228.2500     2.5310    52.9410    78.0230    74.0660    87.2860    24.2950   -16.2700 
  228.3750     2.5880    54.1300    79.3910    76.4840    99.9250    24.3260   -16.2640 
  228.5000     2.6110    54.5490    75.6420    74.0700   111.7840    24.2160   -16.1850 
  228.6250     2.5850    54.3190    64.6880    64.4020   104.6210    24.1070   -16.0240 
