~V
VERS. 2.00: Ver 2.00
~W
STRT.M 55.0000:
STOP.M 210.0000:
STEP.M 0.1250:
NULL. -999.2500:
UWI. F11105:
~C
DEPT.M :
DEN.GM/CC :
GR.API :
RML.OHMM :
RI. :
RXO.OHMM :
CALI.CM :
SP.MV :
~A
# ...
  156.2500     2.2010    55.8380   150.2170   133.3020   135.1920    40.0740   -37.8840 
  156.3750     2.1890    54.1100   159.0780   141.6630   155.3200    40.1810   -37.7760 
  156.5000     2.1810    52.2300   164.0620   147.7180   193.8020    40.2380   -37.6950 
  156.6250     2.1820    51.4210   160.1850   146.7670   219.0470    40.1540   -37.6270 
  156.7500     2.1900    51.4130   149.3330   139.2410   180.6770    39.9060   -37.5130 
  156.8750     2.2000    53.2720   135.5010   127.8670   125.0510    39.6730   -37.3860 
  157.0000     2.2090    56.5370   122.7870   116.2830    94.1020    39.5890   -37.2760 
  157.1250     2.2150    59.9030   114.2430   107.7540    84.2000    39.5290   -37.1490 
  157.2500     2.2180    63.0180   109.6190   102.7590    85.3490    39.3330   -36.9940 
  157.3750     2.2200    63.6220   108.2020   100.9390    86.5590    39.1170   -36.8430 
  157.5000     2.2190    61.3490   109.1260   101.5840    80.7910    38.8030   -36.7170 
  157.6250     2.2110    57.6060   112.0350   104.4040    75.2140    38.6570   -36.6170 
  157.7500     2.1990    55.5970   116.1340   108.6990    77.4930    38.4010   -36.5500 
  157.8750     2.1840    56.1330   120.3430   113.6190    97.5410    38.1350   -36.4930 
  158.0000     2.1720    57.8640   122.6480   117.3760   114.0470    38.0700   -36.4260 
  158.1250     2.1670    58.4900   119.6790   116.6620   151.7310    37.9150   -36.3460 
  158.2500     2.1710    57.1980   111.3200   110.6320   167.6930    37.6880   -36.2840 
  158.3750     2.1830    55.1440    99.4430   100.4130   139.6820    37.2030   -36.2440 
  158.5000     2.2000    53.5400    87.1340    88.7500    93.9270    36.6730   -36.2690 
  158.6250     2.2150    55.3990    77.1240    78.5890    68.6080    36.3130   -36.3510 
  158.7500     2.2210    60.2230    69.3520    70.5020    61.3590    36.0560   -36.4050 
  158.8750     2.2200    64.0950    62.8450    63.7710    61.9530    35.8370   -36.4080 
  159.0000     2.2160    62.9780    56.5490    57.4170    69.0510    35.5090   -36.3690 
  159.1250     2.2190    58.8180    50.0490    50.9470    66.4400    35.0720   -36.3450 
  159.2500     2.2350    57.4850    44.0310    44.8550    49.1120    34.8690   -36.3610 
  159.3750     2.2590    60.2220    39.4890    40.0020    32.1860    34.6400   -36.4000 
  159.5000     2.2850    66.1150    37.2450    37.1540    23.0230    34.3270   -36.3590 
  159.6250     2.3010    69.7320    38.1650    37.2090    23.6390    34.0420   -36.2330 
  159.7500     2.3020    67.7050    41.7070    39.8420    30.4630    33.7390   -36.1280 
  159.8750     2.2900    64.1220    47.3960    44.7730    40.6500    33.4390   -36.0740 
  160.0000     2.2720    63.3240    54.3750    51.2800    49.3020    33.2590   -36.0920 
  160.1250     2.2530    64.6200    61.1720    57.9340    58.9920    33.0780   -36.0990 
  160.2500     2.2390    63.2990    66.4100    63.1540    68.8610    32.8440   -35.9960 
  160.3750     2.2320    60.2410    69.6250    66.3160    69.3450    32.6370   -35.7870 
  160.5000     2.2320    59.8810    71.2520    67.7610    63.3190    32.4880   -35.5630 
  160.6250     2.2340    64.7040    72.0030    68.1970    58.2800    32.2590   -35.3700 
  160.7500     2.2370    68.0470    72.3500    68.2230    64.4450    32.0810   -35.1680 
  160.8750     2.2390    66.1320    72.0150    67.6920    68.0480    31.8660   -34.9560 
  161.0000     2.2400    62.3560    70.5150    66.2110    68.0790    31.7460   -34.7110 
  161.1250     2.2430    62.6280    67.3990    63.3090    64.1660    31.6130   -34.5450 
  161.2500     2.2480    66.4330    63.4490    59.5580    59.6640    31.4210   -34.4650 
  161.3750     2.2560    69.7650    59.6540    55.7940    52.0230    31.3510   -34.4260 
  161.5000     2.2640    71.6870    56.9580    52.8860    45.8320    31.3180   -34.3770 
  161.6250     2.2680    70.7450    56.3260    51.7390    45.0040    31.1840   -34.2790 
  161.7500     2.2660    67.8760    57.6770    52.4010    45.4250    30.9950   -34.1740 
  161.8750     2.2580    65.4140    60.6610    54.7320    48.3470    30.8670   -34.0420 
  162.0000     2.2460    64.5610    64.3340    58.0250    50.3780    30.7860   -33.8850 
  162.1250     2.2360    63.9120    67.0580    60.8670    52.9820    30.6570   -33.6280 
  162.2500     2.2330    62.7460    67.8840    62.1890    62.2220    30.6460   -33.3150 
  162.3750     2.2390    63.0650    66.8490    61.8480    73.5950    30.6450   -33.0260 
  162.5000     2.2520    66.1380    64.7710    60.4500    65.3750    30.2670   -32.7950 
  162.6250     2.2610    67.9500    62.8810    59.0250    48.2980    29.9150   -32.6210 
  162.7500     2.2600    64.9290    61.9810    58.4050    43.5760    29.6900   -32.4540 
  162.8750     2.2480    59.3360    62.1500    58.8200    54.3660    29.6160   -32.2910 
  163.0000     2.2330    56.3220    62.8460    59.9600    72.2910    29.5160   -32.1310 
  163.1250     2.2220    59.8900    62.7200    60.7320    64.9720    29.3300   -32.0080 
  163.2500     2.2190    64.5450    60.5490    59.7820    53.6290    29.1510   -31.9000 
  163.3750     2.2240    64.7090    55.7100    56.1780    57.4890    28.9960   -31.7330 
  163.5000     2.2340    61.7840    48.4910    49.8500    62.7500    28.8390   -31.4740 
  163.6250     2.2490    61.0920    42.0430    41.7520    48.9080    28.7930   -31.1220 
  163.7500     2.2690    65.2900    33.6700    33.8530    32.6790    28.7170   -30.7310 
  163.8750     2.2910    73.7380    26.8140    27.2630    23.8680    28.3430   -30.3480 
  164.0000     2.3120    82.3960    21.9910    22.5000    18.8000    28.0940   -29.9990 
  164.1250     2.3270    83.2250    19.5480    19.8810    14.3560    27.8570   -29.6870 
  164.2500     2.3360    77.4850    18.7880    18.8150    13.7800    27.6820   -29.4230 
  164.3750     2.3390    72.6560    19.3540    19.0230    14.4800    27.5350   -29.2150 
  164.5000     2.3390    72.8200    20.9840    20.3060    15.9230    27.4250   -29.0250 
  164.6250     2.3380    74.0880    23.5920    22.6510    18.6270    27.3170   -28.8330 
  164.7500     2.3350    73.2130    26.8110    25.6860    21.8590    27.1200   -28.6840 
  164.8750     2.3310    71.1200    30.4600    29.1720    24.5040    26.9220   -28.6080 
  165.0000     2.3240    68.7760    34.4140    32.8930    27.6020    26.7500   -28.6360 
  165.1250     2.3150    66.7760    36.7290    36.6970    31.4780    26.5550   -28.6990 
  165.2500     2.3050    65.4340    40.5300    40.3460    35.0270    26.4440   -28.7410 
  165.3750     2.2980    65.1030    43.6470    43.3930    37.9420    26.3590   -28.8190 
  165.5000     2.2930    66.8580    45.4750    45.2200    40.3970    26.1770   -29.0100 
  165.6250     2.2920    69.4200    45.5250    45.1930    42.3900    25.9150   -29.3270 
  165.7500     2.2930    71.5960    44.5910    43.9720    42.0640    25.8600   -29.5970 
  165.8750     2.2940    72.2130    43.5870    42.4050    36.4100    25.7340   -29.7860 
  166.0000     2.2930    72.3160    43.3930    41.3800    30.1320    25.6650   -29.8730 
  166.1250     2.2880    73.8870    44.7320    41.7240    30.7340    25.6050   -29.9180 
  166.2500     2.2810    74.6090    47.2250    43.2670    38.0750    25.4500   -29.9350 
  166.3750     2.2770    74.6200    50.3120    45.5670    44.6110    25.2880   -29.9020 
  166.5000     2.2800    74.1980    53.4330    48.0590    46.1410    25.1710   -29.8630 
  166.6250     2.2930    72.1320    56.5440    50.4570    46.1840    25.0110   -29.8760 
  166.7500     2.3100    68.1690    60.6400    53.3470    46.0490    24.9430   -30.0100 
  166.8750     2.3200    66.0350    67.4830    58.1220    44.8800    24.8710   -30.2410 
  167.0000     2.3140    69.2870    79.2880    66.8390    47.5100    24.7650   -30.5360 
  167.1250     2.2840    71.1910    99.8490    83.2800    58.2130    24.9240   -30.8730 
  167.2500     2.2410    65.5450   129.8860   108.4390    88.2340    25.5970   -31.2150 
  167.3750     2.1990    56.5090   169.3720   142.1860   140.8040    26.7320   -31.5620 
