~V
VERS. 2.00: Ver 2.00
~W
STRT.M 50.0000:
STOP.M 245.0000:
STEP.M 0.1250:
NULL. -999.2500:
UWI. F11135:
~C
DEPT.M :
GR.API :
RML.OHMM :
RI. :
RXO.OHMM :
CALI.CM :
SP.MV :
DEN.GM/CC :
~A
# ...
   83.7500    55.0380    12.0090     8.4670    15.4170    24.5610   -32.6320     2.1930 
   83.8750    49.8960    12.8980     9.1650    16.3190    24.5610   -33.6790     2.1710 
   84.0000    47.9670    12.9980     9.4580    13.6730    24.5610   -34.6730     2.1580 
   84.1250    47.0600    12.3330     9.2100    11.7240    24.5600   -35.5820     2.1560 
   84.2500    46.3440    11.4910     8.7370    10.7760    24.5460   -36.2930     2.1560 
   84.3750    47.5810    10.8070     8.2710    10.3840    24.4670   -36.8160     2.1530 
   84.5000    52.0450    10.3840     7.9260    10.7110    24.2840   -37.1070     2.1480 
   84.6250    55.9950    10.1920     7.7140    11.5720    24.2040   -37.2170     2.1440 
   84.7500    57.1400    10.1810     7.6030    12.1010    24.1080   -37.2350     2.1510 
   84.8750    56.8770    10.4420     7.6500    11.7830    24.0940   -37.2350     2.1750 
   85.0000    57.0270    11.0800     7.9360    11.3130    24.0920   -37.2220     2.2190 
   85.1250    56.0110    12.1590     8.5490    11.5640    24.0920   -37.2050     2.2700 
   85.2500    53.2020    13.3990     9.3590    12.4910    24.0920   -37.2150     2.3030 
   85.3750    51.1430    14.3930    10.1340    13.9780    24.0880   -37.2120     2.3020 
   85.5000    51.3550    14.6610    10.5310    16.0610    24.0740   -37.2580     2.2660 
   85.6250    51.8890    13.8130    10.1880    17.9700    23.9820   -37.2910     2.2090 
   85.7500    51.3040    12.3670     9.3480    16.2690    23.9020   -37.3210     2.1540 
   85.8750    51.3750    10.8920     8.3550    12.7550    23.8240   -37.3280     2.1070 
   86.0000    52.4230     9.8040     7.4980    10.9590    23.7960   -37.3540     2.0720 
   86.1250    51.3320     9.3180     6.9650    10.5350    23.9020   -37.3670     2.0460 
   86.2500    48.9290     9.2220     6.6870    10.1970    24.2820   -37.3380     2.0280 
   86.3750    48.3250     9.3200     6.5790     9.8260    25.3660   -37.3180     2.0220 
   86.5000    49.3910     9.4450     6.5490     9.5330    26.6440   -37.2550     2.0310 
   86.6250    48.2610     9.4890     6.5380     9.2180    27.2650   -37.2180     2.0590 
   86.7500    44.9890     9.4630     6.5250     8.8450    27.4140   -37.1630     2.0930 
   86.8750    43.2560     9.4190     6.5210     8.6630    27.3860   -37.1210     2.1240 
   87.0000    45.1250     9.4020     6.5420     8.9860    27.3370   -37.0770     2.1400 
   87.1250    49.4670     9.4030     6.5880     9.3800    27.2310   -37.0870     2.1360 
   87.2500    52.9000     9.3620     6.6370     9.6180    27.2160   -37.1430     2.1190 
   87.3750    52.9790     9.2500     6.6720     9.6740    27.2310   -37.2090     2.1110 
   87.5000    49.7480     9.0870     6.6870     9.6550    27.3210   -37.3010     2.0960 
   87.6250    45.7170     8.9640     6.6910     9.5750    27.6390   -37.3680     2.0830 
   87.7500    44.3090     8.9650     6.7010     9.5280    27.9050   -37.4750     2.0790 
   87.8750    46.2570     9.0990     6.7180     9.5850    28.1260   -37.5810     2.0810 
   88.0000    48.4700     9.3140     6.7370     9.6960    28.1830   -37.7090     2.0850 
   88.1250    48.7120     9.5260     6.7440     9.7440    28.0550   -37.7710     2.0850 
   88.2500    47.7580     9.6910     6.7340     9.7260    28.0240   -37.8370     2.0820 
   88.3750    48.5080     9.8050     6.7060     9.7240    28.0590   -37.9110     2.0740 
   88.5000    50.7200     9.8800     6.6690     9.6630    28.0800   -37.9890     2.0650 
   88.6250    52.7530     9.9390     6.6370     9.4150    28.0840   -38.0720     2.0570 
   88.7500    55.1290     9.9980     6.6200     9.0820    28.0830   -38.1350     2.0560 
   88.8750    56.0130    10.0690     6.6220     8.7630    28.0740   -38.1650     2.0630 
   89.0000    53.3180    10.1730     6.6420     8.4750    28.0630   -38.1640     2.0780 
   89.1250    48.8180    10.3410     6.6820     8.2990    28.0000   -38.1790     2.0960 
   89.2500    46.7710    10.5590     6.7390     8.2310    27.8840   -38.1360     2.1080 
   89.3750    47.1300    10.7870     6.8050     8.3520    27.5050   -38.0800     2.1100 
   89.5000    47.6910    10.9600     6.8650     8.6780    27.1110   -37.9800     2.1040 
   89.6250    47.8550    10.9890     6.8920     8.9510    26.9170   -37.8810     2.0920 
   89.7500    47.1260    10.8770     6.8870     9.1520    26.7150   -37.7540     2.0800 
   89.8750    47.1170    10.7010     6.8630     9.3060    26.4950   -37.6400     2.0690 
   90.0000    48.7980    10.5850     6.8410     9.3860    26.3710   -37.5150     2.0600 
   90.1250    49.9410    10.6290     6.8510     9.3630    26.3530   -37.3700     2.0550 
   90.2500    48.7180    10.7690     6.8870     9.3060    26.3500   -37.2580     2.0560 
   90.3750    46.6410    10.9040     6.9280     9.2380    26.3500   -37.1100     2.0640 
   90.5000    45.0270    10.9630     6.9480     9.1510    26.3500   -36.9400     2.0810 
   90.6250    44.5940    10.9580     6.9230     8.9640    26.3460   -36.6770     2.1010 
   90.7500    45.8910    10.9450     6.8660     8.7660    26.3200   -36.3720     2.1190 
   90.8750    48.3840    10.8900     6.7900     8.7730    26.1750   -35.9980     2.1320 
   91.0000    49.4580    10.7050     6.7100     8.9770    25.9820   -35.5780     2.1410 
   91.1250    48.7530    10.3230     6.6170     9.0590    25.6670   -35.0740     2.1480 
   91.2500    50.9340     9.8650     6.5020     8.9390    25.4120   -34.4750     2.1520 
   91.3750    55.9470     9.4730     6.3660     8.8950    25.3540   -33.8130     2.1530 
   91.5000    58.4180     9.2370     6.2220     8.9770    25.3460   -33.0680     2.1430 
   91.6250    57.0990     9.1500     6.0820     8.8600    25.3460   -32.3050     2.1200 
   91.7500    56.7890     9.0540     5.9330     8.5520    25.3470   -31.4590     2.0860 
   91.8750    57.9650     8.8260     5.7530     8.2820    25.3550   -30.5490     2.0520 
   92.0000    58.5320     8.4260     5.5280     8.0080    25.4190   -29.5880     2.0340 
   92.1250    59.2090     7.9160     5.2670     7.3370    25.6560   -28.6720     2.0550 
   92.2500    60.8080     7.4650     5.0280     6.4170    25.9520   -27.9060     2.1100 
   92.3750    63.7960     7.2000     4.8680     5.7570    25.9230   -27.3220     2.1810 
   92.5000    68.6350     7.1920     4.8320     5.5760    25.5430   -26.9500     2.2370 
   92.6250    71.5230     7.5020     4.9650     5.8400    24.9990   -26.6990     2.2460 
   92.7500    70.4480     8.0160     5.2220     6.6650    24.6500   -26.5400     2.2170 
   92.8750    69.2290     8.6000     5.5360     7.8480    24.4550   -26.3770     2.1730 
   93.0000    68.3810     9.0710     5.8030     8.6380    24.4120   -26.1980     2.1370 
   93.1250    66.4070     9.1780     5.8980     8.5970    24.4410   -25.9200     2.1250 
   93.2500    66.8520     8.9250     5.8210     7.8100    24.6180   -25.5260     2.1290 
   93.3750    71.7470     8.4460     5.6230     6.5760    24.9770   -25.0270     2.1430 
   93.5000    75.8020     7.9350     5.3820     5.7320    25.1590   -24.4330     2.1580 
   93.6250    73.5180     7.5750     5.1810     5.5910    25.1670   -23.8300     2.1740 
   93.7500    69.8390     7.3820     5.0570     5.6860    25.1410   -23.2540     2.1940 
   93.8750    69.0020     7.3390     5.0240     5.7090    25.2440   -22.8340     2.2160 
   94.0000    70.9490     7.4300     5.0690     5.5520    25.3090   -22.5270     2.2370 
   94.1250    72.4070     7.6350     5.1630     5.5460    25.2420   -22.3560     2.2530 
   94.2500    71.9010     7.8780     5.2550     5.8030    25.0100   -22.2060     2.2630 
   94.3750    71.1190     8.0840     5.3210     6.2290    24.8850   -22.0470     2.2680 
   94.5000    73.8010     8.1800     5.3560     6.3720    24.8580   -21.8790     2.2650 
   94.6250    79.8240     8.0760     5.3660     6.0150    24.8620   -21.7720     2.2520 
   94.7500    83.8530     7.8300     5.3610     5.7080    24.8610   -21.7440     2.2340 
   94.8750    84.7830     7.5560     5.3360     5.5940    24.8600   -21.7670     2.2180 
