~V
VERS. 2.00: Ver 2.00
~W
STRT.M 50.0000:
STOP.M 221.0000:
STEP.M 0.1250:
NULL. -999.2500:
UWI. F11120:
~C
DEPT.M :
DEN.GM/CC :
GR.API :
RML.OHMM :
RI. :
RXO.OHMM :
CALI.CM :
SP.MV :
~A
# ...
  185.0000     2.0370    58.6610   293.7860   280.7520   169.8890    25.4300   -49.8650 
  185.1250     2.0190    57.1550   301.4590   288.0870   117.7290    25.2110   -49.5650 
  185.2500     1.9920    55.9330   304.7910   291.2720    95.2990    25.1300   -49.2600 
  185.3750     1.9670    56.0250   300.0420   286.7320   121.0920    25.3290   -48.9510 
  185.5000     1.9600    55.4750   285.2220   272.5640   183.1980    25.6820   -48.6450 
  185.6250     1.9870    55.0620   261.4330   249.8210   222.7250    25.8990   -48.3530 
  185.7500     2.0390    56.7300   235.6650   225.1870   208.5710    25.8310   -48.0750 
  185.8750     2.1010    58.7070   212.7340   203.2640   168.3620    25.6450   -47.8030 
  186.0000     2.1600    59.6400   195.6940   186.9730   126.6220    25.4710   -47.5190 
  186.1250     2.2060    60.0890   187.0320   178.6920    97.8770    25.3280   -47.1980 
  186.2500     2.2380    59.8600   185.4400   177.1710    73.0660    25.1430   -46.8370 
  186.3750     2.2560    58.9650   190.7770   182.2730    50.7760    24.9220   -46.4400 
  186.5000     2.2650    58.5010   203.9660   194.8820    37.9590    24.6380   -46.0170 
  186.6250     2.2640    59.5740   230.3330   220.0890    38.0350    24.3800   -45.5650 
  186.7500     2.2600    58.9610   274.6130   262.4210    46.9270    24.3000   -45.0770 
  186.8750     2.2640    55.2280   345.9310   330.6040    75.3480    24.4860   -44.5340 
  187.0000     2.2940    51.1760   453.2440   433.1970   160.7910    24.8170   -43.9230 
  187.1250     2.3710    48.7170   589.5100   563.4700   285.5270    24.9890   -43.2250 
  187.2500     2.4780    47.3140   673.0210   643.3090   253.4310    24.9320   -42.4560 
  187.3750     2.5850    45.8470   599.0510   572.5910   169.6370    24.7090   -41.6290 
  187.5000     2.6550    45.0200   392.6070   375.2270   168.7570    24.5770   -40.7520 
  187.6250     2.6510    46.4270   211.3160   201.9080   156.1150    24.6550   -39.8350 
  187.7500     2.5860    50.1460   105.9960   101.2200    90.3010    24.8050   -38.9030 
  187.8750     2.4810    54.4450    53.8060    51.3250    39.3570    24.9170   -37.9800 
  188.0000     2.3750    55.8630    29.9120    28.4820    17.1370    25.0440   -37.0910 
  188.1250     2.3070    53.7950    19.1990    19.3230    11.9310    25.1830   -36.2740 
  188.2500     2.2790    51.6430    14.9460    14.9280    10.7580    25.2740   -35.5470 
  188.3750     2.2800    50.3030    13.0580    12.9080    11.2650    25.3630   -34.9270 
  188.5000     2.2950    48.6290    12.5600    12.2360    12.8890    25.4850   -34.4180 
  188.6250     2.3200    45.0340    12.8610    12.4370    15.3590    25.5120   -34.0320 
  188.7500     2.3500    41.5790    13.3320    12.9360    17.3480    25.4680   -33.7420 
  188.8750     2.3760    41.6180    13.6630    13.4070    16.8050    25.4250   -33.5350 
  189.0000     2.3850    46.3350    13.6800    13.6210    14.1030    25.4180   -33.4000 
  189.1250     2.3750    52.8520    13.2920    13.4070    12.0110    25.3770   -33.3280 
  189.2500     2.3620    56.5090    12.6180    12.8440    10.5340    25.3770   -33.2830 
  189.3750     2.3550    56.1740    11.7490    12.0210     9.8730    25.4900   -33.2330 
  189.5000     2.3560    53.0550    10.7910    11.0570     9.6750    25.6110   -33.1550 
  189.6250     2.3590    50.1600     9.8790    10.1070     8.8970    25.6450   -33.0120 
  189.7500     2.3570    49.8980     9.1260     9.2940     7.8280    25.6760   -32.8050 
  189.8750     2.3460    51.5750     8.6130     8.6860     7.1230    25.7410   -32.5440 
  190.0000     2.3340    53.8880     8.3770     8.3120     7.2230    25.7970   -32.2520 
  190.1250     2.3370    57.4290     8.4350     8.1920     7.6070    25.7930   -31.9550 
  190.2500     2.3580    61.2840     8.6660     8.2420     7.8040    25.7960   -31.6800 
  190.3750     2.3830    65.0230     8.9830     8.4070     7.9370    25.8180   -31.4500 
  190.5000     2.3970    69.9620     9.3080     8.6280     8.2570    25.8390   -31.2880 
  190.6250     2.3880    76.7520     9.5820     8.8490     8.5410    25.8910   -31.2310 
  190.7500     2.3630    82.1120     9.7920     9.0270     8.6140    25.9870   -31.2800 
  190.8750     2.3410    85.1420     9.9300     9.1350     8.6330    25.9780   -31.4310 
  191.0000     2.3410    87.5340     9.9820     9.1510     9.0120    25.7380   -31.6760 
  191.1250     2.3650    90.0320     9.9230     9.0550     9.8780    25.3550   -32.0160 
  191.2500     2.3880    92.4310     9.7930     8.8910    11.0520    25.1350   -32.4190 
  191.3750     2.3940    93.7090     9.6410     8.7020    12.1140    25.1290   -32.8670 
  191.5000     2.3880    94.0280     9.5300     8.5330    12.2640    25.2530   -33.3400 
  191.6250     2.3850    94.9290     9.5240     8.4320    10.2130    25.3280   -33.8210 
  191.7500     2.3880    97.8220     9.6120     8.4010     9.6980    25.3420   -34.3060 
  191.8750     2.3920   102.7430     9.7510     8.4230     9.6510    25.3220   -34.8000 
  192.0000     2.3880   105.7120     9.8770     8.4630     9.6010    25.2870   -35.3050 
  192.1250     2.3800   103.9260     9.9260     8.4840     9.6710    25.2820   -35.8130 
  192.2500     2.3760   101.9340     9.9120     8.4740     9.8210    25.3060   -36.3090 
  192.3750     2.3740   101.9870     9.8870     8.4620    10.0260    25.3290   -36.7860 
  192.5000     2.3730   102.4040     9.9630     8.5140    10.2220    25.3250   -37.2330 
  192.6250     2.3690    99.2850    10.3580     8.7800    10.0200    25.2810   -37.6250 
  192.7500     2.3670    95.2900    11.1630     9.3370     9.4730    25.2370   -37.9500 
  192.8750     2.3720    91.9190    12.3860    10.2130     9.4120    25.2070   -38.1850 
  193.0000     2.3920    87.7160    13.8690    11.3280    12.6300    25.1960   -38.3090 
  193.1250     2.4230    83.9340    15.1220    12.3630    17.6990    25.1910   -38.2880 
  193.2500     2.4500    84.5190    15.6070    12.8760    19.5640    25.1560   -38.1490 
  193.3750     2.4560    89.5380    15.0690    12.6030    17.4240    25.0650   -37.9190 
  193.5000     2.4340    96.3930    13.7030    11.6360    15.0260    24.9580   -37.6380 
  193.6250     2.3920    99.0170    12.0510    10.3490    12.0180    24.9050   -37.3650 
  193.7500     2.3540    97.4940    10.6760     9.1960     9.8670    24.8930   -37.1390 
  193.8750     2.3320    94.2840     9.8030     8.3750     8.9440    24.9470   -36.9880 
  194.0000     2.3280    90.9010     9.4650     7.9510     8.7840    25.0850   -36.9320 
  194.1250     2.3380    88.9440     9.6580     7.9670     9.0200    25.2420   -36.9920 
  194.2500     2.3530    87.8770    10.1990     8.3040     9.4610    25.3130   -37.1370 
  194.3750     2.3690    87.6460    10.9930     8.9000    10.5510    25.3160   -37.3410 
  194.5000     2.3840    87.5940    11.9370     9.6810    12.2920    25.2830   -37.5720 
  194.6250     2.3990    86.4620    12.9310    10.5620    13.2780    25.2790   -37.7750 
  194.7500     2.4100    85.2670    13.8740    11.4290    13.8150    25.2640   -37.9090 
  194.8750     2.4130    82.9650    14.6490    12.1820    14.5750    25.2440   -37.9390 
  195.0000     2.4030    80.4970    15.0570    12.6580    15.5190    25.2160   -37.8390 
  195.1250     2.3820    81.4720    14.7290    12.5430    15.7300    25.2320   -37.5750 
  195.2500     2.3610    84.9230    13.6740    11.8090    14.9960    25.2530   -37.1760 
  195.3750     2.3460    88.1010    12.0830    10.5830    12.8600    25.2640   -36.6560 
  195.5000     2.3350    87.8090    10.3350     9.1590     9.4590    25.2580   -36.0320 
  195.6250     2.3290    81.8040     8.8910     7.9010     6.5280    25.2380   -35.3310 
  195.7500     2.3340    72.2150     7.9120     6.9800     5.3810    25.2120   -34.6020 
  195.8750     2.3500    62.5160     7.3750     6.4180     5.2050    25.2020   -33.8810 
  196.0000     2.3700    57.6240     7.1740     6.1660     5.6010    25.2000   -33.2130 
  196.1250     2.3840    60.2290     7.2010     6.1700     5.8150    25.1670   -32.6770 
