~V
VERS. 2.00: Ver 2.00
~W
STRT.M 20.0000:
STOP.M 279.0000:
STEP.M 0.1250:
NULL. -999.2500:
UWI. F11153:
~C
DEPT.M :
DEN.GM/CC :
GR.API :
RML.OHMM :
RI. :
RXO.OHMM :
CALI.CM :
SP.MV :
~A
# ...
  143.7500     2.2650    92.9930     4.5350     3.9450     3.9790    25.1130   -18.4160 
  143.8750     2.2740    96.4460     4.5310     3.9030     4.0470    24.9230   -18.2710 
  144.0000     2.2860    99.2030     4.5400     3.8800     4.1430    24.8190   -18.1340 
  144.1250     2.2790    94.3850     4.5760     3.8800     4.2050    25.2170   -17.9820 
  144.2500     2.2600    87.6400     4.6400     3.8980     4.2400    25.9910   -17.8330 
  144.3750     2.2470    86.7500     4.7230     3.9330     4.2520    26.6730   -17.6940 
  144.5000     2.2450    91.8820     4.8100     3.9740     4.2160    26.9190   -17.5760 
  144.6250     2.2320    95.2680     4.8790     4.0100     4.1880    26.6860   -17.5200 
  144.7500     2.2090    92.7040     4.9170     4.0330     4.1470    26.2720   -17.5220 
  144.8750     2.1980    89.1210     4.9250     4.0430     4.1260    25.8780   -17.5150 
  145.0000     2.2130    88.9550     4.9140     4.0460     4.1230    25.6540   -17.4570 
  145.1250     2.2420    92.2740     4.9020     4.0530     4.1670    25.6120   -17.3670 
  145.2500     2.2660    94.8420     4.9070     4.0690     4.1310    25.6950   -17.3020 
  145.3750     2.2850    93.8050     4.9370     4.0890     4.0980    25.8230   -17.2650 
  145.5000     2.3000    89.2120     4.9840     4.1040     4.0900    25.9340   -17.1730 
  145.6250     2.3050    85.3210     5.0320     4.1050     4.0920    26.0530   -17.0130 
  145.7500     2.3000    85.5070     5.0620     4.0890     4.1240    26.1820   -16.8660 
  145.8750     2.2820    86.4170     5.0570     4.0570     4.1770    26.3800   -16.7510 
  146.0000     2.2590    84.9440     5.0090     4.0120     4.1670    26.6790   -16.6450 
  146.1250     2.2460    82.8790     4.9200     3.9530     4.1500    27.1530   -16.5260 
  146.2500     2.2470    81.8890     4.8150     3.8810     4.1010    27.5870   -16.4270 
  146.3750     2.2530    80.9120     4.7110     3.7940     4.0400    27.8600   -16.3450 
  146.5000     2.2520    80.1810     4.6220     3.6980     3.9270    28.2410   -16.3000 
  146.6250     2.2420    83.8760     4.5590     3.6080     3.7390    28.8420   -16.2840 
  146.7500     2.2350    88.9480     4.5230     3.5430     3.5440    29.1620   -16.2680 
  146.8750     2.2400    92.0610     4.5230     3.5190     3.4640    29.2050   -16.2880 
  147.0000     2.2520    92.9230     4.5680     3.5410     3.5100    28.9100   -16.3580 
  147.1250     2.2550    92.1390     4.6550     3.6100     3.5790    28.4800   -16.4720 
  147.2500     2.2420    88.4700     4.7530     3.6980     3.6550    28.5680   -16.5790 
  147.3750     2.2230    82.1410     4.8370     3.7800     3.7630    28.7350   -16.7100 
  147.5000     2.2110    77.7690     4.8850     3.8380     3.8900    28.5760   -16.8490 
  147.6250     2.2110    79.4470     4.8900     3.8600     3.8660    28.1500   -16.9540 
  147.7500     2.2240    83.9990     4.8680     3.8570     3.7440    27.7810   -17.0400 
  147.8750     2.2480    87.6810     4.8270     3.8380     3.6760    27.5700   -17.1080 
  148.0000     2.2780    89.7990     4.7700     3.8110     3.7230    27.5640   -17.1390 
  148.1250     2.2970    90.9820     4.6990     3.7760     3.7790    27.4640   -17.1000 
  148.2500     2.3040    89.4790     4.6180     3.7320     3.6830    27.1340   -16.9970 
  148.3750     2.3020    86.9090     4.5350     3.6780     3.7020    26.8490   -16.8120 
  148.5000     2.2950    89.1010     4.4550     3.6180     3.7980    26.7300   -16.6050 
  148.6250     2.2830    97.3330     4.3830     3.5590     3.7940    26.7240   -16.4500 
  148.7500     2.2700   104.7520     4.3190     3.5050     3.7090    26.8120   -16.3080 
  148.8750     2.2580   108.1430     4.2630     3.4560     3.6050    26.9790   -16.1370 
  149.0000     2.2570   107.6680     4.2150     3.4100     3.5680    27.1470   -15.9550 
  149.1250     2.2790   103.4620     4.1720     3.3610     3.4890    27.3240   -15.8510 
  149.2500     2.3120    95.6170     4.1330     3.3140     3.4470    27.6420   -15.8310 
  149.3750     2.3370    87.0360     4.1000     3.2780     3.4470    27.8660   -15.8400 
  149.5000     2.3390    83.0100     4.0710     3.2600     3.4160    27.7380   -15.8420 
  149.6250     2.3180    85.5890     4.0520     3.2600     3.3530    27.5930   -15.8990 
  149.7500     2.2870    88.4670     4.0460     3.2670     3.3090    27.7850   -16.0050 
  149.8750     2.2500    87.2960     4.0530     3.2690     3.3800    28.2890   -16.1160 
  150.0000     2.2140    84.1870     4.0620     3.2620     3.4950    29.0310   -16.2420 
  150.1250     2.1940    84.4630     4.0650     3.2420     3.4860    29.4690   -16.3980 
  150.2500     2.1960    87.4650     4.0580     3.2160     3.3670    28.9860   -16.5820 
  150.3750     2.2170    89.7290     4.0450     3.1890     3.1440    28.3330   -16.8070 
  150.5000     2.2470    88.5260     4.0300     3.1670     3.0020    27.9050   -17.0510 
  150.6250     2.2730    84.2260     4.0100     3.1560     3.0110    27.7830   -17.2620 
  150.7500     2.2880    83.2310     3.9810     3.1510     3.0930    27.9920   -17.4730 
  150.8750     2.2940    86.6550     3.9510     3.1490     3.1970    28.2230   -17.7490 
  151.0000     2.2960    89.6230     3.9480     3.1520     3.2790    28.1960   -18.1030 
  151.1250     2.2930    88.0880     4.0140     3.1880     3.4210    27.8450   -18.4370 
  151.2500     2.2830    84.9990     4.1490     3.2720     3.5100    27.3500   -18.7210 
  151.3750     2.2750    84.5500     4.3320     3.4030     3.5440    26.5930   -19.0200 
  151.5000     2.2840    86.2580     4.5170     3.5540     3.7840    25.8910   -19.3580 
  151.6250     2.3100    87.4660     4.6210     3.6700     4.3050    25.5350   -19.6710 
  151.7500     2.3330    87.1050     4.6080     3.7100     4.6310    25.3650   -19.9390 
  151.8750     2.3410    88.3510     4.4850     3.6640     4.2510    25.2060   -20.1470 
  152.0000     2.3340    92.9940     4.3080     3.5640     3.7130    25.1290   -20.2890 
  152.1250     2.3220    97.2260     4.1610     3.4650     3.4530    25.2210   -20.4530 
  152.2500     2.3140    97.4310     4.0940     3.4140     3.4120    25.3040   -20.6560 
  152.3750     2.3080    94.0440     4.1110     3.4220     3.4700    25.2940   -20.8140 
  152.5000     2.3070    91.4660     4.1870     3.4790     3.5810    25.2210   -20.9080 
  152.6250     2.3100    92.6680     4.2820     3.5550     3.6490    25.1220   -21.0190 
  152.7500     2.3130    94.5280     4.3590     3.6200     3.7000    25.0620   -21.1480 
  152.8750     2.3140    94.8490     4.4080     3.6680     3.7330    25.0220   -21.3040 
  153.0000     2.3130    95.0600     4.4380     3.7070     3.7440    25.0080   -21.4670 
  153.1250     2.3110    97.0760     4.4590     3.7440     3.7550    24.9720   -21.5800 
  153.2500     2.3080    97.1910     4.4740     3.7770     3.7700    24.8910   -21.6540 
  153.3750     2.3030    92.9210     4.4670     3.7950     3.7780    24.8370   -21.7370 
  153.5000     2.3000    87.9060     4.4230     3.7820     3.7910    24.9090   -21.8300 
  153.6250     2.2990    87.7100     4.3320     3.7270     3.8410    25.1040   -21.8820 
  153.7500     2.3010    91.4870     4.2210     3.6450     3.8370    25.2450   -21.9410 
  153.8750     2.3060    95.3700     4.1310     3.5640     3.7350    25.3560   -22.0230 
  154.0000     2.3110    94.8800     4.1240     3.5290     3.6830    25.4040   -22.1070 
  154.1250     2.3150    90.1550     4.3050     3.6220     3.6310    25.3350   -22.1630 
  154.2500     2.3160    87.1830     4.7080     3.8850     3.7610    25.1670   -22.1910 
  154.3750     2.3140    87.5090     5.3390     4.3490     4.2730    25.0140   -22.2200 
  154.5000     2.3070    88.6890     6.1240     4.9890     5.3520    24.9090   -22.2570 
  154.6250     2.2960    89.6880     6.8370     5.6760     6.6780    24.8510   -22.2670 
  154.7500     2.2830    91.7560     7.2110     6.1730     7.1770    24.7680   -22.1760 
  154.8750     2.2710    93.1630     7.1210     6.3130     6.7650    24.6870   -21.9570 
