~V
VERS. 2.00: Ver 2.00
~W
STRT.M 55.0000:
STOP.M 201.0000:
STEP.M 0.1250:
NULL. -999.2500:
UWI. F11111:
~C
DEPT.M :
GR.API :
RML.OHMM :
RI. :
RXO.OHMM :
CALI.CM :
SP.MV :
DEN.GM/CC :
~A
# ...
   88.7500    81.8450     7.5230     6.0610     7.3070    22.9500   -17.7580     2.2550 
   88.8750    83.3540     7.0060     5.5550     6.2150    24.0340   -17.8000     2.2610 
   89.0000    85.3390     6.6770     5.1940     5.8670    24.3200   -17.8700     2.2470 
   89.1250    86.2970     6.6590     5.0670     6.1200    24.2430   -17.9860     2.2260 
   89.2500    86.8460     7.0330     5.2180     6.2700    24.1900   -18.1690     2.2140 
   89.3750    88.0210     7.9180     5.7290     6.2150    24.0550   -18.3880     2.2280 
   89.5000    89.0890     9.3860     6.6630     6.2570    23.5470   -18.6260     2.2760 
   89.6250    84.2460    11.4030     8.0780     7.3530    22.3010   -18.9040     2.3550 
   89.7500    74.8450    13.4460     9.6950     9.7020    21.8350   -19.2090     2.4270 
   89.8750    66.7450    14.8310    11.0680    11.6800    22.0640   -19.5180     2.4570 
   90.0000    62.1970    14.9530    11.6610    11.1060    21.6560   -19.8210     2.4310 
   90.1250    62.1810    13.7120    11.1420     8.4280    20.0840   -20.1330     2.3590 
   90.2500    67.5660    12.1200    10.1240     7.2860    19.6320   -20.4500     2.2840 
   90.3750    77.7680    10.8510     9.1210     7.2760    19.4730   -20.7760     2.2260 
   90.5000    84.7540    10.1500     8.4100     7.8290    19.3980   -21.1140     2.1870 
   90.6250    82.8400     9.9520     8.0620     8.5350    19.1010   -21.4480     2.1640 
   90.7500    79.9730     9.9070     7.8930     8.9800    19.0390   -21.7880     2.1480 
   90.8750    78.4290     9.8060     7.7620     9.0860    19.5050   -22.1010     2.1350 
   91.0000    75.0050     9.5580     7.5730     8.8300    20.0800   -22.3650     2.1250 
   91.1250    70.7240     9.2070     7.3160     8.3920    20.3420   -22.6120     2.1200 
   91.2500    69.7110     8.8890     7.0710     8.0080    20.4440   -22.8430     2.1160 
   91.3750    71.3240     8.6810     6.8940     7.8120    20.5810   -22.9930     2.1140 
   91.5000    70.6070     8.6010     6.8130     7.7580    20.6750   -22.9250     2.1120 
   91.6250    66.7070     8.6360     6.8340     7.7990    20.6450   -22.5770     2.1120 
   91.7500    62.3910     8.7210     6.9090     7.8890    20.5380   -22.1010     2.1130 
   91.8750    60.5820     8.8120     7.0040     7.9210    20.4860   -21.5690     2.1140 
   92.0000    63.5040     8.8810     7.0920     7.8990    20.5010   -21.0560     2.1160 
   92.1250    68.7030     8.8970     7.1440     7.9130    20.6560   -20.5110     2.1200 
   92.2500    71.8660     8.8560     7.1540     7.8810    20.8230   -19.9120     2.1250 
   92.3750    73.6030     8.7610     7.1200     7.8180    20.9030   -19.3070     2.1300 
   92.5000    74.1490     8.6260     7.0500     7.8060    20.8160   -18.8760     2.1340 
   92.6250    72.2320     8.4780     6.9560     7.7770    20.5690   -18.7050     2.1380 
   92.7500    70.2210     8.3480     6.8630     7.5860    20.1780   -18.6500     2.1410 
   92.8750    69.8990     8.2550     6.7880     7.1630    19.8400   -18.6680     2.1430 
   93.0000    70.4560     8.2030     6.7390     6.7310    19.6670   -18.7350     2.1440 
   93.1250    68.0740     8.1840     6.7180     6.4710    19.5300   -18.8420     2.1430 
   93.2500    64.4520     8.1700     6.7100     6.4080    19.3370   -18.9510     2.1420 
   93.3750    63.9220     8.1470     6.7060     6.4300    19.2270   -19.0110     2.1430 
   93.5000    66.3020     8.1070     6.7040     6.4190    19.1900   -19.0390     2.1480 
   93.6250    69.2590     8.0520     6.7030     6.3950    19.0880   -19.0820     2.1570 
   93.7500    70.4900     7.9990     6.7030     6.5360    19.1120   -19.1180     2.1680 
   93.8750    70.7200     7.9630     6.7010     6.5000    19.2230   -19.1320     2.1790 
   94.0000    71.8500     7.9470     6.6950     6.2910    19.2250   -19.1180     2.1860 
   94.1250    75.1190     7.9520     6.6840     6.0770    19.0090   -19.0960     2.1860 
   94.2500    80.4210     7.9660     6.6690     5.9780    18.9440   -19.1320     2.1820 
   94.3750    83.1060     7.9800     6.6460     5.9790    18.9040   -19.2970     2.1740 
   94.5000    78.9650     7.9790     6.6050     5.9990    18.8990   -19.4710     2.1650 
   94.6250    71.6880     7.9300     6.5200     5.9760    18.9040   -19.5120     2.1570 
   94.7500    68.0870     7.8120     6.3880     5.9440    18.9170   -19.5280     2.1510 
   94.8750    69.6120     7.6270     6.2210     5.9570    18.9150   -19.5770     2.1470 
   95.0000    75.1410     7.4530     6.0680     5.9950    18.8960   -19.6220     2.1470 
   95.1250    80.6440     7.5410     6.0760     6.0300    18.8180   -19.5880     2.1590 
   95.2500    80.9770     8.1770     6.4030     6.1540    18.9460   -19.3900     2.1880 
   95.3750    76.9960     9.7040     7.2620     6.5900    19.3960   -18.9760     2.2390 
   95.5000    72.8740    12.4570     8.9290     7.7970    19.7900   -18.4860     2.3100 
   95.6250    70.1670    16.9230    11.9840    11.9300    20.2740   -18.0740     2.3890 
   95.7500    67.0300    22.6140    16.4380    22.5900    21.0800   -17.6710     2.4550 
   95.8750    64.0650    28.3140    21.7460    43.4230    22.0760   -17.2630     2.4910 
   96.0000    61.3970    31.6570    26.0840    57.9800    22.8350   -16.8610     2.4860 
   96.1250    59.8690    29.8630    26.3930    45.8970    22.8690   -16.5280     2.4350 
   96.2500    62.3860    25.0170    23.4000    29.4410    22.5500   -16.3510     2.3570 
   96.3750    68.9430    19.8570    19.2800    18.4630    21.4590   -16.3800     2.2690 
   96.5000    73.7270    15.9350    15.6670    12.1970    20.0490   -16.5430     2.1860 
   96.6250    71.8360    13.6190    13.2200    11.5140    19.7520   -16.7620     2.1250 
   96.7500    67.8730    12.2100    11.5810    12.7650    19.6710   -16.9150     2.0840 
   96.8750    65.9210    11.2920    10.4660    12.9060    19.3780   -16.9480     2.0630 
   97.0000    64.9160    10.5990     9.6590    11.3660    19.0740   -16.8290     2.0550 
   97.1250    63.1740    10.0440     9.0710     9.9100    18.8260   -16.5550     2.0560 
   97.2500    63.6000     9.6200     8.6440     9.4700    18.6280   -16.2700     2.0620 
   97.3750    68.0070     9.3380     8.3790     9.8130    18.5950   -15.9930     2.0720 
   97.5000    70.8640     9.1790     8.2580    11.0870    18.5900   -15.7410     2.0850 
   97.6250    64.8090     9.0750     8.2280    13.2170    18.5840   -15.5140     2.0980 
   97.7500    57.7290     8.9370     8.1850    14.4910    18.5750   -15.3840     2.1070 
   97.8750    56.9030     8.7410     8.0710    12.5240    18.5160   -15.3960     2.1100 
   98.0000    60.4330     8.5150     7.8840     9.6910    18.4330   -15.5820     2.1070 
   98.1250    62.3310     8.3230     7.6680     8.3150    18.2430   -15.8970     2.1000 
   98.2500    62.1540     8.2070     7.4840     7.6590    17.8140   -16.2130     2.0940 
   98.3750    62.2430     8.1780     7.3640     7.1950    17.5300   -16.5470     2.0910 
   98.5000    61.8720     8.2200     7.3160     6.8550    17.3400   -16.8500     2.0930 
   98.6250    61.5890     8.2980     7.3290     6.6680    17.2990   -17.0450     2.0950 
   98.7500    62.9230     8.3780     7.3660     6.5800    17.3450   -17.1580     2.0960 
   98.8750    63.9250     8.4530     7.4070     6.5430    17.4880   -17.2200     2.0940 
   99.0000    63.3290     8.5240     7.4420     6.5940    17.6890   -17.2700     2.0930 
   99.1250    61.2130     8.5710     7.4610     6.6720    17.7440   -17.3620     2.0960 
   99.2500    59.4970     8.5700     7.4550     6.6400    17.7690   -17.4560     2.1060 
   99.3750    60.5250     8.5040     7.4180     6.5510    18.0210   -17.5320     2.1180 
   99.5000    63.6540     8.3790     7.3480     6.4870    18.1170   -17.6230     2.1290 
   99.6250    66.1870     8.2200     7.2480     6.4220    18.1270   -17.7440     2.1340 
   99.7500    68.3800     8.0760     7.1450     6.2880    18.1320   -17.8700     2.1340 
   99.8750    70.2880     7.9880     7.0700     6.0950    18.1300   -17.9780     2.1320 
