~V
VERS. 2.00: Ver 2.00
~W
STRT.M 62.0000:
STOP.M 217.0000:
STEP.M 0.1250:
NULL. -999.2500:
UWI. F11126:
~C
DEPT.M :
DEN.GM/CC :
SP.MV :
GR.API :
RML.OHMM :
RI. :
RXO.OHMM :
CALI.CM :
~A
# ...
  118.2500     2.2490   -10.7190    84.3030     9.3910     8.3270    10.8760    25.3660 
  118.3750     2.2900    -9.8370    91.0490     8.1230     7.0670     8.3050    25.3180 
  118.5000     2.3110    -8.9190    96.0190     7.3780     6.2120     6.4810    25.3100 
  118.6250     2.3210    -8.0710    96.7190     7.1980     5.8090     5.7340    25.3610 
  118.7500     2.3340    -7.3010    94.2750     7.6320     5.9190     5.8470    25.4670 
  118.8750     2.3660    -6.6590    91.0470     8.6900     6.5870     7.0460    25.5200 
  119.0000     2.4330    -6.2460    87.3510    10.3990     7.9240     9.8990    25.4110 
  119.1250     2.5170    -6.0400    81.3460    12.4900     9.7680    13.9360    25.3550 
  119.2500     2.5870    -5.9900    74.4120    14.6830    11.9280    18.2960    25.3760 
  119.3750     2.6150    -6.0370    68.4880    16.6080    14.0750    21.5610    25.3830 
  119.5000     2.6000    -6.2380    63.3350    17.7300    15.6390    21.1360    25.3350 
  119.6250     2.5780    -6.4620    58.3660    17.9330    16.3130    19.6140    25.3010 
  119.7500     2.5580    -6.6870    55.2520    17.3240    16.0520    20.3000    25.3240 
  119.8750     2.5230    -6.8440    56.0250    16.2920    15.1430    22.2340    25.3540 
  120.0000     2.4660    -6.9010    58.1700    15.5360    14.1740    20.4870    25.3570 
  120.1250     2.4210    -6.8880    59.3470    15.6890    13.7680    15.9510    25.3430 
  120.2500     2.4220    -6.7830    59.7990    17.2000    14.3510    13.6260    25.3220 
  120.3750     2.4710    -6.6140    59.8530    20.2990    16.2320    16.2420    25.3200 
  120.5000     2.5450    -6.3360    59.5770    25.0130    19.7090    22.9800    25.3420 
  120.6250     2.6050    -6.0680    58.6500    30.2750    24.1050    30.9530    25.3520 
  120.7500     2.6280    -5.7950    55.7180    34.8800    28.4930    37.0200    25.3540 
  120.8750     2.6130    -5.6020    50.8490    37.5700    31.6740    37.6180    25.3550 
  121.0000     2.5740    -5.5000    48.2070    37.2230    32.2990    34.4240    25.3530 
  121.1250     2.5350    -5.4500    49.1710    35.0280    30.9830    29.9670    25.3470 
  121.2500     2.5090    -5.4780    51.0980    32.5170    28.9370    26.2260    25.3420 
  121.3750     2.5050    -5.5110    52.3510    30.9020    27.3220    23.8530    25.3510 
  121.5000     2.5270    -5.5940    52.7810    30.7900    26.8590    24.0730    25.3670 
  121.6250     2.5650    -5.6130    51.7650    31.6910    27.3190    26.3960    25.3910 
  121.7500     2.6030    -5.6180    48.9540    33.1320    28.3760    29.8640    25.4090 
  121.8750     2.6250    -5.5860    46.2610    34.5780    29.6010    33.2180    25.4180 
  122.0000     2.6240    -5.5370    46.1610    35.3930    30.4570    33.9510    25.4190 
  122.1250     2.6120    -5.5220    48.2190    35.3510    30.6750    32.4520    25.4200 
  122.2500     2.5970    -5.5300    49.8200    34.4720    30.2140    30.8870    25.4260 
  122.3750     2.5790    -5.5870    49.4220    33.0080    29.2310    29.1260    25.4440 
  122.5000     2.5550    -5.5900    48.3120    31.3440    28.0040    26.6250    25.4800 
  122.6250     2.5350    -5.5910    48.2480    29.8240    26.8370    24.3830    25.5040 
  122.7500     2.5330    -5.5640    48.8360    28.5070    25.8110    23.6530    25.5250 
  122.8750     2.5570    -5.5460    48.9470    27.2960    24.8750    23.2280    25.5380 
  123.0000     2.5970    -5.4850    48.4970    26.0420    23.9150    23.7630    25.5800 
  123.1250     2.6270    -5.3360    47.6510    24.7200    22.8800    23.9780    25.6160 
  123.2500     2.6320    -5.1180    47.4250    23.4490    21.8350    22.7640    25.6350 
  123.3750     2.6200    -4.8510    49.2650    22.4230    20.9320    19.9130    25.6540 
  123.5000     2.6160    -4.6040    52.4870    21.8310    20.3550    17.7260    25.6650 
  123.6250     2.6270    -4.3300    54.4250    21.5270    20.0470    17.4370    25.6870 
  123.7500     2.6430    -4.0420    54.1440    21.2850    19.8560    18.4210    25.6970 
  123.8750     2.6520    -3.7350    51.7990    20.8640    19.5820    19.5720    25.6960 
  124.0000     2.6450    -3.4870    48.7960    20.0720    19.0260    19.1560    25.6860 
  124.1250     2.6310    -3.3210    47.0670    19.0460    18.2370    17.0510    25.6710 
  124.2500     2.6180    -3.2010    47.5360    18.0280    17.3860    15.1300    25.6640 
  124.3750     2.6130    -3.1200    48.7340    17.2800    16.6890    14.1960    25.6360 
  124.5000     2.6170    -3.0180    49.3980    17.0410    16.3500    14.3670    25.6080 
  124.6250     2.6240    -2.9530    50.1220    17.2030    16.3230    14.8740    25.5570 
  124.7500     2.6290    -2.9430    50.9810    17.6100    16.5110    15.5360    25.4870 
  124.8750     2.6270    -2.9750    51.3340    18.0730    16.7890    16.6760    25.3750 
  125.0000     2.6180    -3.0160    50.5260    18.4090    17.0260    17.4370    25.2950 
  125.1250     2.6110    -3.0520    49.7220    18.5770    17.1560    17.6950    25.2570 
  125.2500     2.6080    -3.0640    48.8980    18.6150    17.1720    17.4090    25.2570 
  125.3750     2.6050    -3.0680    47.2460    18.6060    17.1190    17.2390    25.2730 
  125.5000     2.5970    -3.1670    45.4710    18.6570    17.0870    17.0630    25.3030 
  125.6250     2.5930    -3.3580    44.8710    18.8310    17.1630    16.4550    25.2850 
  125.7500     2.6000    -3.6130    45.5070    19.1480    17.3800    16.0590    25.2310 
  125.8750     2.6180    -3.9170    46.8870    19.5770    17.7190    16.2810    25.1800 
  126.0000     2.6310    -4.2300    48.9400    20.0340    18.1140    17.4390    25.2070 
  126.1250     2.6330    -4.5220    51.1270    20.4040    18.4700    18.8040    25.2450 
  126.2500     2.6260    -4.7770    52.1870    20.5980    18.7170    19.6780    25.2760 
  126.3750     2.6180    -5.0050    51.3180    20.5680    18.8020    19.3580    25.3020 
  126.5000     2.6160    -5.1500    48.6480    20.3020    18.6770    18.5500    25.3770 
  126.6250     2.6220    -5.2530    46.8260    19.9070    18.3970    18.2060    25.4810 
  126.7500     2.6290    -5.2820    47.0680    19.4520    18.0060    18.3220    25.6150 
  126.8750     2.6310    -5.2080    47.6910    18.9890    17.5590    18.2900    25.7730 
  127.0000     2.6240    -5.0650    47.9360    18.5650    17.1190    17.3560    25.8880 
  127.1250     2.6140    -4.8910    49.4870    18.2070    16.7500    16.0480    25.9960 
  127.2500     2.6040    -4.7450    52.2980    17.9500    16.5080    15.0100    26.0650 
  127.3750     2.5880    -4.6540    53.8140    17.8180    16.4250    14.9070    26.1000 
  127.5000     2.5580    -4.6950    53.0860    17.8210    16.5030    15.1470    26.1010 
  127.6250     2.5210    -4.7730    52.9670    17.8830    16.6480    15.4490    26.1640 
  127.7500     2.4910    -4.8970    53.9720    17.9410    16.7870    15.9070    26.2600 
  127.8750     2.4760    -5.0640    54.9950    17.9510    16.8690    16.3890    26.3440 
  128.0000     2.4830    -5.3040    54.6190    17.8860    16.8650    16.3230    26.3910 
  128.1250     2.5040    -5.5860    53.9890    17.7560    16.7960    15.4210    26.4320 
  128.2500     2.5320    -5.8640    54.9690    17.5530    16.6510    14.8390    26.4940 
  128.3750     2.5590    -6.1090    57.5770    17.2640    16.4040    14.8690    26.5560 
  128.5000     2.5700    -6.2980    59.7770    16.9020    16.0340    14.8380    26.5240 
  128.6250     2.5630    -6.4390    59.7610    16.5660    15.6260    14.7310    26.4460 
  128.7500     2.5450    -6.5610    59.2390    16.3650    15.2860    14.1120    26.3650 
  128.8750     2.5260    -6.7260    60.5130    16.3970    15.1350    13.0180    26.2640 
  129.0000     2.5190    -6.9050    62.1660    16.7540    15.3110    12.8460    26.0200 
  129.1250     2.5200    -7.0870    60.6730    17.3440    15.7720    13.8130    25.6690 
  129.2500     2.5220    -7.3010    55.9190    18.0560    16.4340    15.3150    25.4090 
  129.3750     2.5180    -7.5270    51.0100    18.7580    17.1730    16.6250    25.3020 
