~V
VERS. 2.00: Ver 2.00
~W
STRT.M 52.0000:
STOP.M 216.0000:
STEP.M 0.1250:
NULL. -999.2500:
UWI. F11106:
~C
DEPT.M :
DEN.GM/CC :
GR.API :
RML.OHMM :
RI. :
RXO.OHMM :
CALI.CM :
SP.MV :
~A
   52.0000  -999.2500    35.5450     1.4540     0.1930     5.4610    25.2790  -999.2500 
   52.1250  -999.2500    36.6820     1.6870     0.2120     5.5090    25.2790  -999.2500 
   52.2500  -999.2500    36.2580     1.6180     0.2530     5.5810    25.2790  -999.2500 
   52.3750  -999.2500    34.8490     1.2820     0.2980     5.4950    25.2790  -999.2500 
   52.5000  -999.2500    34.2130     0.8970     0.3360     5.3010    25.2790  -999.2500 
   52.6250  -999.2500    36.3700     0.7100     0.3510     5.0500    25.2790  -999.2500 
   52.7500  -999.2500    39.0910     0.6870     0.3320     4.9300    25.2790  -999.2500 
   52.8750  -999.2500    40.0310     0.7290     0.2790     4.9370    25.2790  -999.2500 
   53.0000  -999.2500    38.6600     0.7590     0.2140     4.9760    25.2790  -999.2500 
   53.1250  -999.2500    36.5360     0.7270     0.1690     4.9770    25.2790  -999.2500 
   53.2500  -999.2500    36.7330     0.6470     0.1500     4.9760    25.2790  -999.2500 
   53.3750  -999.2500    39.2620     0.5550     0.1510     4.9750    25.2790  -999.2500 
   53.5000  -999.2500    42.0060     0.5000     0.1660     4.9290    25.2790  -999.2500 
   53.6250  -999.2500    42.4270     0.5140     0.2000     5.0180    25.2790  -999.2500 
   53.7500  -999.2500    41.1980     0.5590     0.2370     5.1420    25.2790  -999.2500 
   53.8750  -999.2500    39.0950     0.5820     0.2540     5.1930    25.2790  -999.2500 
   54.0000  -999.2500    36.1590     0.5460     0.2310     5.1470    25.2790  -999.2500 
   54.1250  -999.2500    34.5810     0.4940     0.1720     5.1050    25.2790  -999.2500 
   54.2500  -999.2500    34.8220     0.5140     0.1150     5.1940    25.2790  -999.2500 
   54.3750  -999.2500    35.0830     0.6300     0.0910     5.2800    25.2790    62.7710 
   54.5000     1.9660    33.7420     0.7970     0.1130     5.2440    25.2780    62.7710 
   54.6250     1.9660    33.4340     0.8750     0.1780     5.0820    25.2730    62.6250 
   54.7500     1.9680    37.3110     0.7890     0.2510     4.9910    25.2780    62.4120 
   54.8750     1.9690    42.4480     0.5940     0.3010     4.9650    25.2790    62.1390 
   55.0000     1.9690    44.2910     0.3970     0.3060     4.9870    25.2790    61.7960 
   55.1250     1.9710    42.2740     0.2590     0.2650     5.1190    25.2790    61.4180 
   55.2500     1.9740    39.6830     0.1580     0.2160     5.2650    25.2790    61.0490 
   55.3750     1.9790    37.3080     0.1020     0.1840     5.2990    25.2790    60.7260 
   55.5000     1.9850    35.4500     0.1100     0.1740     5.2940    25.2790    60.4600 
   55.6250     1.9890    35.9630     0.1960     0.1810     5.3430    25.2790    60.2530 
   55.7500     1.9910    37.5140     0.3280     0.2050     5.4020    25.2790    60.1250 
   55.8750     1.9910    37.8830     0.4890     0.2510     5.4040    25.2790    60.1120 
   56.0000     1.9900    37.1800     0.6760     0.3140     5.3660    25.2790    60.2050 
   56.1250     1.9880    37.1300     0.8830     0.3590     5.4110    25.2790    60.3930 
   56.2500     1.9890    36.4050     1.0690     0.3580     5.5200    25.2790    60.6300 
   56.3750     1.9910    34.5830     1.1680     0.3110     5.6640    25.2790    60.8940 
   56.5000     1.9960    33.1190     1.1200     0.2480     5.8030    25.2790    61.1710 
   56.6250     2.0020    34.8190     0.9100     0.2020     5.7410    25.2790    61.4580 
   56.7500     2.0090    38.9150     0.6420     0.1730     5.7510    25.2790    61.7330 
   56.8750     2.0130    43.0470     0.4080     0.1550     5.7350    25.2790    61.9390 
   57.0000     2.0150    45.7960     0.2840     0.1490     5.6930    25.2790    62.0630 
   57.1250     2.0130    47.7510     0.3290     0.1670     5.7040    25.2790    62.0920 
   57.2500     2.0070    50.7910     0.4710     0.2020     5.7050    25.2770    62.0450 
   57.3750     1.9970    53.5490     0.6240     0.2390     5.6600    25.2650    61.9200 
   57.5000     1.9850    54.5950     0.7000     0.2600     5.5690    25.2620    61.7160 
   57.6250     1.9720    55.3120     0.6440     0.2540     5.6160    25.2760    61.4360 
   57.7500     1.9620    56.6650     0.5160     0.2270     5.6520    25.2790    61.0480 
   57.8750     1.9530    57.0440     0.3800     0.1860     5.7830    25.2790    60.5970 
   58.0000     1.9490    56.1870     0.2830     0.1470     5.9040    25.2790    60.1490 
   58.1250     1.9510    55.7550     0.2420     0.1370     6.0720    25.2790    59.6620 
   58.2500     1.9580    55.3650     0.2470     0.1670     6.2420    25.2790    59.1240 
   58.3750     1.9700    53.5630     0.2950     0.2300     6.1660    25.2790    58.5400 
   58.5000     1.9850    51.3870     0.3750     0.2930     6.0900    25.2790    57.9280 
   58.6250     1.9970    49.5630     0.4610     0.3250     6.1090    25.2790    57.2720 
   58.7500     2.0000    47.7210     0.5180     0.3260     6.2540    25.2790    56.5400 
   58.8750     1.9940    47.3430     0.5160     0.3030     6.4530    25.2780    55.6390 
   59.0000     1.9840    49.9470     0.4580     0.2610     6.5070    25.2720    54.4810 
   59.1250     1.9800    54.2050     0.3790     0.2020     6.3020    25.2770    53.0150 
   59.2500     1.9890    55.9120     0.3160     0.1470     6.0740    25.2740    51.2280 
   59.3750     2.0160    54.9290     0.2690     0.1180     5.9210    25.2710    49.0250 
   59.5000     2.0610    53.6580     0.2210     0.1210     5.7550    25.2770    46.2730 
   59.6250     2.1270    52.7030     0.1610     0.1460     5.2690    25.2780    42.7480 
   59.7500     2.2050    49.9140     0.1070     0.1690     4.3600    25.2650    38.4580 
   59.8750     2.2830    45.0400     0.0810     0.1830     2.7970    25.1850    33.3750 
   60.0000     2.3340    42.4680     0.1110     0.1950     1.3200    24.9860    27.5730 
   60.1250     2.3220    44.5120     0.2710     0.2410     1.3530    24.8320    21.3370 
   60.2500     2.2520    45.8780     0.6570     0.3850     2.1690    24.9410    15.1350 
   60.3750     2.1500    45.6490     1.4540     0.7460     3.5360    25.4600     9.2020 
   60.5000     2.0490    46.8250     2.8380     1.4880     4.2720    26.0010     3.6790 
   60.6250     1.9870    51.9090     4.5380     2.7700     4.1570    26.6280    -1.3030 
   60.7500     1.9770    57.6800     5.8330     4.3940     4.3790    28.1070    -5.6710 
   60.8750     2.0240    59.5660     6.9090     6.2960     6.1500    28.3770    -9.3070 
   61.0000     2.1190    58.5240     8.3110     8.5380    11.8290    25.9900   -12.2010 
   61.1250     2.2360    59.3330    10.2020    11.0110    28.1150    24.8540   -14.5770 
   61.2500     2.3340    62.6230    11.7850    12.8620    36.4440    24.4470   -16.8420 
   61.3750     2.3770    64.4200    12.0190    13.0880    26.5000    24.3250   -19.0580 
   61.5000     2.3490    62.6710    10.6650    11.5920    13.9340    24.2660   -21.1540 
   61.6250     2.2690    59.7710     8.8320     9.5110     9.3270    24.0640   -23.0030 
   61.7500     2.1860    57.1800     7.5820     7.9610     7.8650    23.9910   -24.6230 
   61.8750     2.1180    55.2850     6.9860     7.1130     7.6180    24.1500   -26.0280 
   62.0000     2.0730    55.4020     6.8150     6.7940     7.5200    24.5710   -27.1770 
   62.1250     2.0530    55.4690     6.8560     6.7970     7.4550    25.0350   -28.0180 
   62.2500     2.0500    53.3500     6.8940     6.8970     7.2580    25.2830   -28.6350 
   62.3750     2.0570    50.2490     6.8350     7.0130     6.8140    25.3530   -29.1060 
   62.5000     2.0710    49.4060     6.7510     7.1180     6.5750    25.3950   -29.4650 
   62.6250     2.0930    52.9470     6.8440     7.2100     6.6080    25.5760   -29.7040 
   62.7500     2.1250    56.0880     7.0900     7.2930     6.7140    25.6730   -29.8520 
   62.8750     2.1680    56.4870     7.3480     7.3600     6.5880    24.9370   -29.9440 
   63.0000     2.2120    56.1970     7.5050     7.3980     6.2670    23.8590   -30.0250 
   63.1250     2.2380    56.1290     7.4660     7.3860     5.8990    23.7970   -30.1180 
