~V
VERS. 2.00: Ver 2.00
~W
STRT.M 53.0000:
STOP.M 212.0000:
STEP.M 0.1250:
NULL. -999.2500:
UWI. F11124:
~C
DEPT.M :
SP.MV :
DEN.GM/CC :
GR.API :
RML.OHMM :
RI. :
RXO.OHMM :
CALI.CM :
~A
# ...
   64.2500   -17.6210     2.1680    73.6840    21.1920     6.2870     7.5320    25.0890 
   64.3750   -18.3410     2.1450    68.8980    17.2400     6.6510     7.7100    25.2160 
   64.5000   -18.9010     2.0980    64.2880    11.8530     6.9050     7.8560    25.5980 
   64.6250   -19.2280     2.0540    64.8140     7.8900     7.0230     7.8900    26.2170 
   64.7500   -19.3880     2.0460    66.6200     6.3210     7.0010     7.7360    26.6240 
   64.8750   -19.4420     2.0850    68.9900     6.0330     6.8330     7.4340    26.3680 
   65.0000   -19.4160     2.1560    74.1680     5.8780     6.5580     6.9800    25.9230 
   65.1250   -19.3990     2.2190    82.2770     5.7110     6.2590     6.4970    25.7500 
   65.2500   -19.4510     2.2480    88.5510     5.5910     6.0070     6.2440    25.7400 
   65.3750   -19.5860     2.2540    91.2980     5.5420     5.8310     6.2620    25.7620 
   65.5000   -19.8400     2.2560    92.8260     5.5740     5.7510     6.3210    25.8150 
   65.6250   -20.2880     2.2620    92.0630     5.7230     5.8060     6.2370    25.8800 
   65.7500   -20.9400     2.2610    88.9620     5.9990     5.9920     6.1510    25.9170 
   65.8750   -21.7660     2.2420    85.6890     6.3930     6.3000     6.2190    25.9000 
   66.0000   -22.7050     2.2130    83.2660     6.8510     6.6900     6.5060    25.8250 
   66.1250   -23.6740     2.1880    78.7390     7.2690     7.0680     6.9850    25.7570 
   66.2500   -24.6410     2.1760    71.9580     7.5550     7.3180     7.4360    25.7140 
   66.3750   -25.5800     2.1720    66.8230     7.6660     7.3770     7.7160    25.6920 
   66.5000   -26.4610     2.1700    66.4920     7.6220     7.2500     7.8730    25.6870 
   66.6250   -27.2610     2.1680    68.6350     7.4980     7.0070     7.9310    25.6930 
   66.7500   -27.9570     2.1670    71.6440     7.3850     6.7720     7.9540    25.6950 
   66.8750   -28.5440     2.1650    75.9470     7.3180     6.6100     7.9500    25.7060 
   67.0000   -29.0390     2.1630    80.1880     7.3190     6.5490     7.9550    25.7270 
   67.1250   -29.4410     2.1600    80.0420     7.4200     6.6010     8.0350    25.7380 
   67.2500   -29.7450     2.1610    75.1980     7.6060     6.7250     8.1890    25.7480 
   67.3750   -29.9900     2.1640    69.8580     7.8520     6.8830     8.3670    25.7700 
   67.5000   -30.1950     2.1670    67.8800     8.0960     7.0350     8.5680    25.7930 
   67.6250   -30.3280     2.1730    67.8180     8.2270     7.1370     8.8150    25.7620 
   67.7500   -30.3980     2.1810    65.9430     8.2160     7.1790     8.9620    25.6780 
   67.8750   -30.4260     2.1870    62.9290     8.1170     7.1640     8.9890    25.6130 
   68.0000   -30.3990     2.1860    60.7890     8.0010     7.1050     8.9540    25.5930 
   68.1250   -30.3080     2.1820    61.5770     7.9040     7.0220     8.8470    25.6170 
   68.2500   -30.2140     2.1800    62.7630     7.8230     6.9380     8.6780    25.6770 
   68.3750   -30.0970     2.1810    62.8880     7.7560     6.8660     8.5330    25.7210 
   68.5000   -29.9430     2.1830    60.9010     7.7030     6.8140     8.4730    25.7150 
   68.6250   -29.7660     2.1840    59.0490     7.6700     6.7870     8.4670    25.6390 
   68.7500   -29.5630     2.1820    61.4440     7.6590     6.7800     8.4250    25.5690 
   68.8750   -29.3150     2.1800    66.2090     7.6700     6.7930     8.3350    25.5250 
   69.0000   -29.0180     2.1770    69.2630     7.6950     6.8220     8.2750    25.4880 
   69.1250   -28.6660     2.1760    67.5760     7.7100     6.8590     8.2820    25.4740 
   69.2500   -28.2530     2.1760    63.9130     7.6830     6.8870     8.3140    25.4790 
   69.3750   -27.7580     2.1770    62.1320     7.5840     6.8780     8.3460    25.4960 
   69.5000   -27.1650     2.1780    62.3560     7.4030     6.8020     8.3360    25.5120 
   69.6250   -26.4820     2.1880    65.9780     7.1550     6.6330     8.0860    25.5110 
   69.7500   -25.7810     2.2110    73.1880     6.9020     6.4090     7.5410    25.5410 
   69.8750   -25.1120     2.2450    80.8950     6.7000     6.1740     6.8610    25.6440 
   70.0000   -24.5370     2.2760    85.3430     6.6020     5.9880     6.3540    25.7300 
   70.1250   -24.0930     2.2870    87.0360     6.6460     5.9110     6.3070    25.7370 
   70.2500   -23.7420     2.2840    89.0770     6.7690     5.9240     6.6580    25.6680 
   70.3750   -23.5220     2.2760    88.7980     6.8820     5.9760     7.1660    25.5480 
   70.5000   -23.4470     2.2710    84.0450     6.8840     5.9850     7.6550    25.4530 
   70.6250   -23.5210     2.2760    81.2510     6.7220     5.8670     7.4290    25.4850 
   70.7500   -23.7070     2.2940    84.5140     6.5940     5.6980     6.2840    25.6760 
   70.8750   -23.9860     2.3240    90.2200     6.8160     5.6580     5.5280    25.9300 
   71.0000   -24.3530     2.3660    94.1650     7.7450     5.9940     7.2660    26.1410 
   71.1250   -24.8550     2.4280    94.0530     9.9080     7.1450    14.5190    26.2340 
   71.2500   -25.4830     2.5020    88.0130    13.2860     9.2940    26.6040    26.2360 
   71.3750   -26.2430     2.5650    76.4240    17.5630    12.4860    40.9070    26.1700 
   71.5000   -27.1560     2.5880    63.9140    21.5260    16.1120    51.4720    26.0550 
   71.6250   -28.2040     2.5450    59.3430    22.3300    17.9580    47.6760    25.8680 
   71.7500   -29.2910     2.4520    62.1200    19.4630    16.7730    34.9440    25.5820 
   71.8750   -30.3550     2.3390    66.7320    14.8720    13.6140    22.9550    25.1860 
   72.0000   -31.3340     2.2450    68.4170    10.8970    10.3660    14.7640    24.8420 
   72.1250   -32.1480     2.1920    66.7990     8.6300     8.1450    11.0120    24.7540 
   72.2500   -32.8090     2.1670    64.4610     7.4990     6.7850     9.6030    24.8500 
   72.3750   -33.3150     2.1540    62.0630     7.0710     6.0470     9.3340    25.0380 
   72.5000   -33.6620     2.1450    58.3530     7.0220     5.7230     9.3990    25.2350 
   72.6250   -33.8440     2.1390    54.8720     7.1190     5.6580     9.3820    25.3190 
   72.7500   -33.9340     2.1380    55.3000     7.1890     5.6710     9.2900    25.3490 
   72.8750   -33.9610     2.1370    60.5460     7.2000     5.6930     9.1570    25.4150 
   73.0000   -33.9510     2.1310    65.1490     7.1750     5.7050     9.0090    25.5990 
   73.1250   -33.9190     2.1160    61.5920     7.1490     5.7130     8.8990    25.8330 
   73.2500   -33.8790     2.1020    55.1590     7.1390     5.7230     8.8950    25.9350 
   73.3750   -33.8380     2.0980    53.4090     7.1390     5.7310     9.0540    25.8580 
   73.5000   -33.8070     2.1040    57.1920     7.1390     5.7300     9.2940    25.7680 
   73.6250   -33.7540     2.1100    62.3270     7.1320     5.7120     9.4410    25.7510 
   73.7500   -33.6580     2.1120    65.2250     7.1250     5.6850     9.4760    25.7700 
   73.8750   -33.5310     2.1160    64.2370     7.1200     5.6540     9.4220    25.7510 
   74.0000   -33.3570     2.1270    60.2260     7.1160     5.6250     9.2840    25.6590 
   74.1250   -33.1280     2.1410    57.5240     7.1030     5.5930     9.0530    25.5260 
   74.2500   -32.8370     2.1460    58.9020     7.0740     5.5560     8.6960    25.4590 
   74.3750   -32.4540     2.1420    61.7840     7.0300     5.5100     8.3040    25.4240 
   74.5000   -31.9560     2.1380    62.5340     6.9790     5.4600     8.1190    25.3980 
   74.6250   -31.3660     2.1450    62.3550     6.9380     5.4160     8.1420    25.3760 
   74.7500   -30.7060     2.1610    63.9130     6.9170     5.3840     8.2050    25.3550 
   74.8750   -29.9730     2.1740    66.5540     6.9150     5.3630     8.1680    25.3060 
   75.0000   -29.2000     2.1810    69.5280     6.9280     5.3490     7.9610    25.2500 
   75.1250   -28.4050     2.1810    70.3240     6.9440     5.3360     7.5700    25.1810 
   75.2500   -27.6080     2.1810    69.1010     6.9440     5.3150     7.2040    25.1020 
   75.3750   -26.8330     2.1830    68.4870     6.9130     5.2780     6.9400    25.0310 
