~V
VERS. 2.00: Ver 2.00
~W
STRT.M 55.0000:
STOP.M 211.0000:
STEP.M 0.1250:
NULL. -999.2500:
UWI. F11125:
~C
DEPT.M :
DEN.GM/CC :
GR.API :
RML.OHMM :
RI. :
RXO.OHMM :
CALI.CM :
SP.MV :
~A
# ...
  145.0000     2.2980    72.0830    12.3770    10.8520    13.2670    23.6540   -10.4490 
  145.1250     2.3030    73.3570    12.4130    11.0020    13.3110    23.6620   -10.4900 
  145.2500     2.3080    73.8940    12.3930    11.1170    13.8190    23.6730   -10.5220 
  145.3750     2.3180    74.4450    12.3370    11.1820    14.2530    23.7020   -10.5090 
  145.5000     2.3240    75.5220    12.2910    11.2240    14.0580    23.7600   -10.5220 
  145.6250     2.3150    77.6100    12.2880    11.2860    13.4180    23.7920   -10.4840 
  145.7500     2.3000    78.3720    12.2690    11.3600    13.2470    23.7590   -10.4370 
  145.8750     2.2930    77.3590    12.1060    11.3540    13.5460    23.6500   -10.3580 
  146.0000     2.2960    77.0310    11.6740    11.1360    13.7690    23.5120   -10.2420 
  146.1250     2.3010    78.9430    10.8990    10.5870    13.1410    23.4330   -10.0940 
  146.2500     2.3050    81.3300     9.9590     9.8300    11.5550    23.4090    -9.9180 
  146.3750     2.3070    82.1780     9.0240     9.0040     9.4670    23.4040    -9.7240 
  146.5000     2.3070    82.0930     8.2190     8.2350     7.7530    23.4000    -9.5090 
  146.6250     2.3060    81.5190     7.6220     7.6250     7.8350    23.4300    -9.3080 
  146.7500     2.3030    81.1940     7.1850     7.1570     8.7780    23.5700    -9.1220 
  146.8750     2.2980    81.9900     6.8790     6.8070     8.5810    23.8230    -8.9360 
  147.0000     2.2950    83.3400     6.6810     6.5580     7.2500    24.0300    -8.7710 
  147.1250     2.3000    85.1240     6.5780     6.4150     6.7180    24.0860    -8.6580 
  147.2500     2.3120    85.4720     6.5330     6.3520     6.8810    24.0910    -8.6030 
  147.3750     2.3240    83.4200     6.5430     6.3600     7.4020    24.0980    -8.6030 
  147.5000     2.3290    82.0150     6.6260     6.4380     8.0250    24.1230    -8.6550 
  147.6250     2.3250    83.9390     6.8480     6.6130     8.0260    24.1360    -8.7520 
  147.7500     2.3190    85.1770     7.2490     6.9090     8.1300    24.1380    -8.8870 
  147.8750     2.3140    82.8240     7.8770     7.3840     8.3980    24.1370    -9.0480 
  148.0000     2.3110    79.5320     8.7670     8.1000     9.3080    24.1640    -9.2350 
  148.1250     2.3050    78.1040     9.9330     9.1300    11.4680    24.1930    -9.4450 
  148.2500     2.2960    78.1350    11.2210    10.3610    13.9470    24.2070    -9.6340 
  148.3750     2.2840    79.0480    12.4470    11.6240    15.6900    24.2110    -9.8050 
  148.5000     2.2710    78.6020    13.4070    12.6860    15.8240    24.2150    -9.9300 
  148.6250     2.2600    75.5960    13.9040    13.2780    15.3700    24.2200   -10.0360 
  148.7500     2.2540    72.8180    14.0380    13.4510    15.1190    24.2180   -10.0920 
  148.8750     2.2510    71.9420    13.9290    13.3290    15.1180    24.2170   -10.1170 
  149.0000     2.2500    70.6570    13.6890    13.0560    15.1250    24.2210   -10.0950 
  149.1250     2.2540    70.1300    13.4130    12.7680    14.7820    24.2270   -10.0160 
  149.2500     2.2610    72.8400    13.2190    12.5760    14.1120    24.2210    -9.9060 
  149.3750     2.2650    75.8510    13.2210    12.5650    13.4380    24.2200    -9.7870 
  149.5000     2.2620    74.3730    13.5090    12.7950    13.1280    24.2400    -9.6560 
  149.6250     2.2540    69.0660    14.1430    13.3150    13.8120    24.2990    -9.5370 
  149.7500     2.2450    66.1270    14.9510    14.0060    15.1370    24.3990    -9.4090 
  149.8750     2.2410    66.0530    15.7410    14.7270    16.5560    24.4580    -9.2900 
  150.0000     2.2440    68.6250    16.3240    15.3190    17.6200    24.4780    -9.1800 
  150.1250     2.2530    73.0080    16.5270    15.6080    18.0420    24.4860    -9.0820 
  150.2500     2.2660    75.1880    16.3780    15.5860    17.4640    24.5040    -8.9900 
  150.3750     2.2780    71.2050    15.9390    15.2790    16.6690    24.5340    -8.8940 
  150.5000     2.2830    64.2190    15.3770    14.8090    16.3260    24.5550    -8.8010 
  150.6250     2.2780    60.4320    15.0590    14.4550    16.3300    24.5740    -8.7170 
  150.7500     2.2670    60.5610    15.3700    14.5380    16.3410    24.5820    -8.6400 
  150.8750     2.2590    63.7120    16.6560    15.3610    16.2870    24.5450    -8.5850 
  151.0000     2.2560    66.4160    19.0690    17.1590    17.7170    24.5300    -8.5450 
  151.1250     2.2510    64.9170    22.3980    20.0410    25.2630    24.6320    -8.5360 
  151.2500     2.2390    60.0290    25.4220    23.1070    34.3330    24.7810    -8.5630 
  151.3750     2.2250    56.0910    26.6940    24.9950    38.6000    24.8780    -8.6230 
  151.5000     2.2180    55.9130    25.2490    24.4720    32.2800    24.9150    -8.6970 
  151.6250     2.2250    59.6100    21.5080    21.4670    20.8520    24.8280    -8.7490 
  151.7500     2.2400    64.1570    17.6990    17.9840    13.2290    24.6400    -8.8290 
  151.8750     2.2530    66.4320    14.9860    15.2090    11.3620    24.4910    -8.9080 
  152.0000     2.2540    66.3540    13.6740    13.5720    12.9450    24.4550    -8.9970 
  152.1250     2.2490    67.4450    13.8100    13.2220    14.5010    24.4810    -9.0680 
  152.2500     2.2490    68.6100    14.9860    13.8510    15.5760    24.4920    -9.1310 
  152.3750     2.2520    68.1450    17.0580    15.3850    18.5120    24.4870    -9.1610 
  152.5000     2.2550    67.4490    19.8270    17.7210    22.0190    24.4540    -9.2040 
  152.6250     2.2590    68.5810    22.8520    20.6140    24.8050    24.4040    -9.2390 
  152.7500     2.2600    69.0520    25.2640    23.2740    27.0040    24.4060    -9.2740 
  152.8750     2.2560    67.3460    26.1130    24.7270    31.3040    24.4840    -9.2680 
  153.0000     2.2450    65.1730    24.7270    24.1100    36.9260    24.5430    -9.2470 
  153.1250     2.2390    65.2370    21.2400    21.2650    35.1370    24.5270    -9.2010 
  153.2500     2.2400    67.3090    17.3830    17.7910    26.3290    24.4240    -9.1550 
  153.3750     2.2450    70.8600    14.2580    14.7650    17.3920    24.2450    -9.1000 
  153.5000     2.2510    74.3520    12.3290    12.6810    12.6090    24.0540    -9.0390 
  153.6250     2.2530    74.0060    11.7320    11.7500    11.3620    23.8980    -8.9550 
  153.7500     2.2520    72.1970    11.9430    11.6240    12.4560    23.8810    -8.8470 
  153.8750     2.2500    72.6070    12.5550    12.0260    13.8260    23.9760    -8.7340 
  154.0000     2.2500    74.9300    13.1010    12.5710    13.9680    24.0900    -8.6060 
  154.1250     2.2540    74.8860    13.0070    12.6860    13.2600    24.1620    -8.4900 
  154.2500     2.2590    72.6230    12.1520    12.1050    12.4960    24.1960    -8.3430 
  154.3750     2.2660    72.6280    10.7190    10.9010    11.6310    24.2060    -8.2020 
  154.5000     2.2770    76.9150     9.1120     9.4150    10.2610    24.2030    -8.0320 
  154.6250     2.2910    83.5810     7.8410     8.1070     8.4880    24.2000    -7.8980 
  154.7500     2.3020    88.6560     7.1560     7.2420     7.0860    24.1970    -7.7880 
  154.8750     2.3060    88.5850     7.2050     6.9620     6.5670    24.1950    -7.7240 
  155.0000     2.3010    83.2080     8.1030     7.3680     6.8520    24.2010    -7.6900 
  155.1250     2.2860    76.1180    10.0450     8.6950     8.6390    24.2300    -7.6570 
  155.2500     2.2690    71.5850    12.6940    10.8090    12.4130    24.2920    -7.6390 
  155.3750     2.2610    68.9740    15.4890    13.4030    16.8670    24.3400    -7.6250 
  155.5000     2.2640    65.4890    17.4560    15.6850    19.9390    24.3060    -7.6230 
  155.6250     2.2710    64.0720    17.3040    16.2670    20.0280    24.2320    -7.5970 
  155.7500     2.2740    67.4130    15.4610    15.1480    18.1010    24.1610    -7.5740 
  155.8750     2.2740    74.2370    12.9760    13.1470    14.0680    24.0570    -7.5290 
  156.0000     2.2770    79.4370    10.8290    11.1790    10.1620    23.9250    -7.4830 
  156.1250     2.2800    79.8940     9.5640     9.8120     8.5770    23.7610    -7.4540 
