~V
VERS. 2.00: Ver 2.00
~W
STRT.M 50.0000:
STOP.M 240.0000:
STEP.M 0.1250:
NULL. -999.2500:
UWI. F11117:
~C
DEPT.M :
DEN.GM/CC :
GR.API :
RML.OHMM :
RI. :
RXO.OHMM :
CALI.CM :
SP.MV :
~A
   50.0000  -999.2500  -999.2500  -999.2500  -999.2500  -999.2500  -999.2500    52.8290 
   50.1250  -999.2500  -999.2500  -999.2500  -999.2500  -999.2500  -999.2500    52.6710 
   50.2500  -999.2500  -999.2500  -999.2500  -999.2500  -999.2500  -999.2500    52.3020 
   50.3750  -999.2500  -999.2500  -999.2500  -999.2500  -999.2500  -999.2500    51.7230 
   50.5000  -999.2500  -999.2500  -999.2500  -999.2500  -999.2500  -999.2500    51.0130 
   50.6250  -999.2500  -999.2500  -999.2500  -999.2500  -999.2500  -999.2500    50.1770 
   50.7500  -999.2500  -999.2500  -999.2500  -999.2500  -999.2500  -999.2500    49.2810 
   50.8750  -999.2500  -999.2500  -999.2500  -999.2500  -999.2500  -999.2500    48.3840 
   51.0000  -999.2500  -999.2500  -999.2500  -999.2500  -999.2500  -999.2500    47.5000 
   51.1250  -999.2500  -999.2500  -999.2500  -999.2500  -999.2500  -999.2500    46.7410 
   51.2500  -999.2500  -999.2500  -999.2500  -999.2500  -999.2500  -999.2500    46.1990 
   51.3750  -999.2500  -999.2500  -999.2500  -999.2500  -999.2500  -999.2500    45.8940 
   51.5000  -999.2500  -999.2500  -999.2500  -999.2500  -999.2500  -999.2500    45.7390 
   51.6250  -999.2500  -999.2500  -999.2500  -999.2500  -999.2500  -999.2500    45.6880 
   51.7500  -999.2500  -999.2500  -999.2500  -999.2500  -999.2500  -999.2500    45.7040 
   51.8750  -999.2500  -999.2500  -999.2500  -999.2500  -999.2500  -999.2500    45.7750 
   52.0000  -999.2500  -999.2500  -999.2500  -999.2500  -999.2500  -999.2500    45.9310 
   52.1250  -999.2500  -999.2500  -999.2500  -999.2500  -999.2500  -999.2500    46.1630 
   52.2500  -999.2500  -999.2500  -999.2500  -999.2500  -999.2500  -999.2500    46.4000 
   52.3750  -999.2500  -999.2500  -999.2500  -999.2500  -999.2500  -999.2500    46.5640 
   52.5000  -999.2500  -999.2500  -999.2500  -999.2500  -999.2500  -999.2500    46.6360 
   52.6250  -999.2500  -999.2500  -999.2500  -999.2500  -999.2500  -999.2500    46.6390 
   52.7500  -999.2500  -999.2500  -999.2500  -999.2500  -999.2500  -999.2500    46.5920 
   52.8750  -999.2500  -999.2500  -999.2500  -999.2500  -999.2500  -999.2500    46.4950 
   53.0000  -999.2500    42.8710     0.1040     0.1720    19.7080    25.3460    46.3340 
   53.1250  -999.2500    42.8710     0.1040     0.1720    19.7080    25.3460    46.1330 
   53.2500  -999.2500    40.4030     0.1300     0.1710    20.1950    25.3510    45.9540 
   53.3750  -999.2500    40.6090     0.1520     0.1670    20.6480    25.3500    45.8390 
   53.5000  -999.2500    41.7600     0.1710     0.1620    20.9950    25.3370    45.8000 
   53.6250  -999.2500    42.2430     0.1840     0.1550    21.1940    25.3040    45.8140 
   53.7500  -999.2500    43.2060     0.1910     0.1470    20.9010    25.2990    45.8500 
   53.8750  -999.2500    45.1890     0.1850     0.1410    20.5620    25.2970    45.8950 
   54.0000     2.0420    46.6010     0.1630     0.1370    20.5720    25.2940    45.9370 
   54.1250     2.0420    45.8030     0.1280     0.1390    20.7480    25.2750    45.9390 
   54.2500     2.0350    43.8660     0.0970     0.1440    20.9880    25.2660    45.8870 
   54.3750     2.0240    41.2460     0.0840     0.1500    20.8570    25.2650    45.7610 
   54.5000     2.0150    39.4810     0.0940     0.1540    20.6310    25.2650    45.5740 
   54.6250     2.0100    39.3470     0.1180     0.1530    20.6030    25.2650    45.3440 
   54.7500     2.0100    39.4250     0.1420     0.1470    20.7860    25.2650    45.0380 
   54.8750     2.0130    39.9390     0.1590     0.1380    20.8990    25.2650    44.6730 
   55.0000     2.0190    40.5700     0.1650     0.1300    20.6180    25.2650    44.2770 
   55.1250     2.0280    39.9590     0.1550     0.1280    20.0940    25.2650    43.8850 
   55.2500     2.0380    38.6510     0.1350     0.1300    19.6240    25.2650    43.5120 
   55.3750     2.0470    37.3810     0.1140     0.1360    19.5480    25.2650    43.1940 
   55.5000     2.0490    36.5380     0.1020     0.1420    19.9880    25.2650    42.9370 
   55.6250     2.0380    37.0010     0.1080     0.1440    20.6260    25.2650    42.7040 
   55.7500     2.0170    41.0580     0.1260     0.1440    20.3350    25.2650    42.5270 
   55.8750     1.9920    47.5930     0.1460     0.1420    20.0420    25.2680    42.4170 
   56.0000     1.9710    53.3730     0.1550     0.1400    20.1930    25.2820    42.3720 
   56.1250     1.9620    54.8740     0.1490     0.1390    20.0910    25.2790    42.4010 
   56.2500     1.9660    53.5490     0.1360     0.1390    20.6750    25.2710    42.4840 
   56.3750     1.9780    51.6130     0.1300     0.1390    21.2630    25.2870    42.6130 
   56.5000     1.9910    50.0610     0.1330     0.1390    21.0880    25.3330    42.7600 
   56.6250     2.0000    47.7500     0.1430     0.1420    19.6060    25.3430    42.9310 
   56.7500     2.0060    45.4070     0.1510     0.1480    19.5730    25.3510    43.0880 
   56.8750     2.0120    44.6390     0.1500     0.1540    19.7440    25.3520    43.2080 
   57.0000     2.0180    46.5530     0.1420     0.1580    19.5180    25.3450    43.2630 
   57.1250     2.0260    50.8450     0.1340     0.1580    19.1690    25.3520    43.2270 
   57.2500     2.0320    55.5640     0.1340     0.1550    19.3320    25.3530    43.1340 
   57.3750     2.0360    57.8580     0.1390     0.1520    19.6550    25.3530    42.9850 
   57.5000     2.0370    55.8990     0.1420     0.1510    19.6910    25.3520    42.7780 
   57.6250     2.0330    50.2290     0.1410     0.1560    19.2920    25.3500    42.4660 
   57.7500     2.0250    45.2120     0.1380     0.1620    19.1910    25.3480    42.0960 
   57.8750     2.0140    44.2780     0.1370     0.1640    18.9670    25.3510    41.6480 
   58.0000     2.0040    47.6760     0.1360     0.1610    20.6380    25.3450    41.0960 
   58.1250     2.0030    50.2830     0.1320     0.1560    21.4940    25.3490    40.4350 
   58.2500     2.0100    50.7070     0.1220     0.1540    22.2350    25.3470    39.6610 
   58.3750     2.0180    50.7300     0.1040     0.1570    22.3280    25.3450    38.7300 
   58.5000     2.0210    51.1500     0.0830     0.1620    22.4460    25.3440    37.6510 
   58.6250     2.0090    50.8980     0.0660     0.1610    21.8110    25.3510    36.3990 
   58.7500     1.9890    50.7570     0.0540     0.1510    21.2980    25.3530    34.9270 
   58.8750     1.9770    50.8990     0.0450     0.1340    20.9060    25.3560    33.2130 
   59.0000     1.9910    49.4520     0.0370     0.1110    19.4440    25.3710    31.2270 
   59.1250     2.0540    47.2880     0.0250     0.0860    14.7210    25.4150    28.8870 
   59.2500     2.1560    46.8010     0.0130     0.0630     8.4130    25.4280    26.2080 
   59.3750     2.2710    46.5310     0.0050     0.0450     4.0430    25.4250    23.1680 
   59.5000     2.3470    45.3890     0.0010     0.0330     2.4390    25.4010    19.7190 
   59.6250     2.3190    45.0500     0.0020     0.0320     3.0300    25.2740    15.7860 
   59.7500     2.2170    46.9060     0.0130     0.0470     4.4190    25.3030    11.5720 
   59.8750     2.1030    48.8840     0.0480     0.1080     5.9670    26.0490     7.2120 
   60.0000     2.0270    47.9180     0.1400     0.2680     6.5630    28.2200     2.8450 
   60.1250     2.0140    44.5460     0.4000     0.6770     8.5310    32.5990    -1.3480 
   60.2500     2.0380    42.1100     0.9760     1.4540    14.2390    37.5880    -5.3040 
   60.3750     2.0690    43.4110     2.0220     2.6470    20.9130    40.7320    -8.9350 
   60.5000     2.0750    48.9770     3.3130     4.0230    15.3780    40.3080   -12.1170 
   60.6250     2.0480    56.4200     4.0620     5.0150     8.8510    36.1340   -14.6890 
   60.7500     2.0160    61.2130     4.2780     5.5080     6.9370    29.9340   -16.7480 
   60.8750     2.0030    61.9060     4.3410     5.7100     7.1150    27.4890   -18.3540 
   61.0000     2.0110    59.2460     4.4500     5.8270     7.4760    26.6210   -19.5910 
   61.1250     2.0320    56.5740     4.6320     5.9530     7.5400    26.4220   -20.5000 
