~V
VERS. 2.00: Ver 2.00
~W
STRT.M 52.0000:
STOP.M 216.0000:
STEP.M 0.1250:
NULL. -999.2500:
UWI. F11106:
~C
DEPT.M :
DEN.GM/CC :
GR.API :
RML.OHMM :
RI. :
RXO.OHMM :
CALI.CM :
SP.MV :
~A
# ...
  164.5000     2.3500    71.5960    25.4980    21.7460    17.1840    25.9390   -24.5310 
  164.6250     2.3290    67.7960    30.8170    26.7670    22.1540    26.0240   -24.5350 
  164.7500     2.3070    65.3160    34.7390    31.1550    26.0910    26.5270   -24.5180 
  164.8750     2.2910    62.9770    35.4950    32.9250    29.6160    26.8930   -24.4830 
  165.0000     2.2860    61.8150    32.5880    31.0320    28.8690    26.7840   -24.3710 
  165.1250     2.2950    66.2540    27.4310    26.4040    22.1530    26.4310   -24.2910 
  165.2500     2.3120    72.6920    22.7720    21.8190    16.6570    26.2170   -24.2390 
  165.3750     2.3300    75.6680    19.9190    18.5610    13.8270    26.1560   -24.1870 
  165.5000     2.3420    74.9890    19.5570    17.1160    12.3490    26.2440   -24.1560 
  165.6250     2.3450    72.1500    23.2590    18.3790    12.4080    26.5420   -24.1590 
  165.7500     2.3390    68.2300    32.2460    23.3150    15.7050    26.7310   -24.1860 
  165.8750     2.3250    63.9550    49.1310    34.4060    25.4070    27.0730   -24.2360 
  166.0000     2.3060    59.8660    77.9830    55.4060    44.0730    27.4350   -24.3560 
  166.1250     2.2810    55.0600   128.1700    93.0280    76.6110    27.5530   -24.4810 
  166.2500     2.2540    51.2640   196.7770   142.7950   109.8760    27.6400   -24.6030 
  166.3750     2.2300    50.9420   258.3570   188.2380   146.6200    27.6190   -24.7200 
  166.5000     2.2120    51.0980   270.9240   206.2290   191.1080    27.5820   -24.8310 
  166.6250     2.2000    48.6080   233.8040   189.5460   200.3630    27.6140   -24.9360 
  166.7500     2.1940    46.7690   193.3640   162.3920   179.9590    27.8310   -25.0290 
  166.8750     2.1920    47.7090   163.0930   137.4870   152.3480    28.1230   -25.1680 
  167.0000     2.1930    50.3100   143.2510   118.9420   136.2960    28.2610   -25.3120 
  167.1250     2.1960    53.2600   132.4810   107.6300   122.7530    28.0810   -25.4510 
  167.2500     2.2010    57.1990   127.3220   101.2620   109.7530    28.0210   -25.6260 
  167.3750     2.2050    60.4280   126.6180    98.9320   105.9510    27.9490   -25.8200 
  167.5000     2.2070    60.8730   129.7780   100.1280   107.3760    27.8360   -25.9640 
  167.6250     2.2060    58.2690   137.1820   105.1640   109.5950    27.8290   -26.1150 
  167.7500     2.2030    55.6160   148.1900   113.3620   106.3280    28.0650   -26.2540 
  167.8750     2.1970    55.1140   162.6440   124.6350    97.4190    28.4540   -26.3650 
  168.0000     2.1880    55.9140   179.4780   138.4700    95.3150    28.4750   -26.4700 
  168.1250     2.1760    55.0620   194.3370   152.4260    93.2620    27.9670   -26.5010 
  168.2500     2.1630    52.6380   200.2600   161.5510    87.4480    27.9130   -26.4780 
  168.3750     2.1490    51.5680   191.6660   160.9780    81.0450    29.0060   -26.4140 
  168.5000     2.1380    52.9160   168.7590   148.6140    74.5920    29.4900   -26.3160 
  168.6250     2.1340    53.8900   138.1110   126.5380    74.0980    29.5980   -26.2160 
  168.7500     2.1400    52.8750   109.0360   102.5440    74.6530    29.6020   -26.1200 
  168.8750     2.1540    50.6290    85.0600    80.9960    72.7680    29.0090   -25.9600 
  169.0000     2.1760    51.1450    66.9040    63.8320    59.8520    28.7090   -25.7590 
  169.1250     2.2030    56.6950    54.8260    51.9740    44.4680    28.2960   -25.6220 
  169.2500     2.2320    62.3880    47.1100    44.0680    31.0050    27.8700   -25.4840 
  169.3750     2.2600    65.3920    43.1890    39.5290    21.4900    27.4980   -25.3600 
  169.5000     2.2810    66.6770    42.7150    37.9360    18.9320    27.2370   -25.3130 
  169.6250     2.2900    68.8030    46.1160    39.5750    19.8600    27.1070   -25.2530 
  169.7500     2.2870    68.3530    52.9800    44.1080    23.3410    27.3420   -25.1990 
  169.8750     2.2750    63.8100    63.7170    51.9260    25.0480    27.7490   -25.1960 
  170.0000     2.2570    60.2140    78.9810    63.6140    23.5590    28.3060   -25.2020 
  170.1250     2.2400    61.0150   100.0620    80.2580    33.2840    28.2570   -25.2350 
  170.2500     2.2270    62.1550   124.8980   100.0380    68.9120    28.1610   -25.2960 
  170.3750     2.2190    58.7400   149.2640   119.5040   124.0620    28.1480   -25.3290 
  170.5000     2.2140    53.2320   166.0180   133.3100   138.2460    28.1920   -25.3040 
  170.6250     2.2130    52.7600   167.1630   135.3650   126.7520    28.1950   -25.2990 
  170.7500     2.2140    56.9280   157.8960   128.7800   135.6240    28.1660   -25.2820 
  170.8750     2.2180    60.7390   145.2310   118.4820   150.4530    28.0930   -25.2700 
  171.0000     2.2250    61.1480   133.9900   108.6840   155.4320    28.0640   -25.2790 
  171.1250     2.2310    60.1300   125.8220   101.5030   143.5650    28.0560   -25.2220 
  171.2500     2.2350    60.7930   119.6260    96.3360   126.8380    28.0280   -25.1530 
  171.3750     2.2370    61.0810   114.6820    92.6170   113.0400    27.8850   -25.1300 
  171.5000     2.2360    57.9530   110.4060    89.8760   100.5470    27.7750   -25.1190 
  171.6250     2.2340    54.6700   106.3880    87.7810    92.8140    27.7690   -25.1190 
  171.7500     2.2300    54.4700   102.3270    85.9060    92.9970    27.8210   -25.1240 
  171.8750     2.2250    56.8800    98.1030    83.9960    92.0910    27.8930   -25.1170 
  172.0000     2.2210    59.6520    93.6740    81.8420    91.2400    28.1460   -25.1120 
  172.1250     2.2190    59.0980    88.9240    79.1770    90.3700    28.2840   -25.0930 
  172.2500     2.2200    55.1440    83.6330    75.8990    88.6170    28.1530   -25.0840 
  172.3750     2.2250    50.1550    77.5060    71.8090    84.4900    27.8460   -25.0970 
  172.5000     2.2330    49.1010    70.4140    66.6470    74.6610    27.5330   -25.0980 
  172.6250     2.2440    53.2940    62.5000    60.1810    64.2760    27.4340   -25.0890 
  172.7500     2.2560    58.1970    54.5110    53.0600    59.7480    27.5170   -25.1250 
  172.8750     2.2700    61.7460    47.1260    46.0510    54.9450    27.2790   -25.1840 
  173.0000     2.2850    63.6100    40.9500    39.9440    42.8120    26.9280   -25.2920 
  173.1250     2.3010    65.4590    37.0170    35.8020    26.2770    26.8160   -25.5010 
  173.2500     2.3130    66.2130    35.8960    34.1210    17.4100    26.7120   -25.7190 
  173.3750     2.3170    62.9050    38.1600    35.4430    17.6050    26.7850   -25.9420 
  173.5000     2.3110    57.5430    43.8350    40.0040    26.9920    27.0160   -26.2500 
  173.6250     2.2960    56.1910    52.3190    47.7750    44.6270    26.9790   -26.5640 
  173.7500     2.2790    58.0480    60.8950    56.3910    56.4210    26.7240   -26.8750 
  173.8750     2.2650    59.5820    66.9570    63.1730    59.9260    26.5550   -27.1760 
  174.0000     2.2570    59.2500    69.1620    66.2780    58.5270    26.5290   -27.4080 
  174.1250     2.2520    58.3860    68.4410    66.0140    58.6730    26.5840   -27.6290 
  174.2500     2.2470    56.2140    67.5120    65.0220    59.8890    26.6460   -27.8470 
  174.3750     2.2420    55.0360    67.3620    64.3840    59.5490    26.6060   -28.0100 
  174.5000     2.2360    56.9120    68.1490    64.3520    61.0640    26.4740   -28.1390 
  174.6250     2.2270    60.2420    69.8630    64.9400    66.4580    26.4870   -28.2670 
  174.7500     2.2160    62.8040    72.2220    65.9790    70.4220    26.5990   -28.3650 
  174.8750     2.2030    63.8550    75.3210    67.5750    68.4220    26.8490   -28.4760 
  175.0000     2.1900    61.5310    79.5550    70.0270    66.5230    27.4200   -28.6140 
  175.1250     2.1810    55.3870    85.8750    74.1110    71.3260    28.0310   -28.6900 
  175.2500     2.1770    51.6650    94.5180    80.1090    77.3990    28.4360   -28.7690 
  175.3750     2.1800    53.0460   105.6970    88.2450    81.6540    28.2900   -28.8620 
  175.5000     2.1850    54.3880   119.4830    98.5650    79.1190    28.2140   -28.9180 
  175.6250     2.1900    52.0960   136.4010   111.5400    80.2390    28.2310   -29.0140 
