~V
VERS. 2.00: Ver 2.00
~W
STRT.M 52.0000:
STOP.M 240.0000:
STEP.M 0.1250:
NULL. -999.2500:
UWI. F11139:
~C
DEPT.M :
GR.API :
RML.OHMM :
RI. :
RXO.OHMM :
CALI.CM :
SP.MV :
DEN.GM/CC :
~A
# ...
   63.2500    78.3720     7.6770     7.5910    10.9860    24.7650   -33.8930     2.1430 
   63.3750    74.7440     7.5840     7.5320    10.6870    24.7900   -34.7150     2.1330 
   63.5000    72.8350     7.4530     7.4690    10.6070    24.8220   -35.2660     2.1300 
   63.6250    72.8970     7.3410     7.4300    10.5630    24.8780   -35.6000     2.1350 
   63.7500    73.1890     7.2960     7.4450    10.4350    24.9700   -35.8180     2.1380 
   63.8750    73.3420     7.3300     7.5240    10.2750    25.0850   -35.9400     2.1330 
   64.0000    71.8460     7.4200     7.6500    10.2450    25.2090   -36.0050     2.1260 
   64.1250    69.2030     7.5130     7.7710    10.4800    25.3300   -36.0380     2.1210 
   64.2500    68.1900     7.5530     7.8290    10.5980    25.4860   -36.1300     2.1170 
   64.3750    68.5190     7.5110     7.7880    10.5480    25.6720   -36.1750     2.1150 
   64.5000    68.7820     7.3950     7.6480    10.3670    25.8090   -36.2430     2.1180 
   64.6250    70.3640     7.2430     7.4420    10.1910    25.8800   -36.2820     2.1230 
   64.7500    74.1500     7.1160     7.2380    10.0450    25.9140   -36.2670     2.1250 
   64.8750    78.2000     7.0430     7.0740     9.9380    25.9280   -36.2520     2.1210 
   65.0000    80.0530     7.0230     6.9630     9.9510    25.9400   -36.2060     2.1110 
   65.1250    79.7970     7.0330     6.9000     9.8840    25.9890   -36.1100     2.0980 
   65.2500    78.6430     7.0430     6.8620     9.7820    26.0230   -35.9440     2.0860 
   65.3750    77.7640     7.0490     6.8390     9.7340    26.0000   -35.7410     2.0790 
   65.5000    78.1200     7.0640     6.8300     9.6470    25.9620   -35.5590     2.0800 
   65.6250    79.7900     7.1100     6.8440     9.6100    25.9210   -35.4060     2.0930 
   65.7500    80.2910     7.1850     6.8750     9.7540    25.8560   -35.3820     2.1130 
   65.8750    77.5050     7.2750     6.9150    10.1240    25.8320   -35.5180     2.1290 
   66.0000    73.2900     7.3570     6.9510    10.5510    25.8440   -35.8400     2.1370 
   66.1250    72.3770     7.4160     6.9720    10.8030    25.8900   -36.4180     2.1440 
   66.2500    74.3730     7.4580     6.9840    10.5980    25.9650   -37.0390     2.1520 
   66.3750    75.3020     7.5010     6.9990    10.4430    26.0580   -37.7330     2.1540 
   66.5000    73.0220     7.5590     7.0300    10.6970    26.1230   -38.3790     2.1460 
   66.6250    69.8310     7.6390     7.0790    11.0340    26.0890   -38.8750     2.1520 
   66.7500    68.7010     7.7250     7.1290    11.3160    25.9920   -39.2640     2.1800 
   66.8750    69.3860     7.8020     7.1650    11.4200    25.9070   -39.4100     2.2060 
   67.0000    69.5620     7.8580     7.1730    11.2730    25.8950   -39.3430     2.1960 
   67.1250    68.2500     7.8970     7.1510    11.0240    25.9560   -38.9370     2.1550 
   67.2500    68.2270     7.9310     7.1100    10.7840    26.0060   -38.3360     2.1230 
   67.3750    70.7650     7.9510     7.0500    10.6090    26.0270   -37.5840     2.1160 
   67.5000    74.6340     7.9270     6.9560    10.5030    26.0320   -36.6820     2.1250 
   67.6250    78.4190     7.7980     6.7910    10.2930    26.0440   -35.7910     2.1360 
   67.7500    81.4810     7.5600     6.5510     9.8380    26.1250   -34.8330     2.1390 
   67.8750    83.2560     7.2540     6.2540     8.9930    26.2490   -33.9710     2.1330 
   68.0000    84.0980     6.9630     5.9530     7.8450    26.2620   -33.3680     2.1320 
   68.1250    86.4580     6.8090     5.7400     6.9780    26.0450   -33.1880     2.1440 
   68.2500    88.4070     6.8360     5.6660     6.9330    25.7130   -33.4620     2.1570 
   68.3750    86.5860     7.0410     5.7490     7.6950    25.4270   -34.0990     2.1570 
   68.5000    81.1290     7.3730     5.9680     9.0080    25.1540   -35.0400     2.1440 
   68.6250    75.8840     7.7420     6.2690    10.5190    24.9060   -36.2670     2.1290 
   68.7500    73.5730     8.0500     6.5570    11.3720    24.7600   -37.6830     2.1150 
   68.8750    72.2400     8.2450     6.7740    11.6030    24.7340   -39.1310     2.1000 
   69.0000    69.9060     8.3190     6.8890    11.5390    24.7510   -40.4110     2.0850 
   69.1250    66.7900     8.2960     6.9020    11.5020    24.6990   -41.3910     2.0780 
   69.2500    64.8460     8.2420     6.8630    11.5730    24.6500   -42.0810     2.0810 
   69.3750    65.3600     8.1840     6.8010    11.6600    24.6290   -42.4590     2.0900 
   69.5000    66.9630     8.1290     6.7300    11.7130    24.6300   -42.6450     2.0960 
   69.6250    68.8580     8.0660     6.6510    11.6310    24.6400   -42.5120     2.0970 
   69.7500    70.2410     7.9990     6.5700    11.4700    24.6540   -42.1420     2.0970 
   69.8750    70.5250     7.9490     6.5060    11.3500    24.6700   -41.6010     2.0990 
   70.0000    70.4890     7.9570     6.4860    11.3410    24.6830   -40.8320     2.1040 
   70.1250    70.4890     8.0800     6.5640    11.3060    24.7070   -39.8790     2.1120 
   70.2500    69.6510     8.2960     6.7400    11.2440    24.7330   -38.6570     2.1240 
   70.3750    66.8900     8.5450     6.9850    11.2780    24.7480   -37.2280     2.1390 
   70.5000    65.4520     8.7340     7.2340    11.3800    24.6870   -35.5590     2.1640 
   70.6250    68.6200     8.7430     7.3780    11.4340    24.4510   -33.6240     2.2050 
   70.7500    73.6340     8.5600     7.3640    11.4840    24.0970   -31.5950     2.2400 
   70.8750    78.4260     8.2280     7.1890    11.3390    23.8150   -29.4650     2.2420 
   71.0000    82.4330     7.8360     6.9040    10.6640    23.7010   -27.3930     2.2190 
   71.1250    84.2870     7.4790     6.5830     9.5690    23.7990   -25.3650     2.2060 
   71.2500    84.4430     7.1810     6.2810     8.5980    23.8930   -23.4440     2.2070 
   71.3750    87.3130     6.9140     5.9990     7.9770    23.9150   -21.7280     2.2130 
   71.5000    93.8340     6.6300     5.7110     7.4010    23.9620   -20.2090     2.2210 
   71.6250   100.2810     6.2870     5.3830     6.7290    24.0630   -19.0540     2.2410 
   71.7500   103.8850     5.9180     5.0250     6.1530    24.1480   -18.2460     2.2740 
   71.8750   106.3340     5.5940     4.6840     5.6070    24.2540   -17.8190     2.3150 
   72.0000   107.9890     5.4140     4.4300     5.1110    24.4770   -17.8160     2.3560 
   72.1250   106.0740     5.5220     4.3790     4.9460    24.7420   -18.3610     2.3850 
   72.2500   101.6060     5.9340     4.5650     5.2150    24.9260   -19.4210     2.3950 
   72.3750    97.1830     6.6280     5.0020     5.9440    25.0520   -20.9210     2.3830 
   72.5000    93.9680     7.4970     5.6550     7.2060    25.1730   -22.7900     2.3580 
   72.6250    89.3330     8.3240     6.4150     8.6170    25.3160   -24.9590     2.3270 
   72.7500    82.3230     8.8850     7.0820     9.6140    25.4380   -27.1850     2.2980 
   72.8750    75.8150     9.0610     7.5010     9.9900    25.4260   -29.4520     2.2630 
   73.0000    72.1800     8.8680     7.5920    10.2190    25.3850   -31.5490     2.2060 
   73.1250    71.6170     8.4470     7.3670    10.4990    25.4210   -33.3110     2.1320 
   73.2500    72.0230     8.0300     7.0200    10.7260    25.4870   -34.7960     2.0770 
   73.3750    72.1870     7.7160     6.6740    10.9190    25.5770   -35.9560     2.0600 
   73.5000    72.2570     7.4860     6.3960    11.0740    25.6880   -36.9200     2.0720 
   73.6250    72.9270     7.3380     6.2180    11.1660    25.7670   -37.6330     2.0930 
   73.7500    75.4890     7.2030     6.1120    11.2440    25.7920   -38.2380     2.1050 
   73.8750    78.5490     7.0440     6.0530    11.3330    25.8100   -38.7020     2.1060 
   74.0000    78.4130     7.0040     6.0180    11.4150    25.8230   -39.0620     2.1000 
   74.1250    73.0300     6.9990     5.9870    11.6890    25.8250   -39.3920     2.0930 
   74.2500    66.5760     6.9830     5.9490    11.8020    25.8380   -39.5690     2.0910 
   74.3750    63.1180     6.9500     5.9030    11.8400    25.8660   -39.6590     2.0950 
