~V
VERS. 2.00: Ver 2.00
~W
STRT.M 50.0000:
STOP.M 242.0000:
STEP.M 0.1250:
NULL. -999.2500:
UWI. F11136:
~C
DEPT.M :
GR.API :
RML.OHMM :
RI. :
RXO.OHMM :
CALI.CM :
SP.MV :
DEN.GM/CC :
~A
# ...
  140.0000    70.8330     8.2730     7.8820     9.6060    24.2180   -14.5650     2.2650 
  140.1250    68.1180     8.6610     8.2670     9.6050    24.2870   -14.5500     2.2620 
  140.2500    68.3570     8.8840     8.4850     9.9990    24.3040   -14.5350     2.2680 
  140.3750    73.1240     8.9060     8.4530    10.1620    24.2870   -14.5070     2.2800 
  140.5000    76.9950     8.6770     8.1470     9.7830    24.2790   -14.4500     2.2910 
  140.6250    77.7580     8.1080     7.5700     9.1220    24.2600   -14.4080     2.2930 
  140.7500    81.1700     7.3520     6.8760     7.6160    24.1810   -14.3320     2.2850 
  140.8750    86.0000     6.5770     6.2050     6.1960    24.0560   -14.2650     2.2700 
  141.0000    85.1350     5.8970     5.6450     5.5650    23.9430   -14.2200     2.2550 
  141.1250    80.0740     5.3720     5.2280     5.4310    23.8860   -14.1620     2.2480 
  141.2500    79.5300     4.9950     4.9130     5.2170    23.8230   -14.1200     2.2490 
  141.3750    81.5460     4.8190     4.7010     5.1490    23.8520   -14.0950     2.2570 
  141.5000    80.5480     4.9270     4.6350     5.2410    23.8980   -14.0870     2.2670 
  141.6250    76.9340     5.4840     4.8380     5.4140    23.9140   -14.1310     2.2710 
  141.7500    74.1180     6.4940     5.3630     6.1900    23.9250   -14.1910     2.2660 
  141.8750    71.8120     7.9490     6.2590     8.2520    24.0130   -14.2600     2.2530 
  142.0000    70.9450     8.6920     7.4840    11.8130    24.1020   -14.3810     2.2420 
  142.1250    71.2150    10.2570     8.8390    14.1640    24.0990   -14.5060     2.2520 
  142.2500    67.6000    11.3110     9.9140    15.6580    24.0620   -14.6130     2.2850 
  142.3750    62.2220    11.5470    10.3910    16.7490    24.0310   -14.7480     2.3320 
  142.5000    60.9450    11.0000    10.1980    15.7740    23.9010   -14.8640     2.3670 
  142.6250    62.9960    10.0390     9.5060    12.7930    23.8790   -14.9390     2.3600 
  142.7500    62.3620     9.1850     8.7040    10.9040    23.9830   -15.0240     2.3210 
  142.8750    60.8420     8.6190     7.9680     9.9750    24.0380   -15.0530     2.2720 
  143.0000    63.3070     8.3120     7.3660     9.5360    24.0310   -15.0300     2.2360 
  143.1250    68.5740     8.0980     6.9350     9.1440    23.9860   -15.0150     2.2270 
  143.2500    70.9880     7.8180     6.6230     8.5610    23.9790   -14.9790     2.2320 
  143.3750    70.6340     7.4720     6.3900     7.8800    23.9960   -14.9110     2.2390 
  143.5000    68.4820     7.1290     6.1970     7.5930    24.0340   -14.8300     2.2410 
  143.6250    64.8390     6.8610     6.0140     7.6070    24.0490   -14.7070     2.2380 
  143.7500    62.1750     6.6330     5.8280     7.6100    24.0290   -14.5870     2.2340 
  143.8750    63.3280     6.3960     5.6310     7.3130    24.0390   -14.4940     2.2300 
  144.0000    68.7490     6.1280     5.4240     6.6550    24.0360   -14.3680     2.2270 
  144.1250    74.1040     5.8690     5.2260     5.9930    23.9860   -14.2170     2.2290 
  144.2500    75.9500     5.7030     5.0700     5.6940    23.9680   -14.1030     2.2350 
  144.3750    74.1160     5.6620     4.9800     5.6000    23.9790   -13.9700     2.2470 
  144.5000    69.9820     5.7140     4.9500     5.8030    23.9920   -13.8190     2.2620 
  144.6250    66.1460     5.7610     4.9380     6.2570    24.0340   -13.7360     2.2780 
  144.7500    63.1960     5.7180     4.8880     6.0550    24.0290   -13.6280     2.2870 
  144.8750    61.8500     5.5760     4.7790     5.5410    24.0130   -13.5150     2.2870 
  145.0000    64.6810     5.3800     4.6290     5.1620    23.9810   -13.4670     2.2800 
  145.1250    72.8330     5.2190     4.4860     4.9500    24.0220   -13.4240     2.2710 
  145.2500    79.2160     5.1370     4.3890     4.9060    24.0230   -13.3600     2.2640 
  145.3750    79.0390     5.1280     4.3470     5.0450    23.9180   -13.3240     2.2610 
  145.5000    74.7280     5.1530     4.3450     5.1560    23.6690   -13.2910     2.2620 
  145.6250    71.7690     5.1590     4.3620     5.0070    23.6300   -13.2330     2.2630 
  145.7500    70.9260     5.1250     4.3790     4.7930    23.6130   -13.2240     2.2630 
  145.8750    71.3270     5.0610     4.3940     4.7570    23.4630   -13.2110     2.2640 
  146.0000    71.6380     4.9950     4.4080     4.8570    23.3210   -13.1700     2.2670 
  146.1250    70.3120     4.9780     4.4310     4.9970    23.2940   -13.1660     2.2720 
  146.2500    70.5860     5.0120     4.4590     5.0330    23.3300   -13.1550     2.2770 
  146.3750    74.7740     5.0820     4.4760     5.0930    23.3540   -13.1400     2.2810 
  146.5000    79.2140     5.1610     4.4680     5.1900    23.5080   -13.1840     2.2820 
  146.6250    78.0330     5.2220     4.4290     5.1990    23.6430   -13.2080     2.2810 
  146.7500    75.4030     5.2410     4.3810     5.1570    23.6990   -13.2090     2.2800 
  146.8750    76.0370     5.2220     4.3390     5.1520    23.7260   -13.2230     2.2800 
  147.0000    79.5970     5.1940     4.3070     5.2050    23.7690   -13.2150     2.2780 
  147.1250    82.2340     5.1520     4.2840     5.1840    23.8240   -13.1850     2.2750 
  147.2500    83.6930     5.1170     4.2650     5.1890    23.8620   -13.1880     2.2690 
  147.3750    83.0680     5.1010     4.2510     5.2080    23.8420   -13.1870     2.2630 
  147.5000    79.9730     5.0980     4.2530     5.2840    23.8250   -13.1740     2.2590 
  147.6250    78.1450     5.1120     4.2940     5.3560    23.8300   -13.2140     2.2560 
  147.7500    81.1930     5.1560     4.3810     5.4570    23.8490   -13.2540     2.2550 
  147.8750    86.8580     5.2530     4.5120     5.6880    23.8750   -13.3260     2.2550 
  148.0000    89.3660     5.3880     4.6780     6.0550    23.8720   -13.4500     2.2540 
  148.1250    86.2400     5.5240     4.8560     6.4390    23.8580   -13.5800     2.2520 
  148.2500    83.1670     5.8270     5.0120     6.7360    23.8760   -13.7160     2.2500 
  148.3750    85.2910     6.1250     5.1370     6.9530    23.8740   -13.8930     2.2470 
  148.5000    90.5790     6.3190     5.2560     7.1210    23.8650   -14.0430     2.2440 
  148.6250    90.9890     6.6340     5.4220     7.1510    23.8170   -14.1360     2.2430 
  148.7500    85.9370     7.0160     5.6460     7.1510    23.8070   -14.2510     2.2460 
  148.8750    80.3120     7.4060     5.9060     7.5080    23.7890   -14.3060     2.2570 
  149.0000    77.5850     7.7460     6.1450     8.5730    23.7580   -14.3310     2.2750 
  149.1250    74.1920     7.9320     6.2730     9.6340    23.7350   -14.3730     2.2930 
  149.2500    70.1360     7.9190     6.2650     8.8250    23.7000   -14.3680     2.3000 
  149.3750    69.0080     7.7120     6.1430     7.5700    23.6640   -14.3230     2.2940 
  149.5000    71.6280     7.4220     5.9720     7.0670    23.7140   -14.3020     2.2770 
  149.6250    75.1970     7.2680     5.8360     7.2560    23.7440   -14.2670     2.2600 
  149.7500    75.6110     7.3200     5.7940     7.4290    23.7530   -14.1770     2.2500 
  149.8750    73.5520     7.5020     5.8690     7.5080    23.7270   -14.1100     2.2480 
  150.0000    74.2410     7.6870     6.0420     7.6640    23.7230   -14.0410     2.2500 
  150.1250    79.4900     7.8100     6.2850     7.9740    23.7370   -13.9220     2.2520 
  150.2500    83.8150     7.9640     6.5750     8.2350    23.7850   -13.8220     2.2530 
  150.3750    82.6880     8.2260     6.9080     8.2810    23.8520   -13.7300     2.2530 
  150.5000    78.6970     8.5650     7.2390     8.1160    23.8890   -13.6150     2.2540 
  150.6250    76.7050     8.7530     7.4240     8.6650    23.9810   -13.5390     2.2580 
  150.7500    74.4000     8.5900     7.3520    10.5680    24.0620   -13.5270     2.2630 
  150.8750    71.5410     8.0380     6.9750    11.6120    24.1020   -13.5150     2.2680 
  151.0000    70.7420     7.2600     6.3760     9.5670    24.1020   -13.5060     2.2710 
  151.1250    73.0890     6.5700     5.7490     6.2700    24.0520   -13.5900     2.2700 
