~V
VERS. 2.00: Ver 2.00
~W
STRT.M 50.0000:
STOP.M 201.0000:
STEP.M 0.1250:
NULL. -999.2500:
UWI. F11102:
~C
DEPT.M :
GR.API :
RML.OHMM :
RI. :
RXO.OHMM :
CALI.CM :
SP.MV :
DEN.GM/CC :
~A
# ...
   72.5000    52.6500    16.1520    13.4380    27.2160    26.6050   -15.6640     2.4310 
   72.6250    54.4000    16.2700    14.1200    34.1290    26.3920   -16.0690     2.4310 
   72.7500    55.4310    14.4550    13.0850    27.2530    25.8830   -16.4670     2.3820 
   72.8750    56.9940    11.8470    11.0960    14.9100    25.0390   -16.8710     2.3070 
   73.0000    58.3920     9.6160     9.1320     9.1150    24.2690   -17.2950     2.2370 
   73.1250    59.9280     8.3790     7.8070     8.0860    23.5360   -17.7200     2.1940 
   73.2500    60.7030     7.8680     7.0650     8.0410    23.1940   -18.1140     2.1730 
   73.3750    59.7420     7.8320     6.7750     8.1530    23.0530   -18.4710     2.1670 
   73.5000    56.9620     8.0330     6.7800     8.2890    22.9800   -18.7980     2.1670 
   73.6250    54.8130     8.2690     6.9310     8.5710    22.9280   -19.0870     2.1680 
   73.7500    55.5900     8.4190     7.0850     8.6620    22.9150   -19.3610     2.1680 
   73.8750    56.3590     8.4640     7.1900     8.5120    22.9160   -19.6160     2.1660 
   74.0000    55.3730     8.4290     7.2310     8.4070    22.9440   -19.8440     2.1630 
   74.1250    54.8400     8.3450     7.2100     8.7370    22.9020   -20.0700     2.1590 
   74.2500    55.6900     8.2500     7.1570     9.2000    22.9630   -20.3210     2.1520 
   74.3750    56.0060     8.1650     7.0910     9.6510    23.1750   -20.5900     2.1430 
   74.5000    54.6900     8.1030     7.0310     9.9690    23.4550   -20.8470     2.1340 
   74.6250    54.5300     8.0820     6.9960    10.0570    23.6560   -21.0780     2.1260 
   74.7500    55.9390     8.0990     6.9910     9.9700    23.8210   -21.2530     2.1190 
   74.8750    56.2100     8.1490     7.0160     9.7790    23.9540   -21.3700     2.1150 
   75.0000    55.0310     8.2130     7.0610     9.6480    23.9980   -21.4470     2.1130 
   75.1250    52.5090     8.2640     7.1090     9.6870    23.9970   -21.4360     2.1110 
   75.2500    50.3030     8.2850     7.1380     9.9020    23.9530   -21.3470     2.1120 
   75.3750    49.7830     8.2740     7.1390    10.0830    23.8300   -21.1700     2.1150 
   75.5000    51.1380     8.2400     7.1140    10.2660    23.6270   -20.9360     2.1230 
   75.6250    53.4290     8.1920     7.0680     9.9730    23.5430   -20.6340     2.1330 
   75.7500    56.2090     8.1470     7.0140     9.4890    23.4930   -20.3080     2.1430 
   75.8750    58.1590     8.1070     6.9570     9.0690    23.4100   -19.9730     2.1490 
   76.0000    58.1460     8.0650     6.8970     8.8190    23.3810   -19.6130     2.1520 
   76.1250    55.9940     8.0080     6.8340     8.7830    23.3900   -19.2580     2.1490 
   76.2500    54.7960     7.9360     6.7700     8.9140    23.4350   -18.9120     2.1430 
   76.3750    54.0570     7.8530     6.7100     9.2620    23.4790   -18.5620     2.1330 
   76.5000    52.4030     7.7660     6.6560     9.8580    23.5880   -18.1810     2.1210 
   76.6250    51.0460     7.6920     6.6180    10.1050    23.7380   -17.7550     2.1120 
   76.7500    51.5510     7.6510     6.6070     9.8630    23.7560   -17.2660     2.1090 
   76.8750    54.4100     7.6630     6.6380     9.5650    23.5910   -16.6800     2.1130 
   77.0000    58.3430     7.7340     6.7210     9.1750    23.4280   -16.0030     2.1240 
   77.1250    59.9740     7.8490     6.8540     9.1100    23.1020   -15.1860     2.1390 
   77.2500    60.3360     7.9370     6.9780     9.3330    22.9570   -14.2130     2.1540 
   77.3750    61.4430     7.9090     7.0190     9.3150    23.0250   -13.0890     2.1670 
   77.5000    62.9620     7.6910     6.9040     8.6890    23.3330   -11.8180     2.1810 
   77.6250    63.3240     7.2320     6.5670     7.9670    24.1670   -10.4070     2.1970 
   77.7500    65.5410     6.6410     6.0840     7.2670    25.4440    -8.9440     2.2160 
   77.8750    74.3670     6.0270     5.5420     6.3320    26.7530    -7.5460     2.2370 
   78.0000    87.1910     5.4910     5.0290     5.4580    27.4130    -6.2410     2.2580 
   78.1250    95.6700     5.1110     4.6250     4.9370    27.6790    -5.1130     2.2780 
   78.2500    97.0430     4.8700     4.3380     4.6650    27.7770    -4.2160     2.2920 
   78.3750    92.4860     4.7570     4.1690     4.5370    27.7970    -3.5940     2.3000 
   78.5000    86.2180     4.7740     4.1190     4.4950    27.7990    -3.2710     2.2980 
   78.6250    83.5300     4.9590     4.2200     4.5720    27.7920    -3.2760     2.2840 
   78.7500    85.3600     5.2950     4.4540     4.6650    27.7200    -3.5430     2.2640 
   78.8750    87.1330     5.7430     4.8010     4.8970    27.4160    -3.9940     2.2420 
   79.0000    83.3090     6.2160     5.2010     5.5110    26.3780    -4.5730     2.2200 
   79.1250    75.8020     6.5570     5.5390     6.4580    25.6010    -5.2280     2.2040 
   79.2500    70.6980     6.6900     5.7310     7.0640    25.6440    -5.8980     2.1940 
   79.3750    70.2180     6.6410     5.7680     6.5240    26.3360    -6.5550     2.1880 
   79.5000    74.2490     6.5230     5.7150     5.7880    27.0190    -7.1930     2.1840 
   79.6250    78.7980     6.5010     5.6970     5.6310    27.2550    -7.8390     2.1770 
   79.7500    79.5420     6.6460     5.7990     5.7920    26.6780    -8.4420     2.1670 
   79.8750    77.5040     6.9510     6.0470     6.5860    25.5190    -8.9670     2.1550 
   80.0000    77.7390     7.3660     6.4160     7.3640    24.9420    -9.4160     2.1420 
   80.1250    81.0080     7.8320     6.8600     7.5330    24.9920    -9.7580     2.1330 
   80.2500    81.1150     8.2800     7.3030     7.6410    24.8700    -9.9910     2.1300 
   80.3750    76.9500     8.6420     7.6810     7.9040    24.2450   -10.1000     2.1340 
   80.5000    71.8700     8.8250     7.9080     7.9950    24.0540   -10.0470     2.1460 
   80.6250    68.3360     8.6750     7.8360     7.7010    24.4020    -9.7360     2.1650 
   80.7500    68.2570     8.1940     7.4540     7.5140    24.9480    -9.2180     2.1860 
   80.8750    72.2840     7.4480     6.8110     7.0620    25.5050    -8.5570     2.2090 
   81.0000    79.0200     6.5900     6.0330     6.1640    26.1730    -7.8330     2.2330 
   81.1250    83.7800     5.8190     5.2900     5.3370    27.0630    -7.1480     2.2560 
   81.2500    86.9300     5.2690     4.7060     5.0860    27.4120    -6.5670     2.2760 
   81.3750    90.3790     5.0410     4.3660     5.0160    27.4650    -6.1380     2.2920 
   81.5000    91.6630     5.2290     4.3430     4.9040    27.4160    -5.9180     2.3040 
   81.6250    87.3350     5.9990     4.7730     4.9730    27.3590    -6.0160     2.3110 
   81.7500    81.2390     7.2750     5.6250     6.0690    27.2300    -6.4070     2.3120 
   81.8750    76.8070     8.9110     6.8490     9.2150    27.0890    -7.0550     2.3040 
   82.0000    74.1830    10.5210     8.2280    16.5100    26.9890    -7.9040     2.2850 
   82.1250    72.2010    11.3330     9.2080    20.4090    26.4690    -8.9100     2.2500 
   82.2500    72.3890    11.0830     9.4120    16.5930    25.5580    -9.9680     2.2100 
   82.3750    73.7420    10.0720     8.9060    11.1100    24.8130   -11.0120     2.1720 
   82.5000    74.1520     8.9160     8.0920     8.3010    23.9050   -11.9830     2.1440 
   82.6250    72.8080     8.1490     7.4130     7.6060    23.3090   -12.8040     2.1310 
   82.7500    72.1540     7.8030     7.0160     7.5810    23.1220   -13.4700     2.1280 
   82.8750    72.4480     7.7620     6.8740     7.7180    23.2150   -13.9980     2.1300 
   83.0000    71.3280     7.8780     6.8970     7.8670    23.5040   -14.3770     2.1320 
   83.1250    67.5300     8.0370     6.9980     7.8700    24.1170   -14.5820     2.1330 
   83.2500    63.5710     8.1700     7.1050     7.8760    24.8440   -14.6800     2.1330 
   83.3750    61.6030     8.2600     7.1940     8.0020    25.4790   -14.7000     2.1330 
   83.5000    62.5240     8.2940     7.2480     8.2580    25.8310   -14.6720     2.1340 
   83.6250    65.1800     8.2440     7.2400     8.2290    25.8810   -14.5960     2.1360 
