~V
VERS. 2.00: Ver 2.00
~W
STRT.M 60.0000:
STOP.M 281.0000:
STEP.M 0.1250:
NULL. -999.2500:
UWI. F11154:
~C
DEPT.M :
DEN.GM/CC :
GR.API :
RML.OHMM :
RI. :
RXO.OHMM :
CALI.CM :
SP.MV :
~A
# ...
  228.7500     2.5310    55.1880    49.5560    49.9820    87.6180    24.0560   -15.8150 
  228.8750     2.4640    55.8600    34.2430    34.6900    61.1320    24.1080   -15.5600 
  229.0000     2.3930    53.2840    22.0520    22.2580    28.3400    24.2680   -15.2750 
  229.1250     2.3550    48.5450    14.5540    14.6520    12.4730    24.6750   -14.9880 
  229.2500     2.3470    45.9990    10.1700    10.2300     7.5230    25.2760   -14.7810 
  229.3750     2.3410    45.9270     7.8420     7.8290     6.2660    25.9270   -14.6920 
  229.5000     2.3290    46.0770     6.7700     6.6460     5.8840    26.3550   -14.7200 
  229.6250     2.3290    46.6460     6.5160     6.3100     5.6670    26.2290   -14.8420 
  229.7500     2.3560    50.3940     6.6580     6.4400     5.7220    25.7370   -15.0070 
  229.8750     2.4040    57.1410     7.0600     6.8910     6.1380    25.2900   -15.1940 
  230.0000     2.4470    63.9200     7.7000     7.5520     6.9600    25.0090   -15.3970 
  230.1250     2.4490    67.3480     8.4690     8.3170     7.9630    24.8210   -15.6380 
  230.2500     2.4300    69.1730     9.2780     9.0460     8.8030    24.6690   -15.8920 
  230.3750     2.4210    70.9880    10.0790     9.6330     9.1470    24.5910   -16.1270 
  230.5000     2.4250    73.9820    10.5190    10.0080     9.2270    24.5590   -16.3740 
  230.6250     2.4310    78.5210    10.6560    10.1200     9.3010    24.6170   -16.6480 
  230.7500     2.4430    84.2210    10.6200    10.0570     9.3090    24.7000   -16.9200 
  230.8750     2.4590    91.2690    10.4670     9.8930     9.1770    24.7450   -17.2010 
  231.0000     2.4670    99.8120    10.3180     9.6850     8.9860    24.7430   -17.4720 
  231.1250     2.4510   109.6190    10.1220     9.4600     9.0050    24.7270   -17.6750 
  231.2500     2.4280   116.8510     9.9010     9.2250     8.9930    24.7090   -17.8230 
  231.3750     2.4110   118.7270     9.7250     8.9770     8.9540    24.6700   -17.9530 
  231.5000     2.3980   115.1400     9.5640     8.7270     8.9740    24.6590   -18.0710 
  231.6250     2.3860   109.4410     9.5890     8.5230     8.9920    24.6910   -18.1850 
  231.7500     2.3790   104.9310     9.7250     8.4390     9.1160    24.7330   -18.2900 
  231.8750     2.3790   100.9300    10.1190     8.5790     9.4210    24.7550   -18.3730 
  232.0000     2.3830    96.2490    10.9750     9.0830    10.0290    24.7470   -18.4610 
  232.1250     2.3800    91.0540    12.6920    10.2410    11.6950    24.6520   -18.5850 
  232.2500     2.3670    86.3580    15.3910    12.1710    15.0600    24.5550   -18.7690 
  232.3750     2.3520    81.6920    19.1790    15.0290    20.3730    24.4410   -19.0180 
  232.5000     2.3430    76.6260    23.9750    18.8540    27.6650    24.3760   -19.3280 
  232.6250     2.3480    72.7500    29.4510    23.5320    36.0050    24.3310   -19.7350 
  232.7500     2.3610    69.7410    34.7970    28.3740    41.9080    24.3370   -20.1850 
  232.8750     2.3720    67.0280    39.3140    32.7070    45.0560    24.3330   -20.6170 
  233.0000     2.3690    64.4340    42.4650    35.9360    47.7670    24.3420   -20.9880 
  233.1250     2.3570    62.3490    43.8060    37.5180    48.6450    24.2910   -21.2400 
  233.2500     2.3430    61.1340    43.8440    37.8280    47.7140    24.2950   -21.3510 
  233.3750     2.3270    61.0510    43.0230    37.2390    46.1280    24.3320   -21.3300 
  233.5000     2.3140    62.6170    41.8300    36.1940    43.3310    24.3670   -21.2260 
  233.6250     2.3070    65.3860    40.8400    35.1950    40.2250    24.3710   -21.0540 
  233.7500     2.3020    67.1130    40.4750    34.6600    37.9270    24.3880   -20.8870 
  233.8750     2.2940    67.3350    40.9180    34.7990    37.5560    24.4180   -20.7940 
  234.0000     2.2840    66.7730    42.0910    35.6170    39.0840    24.4490   -20.7800 
  234.1250     2.2780    65.6090    43.6750    36.9310    41.5800    24.4600   -20.8660 
  234.2500     2.2750    63.7640    45.0800    38.2480    43.6960    24.4510   -20.9940 
  234.3750     2.2720    62.5270    45.9050    39.1960    44.9280    24.4360   -21.1410 
  234.5000     2.2660    64.0000    45.9800    39.5640    45.2020    24.4060   -21.2930 
  234.6250     2.2610    68.2440    45.4270    39.3530    43.7340    24.3580   -21.4490 
  234.7500     2.2590    71.1120    44.8320    39.0040    41.4190    24.3240   -21.5530 
  234.8750     2.2610    70.8940    44.6150    38.8720    40.1740    24.2970   -21.5600 
  235.0000     2.2650    68.5250    44.9800    39.1660    40.9260    24.2910   -21.4700 
  235.1250     2.2700    65.9640    45.8970    39.9220    43.0530    24.3040   -21.2840 
  235.2500     2.2720    65.0360    46.9180    40.8210    45.3880    24.3320   -21.0890 
  235.3750     2.2690    65.6610    47.6400    41.5390    46.7580    24.3790   -20.8890 
  235.5000     2.2640    66.2330    47.7360    41.7870    46.5600    24.4350   -20.6710 
  235.6250     2.2620    64.5670    46.9630    41.3060    45.0320    24.4720   -20.4010 
  235.7500     2.2680    62.1890    45.5810    40.2580    43.1470    24.5200   -20.1270 
  235.8750     2.2740    61.0500    43.8400    38.8290    40.8410    24.5690   -19.8820 
  236.0000     2.2770    61.4840    42.0140    37.2500    38.4470    24.5740   -19.6880 
  236.1250     2.2760    63.3480    40.4000    35.7890    36.6730    24.6160   -19.5000 
  236.2500     2.2740    66.5600    39.1760    34.6310    35.5470    24.6620   -19.2390 
  236.3750     2.2710    68.7390    38.4830    33.9160    34.8350    24.6750   -18.9280 
  236.5000     2.2640    67.9400    38.4100    33.7360    34.4890    24.6410   -18.6200 
  236.6250     2.2560    66.8660    39.0550    34.2020    35.0940    24.6230   -18.3540 
  236.7500     2.2520    68.2640    40.1740    35.1270    36.4520    24.6360   -18.0980 
  236.8750     2.2520    70.7990    41.5270    36.3240    38.4590    24.6720   -17.8600 
  237.0000     2.2550    71.4770    42.7830    37.5270    40.7020    24.7030   -17.6310 
  237.1250     2.2610    69.9120    43.4560    38.3340    41.7700    24.6740   -17.4530 
  237.2500     2.2680    68.0760    43.3600    38.5380    41.8620    24.6010   -17.3350 
  237.3750     2.2760    65.9770    42.4700    38.0650    41.4650    24.5090   -17.2180 
  237.5000     2.2910    64.0060    40.9380    36.9810    40.2160    24.4050   -16.9900 
  237.6250     2.3210    63.7160    39.0090    35.4300    37.3750    24.2600   -16.5980 
  237.7500     2.3550    65.9920    37.0560    33.7470    34.6030    24.1020   -16.1510 
  237.8750     2.3690    69.7460    35.2890    32.1480    32.6760    23.9360   -15.6760 
  238.0000     2.3470    72.8360    33.8310    30.7830    31.2570    23.8380   -15.2080 
  238.1250     2.3060    72.1750    32.7970    29.7950    29.8610    23.8700   -14.7490 
  238.2500     2.2810    67.8800    32.0940    29.1260    29.4110    23.9800   -14.2860 
  238.3750     2.2750    63.3270    31.6250    28.7090    29.6180    24.1170   -13.8470 
  238.5000     2.2770    61.2610    31.2960    28.4540    29.6310    24.2490   -13.4750 
  238.6250     2.2750    61.3340    31.0790    28.3200    29.0590    24.3380   -13.1620 
  238.7500     2.2750    61.5920    31.0210    28.3030    28.4930    24.3810   -12.8580 
  238.8750     2.2820    61.7870    31.2640    28.4990    28.2160    24.3940   -12.5730 
  239.0000     2.2970    60.8970    31.9950    29.0550    28.4090    24.3870   -12.2910 
  239.1250     2.3220    59.0660    33.4520    30.1850    29.0250    24.3850   -12.0200 
  239.2500     2.3530    59.1610    35.4610    31.7870    30.4440    24.3090   -11.7780 
  239.3750     2.3800    61.7860    37.7210    33.6490    33.1760    24.0720   -11.5540 
  239.5000     2.3910    65.2890    39.7360    35.3880    37.1390    23.5930   -11.3320 
  239.6250     2.3720    66.8220    40.7100    36.3520    40.7630    23.2140   -11.1800 
  239.7500     2.3320    64.7360    40.3820    36.2590    41.1950    23.1510   -11.1000 
  239.8750     2.2900    59.9530    38.8450    35.1140    38.4950    23.4010   -11.0620 
