~V
VERS. 2.00: Ver 2.00
~W
STRT.M 59.0000:
STOP.M 247.0000:
STEP.M 0.1250:
NULL. -999.2500:
UWI. F11130:
~C
DEPT.M :
DEN.GM/CC :
SP.MV :
GR.API :
RML.OHMM :
RI. :
RXO.OHMM :
CALI.CM :
~A
# ...
  160.2500     2.2730    -9.0310    71.2620    27.2440    25.8880    37.9590    26.5090 
  160.3750     2.3010    -9.1670    69.8280    25.4510    24.2390    36.9780    26.2640 
  160.5000     2.3290    -9.1640    68.6720    23.4390    22.2200    27.9200    25.9910 
  160.6250     2.3400    -9.1010    69.5990    22.0080    20.6390    19.6310    26.0040 
  160.7500     2.3290    -8.9990    70.5430    21.4900    19.8680    18.4870    26.1690 
  160.8750     2.3010    -8.9070    69.3690    21.9580    20.0310    24.6350    26.1940 
  161.0000     2.2750    -8.7070    67.3710    23.2960    21.0870    30.1410    26.0990 
  161.1250     2.2720    -8.4580    67.9010    25.2560    22.9320    27.7670    26.0170 
  161.2500     2.2960    -8.2250    71.2800    27.2000    25.0260    26.1430    25.9830 
  161.3750     2.3300    -7.9730    72.2680    28.4980    26.7880    28.8430    25.9360 
  161.5000     2.3510    -7.7300    68.3150    28.5480    27.4950    41.3020    25.9390 
  161.6250     2.3380    -7.4380    66.3820    26.8420    26.2590    39.3350    26.0740 
  161.7500     2.3040    -7.1590    69.7450    24.0840    23.5840    28.8160    26.1830 
  161.8750     2.2710    -6.8710    72.3460    21.1900    20.4310    19.3830    26.0740 
  162.0000     2.2540    -6.6640    70.0790    19.1540    17.8430    13.6770    25.6810 
  162.1250     2.2550    -6.4370    68.1740    19.0140    16.7850    10.9640    25.3650 
  162.2500     2.2580    -6.2420    68.8420    20.7520    17.3910    12.5040    25.3460 
  162.3750     2.2510    -6.0760    67.9970    24.1800    19.7880    19.3410    25.5220 
  162.5000     2.2350    -5.9600    63.1600    28.7300    23.8750    29.5780    25.7000 
  162.6250     2.2180    -5.9000    58.4590    33.1510    29.0000    36.7150    25.7190 
  162.7500     2.2100    -5.8430    58.9620    35.8850    33.2440    35.7980    25.6280 
  162.8750     2.2190    -5.8190    63.1280    35.9220    34.8030    30.9780    25.4870 
  163.0000     2.2480    -5.7320    65.4750    33.1810    32.9350    25.0960    25.3780 
  163.1250     2.3010    -5.7020    63.6050    28.4050    28.3030    21.9260    25.2330 
  163.2500     2.3570    -5.5890    62.8160    23.2580    23.0450    20.5590    25.0370 
  163.3750     2.3960    -5.4240    65.3780    18.5970    18.2450    19.3420    24.8540 
  163.5000     2.4050    -5.2310    70.7740    14.8380    14.4140    16.4210    24.7400 
  163.6250     2.3800    -5.0640    76.3480    12.2270    11.7920    12.3860    24.6740 
  163.7500     2.3450    -4.9710    79.4610    10.4770    10.0300    10.0490    24.6200 
  163.8750     2.3180    -4.8920    80.3190     9.3950     8.9140     9.0300    24.5670 
  164.0000     2.3070    -4.9460    83.0120     8.7720     8.2430     8.5110    24.5340 
  164.1250     2.3090    -5.0440    87.9790     8.4460     7.8640     7.7940    24.5150 
  164.2500     2.3140    -5.2220    89.7320     8.2390     7.6030     7.1280    24.4810 
  164.3750     2.3170    -5.4760    88.8680     8.1080     7.4200     6.6460    24.4150 
  164.5000     2.3160    -5.7770    89.5320     8.0680     7.3270     6.1100    24.3310 
  164.6250     2.3140    -6.0430    92.3690     8.1950     7.3910     5.1780    24.2790 
  164.7500     2.3110    -6.1970    90.9940     8.5030     7.6180     4.6220    24.2430 
  164.8750     2.3080    -6.2740    85.8450     8.9640     7.9860     4.6810    24.2240 
  165.0000     2.3040    -6.2350    82.4600     9.4760     8.4150     5.0210    24.2130 
  165.1250     2.3000    -6.1620    81.7460     9.8370     8.7540     5.9850    24.2500 
  165.2500     2.2980    -6.0100    80.9420     9.8960     8.8810     7.0790    24.4280 
  165.3750     2.2980    -5.8050    79.7790     9.5800     8.7140     8.3460    24.6970 
  165.5000     2.3010    -5.5240    80.6530     8.9270     8.2500     9.8620    24.9320 
  165.6250     2.3090    -5.2320    83.5970     8.0860     7.5470     9.8720    25.0080 
  165.7500     2.3180    -4.9250    87.2150     7.3180     6.8040     8.9640    25.0130 
  165.8750     2.3290    -4.6840    90.5810     6.8010     6.1830     7.7240    25.0000 
  166.0000     2.3370    -4.5410    92.3400     6.6500     5.8210     7.1620    24.9830 
  166.1250     2.3380    -4.4230    91.5010     6.9880     5.8700     7.0270    24.9780 
  166.2500     2.3310    -4.3540    88.7800     7.7300     6.2970     7.9060    24.9900 
  166.3750     2.3170    -4.3030    85.7690     8.7940     7.0610     9.0030    25.0120 
  166.5000     2.3010    -4.3760    85.8550    10.0230     8.0590     9.8390    25.0410 
  166.6250     2.2870    -4.4670    89.5120    11.1760     9.1280     9.8450    25.0800 
  166.7500     2.2780    -4.6240    91.2470    12.0810    10.0960     9.9590    25.1480 
  166.8750     2.2760    -4.8000    88.4250    12.6850    10.8680    11.0360    25.1980 
  167.0000     2.2800    -4.9350    84.5230    13.0260    11.4040    11.8740    25.2150 
  167.1250     2.2870    -5.0750    83.4330    13.1390    11.6640    11.7810    25.2780 
  167.2500     2.2920    -5.2270    84.5080    13.0960    11.7080    11.2780    25.3290 
  167.3750     2.2950    -5.4510    86.6220    12.9070    11.5630    10.5000    25.3460 
  167.5000     2.2960    -5.6270    87.9190    12.5890    11.2720     9.3170    25.3340 
  167.6250     2.2940    -5.8150    87.6810    12.1680    10.8810     9.1380    25.3340 
  167.7500     2.2930    -5.9540    86.9990    11.7070    10.4620     8.3480    25.3390 
  167.8750     2.2900    -6.0800    85.2830    11.2550    10.0610     7.9380    25.3590 
  168.0000     2.2870    -6.1550    82.0300    10.8640     9.7290     7.3330    25.4010 
  168.1250     2.2850    -6.0990    80.5940    10.5860     9.5130     6.7750    25.4310 
  168.2500     2.2830    -5.9330    83.7770    10.3980     9.3850     5.7940    25.4170 
  168.3750     2.2820    -5.6040    87.6410    10.2490     9.3090     5.4220    25.3980 
  168.5000     2.2800    -5.1960    87.2810    10.0740     9.2440     5.4450    25.4320 
  168.6250     2.2790    -4.7400    83.0510     9.8230     9.1470     5.3280    25.4820 
  168.7500     2.2800    -4.3560    81.2790     9.5470     9.0210     5.1450    25.4960 
  168.8750     2.2830    -3.9720    82.9270     9.3360     8.9180     5.2690    25.4690 
  169.0000     2.2880    -3.6730    84.0920     9.2870     8.9230     6.0400    25.4310 
  169.1250     2.2920    -3.5010    83.5050     9.4480     9.1280     7.7680    25.3990 
  169.2500     2.2950    -3.4860    84.2270     9.6780     9.4640     8.9750    25.4480 
  169.3750     2.2980    -3.5670    86.9440     9.8030     9.7720    10.1020    25.5730 
  169.5000     2.3010    -3.6420    89.8160     9.6610     9.8330    11.2890    25.6830 
  169.6250     2.3080    -3.7530    91.9360     9.1550     9.4460    11.7700    25.7280 
  169.7500     2.3180    -3.8360    93.1200     8.4550     8.7650    11.2000    25.7500 
  169.8750     2.3300    -3.9660    91.8160     7.7340     7.9870    10.4340    25.7600 
  170.0000     2.3450    -4.0740    89.8550     7.1520     7.2800    10.9580    25.7950 
  170.1250     2.3590    -4.2420    89.3990     6.9150     6.7980    11.8280    25.8530 
  170.2500     2.3720    -4.4170    88.7780     7.1870     6.6220    11.6150    25.9490 
  170.3750     2.3820    -4.6540    85.4580     8.2960     6.9050    10.1550    26.0640 
  170.5000     2.3860    -5.0650    79.6700    10.7540     7.9080     8.6250    26.1810 
  170.6250     2.3770    -5.6010    74.4370    15.8260    10.5610     8.9280    26.3040 
  170.7500     2.3570    -6.2420    71.2070    24.4660    16.1550    15.1560    26.4160 
  170.8750     2.3280    -6.9070    68.5010    38.3820    26.9800    27.5750    26.4970 
  171.0000     2.2940    -7.6610    63.9080    59.5010    45.8680    34.3140    26.5970 
  171.1250     2.2650    -8.4140    59.4190    88.9380    75.5910    34.0020    26.7330 
  171.2500     2.2440    -9.2010    58.4650   120.0490   108.7480    30.7850    26.8730 
  171.3750     2.2330    -9.9640    60.7290   145.0080   134.5990    26.1110    26.9960 
