~V
VERS. 2.00: Ver 2.00
~W
STRT.M 45.0000:
STOP.M 270.0000:
STEP.M 0.1250:
NULL. -999.2500:
UWI. F11186:
~C
DEPT.M :
SP.MV :
GR.API :
RI. :
RML.OHMM :
RXO.OHMM :
DEN.GM/CC :
~A
# ...
  160.8750   -18.7670    58.8640     9.8700    10.7510    14.9110     2.4060 
  161.0000   -18.6100    60.9810     9.2950    10.1020    14.1940     2.4100 
  161.1250   -18.4570    62.5960     8.7070     9.4740    13.3510     2.4290 
  161.2500   -18.3130    64.0350     8.2500     9.0520    12.5030     2.4490 
  161.3750   -18.1830    64.3940     8.0130     8.8740    12.1950     2.4610 
  161.5000   -18.0700    64.5570     7.8810     8.7830    11.7080     2.4570 
  161.6250   -17.9850    65.6530     7.7540     8.6700    11.1620     2.4480 
  161.7500   -17.9350    66.6700     7.5820     8.5010    11.4150     2.4410 
  161.8750   -17.9240    65.6910     7.3660     8.2940    11.9630     2.4400 
  162.0000   -17.9360    62.6710     7.1140     8.0570    11.4230     2.4450 
  162.1250   -17.9500    58.4220     6.9030     7.8400     9.7520     2.4460 
  162.2500   -17.9480    54.9940     6.7110     7.6450     8.9310     2.4310 
  162.3750   -17.9190    53.3200     6.5670     7.5110     9.5820     2.4110 
  162.5000   -17.8660    53.3930     6.4780     7.4650    10.3350     2.4090 
  162.6250   -17.7920    53.3240     6.4240     7.4660     9.9160     2.4300 
  162.7500   -17.7080    52.3170     6.3880     7.4750     8.8020     2.4510 
  162.8750   -17.6310    50.5620     6.3760     7.4830     8.5440     2.4590 
  163.0000   -17.5740    50.0620     6.4380     7.5650     9.5630     2.4540 
  163.1250   -17.5440    52.7290     6.6320     7.8280    11.4210     2.4460 
  163.2500   -17.5370    57.5440     6.9020     8.1770    12.8980     2.4460 
  163.3750   -17.5450    61.3020     7.0740     8.4020    13.5650     2.4500 
  163.5000   -17.5560    62.9100     7.0160     8.3060    13.3730     2.4500 
  163.6250   -17.5670    63.4530     6.7150     7.8880    11.6850     2.4340 
  163.7500   -17.5710    63.9000     6.3110     7.3250     9.6780     2.4130 
  163.8750   -17.5640    62.7510     6.0290     6.9590     8.6360     2.4030 
  164.0000   -17.5410    60.7330     5.9180     6.8430     8.6650     2.4080 
  164.1250   -17.5000    61.6350     5.8480     6.7880     9.9200     2.4260 
  164.2500   -17.4460    65.2300     5.7010     6.6280    10.5530     2.4440 
  164.3750   -17.3870    68.6310     5.3360     6.1830     8.5410     2.4360 
  164.5000   -17.3300    69.9720     4.7730     5.4770     6.2110     2.3960 
  164.6250   -17.2830    73.3020     4.1310     4.7040     5.3910     2.3460 
  164.7500   -17.2460    78.3970     3.5660     4.0540     4.9030     2.3050 
  164.8750   -17.2190    82.1640     3.1660     3.6030     4.3960     2.2760 
  165.0000   -17.1960    83.4450     2.9180     3.3480     4.2500     2.2610 
  165.1250   -17.1770    85.2000     2.7870     3.2080     4.4430     2.2730 
  165.2500   -17.1760    89.3430     2.7160     3.1380     4.5280     2.3050 
  165.3750   -17.2190    94.4770     2.7400     3.1770     4.4300     2.3310 
  165.5000   -17.3280    98.3940     2.8830     3.3440     4.6830     2.3300 
  165.6250   -17.5200    98.1350     3.1480     3.6590     5.3390     2.3010 
  165.7500   -17.7820    95.8230     3.5380     4.1160     6.3540     2.2700 
  165.8750   -18.0910    95.9480     4.0470     4.6980     7.7530     2.2590 
  166.0000   -18.4090    97.2240     4.5730     5.2690     8.8090     2.2620 
  166.1250   -18.7050    95.6960     5.0250     5.7290     9.3610     2.2710 
  166.2500   -18.9630    92.6810     5.4420     6.1630     9.7370     2.2750 
  166.3750   -19.1800    90.9330     6.0040     6.8360     9.9350     2.2660 
  166.5000   -19.3620    88.3210     6.6440     7.5980    12.4400     2.2470 
  166.6250   -19.5040    84.1670     7.2860     8.3880    17.6200     2.2350 
  166.7500   -19.6100    82.2730     7.8200     8.9960    19.5970     2.2400 
  166.8750   -19.6750    84.8840     7.8680     8.9680    16.7410     2.2630 
  167.0000   -19.7090    87.9740     7.8710     8.9430    13.9870     2.2850 
  167.1250   -19.7200    87.2010     8.0110     9.1250    12.6490     2.2880 
  167.2500   -19.7210    83.5390     8.3280     9.5700    13.7010     2.2660 
  167.3750   -19.7200    81.0710     8.6940    10.0320    22.2500     2.2410 
  167.5000   -19.7260    80.9710     9.2010    10.5990    28.9470     2.2400 
  167.6250   -19.7470    80.9820     9.6970    10.9400    22.8370     2.2560 
  167.7500   -19.7900    79.5450    10.0350    11.1190    16.6210     2.2590 
  167.8750   -19.8650    79.9260    10.5610    11.5800    19.6010     2.2430 
  168.0000   -19.9700    83.8790    11.3810    12.5020    23.9180     2.2280 
  168.1250   -20.1020    87.4630    13.2500    14.6500    24.7370     2.2180 
  168.2500   -20.2450    86.9700    15.1030    16.6260    24.7360     2.2100 
  168.3750   -20.3870    82.9520    16.4420    17.9040    26.7250     2.2060 
  168.5000   -20.5210    80.8430    16.7300    17.8750    27.5950     2.2110 
  168.6250   -20.6440    79.0160    16.4700    17.3430    23.9360     2.2140 
  168.7500   -20.7600    76.2010    16.5980    17.3200    21.5210     2.2150 
  168.8750   -20.8750    75.6330    17.1890    17.9300    22.7470     2.2190 
  169.0000   -20.9900    76.8290    18.9820    19.9460    24.4460     2.2180 
  169.1250   -21.1070    75.7400    21.7470    23.0170    27.3270     2.2020 
  169.2500   -21.2250    73.8940    24.7950    26.2730    30.6600     2.1830 
  169.3750   -21.3450    76.3270    26.6710    28.0340    32.1880     2.1760 
  169.5000   -21.4730    80.6780    26.5040    27.5850    31.0780     2.1830 
  169.6250   -21.6210    79.8030    24.6990    25.3620    27.9400     2.1970 
  169.7500   -21.7990    75.7130    22.3350    22.7360    25.4600     2.2090 
  169.8750   -22.0190    75.1060    20.6730    20.9860    24.7350     2.2160 
  170.0000   -22.2790    80.1620    20.2980    20.6950    24.3410     2.2170 
  170.1250   -22.5760    86.2480    21.6810    22.3150    34.1230     2.2100 
  170.2500   -22.8930    87.8610    24.8950    25.9140    47.0300     2.1940 
  170.3750   -23.2120    85.1080    29.7060    31.2590    51.1010     2.1800 
  170.5000   -23.5110    79.6390    35.7040    37.8300    54.0600     2.1760 
  170.6250   -23.7660    74.6940    41.7950    44.3660    56.6030     2.1760 
  170.7500   -23.9660    70.9290    46.6740    49.4100    59.9030     2.1740 
  170.8750   -24.0980    67.8200    49.6770    52.3470    63.1220     2.1690 
  171.0000   -24.1690    66.0400    51.1340    53.6620    63.7850     2.1650 
  171.1250   -24.1840    66.8480    52.1590    54.6330    63.1280     2.1610 
  171.2500   -24.1580    69.6420    53.3360    55.8400    63.4540     2.1580 
  171.3750   -24.1030    70.4040    54.7340    57.2680    64.5830     2.1500 
  171.5000   -24.0320    68.2860    55.9390    58.4280    66.1200     2.1440 
  171.6250   -23.9530    66.9750    56.3090    58.5820    65.2880     2.1470 
  171.7500   -23.8680    68.5580    55.7540    57.6800    62.7950     2.1570 
  171.8750   -23.7740    71.5790    54.3830    55.8990    61.3530     2.1620 
  172.0000   -23.6680    72.8990    52.5250    53.6270    59.9410     2.1560 
  172.1250   -23.5420    73.6950    50.4640    51.2080    59.4750     2.1470 
  172.2500   -23.3990    74.9860    48.1460    48.5490    59.8380     2.1460 
  172.3750   -23.2430    74.3470    45.5860    45.6870    57.3690     2.1540 
  172.5000   -23.0820    72.4770    43.0050    42.8490    52.9570     2.1670 
  172.6250   -22.9210    73.2720    40.8580    40.5310    51.6320     2.1750 
  172.7500   -22.7630    76.7680    39.6680    39.2430    51.6630     2.1740 
  172.8750   -22.6080    78.6240    39.6340    39.1890    49.6600     2.1670 
  173.0000   -22.4570    75.8030    40.6040    40.1600    49.4320     2.1640 
  173.1250   -22.3110    72.1690    42.0240    41.5760    51.4610     2.1670 
  173.2500   -22.1720    69.6200    43.1920    42.6720    51.7460     2.1700 
  173.3750   -22.0460    68.4940    43.4500    42.8020    51.2580     2.1720 
  173.5000   -21.9430    69.2230    43.0080    42.2620    51.2440     2.1740 
  173.6250   -21.8750    72.5530    42.1470    41.3380    49.6490     2.1760 
