~V
VERS. 2.00: Ver 2.00
~W
STRT.M 50.0000:
STOP.M 206.0000:
STEP.M 0.1250:
NULL. -999.2500:
UWI. F11107:
~C
DEPT.M :
DEN.GM/CC :
GR.API :
RML.OHMM :
RI. :
RXO.OHMM :
CALI.CM :
SP.MV :
~A
# ...
  140.0000     2.2870    73.4710    24.0740    19.9380    22.3530    26.6200   -12.5080 
  140.1250     2.2730    71.3120    28.2340    23.5660    27.2080    26.5630   -12.5360 
  140.2500     2.2550    70.3770    32.0690    27.3500    33.6450    26.5710   -12.5880 
  140.3750     2.2370    70.4700    34.4330    30.1920    39.2120    26.6030   -12.6300 
  140.5000     2.2240    72.2400    34.4460    31.0490    41.0970    26.6190   -12.6550 
  140.6250     2.2160    73.9310    31.8420    29.3190    41.2010    26.5830   -12.6930 
  140.7500     2.2140    73.0720    28.2410    26.3230    37.9630    26.6120   -12.7190 
  140.8750     2.2160    71.1110    25.0560    23.3310    29.0360    26.6880   -12.6940 
  141.0000     2.2220    71.1170    23.2960    21.3270    20.2730    26.7260   -12.6300 
  141.1250     2.2290    73.4010    23.5610    21.0150    19.7170    26.7320   -12.5530 
  141.2500     2.2350    74.3820    25.0920    22.0240    24.3960    26.6500   -12.4200 
  141.3750     2.2360    73.7430    26.9340    23.7250    30.2330    26.5720   -12.2920 
  141.5000     2.2340    73.4570    27.8980    25.0840    33.2550    26.5280   -12.2700 
  141.6250     2.2310    73.1360    26.7260    24.7300    35.6240    26.4940   -12.3040 
  141.7500     2.2340    71.7640    23.8360    22.6500    33.8770    26.4350   -12.3190 
  141.8750     2.2440    71.2100    20.2210    19.5850    26.5620    26.3790   -12.3710 
  142.0000     2.2580    73.6870    17.0370    16.6060    16.1390    26.3270   -12.4780 
  142.1250     2.2690    75.9100    15.2290    14.6760    11.9080    26.3320   -12.5490 
  142.2500     2.2720    74.6120    14.6170    13.8120    11.1900    26.3530   -12.6240 
  142.3750     2.2690    72.2420    14.8050    13.7740    12.3930    26.3980   -12.7540 
  142.5000     2.2640    71.0720    15.2750    14.1630    15.2350    26.4700   -12.8560 
  142.6250     2.2670    72.6150    15.4760    14.4650    19.2160    26.5000   -12.8420 
  142.7500     2.2780    75.4010    15.2390    14.3800    19.8250    26.4230   -12.7650 
  142.8750     2.2920    76.8070    14.7380    13.9630    16.5770    26.3450   -12.6730 
  143.0000     2.3010    75.9020    14.3510    13.5130    12.4770    26.2900   -12.5940 
  143.1250     2.2970    74.8720    14.5490    13.4800    10.9710    26.2660   -12.5190 
  143.2500     2.2840    74.6680    15.3780    14.0160    12.6810    26.2700   -12.4630 
  143.3750     2.2680    75.2070    16.6790    15.0770    17.0130    26.3240   -12.4290 
  143.5000     2.2550    76.1450    18.1220    16.4270    23.1860    26.4940   -12.3860 
  143.6250     2.2520    76.8800    19.2350    17.6430    26.2420    26.6050   -12.3270 
  143.7500     2.2550    75.1140    19.7930    18.3960    23.2680    26.6980   -12.2890 
  143.8750     2.2620    72.6850    19.7790    18.5730    19.1760    26.7720   -12.2960 
  144.0000     2.2700    74.2220    19.3320    18.2490    18.4100    26.7820   -12.2950 
  144.1250     2.2760    77.9310    18.6410    17.5770    18.0380    26.7550   -12.2870 
  144.2500     2.2770    78.2860    17.9510    16.8170    17.5100    26.7960   -12.2950 
  144.3750     2.2750    75.2760    17.4500    16.1480    17.1780    26.9320   -12.2380 
  144.5000     2.2730    73.5450    17.3690    15.7590    15.2870    27.0240   -12.1600 
  144.6250     2.2710    75.6780    18.1090    15.9800    14.7820    27.0410   -12.2080 
  144.7500     2.2690    79.0490    19.7670    16.9560    15.8910    26.9960   -12.3560 
  144.8750     2.2650    80.4460    22.3500    18.8090    18.4530    26.8950   -12.4630 
  145.0000     2.2580    77.2710    25.6060    21.4850    22.0490    26.7700   -12.5510 
  145.1250     2.2490    70.7160    28.8600    24.5990    28.1620    26.6530   -12.6990 
  145.2500     2.2420    66.5910    31.2050    27.2590    36.4890    26.5960   -12.8100 
  145.3750     2.2380    66.0650    31.9940    28.7060    40.8250    26.5530   -12.8990 
  145.5000     2.2390    65.7340    31.0510    28.5520    39.9090    26.5060   -12.9970 
  145.6250     2.2430    65.0960    28.6540    26.8370    35.2990    26.4980   -13.0620 
  145.7500     2.2480    68.0040    25.8500    24.5080    28.7510    26.5140   -13.0670 
  145.8750     2.2510    74.0650    23.2880    22.2010    23.6390    26.5270   -13.0480 
  146.0000     2.2520    77.1220    21.3480    20.3310    19.7410    26.5090   -13.0390 
  146.1250     2.2520    75.4280    20.2950    19.1940    17.4500    26.4070   -13.0130 
  146.2500     2.2540    75.6110    19.9650    18.7270    15.9200    26.3220   -12.9900 
  146.3750     2.2580    79.1530    20.2360    18.8910    15.8320    26.2840   -13.0180 
  146.5000     2.2640    81.2640    20.8940    19.5610    16.8220    26.2650   -13.0700 
  146.6250     2.2670    77.7640    21.5570    20.4560    16.9270    26.2810   -13.0820 
  146.7500     2.2650    74.4300    21.7810    21.0720    17.8930    26.2540   -13.0510 
  146.8750     2.2580    75.0790    21.2850    21.0130    19.3070    26.1720   -13.0390 
  147.0000     2.2520    78.8850    20.0560    20.1270    19.7950    25.9740   -13.0270 
  147.1250     2.2520    83.2490    18.4240    18.5960    16.4690    25.9130   -12.9630 
  147.2500     2.2580    86.0880    17.0670    17.0870    13.5380    25.8600   -12.8870 
  147.3750     2.2670    86.7530    16.5120    16.1150    11.6280    25.9100   -12.8330 
  147.5000     2.2720    84.8390    17.1480    16.0760    11.4110    26.1210   -12.8260 
  147.6250     2.2700    81.6940    19.4400    17.4860    13.3060    26.3170   -12.8180 
  147.7500     2.2640    79.5320    23.1180    20.3120    17.9540    26.4800   -12.8810 
  147.8750     2.2550    77.5840    27.8220    24.4550    28.2540    26.5890   -13.0160 
  148.0000     2.2450    73.7220    32.8500    29.4170    40.5080    26.6450   -13.1610 
  148.1250     2.2370    69.8060    37.0550    34.0930    46.7020    26.7000   -13.3580 
  148.2500     2.2350    69.8680    39.8370    37.4760    47.1400    26.7740   -13.6400 
  148.3750     2.2370    73.3960    41.2950    39.2880    40.8990    26.8220   -13.9780 
  148.5000     2.2430    77.0130    42.2110    40.0510    36.3990    26.8480   -14.3090 
  148.6250     2.2470    78.5990    43.9890    41.0100    36.8530    26.8960   -14.6890 
  148.7500     2.2450    79.6330    47.6230    43.3770    41.3870    26.9710   -15.1270 
  148.8750     2.2380    77.8380    53.5370    47.9310    47.8070    27.0630   -15.5510 
  149.0000     2.2290    71.1310    61.8490    55.0260    70.5410    27.1310   -15.9570 
  149.1250     2.2220    63.5610    73.4480    64.6300   100.3080    27.1760   -16.4050 
  149.2500     2.2190    61.7080    86.6310    75.0330   112.3950    27.2090   -16.8570 
  149.3750     2.2190    65.3830    98.1220    84.4370   113.2250    27.2640   -17.2220 
  149.5000     2.2230    69.6700   104.7520    91.1120   111.1510    27.2680   -17.5440 
  149.6250     2.2340    71.5800   105.1410    93.4740   106.9820    27.2870   -17.9080 
  149.7500     2.2530    72.6680   102.2190    92.5640   102.1810    27.3350   -18.2520 
  149.8750     2.2770    73.7210    97.7450    89.6100   104.8040    27.4010   -18.5540 
  150.0000     2.2990    74.5230    93.2420    85.9990    97.5200    27.4720   -18.8440 
  150.1250     2.3040    74.0150    90.2790    83.1450    73.8660    27.5820   -19.1750 
  150.2500     2.2890    73.9960    89.4570    81.8830    57.6600    27.7170   -19.5150 
  150.3750     2.2620    74.9740    91.1600    82.7670    64.5640    27.9170   -19.8830 
  150.5000     2.2360    76.3720    95.5730    86.1380    80.7020    28.0990   -20.3150 
  150.6250     2.2260    77.3520   103.1980    92.5960    76.0760    28.1520   -20.7010 
  150.7500     2.2300    76.3630   113.5010   101.6850    74.9940    28.0070   -21.0590 
  150.8750     2.2370    73.4250   126.2980   113.2440    93.6910    27.7790   -21.5140 
  151.0000     2.2400    70.2020   141.2160   126.9250   125.3630    27.6490   -22.0660 
  151.1250     2.2330    67.5980   157.6310   142.1540   160.2660    27.6370   -22.5580 
