~V
VERS. 2.00: Ver 2.00
~W
STRT.M 55.0000:
STOP.M 211.0000:
STEP.M 0.1250:
NULL. -999.2500:
UWI. F11125:
~C
DEPT.M :
DEN.GM/CC :
GR.API :
RML.OHMM :
RI. :
RXO.OHMM :
CALI.CM :
SP.MV :
~A
# ...
  167.5000     2.2730    66.8810    70.4850    69.6610    50.9970    23.8080   -19.7630 
  167.6250     2.2800    67.1030    69.7180    68.7340    49.7130    23.7090   -19.4380 
  167.7500     2.2870    66.0030    69.5710    68.3940    49.4990    23.5470   -19.1470 
  167.8750     2.2930    64.9490    69.9760    68.3730    49.5910    23.3930   -18.8740 
  168.0000     2.2960    64.9210    71.1600    68.6920    50.6360    23.2730   -18.6460 
  168.1250     2.2920    66.9690    73.9290    69.8980    57.0820    23.2220   -18.4170 
  168.2500     2.2760    68.4400    78.8340    72.5320    59.6280    23.1290   -18.2160 
  168.3750     2.2530    67.8020    86.8060    77.3230    62.4830    22.9810   -18.0140 
  168.5000     2.2330    66.1890    99.2590    85.4510    65.9980    22.7920   -17.8590 
  168.6250     2.2150    65.0590   118.3250   100.1640    70.5320    22.5900   -17.7600 
  168.7500     2.1960    64.2690   143.3830   122.9600    75.2710    22.4660   -17.6970 
  168.8750     2.1820    63.6400   181.2470   154.4100    78.8970    22.4140   -17.6480 
  169.0000     2.1790    62.8540   225.9700   191.7370    80.0570    22.3570   -17.6150 
  169.1250     2.1860    60.7360   266.2280   225.3280    78.0280    22.2580   -17.6010 
  169.2500     2.1940    59.1890   288.0710   244.3050    74.8680    22.1910   -17.5870 
  169.3750     2.2010    60.5210   287.5560   244.9390    72.8920    22.1580   -17.5510 
  169.5000     2.2060    62.5190   272.8840   232.5250    73.4120    22.1280   -17.4870 
  169.6250     2.2070    61.2070   255.3260   215.9850    76.0470    22.1140   -17.3740 
  169.7500     2.2060    58.3100   241.3890   201.9280    78.1640    22.1090   -17.2640 
  169.8750     2.2040    57.5920   232.9860   192.6300    78.1760    22.1140   -17.1220 
  170.0000     2.2020    60.3110   230.3230   188.8160    76.2730    22.1340   -16.9920 
  170.1250     2.1960    62.4460   231.8990   190.1170    74.6430    22.1830   -16.7850 
  170.2500     2.1880    60.5700   232.2080   192.5200    75.0960    22.2230   -16.5710 
  170.3750     2.1830    56.5850   224.7060   191.0930    77.0890    22.2280   -16.3800 
  170.5000     2.1830    53.0200   204.2260   180.5900    78.9160    22.1990   -16.1680 
  170.6250     2.1870    53.0960   172.0970   158.3930    78.9980    22.1780   -16.0160 
  170.7500     2.1900    55.2480   139.2940   131.7130    77.2910    22.1530   -15.8450 
  170.8750     2.1960    57.7480   111.1930   106.1740    74.1510    22.1040   -15.7150 
  171.0000     2.2080    58.9930    88.4080    84.2750    70.0880    22.0390   -15.5640 
  171.1250     2.2220    61.8880    69.7950    66.2990    66.1410    21.9910   -15.4910 
  171.2500     2.2340    68.5460    53.7020    50.8920    60.4540    21.9720   -15.4170 
  171.3750     2.2500    74.5240    40.4650    38.1760    49.6540    21.9660   -15.3530 
  171.5000     2.2810    75.6260    30.6670    28.6480    20.7600    21.9740   -15.3080 
  171.6250     2.3230    75.0350    24.7400    22.7850    14.6010    21.9940   -15.2630 
  171.7500     2.3520    77.7640    21.3280    19.3030    13.2380    22.0070   -15.2160 
  171.8750     2.3620    81.3860    19.6720    17.4500    14.3110    21.9840   -15.1690 
  172.0000     2.3620    80.7210    19.1480    16.6640    15.8120    21.9570   -15.1310 
  172.1250     2.3640    76.1320    19.2430    16.5620    15.8220    21.9480   -15.0650 
  172.2500     2.3670    74.2130    19.4290    16.6650    15.1370    21.9710   -14.9960 
  172.3750     2.3700    77.6980    19.5550    16.7750    14.7980    22.0110   -14.9140 
  172.5000     2.3710    84.6800    19.6830    16.8570    14.6920    22.0370   -14.8800 
  172.6250     2.3710    87.6650    19.9920    16.9950    15.1210    22.0350   -14.7720 
  172.7500     2.3730    85.6030    20.5240    17.2440    15.5300    22.0550   -14.6790 
  172.8750     2.3740    83.4700    21.2590    17.6160    15.7860    22.1880   -14.5810 
  173.0000     2.3700    84.3350    22.1410    18.0920    16.5590    22.4660   -14.4840 
  173.1250     2.3620    84.4550    23.0950    18.6270    17.6430    22.9370   -14.3870 
  173.2500     2.3570    83.8700    24.0300    19.1660    18.9740    23.3590   -14.2640 
  173.3750     2.3540    85.2950    24.8950    19.6910    20.1960    23.6990   -14.1680 
  173.5000     2.3530    84.5290    25.6480    20.1840    21.7280    23.9330   -14.0260 
  173.6250     2.3480    76.8990    26.2400    20.6030    21.6560    24.0230   -13.9300 
  173.7500     2.3350    72.0170    26.6790    20.9320    21.2120    24.0380   -13.8670 
  173.8750     2.3160    73.8980    26.8830    21.1120    21.6370    23.9900   -13.8050 
  174.0000     2.3000    78.4310    26.6890    21.0160    21.9270    23.8730   -13.7760 
  174.1250     2.3010    80.9780    25.8280    20.4290    20.5500    23.7700   -13.7480 
  174.2500     2.3140    80.5050    24.3840    19.3910    19.8190    23.7870   -13.7690 
  174.3750     2.3320    77.3210    22.5410    18.0140    19.2000    23.8750   -13.7770 
  174.5000     2.3500    74.2030    20.6290    16.5070    17.2150    23.9310   -13.8060 
  174.6250     2.3600    76.1430    15.9340    15.1880    14.4790    23.8500   -13.8810 
  174.7500     2.3570    80.4770    15.1950    14.2600    12.6600    23.7300   -13.9310 
  174.8750     2.3430    84.4090    15.0020    13.7990    11.6760    23.5150   -14.0140 
  175.0000     2.3260    86.9240    15.2470    13.7740    11.2810    23.1760   -14.0750 
  175.1250     2.3180    84.9460    15.7520    14.0970    12.4260    23.0300   -14.1680 
  175.2500     2.3230    81.4280    16.3100    14.5600    14.9450    23.0690   -14.2240 
  175.3750     2.3360    80.4430    16.9270    15.1020    16.8410    23.3010   -14.2990 
  175.5000     2.3500    80.9090    17.7740    15.7960    16.3560    23.6230   -14.3740 
  175.6250     2.3560    79.1890    19.2130    16.9080    15.3810    23.9240   -14.4270 
  175.7500     2.3520    76.7350    21.2910    18.5660    16.9030    24.1090   -14.4900 
  175.8750     2.3410    75.9360    23.8230    20.7560    23.1530    24.2300   -14.5200 
  176.0000     2.3330    77.3200    26.3000    23.1790    31.6230    24.3120   -14.5690 
  176.1250     2.3360    78.5120    27.7120    25.0110    34.1880    24.3030   -14.5680 
  176.2500     2.3490    79.2750    27.5010    25.4970    31.4760    24.2670   -14.5930 
  176.3750     2.3640    79.5080    25.6520    24.3690    26.6860    24.2340   -14.5780 
  176.5000     2.3770    78.8870    22.7500    22.0250    24.1630    24.2300   -14.5320 
  176.6250     2.3880    79.8020    20.5340    19.2340    21.5600    24.2460   -14.5110 
  176.7500     2.3960    82.0800    20.3510    16.7120    18.2770    24.2610   -14.4620 
  176.8750     2.3990    84.0890    17.9520    14.7410    14.7220    24.2940   -14.4270 
  177.0000     2.3900    84.5060    16.4670    13.4270    12.4370    24.3490   -14.4160 
  177.1250     2.3740    84.6320    15.9830    12.8720    12.2810    24.3800   -14.4380 
  177.2500     2.3590    85.8590    16.2220    12.8970    12.9150    24.3600   -14.4900 
  177.3750     2.3490    87.6660    17.0360    13.4220    13.5690    24.3220   -14.5550 
  177.5000     2.3390    88.7810    18.2830    14.3690    14.1560    24.3540   -14.6610 
  177.6250     2.3270    87.0320    19.8510    15.6940    15.1330    24.4100   -14.7870 
  177.7500     2.3190    83.9130    21.4660    17.1800    16.5560    24.4360   -14.9170 
  177.8750     2.3160    81.3930    22.7820    18.5680    18.7870    24.4450   -15.0600 
  178.0000     2.3200    79.6340    23.3330    19.4570    21.7060    24.4180   -15.1610 
  178.1250     2.3280    80.4960    22.5130    19.2240    22.3640    24.3450   -15.2920 
  178.2500     2.3360    85.2910    20.6510    17.9730    19.1270    24.2850   -15.4140 
  178.3750     2.3410    91.0440    18.4300    16.1810    15.3620    24.2740   -15.5360 
  178.5000     2.3450    91.6420    16.6600    14.5030    12.8410    24.3070   -15.6980 
  178.6250     2.3500    87.6560    16.1270    13.5850    11.8440    24.3560   -15.8480 
