~V
VERS. 2.00: Ver 2.00
~W
STRT.M 55.0000:
STOP.M 201.0000:
STEP.M 0.1250:
NULL. -999.2500:
UWI. F11111:
~C
DEPT.M :
GR.API :
RML.OHMM :
RI. :
RXO.OHMM :
CALI.CM :
SP.MV :
DEN.GM/CC :
~A
# ...
  145.0000    80.8870    14.4260    13.5590    13.9310    23.5290   -22.8540     2.2210 
  145.1250    76.4090    12.4260    11.7830    11.7630    23.5940   -22.6320     2.2340 
  145.2500    72.0790    10.7630    10.2670    10.8220    23.5680   -22.4200     2.2530 
  145.3750    71.2330     9.3810     8.9890     9.9490    23.5070   -22.2120     2.2710 
  145.5000    74.2130     8.2410     7.9210     8.6310    23.4350   -22.0590     2.2800 
  145.6250    79.5210     7.3840     7.0820     7.3500    23.4250   -21.9980     2.2730 
  145.7500    82.3160     6.7880     6.4550     6.4250    23.4430   -21.9790     2.2560 
  145.8750    81.3300     6.4520     6.0590     6.0070    23.5560   -21.9470     2.2380 
  146.0000    80.3210     6.3490     5.8960     5.8630    23.6380   -21.9300     2.2270 
  146.1250    81.6760     6.4460     5.9540     5.9500    23.6030   -21.9510     2.2310 
  146.2500    81.4920     6.6390     6.1230     6.3490    23.4880   -21.9780     2.2450 
  146.3750    78.5390     6.8760     6.3290     6.8020    23.4050   -21.9960     2.2630 
  146.5000    76.5070     7.1310     6.5290     7.1580    23.3030   -22.0020     2.2790 
  146.6250    79.5930     7.4160     6.7330     7.5380    23.3390   -22.0080     2.2860 
  146.7500    83.6590     7.7520     6.9810     8.0100    23.3470   -22.0290     2.2830 
  146.8750    84.8290     8.1440     7.2970     8.6070    23.3970   -22.0780     2.2730 
  147.0000    80.9170     8.5620     7.6610     9.3400    23.4480   -22.1420     2.2620 
  147.1250    74.9650     8.9320     7.9960    10.2170    23.5450   -22.2180     2.2570 
  147.2500    72.8370     9.1950     8.2240    10.8020    23.5160   -22.3210     2.2560 
  147.3750    74.9370     9.3260     8.3070    10.8510    23.4490   -22.4750     2.2570 
  147.5000    76.3150     9.3490     8.2680    10.5520    23.4410   -22.6660     2.2570 
  147.6250    75.2930     9.3540     8.1880    10.3440    23.5530   -22.8480     2.2550 
  147.7500    75.3080     9.4560     8.1770    10.0690    23.5620   -23.0070     2.2550 
  147.8750    76.0780     9.7310     8.3030     9.9770    23.5100   -23.1470     2.2560 
  148.0000    75.0870    10.2260     8.6030     9.7560    23.4520   -23.2810     2.2540 
  148.1250    74.3510    10.9800     9.1140    10.0020    23.3100   -23.4330     2.2440 
  148.2500    75.4750    11.9130     9.7860    10.2070    23.2580   -23.5980     2.2270 
  148.3750    79.1310    12.9650    10.5870    10.6050    23.2760   -23.7580     2.2080 
  148.5000    83.0520    14.0690    11.4680    10.2650    23.3430   -23.9150     2.1910 
  148.6250    83.0550    15.1450    12.3610    10.0770    23.3530   -24.0840     2.1810 
  148.7500    79.3870    16.1240    13.1970    10.0750    23.3290   -24.2740     2.1770 
  148.8750    76.0590    16.9510    13.9180    10.4490    23.4990   -24.4790     2.1770 
  149.0000    74.2960    17.5850    14.4870    10.7790    23.6470   -24.7010     2.1810 
  149.1250    73.4800    18.0190    14.8710    10.8270    23.7200   -24.9130     2.1890 
  149.2500    73.4570    18.4100    15.1720    10.2530    23.6970   -25.1370     2.2000 
  149.3750    73.5170    18.9560    15.5280     9.3990    23.6540   -25.3750     2.2070 
  149.5000    72.6050    19.8840    16.1180     8.5710    23.5790   -25.6100     2.2070 
  149.6250    70.2380    21.5180    17.2150     8.5820    23.5230   -25.8110     2.1980 
  149.7500    69.2930    23.8330    18.8740     9.9480    23.5360   -25.9570     2.1840 
  149.8750    68.9690    26.6750    21.0590    13.0110    23.4940   -26.0670     2.1710 
  150.0000    67.8950    29.6560    23.5410    18.1730    23.6370   -26.1520     2.1600 
  150.1250    66.1310    32.0570    25.7940    21.6460    23.7470   -26.2030     2.1540 
  150.2500    63.8470    33.4430    27.3380    23.1450    23.8650   -26.2120     2.1510 
  150.3750    63.2940    33.7730    27.9940    22.8100    23.9180   -26.1710     2.1520 
  150.5000    64.4000    33.3840    27.9260    21.6870    23.7810   -26.1020     2.1580 
  150.6250    66.1470    32.7560    27.4710    20.9690    23.4300   -26.0220     2.1690 
  150.7500    67.3230    32.2460    26.9970    20.5880    23.1060   -25.9460     2.1820 
  150.8750    68.2690    31.9330    26.6330    20.6940    23.0510   -25.8690     2.1930 
  151.0000    69.3510    31.7980    26.4140    21.8950    23.1590   -25.8530     2.2010 
  151.1250    69.5130    31.7760    26.3380    23.0910    23.2100   -25.7660     2.2060 
  151.2500    68.8890    31.7430    26.3180    23.9130    23.2980   -25.6760     2.2080 
  151.3750    67.3070    31.5950    26.2690    24.2350    23.3410   -25.5860     2.2090 
  151.5000    64.3830    31.2490    26.1060    24.7090    23.1430   -25.4920     2.2120 
  151.6250    62.3510    30.6200    25.7300    25.4300    22.9860   -25.3670     2.2150 
  151.7500    63.1280    29.7720    25.1560    25.0460    22.9180   -25.2440     2.2140 
  151.8750    65.5200    28.7570    24.4130    22.8060    22.8560   -25.1310     2.2080 
  152.0000    66.9000    27.6320    23.5510    20.3760    22.7490   -25.0270     2.1960 
  152.1250    67.8270    26.3900    22.5860    19.5250    22.4730   -24.9260     2.1830 
  152.2500    70.9020    24.9760    21.4880    19.1360    22.7230   -24.8350     2.1740 
  152.3750    74.3610    23.3240    20.1920    18.1570    23.1060   -24.7520     2.1740 
  152.5000    74.2510    21.4740    18.7040    16.7910    23.1990   -24.7030     2.1820 
  152.6250    70.5670    19.6430    17.1700    15.3300    23.1010   -24.6900     2.1950 
  152.7500    69.7890    18.0910    15.8170    13.5660    23.1310   -24.6720     2.2060 
  152.8750    72.0660    16.9680    14.7840    11.5720    23.3200   -24.6530     2.2120 
  153.0000    72.4060    16.3080    14.1250    10.6640    23.3870   -24.6350     2.2130 
  153.1250    68.6430    16.0760    13.8520    11.3540    23.3490   -24.6120     2.2120 
  153.2500    66.7120    16.0350    13.7940    13.1470    23.3630   -24.5670     2.2130 
  153.3750    69.0260    16.0280    13.8280    14.1230    23.3460   -24.5180     2.2170 
  153.5000    72.1210    15.9420    13.8440    14.1480    23.3500   -24.4570     2.2220 
  153.6250    71.5360    15.7230    13.7590    13.7770    23.2480   -24.3950     2.2250 
  153.7500    68.0000    15.4410    13.5920    13.2120    23.2470   -24.3520     2.2230 
  153.8750    66.1070    15.1620    13.3880    11.8190    23.3170   -24.3320     2.2180 
  154.0000    68.7010    14.9270    13.1950    10.7240    23.3690   -24.3340     2.2130 
  154.1250    73.3200    14.7320    13.0340    10.9440    23.4670   -24.3650     2.2090 
  154.2500    75.3020    14.5300    12.8900    12.5060    23.5530   -24.4220     2.2100 
  154.3750    75.6110    14.2700    12.7350    14.4990    23.5660   -24.4960     2.2130 
  154.5000    75.7140    13.9170    12.5440    15.1600    23.5670   -24.5770     2.2170 
  154.6250    74.4050    13.4830    12.3120    15.7730    23.5740   -24.6340     2.2190 
  154.7500    72.6070    13.0950    12.1070    16.0560    23.5740   -24.6430     2.2190 
  154.8750    72.0970    12.8930    12.0220    16.2750    23.5670   -24.6060     2.2190 
  155.0000    72.7710    12.9840    12.1440    16.2060    23.5340   -24.5510     2.2180 
  155.1250    76.5150    13.4370    12.5580    17.2960    23.4330   -24.5080     2.2150 
  155.2500    81.4210    14.0770    13.1720    20.6240    23.4330   -24.4960     2.2110 
  155.3750    83.6180    14.6900    13.8410    25.3510    23.4750   -24.4930     2.2070 
  155.5000    81.2510    15.0220    14.3430    29.8170    23.4950   -24.4950     2.2040 
  155.6250    77.9060    14.7520    14.3440    30.8160    23.4960   -24.5270     2.2040 
  155.7500    75.9650    13.8830    13.7550    24.9010    23.4760   -24.6350     2.2080 
  155.8750    75.0270    12.5340    12.6380    18.7090    23.3840   -24.8030     2.2170 
  156.0000    75.2060    10.9690    11.2250    15.1530    23.2900   -24.9770     2.2310 
  156.1250    75.7560     9.5630     9.8610    12.0200    23.3200   -25.1120     2.2500 
