~V
VERS. 2.00: Ver 2.00
~W
STRT.M 63.0000:
STOP.M 246.0000:
STEP.M 0.1250:
NULL. -999.2500:
UWI. F11137:
~C
DEPT.M :
DEN.GM/CC :
GR.API :
RML.OHMM :
RI. :
RXO.OHMM :
CALI.CM :
SP.MV :
~A
# ...
  231.7500     2.4200    61.1180     6.7670     5.7330     5.5770    24.4320    -4.1510 
  231.8750     2.4220    60.4290     6.7150     5.6920     5.3560    24.3980    -4.2960 
  232.0000     2.4250    59.8670     6.6620     5.6610     5.0860    24.3750    -4.4380 
  232.1250     2.4280    61.1070     6.6050     5.6300     4.8780    24.3440    -4.5570 
  232.2500     2.4280    63.4290     6.5470     5.5980     4.7850    24.2990    -4.6510 
  232.3750     2.4230    63.1910     6.5030     5.5700     4.8590    24.2350    -4.7580 
  232.5000     2.4180    60.2150     6.4800     5.5490     5.0900    24.1950    -4.7980 
  232.6250     2.4180    57.4330     6.4810     5.5370     5.4180    24.2050    -4.7780 
  232.7500     2.4240    57.3680     6.4980     5.5300     5.7130    24.2740    -4.7300 
  232.8750     2.4330    62.9930     6.5200     5.5260     5.8250    24.4230    -4.5980 
  233.0000     2.4360    69.6940     6.5400     5.5250     5.8430    24.5290    -4.3920 
  233.1250     2.4310    71.1900     6.5590     5.5270     5.8280    24.5660    -4.1990 
  233.2500     2.4220    65.7580     6.5820     5.5320     5.8390    24.5690    -4.0290 
  233.3750     2.4160    59.4610     6.6130     5.5430     5.8820    24.5690    -3.9100 
  233.5000     2.4160    56.1040     6.6500     5.5560     5.9110    24.5690    -3.9060 
  233.6250     2.4240    54.2540     6.6880     5.5680     5.9490    24.5690    -3.9630 
  233.7500     2.4350    54.8440     6.7210     5.5740     5.9460    24.5670    -3.9980 
  233.8750     2.4430    57.8210     6.7460     5.5690     5.8840    24.5370    -4.0770 
  234.0000     2.4450    61.1900     6.7690     5.5610     5.8210    24.4570    -4.2060 
  234.1250     2.4400    64.1090     6.7930     5.5520     5.8210    24.3690    -4.2700 
  234.2500     2.4300    65.1990     6.8240     5.5460     5.9260    24.3360    -4.2970 
  234.3750     2.4200    64.1370     6.8630     5.5500     5.8940    24.4410    -4.2820 
  234.5000     2.4140    63.8770     6.9100     5.5660     5.7730    24.4840    -4.2300 
  234.6250     2.4160    64.4890     6.9600     5.5950     5.6470    24.4740    -4.1780 
  234.7500     2.4250    63.4700     7.0050     5.6300     5.6050    24.4060    -4.1200 
  234.8750     2.4400    60.7290     7.0280     5.6540     5.9120    24.3500    -4.0320 
  235.0000     2.4530    60.2360     7.0160     5.6530     6.3740    24.3270    -3.9640 
  235.1250     2.4590    60.4370     6.9680     5.6190     6.8220    24.3150    -3.9800 
  235.2500     2.4580    59.0240     6.8960     5.5610     6.2570    24.3200    -4.0530 
  235.3750     2.4530    60.5620     6.8300     5.5010     5.9700    24.3770    -4.1920 
  235.5000     2.4500    63.4770     6.7980     5.4600     5.8310    24.5250    -4.3340 
  235.6250     2.4540    63.4770     6.8050     5.4460     5.8530    24.6240    -4.4570 
  235.7500     2.4640    63.4770     6.8410     5.4530     5.9310    24.6540    -4.5840 
  235.8750     2.4760    63.4770     6.8810     5.4710     6.0980    24.6540    -4.7550 
  236.0000     2.4820    63.4770     6.9030     5.4830     6.1800    24.6570    -4.9470 
  236.1250     2.4810    63.4770     6.9050     5.4840     6.2470    24.6650    -5.0520 
  236.2500     2.4740    63.4770     6.8930     5.4730     6.3030    24.6800    -5.0720 
  236.3750     2.4620    63.4770     6.8770     5.4550     6.4510    24.6710    -4.9790 
  236.5000     2.4500    63.4770     6.8680     5.4400     6.4870    24.6560    -4.7920 
  236.6250     2.4400    63.4770     6.8670     5.4330     6.4740    24.6420    -4.5630 
  236.7500     2.4360    63.4770     6.8710     5.4350     6.4230    24.6310    -4.3700 
  236.8750     2.4360    63.4770     6.8740     5.4410     6.3420    24.6040    -4.2300 
  237.0000     2.4360    63.4770     6.8710     5.4440     6.2360    24.5800    -4.2180 
  237.1250     2.4320    63.4770     6.8620     5.4410     6.0860    24.6100    -4.4250 
  237.2500     2.4200    63.4770     6.8490     5.4290     5.9120    24.6440    -4.6880 
  237.3750     2.4060    63.4770     6.8270     5.4090     5.7700    24.6620    -4.9780 
  237.5000     2.3960    63.4770     6.7930     5.3810     5.7290    24.6580    -5.3620 
  237.6250     2.3920    63.4770     6.7440     5.3480     5.7440    24.6580    -5.8150 
  237.7500     2.3950    63.4770     6.6840     5.3090     5.5990    24.6570    -6.2320 
  237.8750     2.4020    63.4770     6.6230     5.2680     5.4590    24.6550    -6.5100 
  238.0000     2.4090    63.4770     6.5740     5.2290     5.3890    24.6590    -6.6230 
  238.1250     2.4160    63.4770     6.5440     5.1990     5.3660    24.6760    -6.6260 
  238.2500     2.4210    63.4770     6.5370     5.1840     5.3440    24.6780    -6.5920 
  238.3750     2.4240    63.4770     6.6130     5.2040     5.2600    24.6540    -6.5680 
  238.5000     2.4270    63.4770     6.8380     5.4000     5.2490    24.6330    -6.6200 
  238.6250     2.4340    63.4770     7.2230     5.9110     5.3200    24.6230    -6.7310 
  238.7500     2.4460    63.4770     7.6660     6.6150     5.4800    24.6180    -6.8910 
  238.8750     2.4610    63.4770     7.9520     7.1200     5.5040    24.6010    -7.0740 
  239.0000     2.4710    63.4770     7.9680     7.1500     5.3650    24.5930    -7.1870 
  239.1250     2.4710    63.4770     7.7100     6.6940     5.1700    24.5860    -7.2040 
  239.2500     2.4590    63.4770     7.2850     5.9880     5.0410    24.5930    -7.2330 
  239.3750     2.4380    63.4770     6.8950     5.4320     5.0180    24.5860    -7.2190 
  239.5000     2.4150    63.4770     6.6760     5.2050     5.0230    24.5320    -7.0440 
  239.6250     2.3940    63.4770     6.6170     5.1930     5.1250    24.4180    -6.7720 
  239.7500     2.3780    63.4770     6.6330     5.2250     5.2400    24.3090    -6.5000 
  239.8750     2.3690    63.4770     6.6530     5.2550     5.2150    24.1880    -6.2470 
  240.0000     2.3670    63.4770     6.6670     5.2740     5.2380    24.0790    -6.0490 
  240.1250     2.3710    63.4770     6.6840     5.2800     5.3460    24.0480    -5.9420 
  240.2500     2.3810    63.4770     6.7100     5.2780     5.3750    24.1070    -5.9210 
  240.3750     2.3950    63.4770     6.7420     5.2730     5.4480    24.2110    -5.9860 
  240.5000     2.4100    63.4770     6.7690     5.2700     5.6520    24.2800    -6.1040 
  240.6250     2.4230    63.4770     6.7890     5.2690     5.8530    24.2750    -6.2350 
  240.7500     2.4340    63.4770     6.7990     5.2720     5.8710    24.2450    -6.4090 
  240.8750     2.4410    63.4770     6.8010     5.2800     5.7130    24.1840    -6.6390 
  241.0000     2.4440    63.4770     6.8000     5.2910     5.4920    24.1160    -6.8850 
  241.1250     2.4410    63.4770     6.7980     5.3010     5.1760    24.0660    -7.0020 
  241.2500     2.4300    63.4770     6.7970     5.3060     4.8760    24.0340    -6.9640 
  241.3750     2.4130    63.4770     6.7970     5.3080     4.7940    24.0070    -6.9060 
  241.5000     2.3960    63.4770     6.7980     5.3080     4.9180    23.9840    -6.8640 
  241.6250     2.3830    63.4770     6.7980     5.3080     5.0840    23.9720    -6.8210 
  241.7500     2.3770    63.4770     6.7980     5.3080     5.1560    24.0030    -6.7390 
  241.8750     2.3800    63.4770     6.7980     5.3080     5.1630    24.0580    -6.6680 
  242.0000     2.3920    63.4770     6.7980     5.3080     5.2040    24.1500    -6.6440 
  242.1250     2.4100    63.4770     6.7980     5.3080     5.2930    24.2480    -6.6880 
  242.2500     2.4290    63.4770     6.7980     5.3080     5.3880    24.2910    -6.7510 
  242.3750     2.4430    63.4770     6.7980     5.3080     5.4290    24.2760    -6.7450 
  242.5000     2.4500    63.4770     6.7980     5.3080     5.5550    24.2570    -6.7170 
  242.6250     2.4520    63.4770     6.7980     5.3080     5.7590    24.2570    -6.6990 
  242.7500     2.4500    63.4770     6.7980     5.3080     5.8870    24.2750    -6.7020 
  242.8750     2.4490    63.4770     6.7980     5.3080     5.8450    24.2930    -6.6500 
