~V
VERS. 2.00: Ver 2.00
~W
STRT.M 51.0000:
STOP.M 277.0000:
STEP.M 0.1250:
NULL. -999.2500:
UWI. F11147:
~C
DEPT.M :
DEN.GM/CC :
GR.API :
RML.OHMM :
RI. :
RXO.OHMM :
CALI.CM :
SP.MV :
~A
# ...
  208.5000     2.3330    73.9980    11.9140    10.0030    11.2020    24.4360   -15.3010 
  208.6250     2.3450    72.9290    12.8280    10.7990    11.9150    24.4430   -15.4020 
  208.7500     2.3410    71.7780    13.8370    11.6690    12.8570    24.4890   -15.4660 
  208.8750     2.3140    72.0580    14.8370    12.5670    14.0340    24.5530   -15.5210 
  209.0000     2.2830    74.2420    15.7210    13.4100    15.3550    24.5490   -15.5210 
  209.1250     2.2640    75.2420    16.4470    14.1390    16.0410    24.5200   -15.5350 
  209.2500     2.2570    73.4580    17.0220    14.7210    16.1330    24.5120   -15.4970 
  209.3750     2.2560    71.0540    17.4300    15.1120    15.7490    24.5230   -15.4270 
  209.5000     2.2570    69.7630    17.6450    15.3270    15.7850    24.5280   -15.3200 
  209.6250     2.2600    68.6250    17.5790    15.3460    16.4730    24.5200   -15.1760 
  209.7500     2.2600    68.1840    17.1970    15.1650    17.4940    24.5120   -15.0390 
  209.8750     2.2560    69.2310    16.6110    14.8510    17.0030    24.4970   -14.8700 
  210.0000     2.2530    70.2880    16.1450    14.5920    15.3730    24.4640   -14.7160 
  210.1250     2.2550    69.6620    16.0600    14.5610    14.2300    24.4220   -14.5480 
  210.2500     2.2590    68.3470    16.4830    14.8690    14.7350    24.3760   -14.4230 
  210.3750     2.2600    69.9530    17.3650    15.5600    16.2720    24.3550   -14.3340 
  210.5000     2.2560    70.7670    18.2870    16.3800    17.6440    24.3380   -14.2940 
  210.6250     2.2510    68.7830    18.8530    17.0250    18.0660    24.3170   -14.2640 
  210.7500     2.2480    67.4000    18.8130    17.2260    17.7170    24.2830   -14.2880 
  210.8750     2.2480    68.4820    18.2210    16.9080    16.6540    24.1510   -14.3310 
  211.0000     2.2540    68.4800    17.6140    16.4700    15.0480    23.9730   -14.4260 
  211.1250     2.2610    65.6080    17.3890    16.2620    13.8460    23.9030   -14.5430 
  211.2500     2.2640    63.2180    17.7330    16.4990    14.0340    23.9790   -14.6550 
  211.3750     2.2580    64.1220    18.6660    17.2710    15.8020    24.1160   -14.8040 
  211.5000     2.2480    66.1050    19.8370    18.3200    18.3700    24.1880   -14.9350 
  211.6250     2.2370    68.2590    20.9680    19.3990    20.6400    24.2780   -15.1170 
  211.7500     2.2290    69.7660    21.9500    20.3580    21.8280    24.4260   -15.2770 
  211.8750     2.2270    70.5580    23.0690    21.3330    20.8810    24.4990   -15.4890 
  212.0000     2.2280    69.1050    24.7860    22.7010    20.1900    24.5010   -15.6770 
  212.1250     2.2270    65.0790    27.3840    24.7780    21.7220    24.5090   -15.8740 
  212.2500     2.2210    61.8980    30.7900    27.6340    26.1520    24.5670   -16.0770 
  212.3750     2.2100    61.0000    34.3260    30.8740    34.5100    24.6050   -16.2220 
  212.5000     2.2000    61.0500    36.7980    33.4550    38.3550    24.5300   -16.3790 
  212.6250     2.1930    61.1430    37.4330    34.5570    34.9660    24.2550   -16.4760 
  212.7500     2.1910    61.2740    36.4190    34.1050    28.0230    23.8900   -16.5590 
  212.8750     2.1960    61.5420    34.8070    32.8430    24.6860    23.7460   -16.5600 
  213.0000     2.2050    60.4430    33.6960    31.8510    25.6480    23.8970   -16.5370 
  213.1250     2.2150    59.7990    33.4540    31.5810    28.1340    24.0820   -16.4550 
  213.2500     2.2210    59.3400    34.1000    32.1600    30.3090    24.2490   -16.3330 
  213.3750     2.2230    59.2250    35.5350    33.6150    31.8410    24.3550   -16.2140 
  213.5000     2.2220    59.8450    37.3080    35.5640    33.0720    24.3850   -16.0550 
  213.6250     2.2160    59.5700    39.0260    37.6450    34.1580    24.4030   -15.9240 
  213.7500     2.2080    59.0240    40.1760    39.3690    36.3860    24.4580   -15.8020 
  213.8750     2.1980    59.5230    39.8570    39.8450    40.3700    24.6100   -15.7150 
  214.0000     2.1830    61.2700    37.8030    38.6460    41.6120    24.7240   -15.6220 
  214.1250     2.1710    63.6900    34.2380    35.8080    38.0530    24.6960   -15.5750 
  214.2500     2.1720    66.2110    33.5230    31.9670    31.6000    24.5770   -15.5400 
  214.3750     2.1900    68.0130    28.9710    28.0410    27.0560    24.5240   -15.5560 
  214.5000     2.2190    68.0370    25.3180    24.7000    23.8530    24.5170   -15.6040 
  214.6250     2.2490    66.1950    22.7460    22.2020    20.9660    24.5350   -15.6920 
  214.7500     2.2690    64.2330    21.1990    20.5930    18.7860    24.5460   -15.8570 
  214.8750     2.2780    66.0980    20.6450    19.9300    17.8330    24.4690   -16.0570 
  215.0000     2.2850    70.8270    20.7830    19.9860    17.1560    24.2860   -16.3300 
  215.1250     2.2920    73.7110    21.5000    20.6740    17.4390    24.0320   -16.6170 
  215.2500     2.2880    71.0640    22.6400    21.8510    20.0650    23.7190   -16.9620 
  215.3750     2.2720    68.2450    24.0300    23.3260    23.0590    23.4250   -17.3080 
  215.5000     2.2580    69.2990    25.4940    24.8720    25.0240    23.4470   -17.6910 
  215.6250     2.2520    71.3420    27.0350    26.4550    26.4200    23.7390   -18.0790 
  215.7500     2.2460    70.6080    28.7650    28.1590    26.5180    24.0440   -18.4450 
  215.8750     2.2350    67.1990    30.9120    30.1880    25.8610    24.1740   -18.8370 
  216.0000     2.2260    64.7850    33.4840    32.5850    27.7190    24.2100   -19.1960 
  216.1250     2.2240    64.3340    36.3240    35.2870    31.6110    24.2170   -19.5950 
  216.2500     2.2330    65.6480    38.9420    37.9540    35.5170    24.1750   -19.9710 
  216.3750     2.2550    67.9990    40.2880    39.6330    36.1350    24.0780   -20.3730 
  216.5000     2.2810    68.5020    40.0640    39.8220    34.8030    23.9700   -20.7580 
  216.6250     2.3000    65.4460    38.7060    38.7550    37.4250    23.9040   -21.1380 
  216.7500     2.3030    61.1770    37.1130    37.2190    41.5100    23.8370   -21.5030 
  216.8750     2.2970    60.6910    36.1970    36.0990    35.1900    23.7080   -21.8750 
  217.0000     2.2900    62.7870    36.1500    35.7320    28.8990    23.5660   -22.2630 
  217.1250     2.2690    63.3450    36.7440    36.0310    33.8120    23.5860   -22.6590 
  217.2500     2.2280    62.0870    37.5390    36.6470    38.5730    23.8370   -23.0960 
  217.3750     2.1870    62.8510    38.2320    37.3050    34.8250    24.1970   -23.5610 
  217.5000     2.1700    65.4960    39.0380    38.1250    29.8680    24.3450   -24.0600 
  217.6250     2.1750    67.7110    40.4920    39.5090    28.8510    24.3610   -24.5910 
  217.7500     2.1840    69.1570    43.3110    42.0690    30.2460    24.3530   -25.1530 
  217.8750     2.1830    67.7620    48.5960    46.8980    35.6400    24.3910   -25.6850 
  218.0000     2.1750    63.4190    56.1910    53.9850    44.6040    24.4950   -26.2240 
  218.1250     2.1690    58.9660    65.3580    62.6550    55.1440    24.6500   -26.6890 
  218.2500     2.1690    56.3190    74.5410    71.3840    64.1240    24.7790   -27.1180 
  218.3750     2.1710    54.0260    81.4700    77.9940    69.7170    24.8540   -27.4200 
  218.5000     2.1690    53.9920    85.5080    81.8520    74.1380    24.9140   -27.6430 
  218.6250     2.1600    57.1390    87.0180    83.2270    74.4650    24.9090   -27.7880 
  218.7500     2.1540    60.7790    86.8760    82.9040    72.3350    24.7440   -27.8140 
  218.8750     2.1640    61.8170    85.7350    81.5400    68.9520    24.4000   -27.7880 
  219.0000     2.1850    63.6730    84.1410    79.7610    64.7660    24.1680   -27.6730 
  219.1250     2.1960    67.5090    82.2070    77.7230    60.7500    24.3120   -27.5360 
  219.2500     2.1850    68.8370    79.9290    75.4460    57.6690    24.6170   -27.3380 
  219.3750     2.1630    65.3630    77.2890    72.9590    55.5770    24.6720   -27.1250 
  219.5000     2.1540    61.8000    74.5860    70.5380    50.2380    24.5520   -26.8890 
  219.6250     2.1560    58.7770    72.1440    68.4660    45.2650    24.4060   -26.6200 
