~V
VERS. 2.00: Ver 2.00
~W
STRT.M 56.0000:
STOP.M 269.0000:
STEP.M 0.1250:
NULL. -999.2500:
UWI. F11148:
~C
DEPT.M :
GR.API :
RML.OHMM :
RI. :
RXO.OHMM :
SP.MV :
DEN.GM/CC :
CALI.CM :
~A
# ...
  179.7500    78.1260    42.8780    40.4420    22.9650   -23.8710     2.3300    24.4070 
  179.8750    75.5630    44.5440    40.9410    23.0290   -23.9680     2.3220    24.2210 
  180.0000    71.0870    48.6930    43.6760    28.8420   -24.0750     2.3100    24.0490 
  180.1250    66.3310    53.7250    47.6280    37.6340   -24.1870     2.3000    23.9910 
  180.2500    67.1430    56.8640    50.5690    58.4310   -24.2480     2.2990    23.9950 
  180.3750    70.5110    56.7860    50.9350    71.0080   -24.2900     2.3090    23.8710 
  180.5000    71.9270    54.1850    49.0400    59.9720   -24.3740     2.3240    23.6710 
  180.6250    71.6490    50.9340    46.3930    39.4620   -24.4790     2.3380    23.5120 
  180.7500    71.0440    48.6930    44.4350    31.3100   -24.5090     2.3420    23.4070 
  180.8750    70.1980    47.3380    43.2530    33.8960   -24.4600     2.3360    23.3120 
  181.0000    69.0180    46.0090    42.2310    40.8030   -24.3650     2.3240    23.2170 
  181.1250    70.2780    43.8130    40.5820    40.1390   -24.2890     2.3130    23.1170 
  181.2500    75.1110    40.2160    37.6780    31.0580   -24.2810     2.3070    23.0110 
  181.3750    78.1640    35.9050    34.0310    25.2630   -24.2550     2.3080    22.9380 
  181.5000    78.2710    31.6350    30.3250    24.2200   -24.1730     2.3110    22.9200 
  181.6250    77.8310    28.1190    27.2270    23.7130   -24.1170     2.3130    22.9760 
  181.7500    77.8470    26.1740    25.4400    17.8840   -24.1650     2.3130    23.0120 
  181.8750    77.2930    25.7920    24.9700    13.9060   -24.2660     2.3170    22.9840 
  182.0000    75.8800    26.7580    25.7190    12.2990   -24.3520     2.3220    22.9110 
  182.1250    74.6510    28.4680    27.3120    14.2150   -24.4150     2.3200    22.8320 
  182.2500    74.2920    29.7510    28.7880    19.9020   -24.5100     2.3060    22.8000 
  182.3750    73.3850    29.6180    28.9820    24.6290   -24.6400     2.2960    22.7990 
  182.5000    73.4610    27.8660    27.5000    22.4880   -24.7830     2.3000    22.7880 
  182.6250    75.2200    25.1580    24.9650    18.2580   -24.9140     2.3160    22.7110 
  182.7500    79.8040    22.6850    22.5110    16.3260   -25.0370     2.3360    22.5900 
  182.8750    84.8430    21.1570    20.7940    16.9910   -25.1880     2.3520    22.5700 
  183.0000    86.6240    20.7120    19.9490    18.0810   -25.3850     2.3610    22.6490 
  183.1250    84.9110    21.2750    19.9530    17.5260   -25.5840     2.3620    22.7110 
  183.2500    81.9460    22.9830    20.9300    15.3210   -25.7180     2.3570    22.7200 
  183.3750    79.1110    25.8610    22.8470    14.9730   -25.8730     2.3500    22.7150 
  183.5000    75.5760    30.2450    25.9520    16.9380   -26.1070     2.3410    22.7070 
  183.6250    71.4070    36.4560    30.5810    21.5030   -26.3760     2.3280    22.7050 
  183.7500    67.5050    44.8630    37.2980    29.8430   -26.6190     2.3100    22.7440 
  183.8750    64.7870    54.6860    45.6200    38.9940   -26.8280     2.2900    22.8380 
  184.0000    65.3060    65.0080    54.7790    45.4830   -27.0590     2.2740    22.9700 
  184.1250    67.6780    74.6110    63.5350    50.6140   -27.3640     2.2640    23.1310 
  184.2500    68.2560    81.8870    70.1660    54.3810   -27.6950     2.2580    23.3360 
  184.3750    66.1620    86.5320    74.2700    56.1650   -27.9830     2.2540    23.5090 
  184.5000    64.2030    88.6390    75.9610    56.5820   -28.1840     2.2520    23.5740 
  184.6250    65.0340    88.7470    75.7660    57.2100   -28.3460     2.2530    23.5370 
  184.7500    68.0070    87.7550    74.4840    59.2920   -28.5270     2.2550    23.4680 
  184.8750    70.1790    87.0030    73.3250    58.6990   -28.7450     2.2570    23.4160 
  185.0000    70.1520    87.2190    72.9730    51.4950   -28.9490     2.2600    23.3330 
  185.1250    69.0010    88.5940    73.6940    44.4100   -29.0890     2.2630    23.2170 
  185.2500    68.4870    90.6700    75.2880    44.0880   -29.1830     2.2600    23.0660 
  185.3750    67.9610    92.1770    76.7480    49.2810   -29.2840     2.2500    22.9790 
  185.5000    67.4680    92.0630    77.1630    52.2460   -29.4530     2.2390    22.9700 
  185.6250    67.5190    89.9090    76.0170    50.8560   -29.6560     2.2340    22.9930 
  185.7500    66.1550    86.2260    73.4520    47.9540   -29.7900     2.2400    23.0460 
  185.8750    63.8300    82.7820    70.7960    45.4830   -29.8840     2.2500    23.1380 
  186.0000    62.4700    80.8490    69.1320    44.5690   -29.9780     2.2570    23.2220 
  186.1250    63.0390    81.0890    69.1430    41.5030   -30.0820     2.2580    23.2520 
  186.2500    64.7430    83.7210    71.1910    42.1630   -30.1560     2.2500    23.2430 
  186.3750    65.4810    87.5740    74.4310    45.7120   -30.1820     2.2440    23.2380 
  186.5000    65.0100    91.5530    77.9950    50.6860   -30.1710     2.2430    23.2740 
  186.6250    64.0390    94.6020    80.9650    52.1020   -30.1660     2.2510    23.3880 
  186.7500    62.6760    95.9910    82.6040    56.8560   -30.1780     2.2610    23.6640 
  186.8750    60.9980    96.5610    83.4500    59.0600   -30.1230     2.2690    24.0060 
  187.0000    59.7790    97.4990    84.4360    57.8420   -29.9990     2.2700    24.2220 
  187.1250    59.7960    99.9980    86.6140    53.5430   -29.8660     2.2630    24.1150 
  187.2500    61.0040   105.2280    91.1200    50.9540   -29.7970     2.2480    23.7540 
  187.3750    61.9340   112.8270    97.7750    51.7570   -29.7670     2.2340    23.4620 
  187.5000    60.5550   122.2370   106.1840    57.8410   -29.7020     2.2250    23.4330 
  187.6250    57.2620   132.3020   115.4560    74.3250   -29.5530     2.2170    23.7420 
  187.7500    56.0840   140.1800   123.4340    97.1720   -29.3560     2.2090    24.4200 
  187.8750    57.4510   142.1650   127.0750   104.3430   -29.1900     2.2000    25.1910 
  188.0000    59.4120   134.7700   123.1840   101.7110   -29.0640     2.1880    25.6480 
  188.1250    60.9040   117.8730   110.7000    98.4990   -28.9300     2.1740    25.6250 
  188.2500    65.1950    96.1330    92.2790    85.8600   -28.7160     2.1710    25.1590 
  188.3750    69.5110    76.4970    74.3510    56.4200   -28.4350     2.1890    24.5220 
  188.5000    71.4790    61.5660    60.0580    34.1710   -28.1630     2.2210    23.9400 
  188.6250    71.0430    51.4650    50.1300    25.1720   -27.9460     2.2560    23.6430 
  188.7500    69.6330    45.7010    44.3530    26.8430   -27.7840     2.2780    23.5750 
  188.8750    70.6500    42.4620    41.0370    29.5140   -27.6060     2.2880    23.5700 
  189.0000    74.5620    40.9810    39.4690    29.2830   -27.4020     2.2950    23.5960 
  189.1250    78.1250    40.7710    39.1940    27.0630   -27.2240     2.3030    23.6460 
  189.2500    77.6000    41.6400    40.0090    25.5020   -27.1400     2.3050    23.6720 
  189.3750    74.4470    43.1350    41.4520    26.9030   -27.0900     2.2970    23.6360 
  189.5000    70.9720    44.9050    43.2160    28.2730   -27.0210     2.2800    23.5040 
  189.6250    69.1620    46.5130    44.9100    27.9200   -26.9420     2.2660    23.3330 
  189.7500    70.9080    47.5360    46.0800    28.2640   -26.9090     2.2650    23.2340 
  189.8750    73.2820    48.2420    46.8320    29.4120   -26.9570     2.2690    23.2130 
  190.0000    72.8800    49.2980    47.6730    30.2080   -27.0420     2.2720    23.2170 
  190.1250    70.1940    51.5410    49.3350    30.1880   -27.0880     2.2720    23.2320 
  190.2500    68.4570    55.9890    52.7780    31.3090   -27.1000     2.2700    23.3050 
  190.3750    67.9280    62.4510    58.0030    34.7590   -27.1700     2.2700    23.4200 
  190.5000    66.7260    70.3600    64.6350    39.9420   -27.3220     2.2710    23.5080 
  190.6250    64.4960    78.4340    71.6000    43.3920   -27.5260     2.2720    23.5150 
  190.7500    64.0710    84.2980    76.7670    46.3350   -27.7430     2.2700    23.5160 
  190.8750    66.7350    86.8370    78.9760    50.9500   -27.9440     2.2620    23.5720 
