~V
VERS. 2.00: Ver 2.00
~W
STRT.M 56.0000:
STOP.M 269.0000:
STEP.M 0.1250:
NULL. -999.2500:
UWI. F11148:
~C
DEPT.M :
GR.API :
RML.OHMM :
RI. :
RXO.OHMM :
SP.MV :
DEN.GM/CC :
CALI.CM :
~A
   56.0000  -999.2500  -999.2500  -999.2500  -999.2500    71.7520  -999.2500  -999.2500 
   56.1250  -999.2500  -999.2500  -999.2500  -999.2500    72.5490  -999.2500  -999.2500 
   56.2500  -999.2500  -999.2500  -999.2500  -999.2500    73.3790  -999.2500  -999.2500 
   56.3750  -999.2500  -999.2500  -999.2500  -999.2500    74.2370  -999.2500  -999.2500 
   56.5000  -999.2500  -999.2500  -999.2500  -999.2500    75.1130  -999.2500  -999.2500 
   56.6250    51.7430     1.6210     0.6190     1.2510    75.9980  -999.2500    25.2730 
   56.7500    51.7430     1.6210     0.6190     1.2510    76.9420  -999.2500    25.2730 
   56.8750    51.2800     1.5870     0.6280     1.2400    77.9180  -999.2500    25.2710 
   57.0000    51.0490     1.5760     0.6320     1.2370    78.8170  -999.2500    25.2710 
   57.1250    49.3460     1.5630     0.6390     1.2240    79.6370  -999.2500    25.2650 
   57.2500    47.0660     1.5650     0.6410     1.1750    80.3790  -999.2500    25.2390 
   57.3750    47.3100     1.5830     0.6380     1.1200    80.9900  -999.2500    25.1890 
   57.5000    48.1550     1.6030     0.6320     1.0630    81.4630  -999.2500    25.1230 
   57.6250    46.4200     1.6080     0.6270     1.0020    81.7500  -999.2500    25.0600 
   57.7500    42.9880     1.5740     0.6250     0.9680    81.7550  -999.2500    25.0740 
   57.8750    42.9890     1.5030     0.6260     0.9240    81.5770  -999.2500    25.1000 
   58.0000    46.7080     1.4160     0.6300     0.8740    81.3070  -999.2500    25.0960 
   58.1250    49.5880     1.3410     0.6370     0.8270    80.9580  -999.2500    25.0520 
   58.2500    48.8810     1.3080     0.6460     0.7790    80.5490  -999.2500    25.0180 
   58.3750    46.8580     1.3440     0.6560     0.7360    80.1500  -999.2500    25.0130 
   58.5000    46.4890     1.4760     0.6620     0.7220    79.8100  -999.2500    25.0150 
   58.6250    49.1110     1.6930     0.6630     0.7310    79.6100  -999.2500    24.9990 
   58.7500    53.3280     1.8970     0.6570     0.7480    79.5620     2.1160    24.9320 
   58.8750    55.6590     1.9420     0.6520     0.7330    79.6530     2.1160    24.7470 
   59.0000    54.1610     1.7870     0.6520     0.7240    79.9190     2.1090    24.5070 
   59.1250    50.9820     1.5420     0.6570     0.7470    80.2950     2.1050    24.2710 
   59.2500    51.5340     1.3740     0.6630     0.8310    80.7380     2.1130    24.0100 
   59.3750    55.1370     1.3220     0.6670     0.9490    81.2290     2.1180    23.7330 
   59.5000    58.1760     1.3490     0.6680     1.0420    81.7390     2.1120    23.5420 
   59.6250    59.6300     1.4010     0.6710     1.0620    82.1580     2.0990    23.4850 
   59.7500    59.8300     1.4280     0.6760     0.9590    82.4260     2.0870    23.6330 
   59.8750    57.3700     1.4180     0.6830     0.8130    82.4940     2.0790    24.0510 
   60.0000    52.6630     1.3800     0.6890     0.7090    82.3600     2.0740    24.5260 
   60.1250    50.1160     1.3320     0.6980     0.6200    82.0730     2.0690    24.8810 
   60.2500    52.2570     1.2930     0.7200     0.5950    81.5870     2.0630    25.0900 
   60.3750    53.9750     1.2670     0.7530     0.6060    80.9870     2.0600    25.2050 
   60.5000    54.4680     1.2490     0.7870     0.5990    80.3740     2.0600    25.2410 
   60.6250    54.5440     1.2300     0.8060     0.6800    79.8160     2.0670    25.2260 
   60.7500    53.4860     1.2110     0.7990     0.7020    79.3300     2.0830    25.2320 
   60.8750    51.4160     1.1920     0.7770     0.7170    78.9470     2.1030    25.2600 
   61.0000    50.3640     1.1720     0.7540     0.8480    78.6560     2.1280    25.3020 
   61.1250    52.9530     1.1450     0.7430     1.1560    78.3650     2.1550    25.3400 
   61.2500    56.6200     1.1110     0.7460     1.6910    78.1590     2.1720    25.3700 
   61.3750    55.8110     1.0830     0.7530     1.4110    77.9930     2.1690    25.3660 
   61.5000    51.0400     1.0790     0.7570     1.0740    77.7900     2.1560    25.3070 
   61.6250    47.1880     1.1050     0.7530     0.8420    77.6030     2.1570    25.1730 
   61.7500    48.4820     1.1500     0.7430     0.7740    77.4430     2.1990    24.9940 
   61.8750    51.4600     1.1850     0.7350     0.8220    77.2460     2.2680    24.7770 
   62.0000    53.3610     1.1940     0.7320     0.9500    76.9720     2.3380    24.4830 
   62.1250    53.4520     1.1790     0.7310     1.1010    76.7250     2.3920    24.1090 
   62.2500    50.5820     1.1490     0.7300     1.2240    76.4380     2.4330    23.8220 
   62.3750    48.7340     1.1050     0.7310     1.3210    76.0150     2.4730    23.6810 
   62.5000    50.5340     1.0580     0.7430     1.4120    75.3660     2.5090    23.5480 
   62.6250    53.5060     1.0390     0.7710     1.5150    74.3210     2.5330    23.3420 
   62.7500    53.4470     1.0660     0.8050     1.6340    72.6830     2.5430    23.0760 
   62.8750    51.7120     1.0560     0.7960     1.7500    70.4010     2.5510    22.8450 
   63.0000    50.6950     0.9010     0.6960     1.8970    67.3540     2.5640    22.6980 
   63.1250    50.3670     0.6220     0.5220     2.0420    63.4160     2.5800    22.6180 
   63.2500    51.1500     0.3900     0.3560     2.1110    58.2920     2.5950    22.6090 
   63.3750    53.2390     0.2830     0.2630     2.0990    52.1130     2.6030    22.6710 
   63.5000    53.1340     0.3020     0.2650     2.0990    44.8710     2.6010    22.8620 
   63.6250    50.2270     0.4490     0.3810     2.3350    36.6770     2.5820    23.5820 
   63.7500    49.3830     0.7930     0.6990     3.4180    27.8170     2.5080    26.0760 
   63.8750    51.7090     1.4040     1.2940     5.3930    19.0450     2.3630    30.2520 
   64.0000    54.3030     2.3620     2.2460     6.9980    10.7720     2.1850    33.5750 
   64.1250    56.5130     3.5710     3.4940     7.2810     3.2370     2.0380    33.9510 
   64.2500    60.3270     4.5460     4.6550     6.8000    -3.1340     1.9730    30.9480 
   64.3750    64.6040     5.0210     5.4240     6.6410    -8.4350     1.9670    27.1090 
   64.5000    68.4840     5.1750     5.8670     7.0770   -12.5500     1.9950    24.3470 
   64.6250    72.2210     5.2570     6.1670     7.6500   -15.4690     2.0390    22.7300 
   64.7500    74.3090     5.3900     6.4180     7.6860   -17.2800     2.0870    21.8850 
   64.8750    74.8310     5.5650     6.6310     7.6420   -18.6330     2.1280    21.6240 
   65.0000    76.2680     5.7490     6.8080     7.9580   -19.7840     2.1520    21.8600 
   65.1250    78.4580     5.9290     6.9750     8.5580   -20.8200     2.1600    22.5230 
   65.2500    78.0710     6.1180     7.1530     9.1970   -21.8270     2.1610    23.3830 
   65.3750    75.8200     6.3000     7.3150     9.4770   -22.7450     2.1660    24.3560 
   65.5000    73.0960     6.4490     7.4290     9.7790   -23.5490     2.1740    25.1650 
   65.6250    69.9850     6.5490     7.4740    10.2480   -24.2190     2.1860    25.6170 
   65.7500    66.8450     6.5930     7.4440    10.0620   -24.7540     2.1950    25.9570 
   65.8750    65.1200     6.5900     7.3560     9.2390   -25.1340     2.2010    26.0130 
   66.0000    65.0150     6.5470     7.2200     8.3660   -25.4170     2.2080    25.7550 
   66.1250    65.7750     6.4790     7.0550     8.6280   -25.6640     2.2220    25.7860 
   66.2500    68.0990     6.4190     6.8960     9.2100   -25.8440     2.2320    25.8490 
   66.3750    70.9270     6.4050     6.7910     8.9040   -25.9660     2.2230    25.4100 
   66.5000    72.1940     6.4800     6.7820     8.0730   -26.1930     2.2010    24.6700 
   66.6250    71.8630     6.6700     6.8910     8.4150   -26.5720     2.1800    24.1230 
   66.7500    71.5220     6.9860     7.1310     9.4990   -27.0620     2.1670    24.0110 
   66.8750    70.9820     7.3640     7.4390    10.2990   -27.6430     2.1550    24.2650 
   67.0000    68.7380     7.7240     7.7470    10.5490   -28.2610     2.1420    24.7810 
   67.1250    66.1530     7.9720     7.9720    10.6810   -28.8780     2.1310    25.2570 
