~V
VERS. 2.00: Ver 2.00
~W
STRT.M 53.0000:
STOP.M 252.0000:
STEP.M 0.1250:
NULL. -999.2500:
UWI. F11141:
~C
DEPT.M :
SP.MV :
DEN.GM/CC :
GR.API :
RML.OHMM :
RI. :
RXO.OHMM :
CALI.CM :
~A
# ...
  233.0000   -21.3870     2.3970    80.5080    16.0460    14.5250    15.6710    24.2520 
  233.1250   -20.7350     2.3670    80.2870    15.8510    14.3480    13.8680    24.2270 
  233.2500   -20.4470     2.3360    83.8380    16.0030    14.4720    13.3410    24.2210 
  233.3750   -20.3690     2.3070    86.0560    16.3610    14.7840    14.8120    24.2170 
  233.5000   -20.3670     2.2850    82.0130    16.7100    15.1140    18.0700    24.1840 
  233.6250   -20.3990     2.2720    75.8910    16.7640    15.1990    17.4140    24.1570 
  233.7500   -20.4310     2.2670    75.9770    16.4740    14.9440    14.8440    24.1530 
  233.8750   -20.4450     2.2690    80.3250    15.9340    14.4030    12.6350    24.1660 
  234.0000   -20.4220     2.2790    84.3460    15.3220    13.7320    11.4930    24.1390 
  234.1250   -20.3630     2.2980    86.3660    14.8330    13.1250    10.5730    24.0770 
  234.2500   -20.2790     2.3160    85.9410    14.5260    12.6720    10.9920    23.9100 
  234.3750   -20.2410     2.3290    81.5740    14.4320    12.4150    11.6490    23.7580 
  234.5000   -20.3000     2.3280    75.8670    14.6170    12.4000    11.9150    23.7870 
  234.6250   -20.4990     2.3070    74.0220    15.2700    12.7680    12.0470    23.9610 
  234.7500   -20.7850     2.2720    77.1960    16.4380    13.5510    12.3510    24.1480 
  234.8750   -21.1410     2.2330    84.3530    18.1030    14.7570    14.0480    24.2280 
  235.0000   -21.5270     2.2060    92.7130    17.2980    16.2560    17.2140    24.2380 
  235.1250   -21.9150     2.2120    97.1670    18.7430    17.6490    20.4220    24.2380 
  235.2500   -22.2110     2.2460    97.5250    19.3940    18.4500    20.5210    24.2890 
  235.3750   -22.4930     2.2930    97.8790    19.0830    18.4140    17.9720    24.1450 
  235.5000   -22.7110     2.3340    99.8840    18.0490    17.6550    15.8810    24.0090 
  235.6250   -22.8150     2.3490    98.4560    16.8110    16.5550    14.5190    24.1180 
  235.7500   -22.8270     2.3450    92.6920    15.8350    15.5590    14.8010    24.1940 
  235.8750   -22.7750     2.3280    86.8100    15.2460    14.8250    15.7120    24.1230 
  236.0000   -22.7110     2.3060    83.6450    15.0000    14.3770    15.5860    23.9350 
  236.1250   -22.6470     2.2840    84.1250    15.0120    14.2010    15.6850    23.8010 
  236.2500   -22.6500     2.2660    86.6300    15.1360    14.1840    16.0300    23.7940 
  236.3750   -22.6070     2.2560    89.6970    15.3330    14.2770    15.9400    23.8650 
  236.5000   -22.6380     2.2600    90.8520    15.6030    14.4540    15.7090    23.9520 
  236.6250   -22.6940     2.2810    88.7920    15.9420    14.6930    16.0420    23.9980 
  236.7500   -22.7390     2.3110    85.0350    16.2660    14.9300    16.5310    23.9690 
  236.8750   -22.7780     2.3360    82.3540    16.4710    15.0960    15.9800    23.9120 
  237.0000   -22.8760     2.3480    83.4840    16.4660    15.1220    15.0580    23.8790 
  237.1250   -22.9480     2.3410    86.8870    16.2110    14.9670    16.5190    23.8230 
  237.2500   -22.9800     2.3290    86.7790    15.8520    14.7190    18.5620    23.7980 
  237.3750   -23.0900     2.3220    82.9220    15.5410    14.4840    19.0210    23.8810 
  237.5000   -23.1510     2.3260    80.2510    15.4260    14.3710    17.1860    23.9750 
  237.6250   -23.2410     2.3370    80.2330    15.6690    14.5150    16.1210    24.0080 
  237.7500   -23.3280     2.3440    80.3630    16.1710    14.8810    16.1920    24.0730 
  237.8750   -23.4420     2.3400    78.7920    16.6840    15.3020    16.3320    24.1080 
  238.0000   -23.4680     2.3310    76.2100    16.8320    15.4690    16.4650    24.0600 
  238.1250   -23.4330     2.3250    72.1410    16.1400    14.9380    16.8710    24.0060 
  238.2500   -23.3920     2.3310    67.3360    14.6980    13.7270    16.8380    23.9260 
  238.3750   -23.2310     2.3440    63.2380    12.8360    12.0890    13.5970    23.7280 
  238.5000   -23.0470     2.3580    59.2260    11.0050    10.4040     8.6700    23.4930 
  238.6250   -22.7720     2.3680    55.7590     9.5990     9.0230     7.3030    23.4220 
  238.7500   -22.4790     2.3730    54.0940     8.6190     8.0000     6.7410    23.4850 
  238.8750   -22.1860     2.3720    55.2090     7.9840     7.3070     6.6820    23.5470 
  239.0000   -21.8690     2.3630    57.4730     7.5790     6.8690     6.7520    23.5500 
  239.1250   -21.6170     2.3410    59.2330     7.3200     6.6180     6.7290    23.6270 
  239.2500   -21.3930     2.3150    61.7460     7.1430     6.4550     6.7250    23.7400 
  239.3750   -21.1360     2.2940    63.4000     7.0460     6.3620     6.7290    23.8620 
  239.5000   -20.8740     2.2840    62.7100     7.0190     6.3350     6.7470    23.9390 
  239.6250   -20.7050     2.2840    60.0930     7.0390     6.3650     6.8730    23.8860 
  239.7500   -20.5930     2.2890    58.7250     7.0820     6.4220     7.0560    23.7510 
  239.8750   -20.4960     2.2960    59.3370     7.1440     6.4870     7.0600    23.6630 
  240.0000   -20.4530     2.3060    59.6330     7.2240     6.5470     6.8790    23.6110 
  240.1250   -20.3480     2.3180    58.6000     7.3110     6.5890     6.8870    23.5240 
  240.2500   -20.2240     2.3320    57.4110     7.3920     6.6120     7.0050    23.4210 
  240.3750   -20.2150     2.3430    58.0040     7.4640     6.6170     6.9750    23.4060 
  240.5000   -20.2030     2.3470    59.3150     7.5270     6.6070     6.5150    23.4360 
  240.6250   -20.1480     2.3440    58.5840     7.5780     6.5910     6.4100    23.4780 
  240.7500   -20.1080     2.3380    57.9240     7.6170     6.5770     6.5250    23.5930 
  240.8750   -20.0230     2.3340    58.2740     7.6600     6.5750     6.6750    23.7920 
  241.0000   -19.8730     2.3400    58.8660     7.7350     6.5910     6.6760    23.9670 
  241.1250   -19.7510     2.3620    59.3020     7.8710     6.6310     6.4370    24.0410 
  241.2500   -19.6530     2.3860    55.1830     8.0520     6.6830     5.9270    24.0760 
  241.3750   -19.5370     2.3960    51.6910     8.2420     6.7300     5.7580    24.0880 
  241.5000   -19.4340     2.3800    51.6910     8.4070     6.7560     5.7110    24.0990 
  241.6250   -19.3560     2.3370    51.6910     8.5310     6.7660     6.1610    24.1640 
  241.7500   -19.2600     2.2960    51.6910     8.6320     6.7890     6.5020    24.2690 
  241.8750   -19.1180     2.2800    51.6910     8.7220     6.8480     6.7650    24.4250 
  242.0000   -18.9880     2.2990    51.6910     8.8080     6.9520     6.8450    24.5910 
  242.1250   -18.9330     2.3420    51.6910     8.9070     7.0940     7.2360    24.4050 
  242.2500   -18.8930     2.3820    51.6910     9.0200     7.2450     7.9880    24.2310 
  242.3750   -18.8220     2.4020    51.6910     9.1290     7.3820     8.2110    24.0940 
  242.5000   -18.7500     2.4030    51.6910     9.2100     7.4890     8.1800    23.9960 
  242.6250   -18.6610     2.3920    51.6910     9.2360     7.5580     7.8740    24.0360 
  242.7500   -18.5300     2.3800    51.6910     9.2520     7.6120     7.0410    24.0970 
  242.8750   -18.4220     2.3710    51.6910     9.3200     7.6780     6.4290    24.1000 
  243.0000   -18.2740     2.3650    51.6910     9.4960     7.7800     6.3180    24.0500 
  243.1250   -18.0690     2.3610    51.6910     9.7740     7.9320     7.2520    23.8560 
  243.2500   -17.9020     2.3550    51.6910    10.0380     8.1040     9.6560    23.7230 
  243.3750   -17.8340     2.3470    51.6910    10.1890     8.2580    13.1970    23.7400 
  243.5000   -17.8890     2.3430    51.6910    10.1820     8.3540    15.3760    23.9550 
  243.6250   -18.0220     2.3540    51.6910    10.0320     8.3560    15.3160    24.0610 
  243.7500   -18.1950     2.3750    51.6910     9.8390     8.2830    13.8130    24.0830 
  243.8750   -18.4540     2.3950    51.6910     9.6450     8.1510    13.0260    24.1220 
  244.0000   -18.7930     2.3960    51.6910     9.4490     7.9900    12.6410    24.1580 
  244.1250   -19.1570     2.3740    51.6910     9.2370     7.8290    12.1260    24.1620 
