~V
VERS. 2.00: Ver 2.00
~W
STRT.M 50.0000:
STOP.M 243.0000:
STEP.M 0.1250:
NULL. -999.2500:
UWI. F11115:
~C
DEPT.M :
DEN.GM/CC :
GR.API :
RML.OHMM :
RI. :
RXO.OHMM :
CALI.CM :
SP.MV :
~A
# ...
  218.7500     2.3210    64.7660     9.4280     8.5110     9.4200    24.3660   -18.3100 
  218.8750     2.2740    68.9430     9.5340     8.6080     9.2390    24.3580   -18.4030 
  219.0000     2.2570    70.9140     9.7070     8.7320     8.7780    24.3300   -18.4470 
  219.1250     2.2870    70.5900     9.9140     8.8520     8.9390    24.2880   -18.4520 
  219.2500     2.3430    70.4410    10.0580     8.9220     9.1270    24.2620   -18.4400 
  219.3750     2.3980    70.4640    10.0500     8.9100     9.3190    24.2580   -18.4210 
  219.5000     2.4260    69.6240     9.8590     8.8110     9.2870    24.2620   -18.3840 
  219.6250     2.4240    68.5690     9.5450     8.6630     9.1090    24.2680   -18.3120 
  219.7500     2.4080    67.9310     9.2610     8.5290     8.9500    24.2380   -18.2110 
  219.8750     2.3850    67.3280     9.0870     8.4380     8.8850    24.1620   -18.0800 
  220.0000     2.3570    66.5330     9.0220     8.3840     9.1510    24.1170   -17.9320 
  220.1250     2.3280    66.4880     9.0130     8.3420    10.3870    24.1730   -17.7790 
  220.2500     2.3010    68.3750     8.9780     8.2910    12.4700    24.2500   -17.6440 
  220.3750     2.2840    70.9680     8.9130     8.2400    13.4760    24.2850   -17.5520 
  220.5000     2.2830    71.5890     8.8630     8.2130    11.3480    24.2920   -17.5120 
  220.6250     2.2970    69.0840     8.9000     8.2500     9.5410    24.3100   -17.5250 
  220.7500     2.3130    66.7270     9.0220     8.3490     8.5910    24.3140   -17.5420 
  220.8750     2.3190    67.1820     9.2040     8.4970     8.1180    24.3110   -17.5370 
  221.0000     2.3140    69.3240     9.4050     8.6650     8.0390    24.3110   -17.5170 
  221.1250     2.3030    69.8590     9.5660     8.8090     8.3200    24.3160   -17.5000 
  221.2500     2.2930    68.5790     9.6620     8.9010     8.7610    24.3190   -17.5050 
  221.3750     2.2810    67.8980     9.7050     8.9180     9.2180    24.3160   -17.5360 
  221.5000     2.2630    69.7090     9.7120     8.8540     9.5160    24.3100   -17.5860 
  221.6250     2.2440    70.9010     9.6870     8.7270     9.7020    24.3130   -17.6550 
  221.7500     2.2390    69.3980     9.6440     8.6000     9.4990    24.3120   -17.7330 
  221.8750     2.2570    68.4160     9.6140     8.5360     8.6890    24.2870   -17.8060 
  222.0000     2.3030    69.9890     9.6480     8.5880     8.0270    24.2390   -17.8570 
  222.1250     2.3630    72.9950     9.8180     8.8030     8.3730    23.8650   -17.8790 
  222.2500     2.4150    75.1220    10.1060     9.1300     9.2690    23.7180   -17.9020 
  222.3750     2.4450    76.4920    10.4440     9.4990    10.1970    23.6490   -17.9380 
  222.5000     2.4490    77.1760    10.7110     9.8200    10.7930    23.6110   -17.9790 
  222.6250     2.4250    74.2900    10.7620     9.9700    11.2540    23.5980   -17.9850 
  222.7500     2.3880    70.1290    10.6010     9.9260    12.1000    23.6270   -17.9310 
  222.8750     2.3490    69.0790    10.2850     9.7160    12.7580    23.6840   -17.8380 
  223.0000     2.3170    71.7570     9.9040     9.4110    12.0070    23.7220   -17.7340 
  223.1250     2.2940    74.6020     9.5520     9.1010    10.7010    23.6230   -17.6430 
  223.2500     2.2770    75.7040     9.2850     8.8550     9.6910    23.3920   -17.5870 
  223.3750     2.2620    75.5310     9.1270     8.7020     9.0710    23.1610   -17.5830 
  223.5000     2.2560    74.5720     9.0800     8.6510     8.8860    23.2130   -17.6430 
  223.6250     2.2740    73.8130     9.1590     8.7150     8.9440    23.7560   -17.7660 
  223.7500     2.3160    74.8360     9.3430     8.8740     9.3260    24.4200   -17.8990 
  223.8750     2.3670    75.9970     9.6220     9.1190    10.1330    24.7660   -17.9940 
  224.0000     2.4090    75.5210     9.9750     9.4350    10.9390    24.6290   -18.0240 
  224.1250     2.4260    73.8470    10.3640     9.7830    12.0810    24.2280   -17.9730 
  224.2500     2.4270    71.0160    10.7130    10.0980    12.8540    23.8390   -17.8680 
  224.3750     2.4250    67.9850    10.9600    10.3250    13.1040    23.8180   -17.7360 
  224.5000     2.4180    69.0080    11.0600    10.4290    13.4260    24.3450   -17.6080 
  224.6250     2.3970    74.0780    10.9820    10.3960    13.3450    24.9650   -17.5210 
  224.7500     2.3640    75.2550    10.8030    10.2940    13.6410    25.0860   -17.4960 
  224.8750     2.3340    72.3180    10.6080    10.1800    13.3630    24.7710   -17.5330 
  225.0000     2.3230    70.5430    10.4890    10.1070    12.1140    24.4220   -17.6200 
  225.1250     2.3450    72.7710    10.5270    10.1160    11.7950    24.1520   -17.7420 
  225.2500     2.3860    76.8730    10.6840    10.1920    12.2530    23.8470   -17.8550 
  225.3750     2.4220    80.9930    10.8910    10.3020    13.1660    23.5720   -17.9430 
  225.5000     2.4360    82.6820    11.0630    10.4050    14.1240    23.3390   -18.0130 
  225.6250     2.4190    80.0300    11.1300    10.4640    14.1000    23.1620   -18.0720 
  225.7500     2.3900    77.2800    11.1180    10.4770    13.3070    23.0520   -18.1060 
  225.8750     2.3610    76.2390    11.0690    10.4570    11.9200    23.0440   -18.1030 
  226.0000     2.3420    75.1130    11.0260    10.4340    11.2220    23.1430   -18.0540 
  226.1250     2.3450    73.6500    11.0280    10.4320    10.9040    23.2620   -17.9520 
  226.2500     2.3650    73.6220    11.0610    10.4510    10.8640    23.2990   -17.8270 
  226.3750     2.3960    74.5640    11.0930    10.4790    11.2510    23.2570   -17.6920 
  226.5000     2.4220    75.0370    11.0820    10.4970    12.1210    23.2050   -17.5650 
  226.6250     2.4290    73.9820    10.9810    10.4710    12.6860    23.2340   -17.4960 
  226.7500     2.4190    71.3650    10.7980    10.3860    12.2620    23.3370   -17.4950 
  226.8750     2.4000    68.0710    10.5670    10.2440    11.9770    23.4640   -17.5560 
  227.0000     2.3830    65.9990    10.3400    10.0680    10.8000    23.5600   -17.6570 
  227.1250     2.3750    66.8960    10.1760     9.9010     9.1330    23.5970   -17.7410 
  227.2500     2.3750    68.8360    10.0930     9.7870     8.6880    23.5980   -17.7860 
  227.3750     2.3790    70.2270    10.0970     9.7470     9.1940    23.5650   -17.7950 
  227.5000     2.3840    72.0720    10.1820     9.7860     9.7060    23.5130   -17.7710 
  227.6250     2.3830    75.3050    10.3410     9.9100    10.1140    23.4590   -17.7320 
  227.7500     2.3680    76.5220    10.5530    10.0980    10.4290    23.3840   -17.7080 
  227.8750     2.3420    74.2470    10.8210    10.3440    10.6740    23.2890   -17.7090 
  228.0000     2.3170    70.8110    11.1470    10.6360    10.8580    23.2620   -17.7190 
  228.1250     2.3150    71.0380    11.5110    10.9520    11.6350    23.4030   -17.7380 
  228.2500     2.3460    74.0050    11.8550    11.2540    13.2710    23.6030   -17.7420 
  228.3750     2.4070    75.6460    12.1320    11.5060    14.2490    23.7530   -17.7110 
  228.5000     2.4760    74.2900    12.3130    11.6760    13.4140    23.8260   -17.6440 
  228.6250     2.5220    72.3940    12.3990    11.7440    12.3790    23.8640   -17.5420 
  228.7500     2.5370    72.1380    12.4520    11.7570    12.2650    23.8660   -17.4190 
  228.8750     2.5330    74.0510    12.5080    11.7630    13.5850    23.7820   -17.3110 
  229.0000     2.5180    76.9770    12.5900    11.7980    15.7560    23.5910   -17.2410 
  229.1250     2.4920    77.4080    12.7100    11.8750    17.6680    23.3650   -17.2040 
  229.2500     2.4560    73.9180    12.8350    11.9760    19.1190    23.2030   -17.1740 
  229.3750     2.4100    71.0200    12.9250    12.0760    19.0190    23.1150   -17.1170 
  229.5000     2.3630    73.1240    12.9600    12.1590    17.7820    23.0830   -17.0300 
  229.6250     2.3350    76.6650    12.9520    12.2150    15.3370    23.1400   -16.9330 
  229.7500     2.3390    75.6520    12.9310    12.2320    12.7190    23.2670   -16.8430 
  229.8750     2.3750    71.3540    12.8810    12.1780    10.4410    23.3940   -16.7740 
