~V
VERS. 2.00: Ver 2.00
~W
STRT.M 53.0000:
STOP.M 252.0000:
STEP.M 0.1250:
NULL. -999.2500:
UWI. F11141:
~C
DEPT.M :
SP.MV :
DEN.GM/CC :
GR.API :
RML.OHMM :
RI. :
RXO.OHMM :
CALI.CM :
~A
# ...
   64.2500    13.9600     2.1710    97.2750     6.0070     5.7910     6.4530    24.1900 
   64.3750     9.5670     2.2060    95.3790     6.7620     6.6900     7.0850    24.0580 
   64.5000     6.3130     2.2510    95.7730     7.5340     7.5240     8.0070    23.8090 
   64.6250     3.9070     2.2680    96.7910     7.9940     8.0530     8.9420    23.5320 
   64.7500     1.9130     2.2450    97.8440     7.9270     8.1320     8.9230    23.4930 
   64.8750     0.2490     2.1960    98.4180     7.4030     7.7690     8.3300    23.6770 
   65.0000    -1.0950     2.1550    97.2700     6.7850     7.2040     8.0910    23.9300 
   65.1250    -2.0520     2.1580    95.8600     6.5720     6.8740     8.0670    24.1760 
   65.2500    -2.7110     2.2050    96.6460     7.0010     7.0980     7.4330    24.3960 
   65.3750    -3.1130     2.2740    96.5760     8.2790     8.1170     6.9140    24.5150 
   65.5000    -3.4550     2.3360    90.1230    10.6080    10.0900     9.0460    24.5100 
   65.6250    -4.0400     2.3650    78.5010    13.9530    12.9480    18.2540    24.4380 
   65.7500    -4.8970     2.3640    71.1620    16.7310    15.5250    29.5620    24.3280 
   65.8750    -6.0880     2.3410    70.2910    17.1010    16.4360    29.2680    24.1350 
   66.0000    -7.5970     2.3030    70.6370    15.0650    15.2490    20.1260    23.8810 
   66.1250    -9.3680     2.2500    71.5440    12.4640    12.9720    14.3970    23.9430 
   66.2500   -11.3010     2.1910    74.4770    10.5550    10.9790    12.6170    24.2790 
   66.3750   -13.3110     2.1400    76.0800     9.4450     9.6420    12.8000    24.6450 
   66.5000   -15.2300     2.1090    75.6130     8.9780     8.9370    12.6480    24.8230 
   66.6250   -16.7630     2.1020    77.5040     8.9910     8.7410    11.6290    24.8030 
   66.7500   -18.0240     2.1070    79.2070     9.1780     8.7700    10.8030    24.7180 
   66.8750   -18.9970     2.1140    76.0170     9.3680     8.8600    10.8390    24.7250 
   67.0000   -19.6590     2.1230    71.6420     9.4500     8.8970    11.0180    24.7960 
   67.1250   -20.0480     2.1390    71.9620     9.3520     8.7990    10.9470    24.8420 
   67.2500   -20.3080     2.1600    73.4940     9.0940     8.5790    10.7210    24.7920 
   67.3750   -20.4270     2.1770    73.9160     8.7680     8.2920    10.6430    24.7110 
   67.5000   -20.4080     2.1800    74.8950     8.5870     8.0920    10.6640    24.6270 
   67.6250   -20.4590     2.1710    76.6860     8.9080     8.2810    10.8780    24.6250 
   67.7500   -20.4590     2.1680    77.4980     9.8510     9.0020    11.3630    24.7030 
   67.8750   -20.3670     2.1880    77.2830    11.4250    10.2930    13.4480    24.7350 
   68.0000   -20.2840     2.2310    76.6650    13.3710    11.9730    20.8130    24.6100 
   68.1250   -20.3300     2.2770    76.3330    14.8020    13.3820    38.5590    24.3330 
   68.2500   -20.4840     2.2960    76.8500    14.8930    13.7890    38.9580    23.9760 
   68.3750   -20.8340     2.2730    77.5660    13.6960    13.0580    21.8610    23.7610 
   68.5000   -21.3920     2.2110    76.8360    12.0200    11.7090    13.1120    23.8350 
   68.6250   -22.0140     2.1270    72.6260    10.7250    10.4420    11.5340    24.2420 
   68.7500   -22.7280     2.0510    66.1300    10.0280     9.5800    11.7480    24.8040 
   68.8750   -23.5650     2.0050    61.0790     9.8510     9.1520    11.8210    25.3710 
   69.0000   -24.3750     1.9940    60.7050     9.9660     9.0450    11.8270    25.7940 
   69.1250   -25.0240     2.0170    64.9170    10.0910     9.0670    12.0230    25.8010 
   69.2500   -25.5670     2.0440    69.2660    10.0990     9.0490    12.1600    25.5710 
   69.3750   -25.9490     2.0570    71.0790    10.0450     8.9840    12.2310    25.3250 
   69.5000   -26.1310     2.0450    69.8600    10.0120     8.9190    12.2160    25.1990 
   69.6250   -26.1300     2.0140    68.2790     9.9990     8.8730    12.0960    25.1710 
   69.7500   -26.0440     1.9870    68.3320     9.9280     8.7990    12.0890    25.2030 
   69.8750   -25.7660     1.9870    69.3490     9.7520     8.6570    12.0370    25.3260 
   70.0000   -25.2740     2.0240    72.1440     9.4970     8.4490    11.8870    25.4070 
   70.1250   -24.6740     2.0930    79.7990     9.2830     8.2350    11.2390    25.0620 
   70.2500   -24.0890     2.1630    88.0340     9.2300     8.0990    10.4070    24.3230 
   70.3750   -23.5910     2.2070    89.9890     9.3860     8.0910    10.3330    23.6890 
   70.5000   -23.3130     2.2130    86.9200     9.7230     8.2130    10.6170    23.4390 
   70.6250   -23.1870     2.1810    85.6790    10.1400     8.4250    10.9590    23.5520 
   70.7500   -23.1220     2.1370    83.0400    10.4860     8.6260    11.2750    23.8670 
   70.8750   -23.2450     2.1000    76.4490    10.6690     8.7390    11.6250    24.2550 
   71.0000   -23.5910     2.0790    71.1870    10.6570     8.7240    11.8170    24.5370 
   71.1250   -24.0380     2.0800    70.6890    10.4700     8.5740    11.8170    24.6810 
   71.2500   -24.4450     2.0940    70.4570    10.2070     8.3520    11.5660    24.6970 
   71.3750   -24.7370     2.1140    71.2830     9.9440     8.1100    11.7180    24.5890 
   71.5000   -24.8530     2.1360    76.5360     9.7580     7.9060    11.8040    24.5430 
   71.6250   -24.9010     2.1540    78.7090     9.7200     7.8040    11.6540    24.5170 
   71.7500   -24.9490     2.1670    75.7500     9.8050     7.8000    10.9600    24.3240 
   71.8750   -25.0250     2.1750    73.8370     9.9720     7.8780    10.8700    23.9990 
   72.0000   -25.2170     2.1700    74.1410    10.1540     7.9990    12.0160    23.8500 
   72.1250   -25.5690     2.1390    70.0310    10.2650     8.1060    12.4940    23.9170 
   72.2500   -26.0670     2.0840    64.8430    10.2860     8.1650    12.2130    23.9610 
   72.3750   -26.7170     2.0190    63.9810    10.2460     8.1770    11.7960    24.0980 
   72.5000   -27.4730     1.9680    65.7080    10.1840     8.1560    12.4650    24.5420 
   72.6250   -28.2230     1.9610    66.0860    10.1340     8.1180    14.1780    24.9440 
   72.7500   -28.8240     1.9950    69.1550    10.0880     8.0730    15.8210    25.1730 
   72.8750   -29.2320     2.0500    73.1650    10.0180     8.0100    15.1990    25.4130 
   73.0000   -29.4970     2.1040    73.2050     9.9100     7.9150    13.6950    25.4940 
   73.1250   -29.6320     2.1340    70.2600     9.7880     7.7940    13.2100    25.1420 
   73.2500   -29.6090     2.1420    69.1090     9.6990     7.6790    13.0310    24.5240 
   73.3750   -29.4480     2.1380    69.9970     9.6580     7.5850    12.5070    24.0930 
   73.5000   -29.1960     2.1320    70.5770     9.6540     7.5140    12.1830    24.0940 
   73.6250   -28.9210     2.1340    70.2380     9.6600     7.4590    12.1770    24.2560 
   73.7500   -28.7400     2.1460    70.1150     9.6480     7.4070    12.3390    24.0130 
   73.8750   -28.6650     2.1620    70.1930     9.6090     7.3560    12.5570    23.5890 
   74.0000   -28.6510     2.1730    69.9090     9.5580     7.3150    13.0190    23.2430 
   74.1250   -28.7370     2.1680    67.8690     9.5290     7.3000    13.1730    23.0890 
   74.2500   -28.9670     2.1470    66.2330     9.5550     7.3160    13.1400    23.2110 
   74.3750   -29.3160     2.1140    68.6660     9.6480     7.3650    13.1660    23.4880 
   74.5000   -29.7530     2.0750    72.7230     9.7920     7.4410    13.2220    23.7280 
   74.6250   -30.2400     2.0440    72.8520     9.9390     7.5260    13.5220    23.9450 
   74.7500   -30.7100     2.0310    69.4170    10.0450     7.5970    13.7790    24.1760 
   74.8750   -31.1490     2.0400    65.4160    10.0910     7.6360    14.1450    24.3460 
   75.0000   -31.4970     2.0680    64.0870    10.0810     7.6360    14.7690    24.4630 
   75.1250   -31.7270     2.1010    64.3340    10.0330     7.5970    14.0920    24.4380 
   75.2500   -31.8590     2.1200    64.0730     9.9770     7.5470    13.8140    24.3770 
   75.3750   -31.8680     2.1170    63.3760     9.9250     7.4980    13.7250    24.3820 
