~V
VERS. 2.00: Ver 2.00
~W
STRT.M 63.0000:
STOP.M 244.0000:
STEP.M 0.1250:
NULL. -999.2500:
UWI. F11131:
~C
DEPT.M :
SP.MV :
DEN.GM/CC :
GR.API :
RML.OHMM :
RI. :
RXO.OHMM :
CALI.CM :
~A
# ...
  198.0000   -22.4000     2.1250    48.0210     6.6230     5.2590     5.5090    29.0320 
  198.1250   -22.5980     2.1020    45.6550     6.6890     5.2930     5.5170    29.0800 
  198.2500   -22.8970     2.0880    43.4670     6.7750     5.3340     5.4410    29.8900 
  198.3750   -23.3200     2.1190    43.8600     6.8780     5.3790     5.3250    31.2460 
  198.5000   -23.8340     2.1960    46.3200     6.9860     5.4180     5.2650    31.8630 
  198.6250   -24.4670     2.2710    49.0680     7.0830     5.4500     5.3760    30.5790 
  198.7500   -25.2230     2.3150    52.7560     7.1850     5.4930     5.6360    28.8030 
  198.8750   -26.0740     2.3340    58.0840     7.3310     5.5710     5.8870    28.0930 
  199.0000   -27.0450     2.3480    63.0460     7.5680     5.7080     6.0990    28.8050 
  199.1250   -28.1450     2.3640    65.3670     7.9310     5.9250     6.1750    29.4830 
  199.2500   -29.2780     2.3790    68.0240     8.3590     6.1880     6.1980    28.9410 
  199.3750   -30.3940     2.3920    74.0740     8.7730     6.4520     6.1400    27.6630 
  199.5000   -31.5000     2.4020    82.9690     9.0920     6.6720     5.4280    26.8530 
  199.6250   -32.5840     2.4050    87.9890     9.2430     6.8020     5.4510    26.9100 
  199.7500   -33.6270     2.3930    87.6510     9.2690     6.8620     5.5250    26.7700 
  199.8750   -34.6160     2.3650    86.3910     9.2250     6.8780     5.6090    26.2150 
  200.0000   -35.4860     2.3180    88.3080     9.1700     6.8820     5.9160    25.7460 
  200.1250   -36.2040     2.2650    90.1980     9.1350     6.8860     6.0540    25.6000 
  200.2500   -36.8070     2.2190    87.9410     9.1030     6.8820     6.4060    25.5000 
  200.3750   -37.3410     2.1940    85.4730     9.0380     6.8520     7.0200    25.3720 
  200.5000   -37.8540     2.2010    87.0410     8.9010     6.7820     7.6300    25.2800 
  200.6250   -38.3740     2.2310    92.1710     8.6810     6.6660     7.6470    25.2050 
  200.7500   -38.8910     2.2660    96.9860     8.4460     6.5350     7.4380    25.1590 
  200.8750   -39.3900     2.2910   100.8220     8.2620     6.4160     7.2380    25.1280 
  201.0000   -39.9290     2.2970   103.8160     8.1750     6.3380     7.3850    25.0260 
  201.1250   -40.5380     2.2940   103.9650     8.1970     6.3210     6.7830    24.8520 
  201.2500   -41.1620     2.2900   100.7780     8.2660     6.3480     6.2280    24.7460 
  201.3750   -41.7310     2.2870    94.8970     8.3350     6.3930     6.6640    24.7330 
  201.5000   -42.2240     2.2880    89.5530     8.3770     6.4310     7.2880    24.7390 
  201.6250   -42.6330     2.2970    87.6020     8.3820     6.4410     7.4250    24.7340 
  201.7500   -42.9290     2.3140    87.0120     8.3770     6.4390     7.3580    24.7320 
  201.8750   -43.1150     2.3320    85.7900     8.3860     6.4440     7.3780    24.7310 
  202.0000   -43.2070     2.3390    83.4460     8.4810     6.5010     7.3900    24.7330 
  202.1250   -43.1990     2.3310    82.2380     8.8200     6.7230     7.4780    24.7440 
  202.2500   -43.1060     2.3090    80.6480     9.4490     7.1400     7.6520    24.7400 
  202.3750   -42.9350     2.2790    76.8410    10.3380     7.7460     8.2050    24.6890 
  202.5000   -42.6700     2.2520    72.7780    11.3280     8.4590    10.1170    24.6310 
  202.6250   -42.3430     2.2300    71.8100    12.0810     9.0860    15.1900    24.6560 
  202.7500   -42.0130     2.2140    72.3460    12.4010     9.4730    18.7780    24.7500 
  202.8750   -41.6240     2.2110    71.7330    12.3100     9.5960    14.7080    24.8530 
  203.0000   -41.1190     2.2270    70.0330    11.9850     9.5320    10.3690    24.9470 
  203.1250   -40.4940     2.2570    70.4650    11.6030     9.3680     9.6130    24.9770 
  203.2500   -39.8350     2.2880    73.4960    11.2400     9.1610     9.4800    24.8920 
  203.3750   -39.1750     2.3100    77.4960    10.8390     8.8870    10.4620    24.7490 
  203.5000   -38.5130     2.3130    80.6720    10.3060     8.4940    11.5700    24.6610 
  203.6250   -37.8400     2.3120    83.8950     9.6300     7.9640     8.7880    24.6580 
  203.7500   -37.1730     2.3170    86.4510     8.9840     7.4110     7.5550    24.6600 
  203.8750   -36.5710     2.3350    86.2550     8.5110     6.9420     7.3130    24.7160 
  204.0000   -36.0720     2.3650    84.2680     8.2780     6.6250     7.4000    24.8440 
  204.1250   -35.7090     2.3950    82.3170     8.2810     6.5110     7.2430    24.8460 
  204.2500   -35.4340     2.4110    79.7440     8.3610     6.5300     7.1810    24.6460 
  204.3750   -35.1680     2.4010    77.4410     8.4100     6.6220     7.4700    24.3930 
  204.5000   -34.8510     2.3620    78.2320     8.4150     6.7520     7.6770    24.2660 
  204.6250   -34.3900     2.3190    80.2720     8.4860     6.9450     7.5330    24.4270 
  204.7500   -33.7650     2.2930    78.6570     8.7210     7.2240     7.6150    24.8370 
  204.8750   -32.9330     2.2990    75.1510     9.1670     7.6100     8.3660    25.2320 
  205.0000   -31.8660     2.3440    73.8940     9.8340     8.1220     9.5410    25.1850 
  205.1250   -30.5270     2.3990    76.3080    10.6170     8.7260    11.1810    24.5800 
  205.2500   -29.0040     2.4340    78.3280    11.1890     9.2250    12.5230    23.9510 
  205.3750   -27.3940     2.4340    77.4280    11.2330     9.3990    11.4390    23.5820 
  205.5000   -25.7810     2.4050    75.9100    10.6130     9.1100    10.4330    23.4540 
  205.6250   -24.2780     2.3730    76.9340     9.4420     8.3610     9.8310    23.4650 
  205.7500   -22.9280     2.3550    79.1110     8.2100     7.4630     7.4950    23.5210 
  205.8750   -21.7830     2.3560    79.8300     7.2300     6.6480     6.1250    23.5710 
  206.0000   -20.8680     2.3670    79.8990     6.6330     6.0530     6.0790    23.5940 
  206.1250   -20.2090     2.3740    81.0950     6.4260     5.7460     6.4450    23.5940 
  206.2500   -19.7510     2.3720    81.7930     6.4310     5.6440     6.4680    23.5950 
  206.3750   -19.4670     2.3660    81.4800     6.5290     5.6710     5.9750    23.6230 
  206.5000   -19.3300     2.3580    82.0310     6.6180     5.7420     5.4170    23.6840 
  206.6250   -19.2810     2.3510    83.9390     6.6510     5.7910     5.1450    23.7580 
  206.7500   -19.2960     2.3460    85.7040     6.6790     5.8250     5.1290    23.8800 
  206.8750   -19.3300     2.3410    85.4430     6.7500     5.8700     5.4210    24.0440 
  207.0000   -19.3480     2.3360    83.7920     6.8800     5.9520     5.9920    24.1640 
  207.1250   -19.3630     2.3310    84.3440     7.0790     6.1020     6.4650    24.1570 
  207.2500   -19.3760     2.3260    85.9220     7.3390     6.3180     6.8820    24.1080 
  207.3750   -19.3740     2.3260    84.9660     7.6790     6.6050     7.1720    24.0940 
  207.5000   -19.3480     2.3300    79.7970     8.1230     6.9580     7.7220    24.0950 
  207.6250   -19.3300     2.3360    74.3640     8.6610     7.3580     8.8790    24.0870 
  207.7500   -19.3420     2.3380    73.6110     9.2110     7.7630     9.8880    24.0840 
  207.8750   -19.3950     2.3350    75.8280     9.7280     8.1670    10.1290    24.0860 
  208.0000   -19.5010     2.3330    78.9170    10.2160     8.6010    11.0970    24.0920 
  208.1250   -19.6500     2.3340    80.8000    10.8030     9.1500    11.6930    24.0940 
  208.2500   -19.8270     2.3410    80.3690    11.6580     9.8830    12.0870    24.0900 
  208.3750   -20.0360     2.3490    76.8860    12.8870    10.8480    13.3650    24.0880 
  208.5000   -20.2820     2.3520    72.0340    14.4120    12.0070    16.2340    24.0890 
  208.6250   -20.5290     2.3460    69.8310    15.8790    13.1760    19.0600    24.0930 
  208.7500   -20.7460     2.3300    70.1060    16.8680    14.0860    19.7040    24.0940 
  208.8750   -20.9350     2.3050    70.3530    17.1550    14.5460    19.9120    24.0930 
  209.0000   -21.1060     2.2760    70.3870    16.7990    14.5170    19.1250    24.0920 
  209.1250   -21.2360     2.2560    71.8540    16.1000    14.1270    16.8190    24.0920 
