~V
VERS. 2.00: Ver 2.00
~W
STRT.M 55.0000:
STOP.M 201.0000:
STEP.M 0.1250:
NULL. -999.2500:
UWI. F11111:
~C
DEPT.M :
GR.API :
RML.OHMM :
RI. :
RXO.OHMM :
CALI.CM :
SP.MV :
DEN.GM/CC :
~A
# ...
  100.0000    69.9360     7.9910     7.0540     5.9370    18.1210   -18.0250     2.1290 
  100.1250    67.2600     8.1240     7.1360     5.8820    18.0660   -18.0420     2.1260 
  100.2500    66.1730     8.3490     7.2910     5.8970    18.0580   -18.0830     2.1240 
  100.3750    67.6080     8.6000     7.4720     5.9560    18.0540   -18.1240     2.1230 
  100.5000    68.9270     8.7790     7.6030     6.0580    18.0410   -18.1580     2.1240 
  100.6250    68.5590     8.7470     7.5690     6.1550    18.0540   -18.2630     2.1310 
  100.7500    67.6800     8.5210     7.3640     6.1910    18.0590   -18.4600     2.1420 
  100.8750    66.9210     8.1880     7.0480     6.1960    18.0780   -18.7160     2.1560 
  101.0000    68.4790     7.8600     6.7100     6.3070    18.1580   -19.0300     2.1720 
  101.1250    70.6670     7.6510     6.4540     6.4440    18.2140   -19.3570     2.1860 
  101.2500    70.1350     7.6280     6.3480     6.4590    18.2540   -19.6580     2.1930 
  101.3750    69.4230     7.8600     6.4480     6.3220    18.2970   -19.9690     2.1910 
  101.5000    70.7920     8.4190     6.7990     6.2110    18.3460   -20.2990     2.1800 
  101.6250    71.9940     9.4620     7.5010     6.0210    18.4180   -20.6220     2.1600 
  101.7500    71.6220    10.9740     8.5680     6.4800    18.4900   -20.8510     2.1390 
  101.8750    70.3580    12.8710    10.0120     7.6900    18.6760   -20.9140     2.1180 
  102.0000    67.8890    14.8870    11.7300     8.6990    18.8380   -20.9020     2.0990 
  102.1250    63.9520    16.4680    13.3850     9.4870    19.0170   -20.9060     2.0830 
  102.2500    61.2480    17.2260    14.5410    10.7170    19.1680   -20.9500     2.0710 
  102.3750    62.2000    17.0890    14.9710    13.3340    19.2290   -21.0170     2.0620 
  102.5000    64.5010    16.3650    14.7800    17.7140    19.3830   -21.0840     2.0600 
  102.6250    65.3360    15.5580    14.2980    19.3120    19.5690   -21.1100     2.0630 
  102.7500    65.3640    15.0190    13.8700    16.6010    19.7890   -21.1140     2.0710 
  102.8750    65.7610    14.8660    13.6420    14.5000    19.9380   -21.2010     2.0780 
  103.0000    66.4790    15.1080    13.6960    14.8900    19.9300   -21.3520     2.0790 
  103.1250    65.6130    15.5680    13.9990    16.6130    20.0670   -21.4780     2.0660 
  103.2500    63.8800    15.7780    14.2110    17.5190    20.3050   -21.4950     2.0430 
  103.3750    63.3950    15.3180    13.9490    18.4630    20.4720   -21.3740     2.0160 
  103.5000    64.6340    14.0160    12.9810    19.6000    20.9000   -21.1680     1.9950 
  103.6250    68.3870    12.1330    11.4240    17.0400    20.8510   -20.9290     1.9930 
  103.7500    73.2860    10.8830     9.8670    12.4910    20.5320   -20.7150     2.0060 
  103.8750    78.6680    10.1540     8.6800     8.7350    20.1750   -20.5430     2.0300 
  104.0000    82.6870     9.6530     8.0180     7.6690    18.7180   -20.3610     2.0530 
  104.1250    82.3970     9.8940     7.9280     8.3260    17.9640   -20.1710     2.0650 
  104.2500    77.8490    10.4900     8.1950     9.7360    17.9230   -20.0700     2.0690 
  104.3750    73.0480    11.1510     8.6460    11.4020    18.1600   -20.0610     2.0790 
  104.5000    70.9750    11.6350     9.0990    11.9210    18.4030   -20.0790     2.1140 
  104.6250    70.0950    11.8130     9.4160    11.4960    18.4850   -20.1440     2.1890 
  104.7500    68.1630    11.8370     9.6390    10.8740    18.7640   -20.2770     2.2810 
  104.8750    65.1690    11.8340     9.8520    11.2910    19.4320   -20.3770     2.3590 
  105.0000    60.6320    11.8610    10.0990    11.8740    20.5200   -20.4440     2.3950 
  105.1250    57.5430    11.9410    10.3890    10.9480    21.0710   -20.5480     2.3740 
  105.2500    59.4140    12.0880    10.7150     9.8800    21.0700   -20.6420     2.3250 
  105.3750    63.7740    12.3060    11.0740     9.6800    21.0900   -20.7320     2.2690 
  105.5000    65.5740    12.5360    11.4260     9.8770    21.1120   -20.8710     2.2170 
  105.6250    66.0830    12.5660    11.6160    10.2560    21.1570   -21.0500     2.1760 
  105.7500    66.7840    12.1860    11.4660    11.0500    21.1430   -21.2360     2.1490 
  105.8750    66.7350    11.2770    10.8370    11.6870    21.2050   -21.4680     2.1410 
  106.0000    68.3330     9.9240     9.7470    10.5650    21.6680   -21.7670     2.1510 
  106.1250    76.1780     8.4270     8.4080     7.4660    22.8340   -22.0760     2.1760 
  106.2500    85.1330     7.1080     7.1350     5.9200    23.9460   -22.3980     2.2060 
  106.3750    91.3000     6.0640     6.0600     5.4830    24.4010   -22.7470     2.2360 
  106.5000    95.5150     5.2820     5.2170     5.2620    24.5540   -23.1020     2.2590 
  106.6250    99.9780     4.7830     4.6390     4.8650    24.6580   -23.4560     2.2720 
  106.7500   103.8540     4.5890     4.3110     4.5900    24.6560   -23.8160     2.2810 
  106.8750   106.1140     4.8220     4.2940     4.5240    24.5770   -24.2220     2.2940 
  107.0000   105.9500     5.6590     4.7060     4.6260    24.5160   -24.6460     2.3200 
  107.1250   103.7490     7.5210     5.8760     6.1760    24.3760   -25.0790     2.3550 
  107.2500    97.8520    10.5160     7.9900    11.1920    23.9770   -25.5090     2.3760 
  107.3750    84.5800    14.6310    11.2450    22.3260    23.6810   -25.9070     2.3620 
  107.5000    68.1420    19.3340    15.4870    36.6500    23.6770   -26.2500     2.3140 
  107.6250    59.6200    23.1270    19.6380    34.9400    24.1760   -26.4840     2.2560 
  107.7500    58.4460    24.9410    22.2430    30.7650    24.6850   -26.6400     2.2220 
  107.8750    58.6500    24.9660    22.9710    28.8050    24.8210   -26.7170     2.2210 
  108.0000    58.0920    24.3250    22.6370    27.5460    24.8800   -26.7130     2.2380 
  108.1250    59.4820    24.1630    22.3320    27.6360    25.1400   -26.5830     2.2450 
  108.2500    60.8210    24.6680    22.4830    28.5250    25.4970   -26.3430     2.2250 
  108.3750    60.9350    25.6080    23.0110    28.9980    25.7440   -26.0530     2.1820 
  108.5000    60.1420    26.6690    23.7120    29.2210    25.7020   -25.7960     2.1320 
  108.6250    60.1310    27.4950    24.3440    33.4210    25.4120   -25.5430     2.0900 
  108.7500    61.1060    27.8810    24.7330    42.4790    25.1830   -25.2370     2.0640 
  108.8750    61.4270    27.7480    24.7870    43.9270    25.0140   -24.8450     2.0530 
  109.0000    61.8250    27.1640    24.5050    34.4020    24.9130   -24.4340     2.0560 
  109.1250    62.0370    26.3090    23.9470    30.3920    24.6520   -24.1220     2.0690 
  109.2500    62.6620    25.4820    23.3200    29.6100    24.5990   -23.9120     2.0830 
  109.3750    64.0370    24.8160    22.7460    29.5660    24.5680   -23.6780     2.0920 
  109.5000    65.0430    24.2640    22.2330    28.8050    24.3460   -23.3340     2.0930 
  109.6250    65.8000    23.6060    21.6370    27.7010    24.0060   -23.0530     2.0910 
  109.7500    67.8710    22.6600    20.8040    27.2590    23.7040   -22.9000     2.0950 
  109.8750    70.1350    21.3690    19.6640    27.7830    23.8770   -22.8850     2.1100 
  110.0000    70.1710    19.8190    18.2620    26.7240    23.7980   -22.9310     2.1320 
  110.1250    70.2660    18.2740    16.7840    22.4760    23.0690   -22.9380     2.1570 
  110.2500    73.1170    17.0740    15.5170    18.0860    21.8370   -22.8570     2.1770 
  110.3750    73.2610    16.4590    14.6780    15.3870    20.8930   -22.8210     2.1920 
  110.5000    68.8620    16.5550    14.4020    13.8820    20.7660   -22.8500     2.2040 
  110.6250    65.4710    17.4830    14.8500    14.1950    20.9330   -22.7800     2.2130 
  110.7500    63.3250    19.0000    15.8800    16.3390    21.1370   -22.4590     2.2140 
  110.8750    61.1040    20.8760    17.3570    19.7700    21.6830   -21.8730     2.2030 
  111.0000    60.5560    22.7580    19.0240    21.9230    22.3800   -21.1520     2.1830 
  111.1250    62.4710    24.0790    20.3990    22.9530    22.7810   -20.4120     2.1640 
