~V
VERS. 2.00: Ver 2.00
~W
STRT.M 59.0000:
STOP.M 247.0000:
STEP.M 0.1250:
NULL. -999.2500:
UWI. F11130:
~C
DEPT.M :
DEN.GM/CC :
SP.MV :
GR.API :
RML.OHMM :
RI. :
RXO.OHMM :
CALI.CM :
~A
# ...
  205.2500     2.3710     0.1810    93.9980     9.5440     8.9710    10.0190    24.6300 
  205.3750     2.4050     0.9200    91.0700     9.6080     9.1230     9.4710    24.5310 
  205.5000     2.4510     1.7770    85.6030     9.6340     9.2690    10.3160    24.4280 
  205.6250     2.4940     2.6310    80.7700     9.3880     9.1560    14.6880    24.3760 
  205.7500     2.5190     3.5930    78.2070     8.7810     8.6270    17.0000    24.3910 
  205.8750     2.5190     4.4970    78.4400     7.8730     7.7290    11.2120    24.4900 
  206.0000     2.4960     5.2750    81.6860     6.8720     6.7060     6.6810    24.5970 
  206.1250     2.4620     5.7770    86.0320     6.0720     5.8610     5.5510    24.5930 
  206.2500     2.4280     5.9150    87.1880     5.5820     5.2980     5.5630    24.5390 
  206.3750     2.3990     5.7920    84.6060     5.3780     5.0140     5.6220    24.4370 
  206.5000     2.3770     5.4960    82.7430     5.3670     4.9500     5.5800    24.3370 
  206.6250     2.3640     5.1470    86.1710     5.4690     5.0410     5.5820    24.3170 
  206.7500     2.3610     4.7410    89.7550     5.6450     5.2190     5.6330    24.3860 
  206.8750     2.3660     4.2580    89.0880     5.9230     5.4920     5.7310    24.4340 
  207.0000     2.3770     3.7820    86.0700     6.3260     5.8760     6.2290    24.4140 
  207.1250     2.3900     3.3410    84.7310     6.8210     6.3490     7.0970    24.4620 
  207.2500     2.3990     3.0650    83.6860     7.2880     6.8080     8.4030    24.5160 
  207.3750     2.4030     2.9360    82.8810     7.6490     7.1660     9.2570    24.5540 
  207.5000     2.3970     2.8680    82.8230     7.9050     7.3990     9.8550    24.5630 
  207.6250     2.3820     2.9040    84.5960     8.1570     7.5620     9.5860    24.5560 
  207.7500     2.3650     2.9020    86.4570     8.5380     7.7690     9.8100    24.5410 
  207.8750     2.3530     2.9340    89.4160     9.1150     8.1070    10.7010    24.5330 
  208.0000     2.3520     2.9500    92.8560     9.8780     8.6330    12.3230    24.5290 
  208.1250     2.3590     2.9670    92.0370    10.7630     9.3820    13.6880    24.5720 
  208.2500     2.3670     3.0540    87.3130    11.6270    10.2470    15.1420    24.6410 
  208.3750     2.3680     3.0890    83.4110    12.3400    11.1000    15.6220    24.6650 
  208.5000     2.3630     3.1210    83.7140    12.7660    11.7650    16.1180    24.5980 
  208.6250     2.3540     3.1100    83.4280    12.7340    11.9970    16.4600    24.4690 
  208.7500     2.3470     3.1810    80.4380    12.3280    11.8100    17.1240    24.3170 
  208.8750     2.3450     3.3190    78.8830    11.7030    11.3390    16.4000    24.2230 
  209.0000     2.3500     3.4630    81.6300    11.0870    10.8010    13.6850    24.2480 
  209.1250     2.3630     3.6540    84.1780    10.7260    10.4370    11.7710    24.4030 
  209.2500     2.3780     3.7870    82.9280    10.6460    10.3170    11.2070    24.6420 
  209.3750     2.3930     3.9820    80.9570    10.7500    10.4020    12.8100    24.8130 
  209.5000     2.4020     4.2500    81.0790    10.8640    10.5530    15.5100    24.8460 
  209.6250     2.4020     4.5080    81.5080    10.7720    10.5180    15.0650    24.8570 
  209.7500     2.3970     4.7100    79.3240    10.4450    10.1910    12.6990    24.9280 
  209.8750     2.3920     4.7400    76.4860     9.9680     9.6330    11.4910    24.9940 
  210.0000     2.3900     4.7260    77.3480     9.4930     9.0140    11.5680    24.9990 
  210.1250     2.3900     4.7080    82.0690     9.2210     8.5650    10.1960    25.0470 
  210.2500     2.3870     4.6680    84.6420     9.2550     8.4110     9.4230    25.1330 
  210.3750     2.3800     4.5620    83.4880     9.6450     8.6210     9.9470    25.1980 
  210.5000     2.3740     4.3000    80.8270    10.4950     9.2450    11.7450    25.1680 
  210.6250     2.3770     4.0060    78.0340    12.3660    10.4340    13.5430    25.0060 
  210.7500     2.3850     3.6680    73.3780    15.2680    12.1850    17.4860    24.8350 
  210.8750     2.3890     3.4680    67.7870    18.7610    14.5110    23.6400    24.7020 
  211.0000     2.3790     3.3860    65.0620    22.2480    17.3210    23.7060    24.6850 
  211.1250     2.3540     3.2280    66.7400    25.3860    20.3950    27.2720    24.6750 
  211.2500     2.3290     3.1060    69.3520    28.1310    23.2990    31.9350    24.6450 
  211.3750     2.3110     3.0120    72.3930    30.1730    25.6190    33.6380    24.6430 
  211.5000     2.3000     2.9920    77.1360    31.2250    27.0070    32.7260    24.7010 
  211.6250     2.2900     3.0150    81.1070    31.0390    27.1020    31.9840    24.7930 
  211.7500     2.2770     3.0330    80.2490    30.0130    26.2250    32.4570    24.8020 
  211.8750     2.2630     3.0500    75.4130    28.5500    24.7680    34.6340    24.7690 
  212.0000     2.2540     3.0360    71.4960    27.1050    23.2280    34.4920    24.7130 
  212.1250     2.2510     3.0820    71.7650    26.1350    22.0980    28.0300    24.6600 
  212.2500     2.2500     3.1080    72.5340    25.7050    21.5040    22.1510    24.6360 
  212.3750     2.2470     3.1260    71.5150    25.7070    21.3870    21.2040    24.5660 
  212.5000     2.2420     3.2260    70.4370    25.8940    21.5420    23.5220    24.4980 
  212.6250     2.2380     3.3560    71.9460    25.9380    21.6590    26.1360    24.5370 
  212.7500     2.2370     3.5140    73.6090    25.6910    21.5320    25.8850    24.6310 
  212.8750     2.2400     3.6490    71.7770    25.1970    21.1720    23.9600    24.7620 
  213.0000     2.2460     3.7200    68.4060    24.6080    20.7330    22.6160    24.8480 
  213.1250     2.2540     3.7350    68.7830    24.1110    20.4220    23.6280    24.8620 
  213.2500     2.2620     3.7710    70.9900    23.7650    20.2720    23.9200    24.8230 
  213.3750     2.2700     3.8310    69.5270    23.5540    20.2140    23.9060    24.7550 
  213.5000     2.2780     3.8600    64.2920    23.4400    20.1760    23.0920    24.6820 
  213.6250     2.2870     3.8180    61.4940    23.4000    20.1580    21.8120    24.6200 
  213.7500     2.2950     3.7680    63.0820    23.3890    20.1850    21.1690    24.6360 
  213.8750     2.2990     3.7640    63.7780    23.3490    20.2200    21.3570    24.7110 
  214.0000     2.2990     3.7960    60.6120    23.1950    20.1570    22.4040    24.7990 
  214.1250     2.2930     3.9070    58.9380    22.8230    19.8450    25.1340    24.8530 
  214.2500     2.2860     4.0120    59.7940    22.2960    19.3340    25.9440    24.8590 
  214.3750     2.2810     4.0920    61.9780    21.7770    18.7830    24.0770    24.8340 
  214.5000     2.2800     4.1450    66.2670    21.5110    18.4230    20.8470    24.8140 
  214.6250     2.2820     4.1650    72.9470    21.8280    18.5530    20.4540    24.8170 
  214.7500     2.2850     4.1890    76.1070    22.7330    19.2110    22.8160    24.8400 
  214.8750     2.2860     4.0840    72.3860    24.1270    20.3750    26.0110    24.8590 
  215.0000     2.2860     3.8780    66.8500    25.7830    21.9190    27.1440    24.8560 
  215.1250     2.2850     3.6330    64.2880    27.3430    23.6020    30.4710    24.8530 
  215.2500     2.2830     3.3380    62.9500    28.4670    25.0790    31.8770    24.8490 
  215.3750     2.2820     3.0520    61.5400    28.8760    26.0330    31.5930    24.8660 
  215.5000     2.2800     2.8240    61.5580    28.3640    26.1300    31.4410    24.9160 
  215.6250     2.2780     2.6570    64.4390    26.7120    24.9550    31.5780    24.9190 
  215.7500     2.2760     2.5160    66.3290    24.2940    22.8270    31.3190    24.8530 
  215.8750     2.2760     2.4310    65.6170    21.5030    20.1970    29.3710    24.7720 
  216.0000     2.2790     2.4170    64.0810    18.8000    17.5870    24.1680    24.6980 
  216.1250     2.2880     2.3800    65.3760    16.6910    15.4790    18.3710    24.6700 
  216.2500     2.2980     2.2990    67.4930    15.2840    13.9620    15.1900    24.6810 
  216.3750     2.3080     2.1990    68.5780    14.5510    13.0150    14.2280    24.7010 
