~V
VERS. 2.00: Ver 2.00
~W
STRT.M 40.0000:
STOP.M 232.0000:
STEP.M 0.1250:
NULL. -999.2500:
UWI. F11121:
~C
DEPT.M :
SP.MV :
DEN.GM/CC :
GR.API :
RML.OHMM :
RI. :
RXO.OHMM :
CALI.CM :
~A
# ...
  186.2500    -7.7580     2.1820    50.9450   200.0990   148.3070   146.7060    24.2610 
  186.3750    -7.8850     2.1970    53.6440   210.0420   153.2160   177.6440    24.0420 
  186.5000    -7.9910     2.2190    55.1810   206.5270   151.1380   199.7300    23.8010 
  186.6250    -8.0480     2.2350    53.8030   191.1540   142.2770   205.5450    23.6580 
  186.7500    -8.0680     2.2400    54.1080   176.0310   132.5090   182.8020    23.6220 
  186.8750    -8.0470     2.2390    56.7130   168.5480   126.3180   136.6550    23.6570 
  187.0000    -7.9860     2.2510    56.2990   172.6280   126.7010   102.9290    23.7360 
  187.1250    -7.8810     2.3050    49.3420   193.4210   136.7810   140.2600    23.8950 
  187.2500    -7.7460     2.4050    41.8010   231.1760   155.3720   267.9010    24.1020 
  187.3750    -7.6190     2.5310    39.1100   286.6020   180.5380   443.3480    24.2770 
  187.5000    -7.5050     2.6460    40.8580   353.3100   207.3990   584.9410    24.3620 
  187.6250    -7.4080     2.7150    42.0530   401.2610   225.3480   762.5610    24.3600 
  187.7500    -7.3140     2.7490    40.7200   395.5190   226.1720  1082.1090    24.3520 
  187.8750    -7.2380     2.7560    38.5920   330.9360   206.4360  1469.9590    24.3500 
  188.0000    -7.1890     2.7370    37.5860   237.3070   169.1660  1308.3280    24.3460 
  188.1250    -7.1910     2.7010    37.6580   153.4580   123.1310   592.3480    24.3440 
  188.2500    -7.2170     2.6700    38.8430    93.3100    81.4670   231.2740    24.3430 
  188.3750    -7.2210     2.6520    42.2410    54.8970    50.3980    79.7970    24.3400 
  188.5000    -7.2090     2.6420    47.3200    32.0800    30.4490    30.1420    24.3410 
  188.6250    -7.1890     2.6250    52.1340    20.1660    19.7560    17.5910    24.3970 
  188.7500    -7.1760     2.5920    55.7640    13.4320    13.6230    11.6110    24.5350 
  188.8750    -7.1580     2.5360    57.3340     9.7230    10.1090     8.4150    24.7210 
  189.0000    -7.1370     2.4560    55.4130     7.7530     8.1120     7.0110    24.8940 
  189.1250    -7.0780     2.3630    51.6240     6.8860     7.1430     6.7170    25.0910 
  189.2500    -6.9910     2.2790    48.2990     6.5200     6.6950     7.1350    25.2670 
  189.3750    -6.9320     2.2260    44.0580     6.4030     6.5360     7.5600    25.2820 
  189.5000    -6.9250     2.2160    39.7210     6.3570     6.4890     7.6560    25.1160 
  189.6250    -6.9720     2.2480    39.4810     6.2740     6.4270     6.8060    24.9640 
  189.7500    -7.0630     2.2840    41.8750     6.1490     6.3220     5.9620    24.9660 
  189.8750    -7.1850     2.3040    43.5800     6.0180     6.1990     5.4550    25.0600 
  190.0000    -7.3410     2.3160    43.7420     5.9270     6.0960     5.3940    25.1630 
  190.1250    -7.5480     2.3330    43.7460     5.9040     6.0470     6.1890    25.2580 
  190.2500    -7.7810     2.3560    43.3490     5.9310     6.0370     6.7860    25.4230 
  190.3750    -8.0150     2.3730    43.2970     5.9840     6.0420     6.8800    25.7610 
  190.5000    -8.2340     2.3750    45.0090     6.0460     6.0450     6.7280    26.2350 
  190.6250    -8.4400     2.3620    46.4240     6.1120     6.0390     6.6750    26.6690 
  190.7500    -8.6370     2.3440    46.5550     6.1910     6.0380     6.7930    26.9900 
  190.8750    -8.8210     2.3290    46.0560     6.2940     6.0540     6.8760    27.2200 
  191.0000    -8.9680     2.3210    44.9980     6.4260     6.0950     6.9800    27.3510 
  191.1250    -9.0750     2.3210    43.3070     6.5800     6.1590     7.2960    27.4110 
  191.2500    -9.1640     2.3290    41.9210     6.7250     6.2200     7.6400    27.5310 
  191.3750    -9.2110     2.3390    41.7370     6.8180     6.2480     7.7720    27.7440 
  191.5000    -9.2310     2.3400    41.8720     6.8200     6.2100     7.8390    27.9900 
  191.6250    -9.2200     2.3200    41.2480     6.7070     6.0840     7.9770    28.1730 
  191.7500    -9.1770     2.2790    42.1180     6.5490     5.9180     7.7540    28.2250 
  191.8750    -9.1260     2.2260    46.0890     6.4370     5.7790     7.2090    28.0980 
  192.0000    -9.0860     2.1820    51.4950     6.4610     5.7360     6.6470    27.7820 
  192.1250    -9.0820     2.1770    53.7170     6.7110     5.8680     6.6260    27.2440 
  192.2500    -9.0870     2.2250    53.4530     7.1240     6.1440     7.6120    26.5440 
  192.3750    -9.1100     2.3220    55.0530     7.5860     6.4890     8.8710    25.8330 
  192.5000    -9.1490     2.4100    61.4400     7.9500     6.7940     9.3140    25.2880 
  192.6250    -9.2180     2.3810    68.7660     8.0710     6.9340     7.7990    25.1560 
  192.7500    -9.3170     2.2540    70.8760     8.0130     6.9290     5.9570    26.0760 
  192.8750    -9.4400     2.0960    67.0890     7.9080     6.8610     4.5250    28.4990 
  193.0000    -9.5830     1.9670    63.0580     7.8860     6.8310     4.0620    31.2180 
  193.1250    -9.7200     1.9250    63.0480     8.0110     6.9060     4.1990    31.7670 
  193.2500    -9.8400     1.9670    65.3120     8.1890     7.0340     5.1380    30.5920 
  193.3750    -9.9520     2.0680    69.4490     8.3010     7.1310     6.3590    29.6010 
  193.5000   -10.0550     2.1690    74.3590     8.2400     7.1090     6.5400    29.6470 
  193.6250   -10.1270     2.2020    75.8590     7.9630     6.9120     5.7180    29.7780 
  193.7500   -10.1680     2.1670    74.2030     7.6070     6.6260     4.9950    29.3830 
  193.8750   -10.1870     2.0950    73.9800     7.3050     6.3520     5.0700    28.8830 
  194.0000   -10.1780     2.0200    77.8990     7.1660     6.1800     5.0690    28.5970 
  194.1250   -10.1400     1.9830    83.7720     7.2980     6.2090     4.4560    28.3980 
  194.2500   -10.1000     2.0000    90.6280     7.6590     6.4250     5.1640    28.0680 
  194.3750   -10.0590     2.0740    96.6430     8.1870     6.7890     6.7920    27.5160 
  194.5000   -10.0150     2.1840    98.3460     8.7970     7.2310     7.8950    26.7070 
  194.6250    -9.9880     2.2810    95.0810     9.4110     7.6720     8.6510    25.8100 
  194.7500    -9.9700     2.3390    92.6660    10.0000     8.0720     9.9830    25.2110 
  194.8750    -9.9610     2.3650    92.6160    10.5780     8.4320    10.5580    25.0120 
  195.0000    -9.9490     2.3790    92.2920    11.1230     8.7560    10.4330    24.9650 
  195.1250    -9.9170     2.4060    89.4680    11.4640     8.9570    10.8070    24.8310 
  195.2500    -9.8670     2.4440    86.2550    11.4740     8.9560    12.0800    24.6670 
  195.3750    -9.8040     2.4720    84.8780    11.1920     8.7590    13.5360    24.6040 
  195.5000    -9.7250     2.4680    86.6630    10.8790     8.5160    12.1820    24.6840 
  195.6250    -9.6180     2.4330    88.0110    11.0550     8.5340     9.5040    24.8070 
  195.7500    -9.5060     2.4070    86.7810    12.0350     9.0340     8.8390    24.8430 
  195.8750    -9.3880     2.4180    83.2440    13.8850    10.1230    13.2760    24.7170 
  196.0000    -9.2680     2.4720    79.7620    16.2510    11.6680    21.7760    24.4340 
  196.1250    -9.1390     2.5340    76.2740    17.9490    13.0220    26.5790    24.1390 
  196.2500    -9.0000     2.5480    73.5230    17.8240    13.3350    23.3520    24.0330 
  196.3750    -8.8390     2.4980    75.7420    15.7380    12.3230    18.1660    24.2060 
  196.5000    -8.6410     2.4070    80.5800    12.7520    10.5050    13.0240    24.5670 
  196.6250    -8.4090     2.3200    82.3510    10.3320     8.7900     9.5070    24.7740 
  196.7500    -8.1440     2.2700    81.8510     8.9530     7.6510     7.9520    24.6380 
  196.8750    -7.8330     2.2700    83.2880     8.5040     7.1280     7.7970    24.3270 
  197.0000    -7.4770     2.3140    87.8520     8.6790     7.0890     8.4290    24.1600 
  197.1250    -7.1030     2.3720    90.7870     9.1030     7.3290     9.0240    24.3010 
  197.2500    -6.7110     2.4070    93.2100     9.3490     7.5310     9.2450    24.5400 
  197.3750    -6.2870     2.4100    95.5540     9.1960     7.5090     9.1250    24.7140 
