~V
VERS. 2.00: Ver 2.00
~W
STRT.M 45.0000:
STOP.M 268.0000:
STEP.M 0.1250:
NULL. -999.2500:
UWI. F11184:
~C
DEPT.M :
SP.MV :
GR.API :
RI. :
RML.OHMM :
RXO.OHMM :
DEN.GM/CC :
~A
# ...
   70.7500   -39.5540    56.4920     4.3000     4.7160     4.9960     2.0560 
   70.8750   -39.5860    54.1240     4.3240     4.7400     5.0340     2.0630 
   71.0000   -39.5680    51.3390     4.3760     4.7940     5.1930     2.0670 
   71.1250   -39.4890    50.4630     4.4220     4.8430     5.2930     2.0650 
   71.2500   -39.3500    50.5830     4.4440     4.8660     5.3320     2.0620 
   71.3750   -39.1420    51.1850     4.4510     4.8740     5.2870     2.0660 
   71.5000   -38.8580    52.6730     4.4480     4.8710     5.2040     2.0720 
   71.6250   -38.4760    54.6890     4.4390     4.8610     5.4470     2.0840 
   71.7500   -37.9830    56.3100     4.4360     4.8580     5.7970     2.1070 
   71.8750   -37.3520    57.9890     4.5210     4.9470     5.8040     2.1300 
   72.0000   -36.5800    60.9770     4.7910     5.2300     5.7990     2.1300 
   72.1250   -35.6520    63.7740     5.2540     5.7170     6.1440     2.1340 
   72.2500   -34.5920    64.5290     5.6950     6.1800     7.1930     2.2000 
   72.3750   -33.4340    63.9370     5.9020     6.3970    15.2290     2.3080 
   72.5000   -32.2540    65.5490     5.7930     6.2820    21.7030     2.3580 
   72.6250   -31.1360    70.8750     5.4010     5.8710    13.2530     2.3160 
   72.7500   -30.1460    76.7080     4.9410     5.3880     5.2670     2.2700 
   72.8750   -29.3380    79.4490     4.5340     4.9610     5.5990     2.2920 
   73.0000   -28.7040    79.8730     4.2660     4.6790     9.0600     2.3360 
   73.1250   -28.2350    79.7920     4.1910     4.6000    11.4330     2.3350 
   73.2500   -27.8900    80.9280     4.1900     4.6000     8.0290     2.2930 
   73.3750   -27.6540    82.5300     4.1490     4.5570     4.7240     2.2480 
   73.5000   -27.5000    85.1800     4.1090     4.5140     4.5880     2.2190 
   73.6250   -27.4140    88.9040     4.0870     4.4910     4.7720     2.2030 
   73.7500   -27.3730    92.6160     4.1550     4.5620     4.6460     2.1990 
   73.8750   -27.3630    91.8440     4.2780     4.6920     4.6100     2.1990 
   74.0000   -27.3730    87.1560     4.3760     4.7940     4.7890     2.1840 
   74.1250   -27.4020    84.3380     4.4360     4.8580     5.1910     2.1660 
   74.2500   -27.4450    84.4210     4.4540     4.8770     5.6400     2.1670 
   74.3750   -27.4990    83.5070     4.4310     4.8520     5.6000     2.1840 
   74.5000   -27.5560    82.0320     4.3590     4.7770     5.1800     2.1950 
   74.6250   -27.6220    83.1980     4.2750     4.6890     4.8890     2.1910 
   74.7500   -27.7080    87.1830     4.2200     4.6310     4.8100     2.1840 
   74.8750   -27.8430    89.3080     4.2560     4.6690     4.7910     2.1770 
   75.0000   -28.0510    88.9190     4.3620     4.7800     4.8320     2.1630 
   75.1250   -28.3570    85.8110     4.5000     4.9250     5.6620     2.1430 
   75.2500   -28.7480    80.8080     4.6290     5.0600     6.5570     2.1280 
   75.3750   -29.1940    75.4960     4.7020     5.1370     6.0710     2.1290 
   75.5000   -29.6430    72.5020     4.7430     5.1800     5.4080     2.1310 
   75.6250   -30.0560    70.6520     4.8240     5.2650     5.4440     2.1220 
   75.7500   -30.4240    68.0810     5.0220     5.4730     5.4860     2.1170 
   75.8750   -30.7490    66.7790     5.3770     5.8450     5.3320     2.1270 
   76.0000   -31.0470    67.4810     5.8410     6.3330     5.9370     2.1350 
   76.1250   -31.3150    65.9040     6.2500     6.7620     7.0590     2.1210 
   76.2500   -31.5540    61.6910     6.4890     7.0130     7.0000     2.0940 
   76.3750   -31.7540    57.1810     6.4500     6.9730     6.0760     2.0720 
   76.5000   -31.9170    55.3020     6.1900     6.7000     5.5250     2.0620 
   76.6250   -32.0410    56.1570     5.8260     6.3170     5.4900     2.0570 
   76.7500   -32.1290    59.5370     5.5180     5.9940     5.6040     2.0510 
   76.8750   -32.1750    61.6660     5.3450     5.8120     5.6190     2.0490 
   77.0000   -32.1770    61.5830     5.2710     5.7350     5.4950     2.0490 
   77.1250   -32.1290    60.7710     5.2420     5.7040     5.2890     2.0510 
   77.2500   -32.0350    61.3710     5.2260     5.6870     5.1980     2.0510 
   77.3750   -31.9000    62.4230     5.2570     5.7200     5.1620     2.0510 
   77.5000   -31.7370    62.2560     5.3900     5.8590     5.1780     2.0590 
   77.6250   -31.5570    61.4450     5.5890     6.0690     5.5330     2.0850 
   77.7500   -31.3710    61.3620     5.7800     6.2690    12.2340     2.1280 
   77.8750   -31.1820    61.1620     5.8910     6.3860    21.3060     2.1580 
   78.0000   -30.9950    60.9080     5.8500     6.3430    17.4270     2.1520 
   78.1250   -30.8140    62.7410     5.6730     6.1570     8.3710     2.1350 
   78.2500   -30.6400    67.0130     5.4100     5.8800     6.0350     2.1400 
   78.3750   -30.4760    68.5990     5.1190     5.5750     6.0360     2.1580 
   78.5000   -30.3270    67.4930     4.8990     5.3440     5.7470     2.1610 
   78.6250   -30.2110    68.8230     4.7870     5.2260     5.4710     2.1510 
   78.7500   -30.1510    73.3690     4.7650     5.2040     5.1890     2.1380 
   78.8750   -30.1760    75.2780     4.8820     5.3260     5.2220     2.1260 
   79.0000   -30.2880    73.2910     5.1550     5.6120     5.5760     2.1190 
   79.1250   -30.4810    71.0640     5.5400     6.0170     6.0500     2.1230 
   79.2500   -30.7200    70.9430     5.9280     6.4250     6.3910     2.1310 
   79.3750   -30.9730    70.1040     6.1670     6.6750     6.3510     2.1390 
   79.5000   -31.2090    68.2820     6.2520     6.7650     6.2230     2.1360 
   79.6250   -31.4090    67.4470     6.1260     6.6320     6.3230     2.1160 
   79.7500   -31.5650    66.7630     5.8750     6.3680     6.4140     2.0920 
   79.8750   -31.6700    64.5400     5.5960     6.0760     6.3360     2.0750 
   80.0000   -31.7250    61.2620     5.3620     5.8300     6.1980     2.0650 
   80.1250   -31.7290    59.9480     5.2670     5.7300     6.0930     2.0580 
   80.2500   -31.6930    59.9180     5.2580     5.7210     6.1580     2.0590 
   80.3750   -31.6240    59.7080     5.2750     5.7390     6.1830     2.0730 
   80.5000   -31.5370    59.1750     5.3050     5.7700     5.9130     2.0960 
   80.6250   -31.4370    59.5050     5.3400     5.8070     5.6110     2.1120 
   80.7500   -31.3270    60.9370     5.3640     5.8320     5.3670     2.1050 
   80.8750   -31.2060    61.7260     5.3900     5.8600     5.1820     2.0840 
   81.0000   -31.0780    61.6570     5.4100     5.8810     5.1310     2.0680 
   81.1250   -30.9480    62.4880     5.4270     5.8990     5.0590     2.0640 
   81.2500   -30.8240    62.6720     5.4350     5.9060     4.8950     2.0670 
   81.3750   -30.7120    60.0820     5.4100     5.8800     5.0190     2.0760 
   81.5000   -30.6150    57.5920     5.3560     5.8240     5.5740     2.0830 
   81.6250   -30.5340    59.5530     5.2750     5.7380     5.9410     2.0870 
   81.7500   -30.4710    63.8290     5.1860     5.6460     5.7910     2.0900 
   81.8750   -30.4320    65.6570     5.1270     5.5840     5.4830     2.0900 
   82.0000   -30.4220    65.1990     5.0990     5.5540     5.3080     2.0850 
   82.1250   -30.4380    65.2300     5.0990     5.5540     5.2550     2.0770 
   82.2500   -30.4680    66.3700     5.1180     5.5740     5.4940     2.0760 
   82.3750   -30.4990    67.4500     5.1390     5.5960     6.1150     2.0850 
   82.5000   -30.5210    68.0490     5.1580     5.6160     6.5890     2.0970 
   82.6250   -30.5310    68.7300     5.1670     5.6250     6.4570     2.1020 
   82.7500   -30.5340    68.6710     5.1600     5.6180     6.0860     2.1000 
   82.8750   -30.5390    67.9220     5.1350     5.5920     6.0150     2.0940 
   83.0000   -30.5500    68.8330     5.1120     5.5680     6.1550     2.0880 
   83.1250   -30.5670    72.4340     5.0980     5.5530     6.2430     2.0850 
   83.2500   -30.5820    72.9300     5.0990     5.5530     6.3100     2.0830 
   83.3750   -30.5890    68.4320     5.1250     5.5820     6.2790     2.0810 
   83.5000   -30.5850    65.1270     5.1750     5.6340     6.2290     2.0770 
