~V
VERS. 2.00: Ver 2.00
~W
STRT.M 52.0000:
STOP.M 239.0000:
STEP.M 0.1250:
NULL. -999.2500:
UWI. F11118:
~C
DEPT.M :
DEN.GM/CC :
GR.API :
RML.OHMM :
RI. :
RXO.OHMM :
CALI.CM :
SP.MV :
~A
# ...
   63.2500     2.1410    66.5740     7.6310     7.0400     9.1370    23.7890   -41.8250 
   63.3750     2.1500    68.8010     7.5560     6.9020     8.4750    24.2460   -41.5690 
   63.5000     2.1630    69.4980     7.2740     6.7670     7.7980    24.9170   -41.2620 
   63.6250     2.1750    65.3060     6.9460     6.6820     7.7130    24.9130   -40.9710 
   63.7500     2.1810    62.0520     6.7130     6.6600     8.2620    24.6340   -40.7190 
   63.8750     2.1770    62.4560     6.6170     6.6940     8.3460    24.6150   -40.5260 
   64.0000     2.1640    63.7720     6.6360     6.7530     8.0300    24.5510   -40.4370 
   64.1250     2.1480    63.3480     6.7140     6.8180     7.6770    24.4660   -40.4780 
   64.2500     2.1340    62.2940     6.8070     6.9070     7.5390    24.4090   -40.6410 
   64.3750     2.1250    64.5040     6.9100     7.0590     7.5500    24.0940   -40.9270 
   64.5000     2.1180    69.0450     7.0230     7.3130     7.7710    23.9060   -41.3330 
   64.6250     2.1070    71.6570     7.1560     7.6810     8.3500    23.8490   -41.8150 
   64.7500     2.0930    69.2090     7.3150     8.0810     9.2710    23.6940   -42.3120 
   64.8750     2.0790    62.9670     7.5090     8.4190     9.7320    23.3410   -42.7770 
   65.0000     2.0730    59.1590     7.7160     8.5960     9.7970    22.9580   -43.1750 
   65.1250     2.0800    61.4040     7.8940     8.5200     9.8410    22.8630   -43.4720 
   65.2500     2.0960    64.1560     8.0220     8.2710     9.8050    22.8880   -43.6410 
   65.3750     2.1180    65.5040     8.1050     7.9590     9.5130    23.0790   -43.6910 
   65.5000     2.1440    66.7990     8.1940     7.6980     9.2740    23.2400   -43.6190 
   65.6250     2.1720    67.6410     8.3910     7.5810     9.2160    23.2490   -43.4220 
   65.7500     2.1980    68.1310     8.6700     7.5720     9.2440    23.2660   -43.1490 
   65.8750     2.2170    69.8650     8.9120     7.6170     9.3850    23.2810   -42.8340 
   66.0000     2.2220    72.1040     8.9740     7.6500     9.5740    23.2800   -42.5070 
   66.1250     2.2100    69.9190     8.7770     7.6180     9.4750    23.2920   -42.1590 
   66.2500     2.1920    66.9710     8.4880     7.5400     9.0760    23.3140   -41.8380 
   66.3750     2.1820    67.4970     8.2830     7.4470     8.8470    23.2570   -41.5360 
   66.5000     2.1880    69.7430     8.2520     7.3680     8.9180    23.1380   -41.2360 
   66.6250     2.2040    69.9210     8.3580     7.3180     9.1190    23.1170   -40.9670 
   66.7500     2.2170    67.2630     8.4610     7.2880     9.3200    23.1120   -40.7440 
   66.8750     2.2160    63.7250     8.5310     7.2740     9.4760    23.1120   -40.5720 
   67.0000     2.2020    62.2070     8.5980     7.2870     9.5280    23.1110   -40.4720 
   67.1250     2.1820    64.3240     8.6940     7.3340     9.5480    23.1050   -40.4720 
   67.2500     2.1650    66.5100     8.7830     7.3930     9.6310    23.1000   -40.5570 
   67.3750     2.1530    66.6190     8.7980     7.4300     9.8150    23.1430   -40.6970 
   67.5000     2.1440    65.5170     8.6910     7.4140     9.8650    23.1740   -40.8740 
   67.6250     2.1360    64.3720     8.4930     7.3230     9.6400    23.1870   -40.9680 
   67.7500     2.1300    63.3670     8.3250     7.1760     9.4000    23.2000   -40.9340 
   67.8750     2.1270    64.7260     8.2480     6.9930     9.3930    23.1810   -40.7260 
   68.0000     2.1260    68.0270     8.2540     6.8050     9.4830    23.1550   -40.3480 
   68.1250     2.1290    70.5640     8.3150     6.6520     9.7100    22.9940   -39.7950 
   68.2500     2.1320    72.8710     8.4110     6.5670     9.8890    22.8640   -39.1020 
   68.3750     2.1340    74.7210     8.5440     6.5610     9.8950    22.8780   -38.2850 
   68.5000     2.1300    72.2950     8.6800     6.6130     9.6820    23.0580   -37.3800 
   68.6250     2.1200    66.4210     8.7300     6.6830     9.5710    23.2060   -36.4640 
   68.7500     2.1080    65.4510     8.6690     6.7340     9.6710    23.2300   -35.5760 
   68.8750     2.1020    70.6540     8.5380     6.7570     9.7010    23.1280   -34.7470 
   69.0000     2.1030    74.4110     8.4060     6.7500     9.7180    22.7110   -33.9420 
   69.1250     2.1130    73.0020     8.3130     6.7030     9.8300    22.6420   -33.1390 
   69.2500     2.1260    72.4260     8.2140     6.6090     9.9690    22.8670   -32.3300 
   69.3750     2.1370    74.8000     8.0580     6.4540     9.8810    23.5930   -31.5080 
   69.5000     2.1450    76.9230     7.8350     6.2440     9.4790    24.4400   -30.6940 
   69.6250     2.1490    76.3780     7.5720     6.0120     8.9100    25.0560   -29.9110 
   69.7500     2.1550    74.5960     7.3030     5.8090     8.2590    25.5620   -29.1980 
   69.8750     2.1630    73.3780     7.0480     5.6580     7.8000    25.8670   -28.5680 
   70.0000     2.1740    72.1320     6.8540     5.5700     7.6810    25.9490   -28.0800 
   70.1250     2.1870    69.3660     6.8280     5.5490     7.6900    25.5860   -27.7810 
   70.2500     2.1970    67.7040     6.9900     5.5760     7.8710    24.9840   -27.6770 
   70.3750     2.2030    69.4510     7.3010     5.6510     8.1660    24.6220   -27.7880 
   70.5000     2.2030    72.6470     7.6760     5.7780     8.3560    24.3790   -28.0910 
   70.6250     2.1970    72.3800     7.9950     5.9500     8.5400    24.1430   -28.5880 
   70.7500     2.1880    70.0310     8.1730     6.1400     8.7890    23.8360   -29.1890 
   70.8750     2.1770    69.1220     8.1900     6.3230     8.9810    23.8970   -29.8540 
   71.0000     2.1650    69.6330     8.1160     6.4800     9.0770    24.0100   -30.5190 
   71.1250     2.1520    69.0760     8.0910     6.6060     9.2380    23.9440   -31.1860 
   71.2500     2.1400    67.2400     8.2150     6.7160     9.4340    23.5560   -31.8250 
   71.3750     2.1300    64.8160     8.4890     6.8210     9.6050    23.1150   -32.4270 
   71.5000     2.1230    62.7090     8.8280     6.9200     9.7600    22.6890   -32.9960 
   71.6250     2.1190    61.5460     9.0680     6.9860     9.8790    22.4220   -33.4900 
   71.7500     2.1160    59.4520     9.1300     7.0090    10.0070    22.3080   -33.9260 
   71.8750     2.1150    58.7730     9.0360     6.9800    10.0770    22.2750   -34.2940 
   72.0000     2.1150    61.6570     8.8560     6.9070     9.9990    22.3400   -34.6180 
   72.1250     2.1160    65.7550     8.6800     6.8210     9.7860    22.4030   -34.8190 
   72.2500     2.1180    68.3240     8.5640     6.7630     9.5940    22.3870   -34.9110 
   72.3750     2.1190    68.8560     8.5190     6.7600     9.5940    22.2540   -34.8740 
   72.5000     2.1200    68.7140     8.5490     6.8250     9.7750    22.1790   -34.6720 
   72.6250     2.1200    68.7830     8.6750     6.9580    10.0090    22.2010   -34.2570 
   72.7500     2.1200    69.5020     8.8450     7.1060    10.1540    22.3860   -33.6460 
   72.8750     2.1230    69.3210     8.9560     7.1950    10.0410    22.7970   -32.8250 
   73.0000     2.1320    65.5620     8.8810     7.1350     9.7720    23.1270   -31.7900 
   73.1250     2.1450    65.0160     8.4960     6.8200     9.7080    23.2250   -30.5250 
   73.2500     2.1580    72.4390     7.8680     6.2960     9.1930    23.5300   -29.1130 
   73.3750     2.1660    83.4400     7.1120     5.6530     7.7120    24.4040   -27.5960 
   73.5000     2.1700    92.4580     6.3720     5.0130     5.7300    25.7130   -26.0700 
   73.6250     2.1700    96.1680     5.7940     4.5000     4.8400    26.2720   -24.6900 
   73.7500     2.1690    97.7830     5.4060     4.1410     4.6220    25.9850   -23.5450 
   73.8750     2.1680    98.5980     5.2170     3.9440     4.7160    25.4820   -22.7120 
   74.0000     2.1680    99.8430     5.2270     3.8980     4.7950    24.9190   -22.2230 
   74.1250     2.1720   101.3950     5.4390     4.0170     4.9490    24.7150   -22.1880 
   74.2500     2.1790   100.2530     5.7760     4.2610     5.2240    24.3400   -22.5370 
   74.3750     2.1840    95.5870     6.2040     4.6030     5.7920    23.9870   -23.2570 
