~V
VERS. 2.00: Ver 2.00
~W
STRT.M 58.0000:
STOP.M 208.0000:
STEP.M 0.1250:
NULL. -999.2500:
UWI. F11103:
~C
DEPT.M :
DEN.GM/CC :
SP.MV :
GR.API :
RML.OHMM :
RI. :
RXO.OHMM :
CALI.CM :
~A
# ...
  136.7500     2.4690   -17.8470    57.7680    21.0470    17.7350    18.7760    26.6200 
  136.8750     2.4670   -17.6090    57.9980    21.3220    17.8890    18.3360    26.6170 
  137.0000     2.4640   -17.3460    57.7800    21.6460    18.1100    18.3410    26.5380 
  137.1250     2.4620   -17.0790    54.5090    21.8060    18.2550    18.9050    26.6300 
  137.2500     2.4610   -16.8260    50.8160    21.6660    18.2010    19.6960    26.6690 
  137.3750     2.4620   -16.5620    50.1270    21.1930    17.8870    19.9450    26.6230 
  137.5000     2.4660   -16.3120    53.3850    20.4610    17.3410    19.0960    26.4890 
  137.6250     2.4700   -16.1780    55.8470    19.7070    16.7500    17.9530    26.2820 
  137.7500     2.4750   -16.0990    55.0030    19.0790    16.2360    17.0530    26.4330 
  137.8750     2.4800   -16.0330    53.1130    18.6540    15.8610    16.7700    26.5170 
  138.0000     2.4830   -16.0440    52.2830    18.4820    15.6610    17.2490    26.5800 
  138.1250     2.4840   -16.1320    52.9650    18.5020    15.6000    17.7890    26.5340 
  138.2500     2.4840   -16.3200    55.5880    18.6880    15.6790    16.9650    26.4660 
  138.3750     2.4830   -16.6700    59.5180    19.0170    15.9060    14.9800    26.4460 
  138.5000     2.4820   -17.0900    62.7110    19.4140    16.2550    14.9230    26.5720 
  138.6250     2.4810   -17.4460    65.0310    19.7060    16.5650    16.7200    26.5840 
  138.7500     2.4800   -17.8110    67.8480    19.7260    16.6620    18.5720    26.5460 
  138.8750     2.4770   -18.2100    69.4720    19.3650    16.4200    18.8680    26.5330 
  139.0000     2.4730   -18.5970    68.7640    18.6120    15.8110    17.2750    26.4900 
  139.1250     2.4670   -18.9590    67.1170    17.7530    15.0760    15.3290    26.4640 
  139.2500     2.4590   -19.2020    65.0940    17.0510    14.4280    14.2720    26.5180 
  139.3750     2.4520   -19.3230    63.4500    16.7010    14.0260    14.4230    26.6140 
  139.5000     2.4470   -19.3940    63.8000    16.8380    13.9930    14.9460    26.7640 
  139.6250     2.4430   -19.4010    65.4230    17.3210    14.2500    15.4140    26.7410 
  139.7500     2.4420   -19.3610    64.7620    18.0040    14.7160    15.9270    26.6730 
  139.8750     2.4430   -19.3010    61.2520    18.7210    15.2800    16.8640    26.7390 
  140.0000     2.4450   -19.2250    61.9300    19.3190    15.8190    17.9250    26.7240 
  140.1250     2.4480   -19.1250    65.4720    19.7710    16.2690    18.2260    26.6910 
  140.2500     2.4510   -19.0300    65.8160    20.0860    16.6190    17.7870    26.7340 
  140.3750     2.4540   -18.9430    60.9660    20.2760    16.8720    17.4560    26.7670 
  140.5000     2.4570   -18.8810    55.4450    20.3420    17.0150    18.0140    26.8140 
  140.6250     2.4600   -18.8650    53.9710    20.3240    17.0620    18.7390    26.8250 
  140.7500     2.4650   -18.8530    55.1470    20.2480    17.0210    18.9280    26.8130 
  140.8750     2.4700   -18.8110    57.4740    20.1470    16.9180    18.7470    27.0760 
  141.0000     2.4770   -18.7640    61.3370    20.1060    16.8260    17.7560    27.1090 
  141.1250     2.4830   -18.7210    63.7310    20.1880    16.8320    17.4270    27.0760 
  141.2500     2.4880   -18.6680    61.4270    20.3950    16.9660    17.5400    27.1050 
  141.3750     2.4910   -18.6240    56.0930    20.6530    17.1900    18.1820    27.1600 
  141.5000     2.4910   -18.6030    55.2980    20.7990    17.3880    19.7240    27.2390 
  141.6250     2.4880   -18.6190    58.6980    20.7240    17.4550    21.0320    27.3480 
  141.7500     2.4830   -18.6850    59.9500    20.4180    17.3520    21.0060    27.4450 
  141.8750     2.4780   -18.7970    57.6450    19.9790    17.1270    18.5950    27.4860 
  142.0000     2.4740   -18.9400    55.7660    19.5980    16.9040    16.0630    27.5460 
  142.1250     2.4720   -19.0940    55.9050    19.3960    16.7920    14.7580    27.5980 
  142.2500     2.4710   -19.2900    58.9890    19.3840    16.8250    14.3410    27.6710 
  142.3750     2.4700   -19.4830    62.9740    19.4850    16.9650    14.5480    27.6940 
  142.5000     2.4680   -19.6500    62.2220    19.5460    17.1180    14.5200    27.7060 
  142.6250     2.4630   -19.8630    57.3820    19.4570    17.1850    14.2380    27.8040 
  142.7500     2.4540   -20.0750    52.8100    19.2140    17.1350    13.9930    27.9990 
  142.8750     2.4430   -20.2850    52.5790    18.9030    17.0080    14.0510    28.0770 
  143.0000     2.4270   -20.5240    56.7450    18.6630    16.9080    14.1810    28.0770 
  143.1250     2.4090   -20.7800    60.6790    18.5680    16.9190    14.8390    28.2700 
  143.2500     2.3870   -21.0330    63.6270    18.6260    17.0720    16.0950    28.6350 
  143.3750     2.3610   -21.3000    64.2140    18.8060    17.3530    17.2940    29.2500 
  143.5000     2.3340   -21.5710    62.8860    19.0340    17.7050    18.5200    29.6040 
  143.6250     2.3080   -21.7930    62.8580    19.1790    17.9950    18.4920    29.9130 
  143.7500     2.2850   -21.9920    65.5660    19.1280    18.1030    16.9810    30.1070 
  143.8750     2.2660   -22.2060    69.2360    18.8290    17.9560    15.1480    30.3290 
  144.0000     2.2530   -22.4570    69.8420    18.3200    17.5510    13.8270    30.3750 
  144.1250     2.2430   -22.7350    70.1130    17.8020    17.0620    12.9640    30.6270 
  144.2500     2.2360   -23.0960    72.9770    17.4540    16.6400    12.1840    30.8640 
  144.3750     2.2300   -23.5330    76.0500    17.4510    16.4410    11.6280    31.1590 
  144.5000     2.2260   -24.0890    75.3380    18.0410    16.6900    11.7870    31.3590 
  144.6250     2.2230   -24.7640    72.0150    19.3000    17.4850    13.0220    31.5800 
  144.7500     2.2230   -25.5210    69.9230    21.3930    18.9790    14.2210    31.7080 
  144.8750     2.2260   -26.4160    69.4120    24.4880    21.3360    15.3130    31.8260 
  145.0000     2.2320   -27.3850    66.1450    28.9260    24.8800    19.2170    31.8000 
  145.1250     2.2380   -28.3790    60.9560    34.5450    29.5000    26.8800    31.9600 
  145.2500     2.2430   -29.3820    58.7070    47.6520    35.1390    38.2590    32.1900 
  145.3750     2.2460   -30.3240    60.5230    52.4790    41.7080    47.8270    32.4150 
  145.5000     2.2440   -31.1760    62.5050    62.2820    49.4450    50.5760    32.8020 
  145.6250     2.2380   -31.9980    62.9720    74.0660    58.6740    56.1410    33.1900 
  145.7500     2.2310   -32.7870    62.5670    88.6060    70.1370    80.8530    33.4070 
  145.8750     2.2230   -33.4820    61.4630   106.2570    84.3510   126.1910    33.6560 
  146.0000     2.2160   -34.1070    60.3680   126.2290   100.9540   180.4180    33.9220 
  146.1250     2.2100   -34.7010    59.5300   144.9530   117.0910   235.2310    34.1950 
  146.2500     2.2060   -35.2860    58.7410   158.7360   129.7520   278.3670    34.4770 
  146.3750     2.2030   -35.8520    57.3860   165.5140   137.0150   280.3360    34.7570 
  146.5000     2.1990   -36.3900    57.2360   165.7870   138.7450   243.9150    35.0400 
  146.6250     2.1950   -36.8450    57.7430   163.8280   138.1880   200.8840    35.3420 
  146.7500     2.1910   -37.1860    57.1040   161.8870   137.2830   182.4380    35.5840 
  146.8750     2.1860   -37.4780    56.4400   161.0740   137.1180   201.8590    35.8330 
  147.0000     2.1820   -37.7180    57.7220   162.0060   138.3360   235.3150    36.1550 
  147.1250     2.1790   -37.9000    61.0560   164.2540   140.6740   253.8140    36.4030 
  147.2500     2.1780   -38.0280    63.0500   167.5320   143.8820   231.7600    36.6000 
  147.3750     2.1780   -38.1400    60.7880   171.7420   147.8420   220.8730    36.7830 
  147.5000     2.1800   -38.2210    56.4810   177.4140   152.9650   229.4210    37.0090 
  147.6250     2.1820   -38.3180    54.9450   184.8750   159.5610   236.6540    37.2360 
  147.7500     2.1830   -38.4650    56.0350   194.2430   167.7910   223.2310    37.4150 
  147.8750     2.1820   -38.6610    56.2110   204.6920   177.0520   218.8430    37.5630 
