~V
VERS. 2.00: Ver 2.00
~W
STRT.M 54.0000:
STOP.M 273.0000:
STEP.M 0.1250:
NULL. -999.2500:
UWI. F11158:
~C
DEPT.M :
SP.MV :
DEN.GM/CC :
GR.API :
RML.OHMM :
RI. :
RXO.OHMM :
CALI.CM :
~A
# ...
   99.0000   -38.9160     2.1550    56.7270    10.6270     8.9850    12.8860    25.7660 
   99.1250   -39.0360     2.1470    58.8700    10.5550     8.9220    12.5990    25.6740 
   99.2500   -39.0540     2.1460    59.5940    10.4260     8.8400    12.3350    25.5930 
   99.3750   -38.9990     2.1570    56.6100    10.3160     8.7680    12.0960    25.5980 
   99.5000   -38.8750     2.1800    51.8300    10.3020     8.7590    11.8950    25.6520 
   99.6250   -38.6830     2.2080    50.1280    10.4260     8.8460    11.7660    25.7220 
   99.7500   -38.4370     2.2400    53.6220    10.6620     9.0210    11.8670    25.8420 
   99.8750   -38.1540     2.2770    57.0280    10.8930     9.2120    12.2650    26.0830 
  100.0000   -37.8640     2.3100    57.7090    11.0110     9.3390    12.6460    26.4840 
  100.1250   -37.5800     2.3160    56.5060    10.9400     9.3320    12.4300    26.9690 
  100.2500   -37.3200     2.2770    54.5100    10.6740     9.1690    11.9470    27.3310 
  100.3750   -37.0690     2.2240    52.9470    10.3360     8.9300    11.8000    27.6780 
  100.5000   -36.8160     2.1860    52.5240    10.0400     8.6960    12.1540    28.1670 
  100.6250   -36.5650     2.1660    51.9200     9.8800     8.5460    12.5320    28.7120 
  100.7500   -36.2930     2.1590    51.0340     9.9040     8.5260    12.6840    28.8240 
  100.8750   -36.0140     2.1590    51.1400    10.0500     8.6080    12.8000    28.5920 
  101.0000   -35.7310     2.1730    51.6830    10.2470     8.7440    12.8610    28.2990 
  101.1250   -35.4250     2.1960    50.6970    10.4280     8.8830    12.7550    28.1270 
  101.2500   -35.0930     2.2200    48.8740    10.5440     8.9820    12.5890    28.0040 
  101.3750   -34.7340     2.2290    50.2440    10.5840     9.0260    12.3590    27.6690 
  101.5000   -34.3700     2.2140    55.1870    10.5550     9.0170    12.2300    26.9870 
  101.6250   -34.0300     2.1880    60.1640    10.4920     8.9740    12.3540    26.1750 
  101.7500   -33.7210     2.1740    61.2550    10.4440     8.9310    12.5440    25.5090 
  101.8750   -33.4030     2.1740    60.7820    10.4390     8.9110    12.7480    25.0180 
  102.0000   -33.0460     2.1840    61.6090    10.4610     8.9090    12.9720    24.6920 
  102.1250   -32.6640     2.1980    62.8750    10.4560     8.8890    13.2310    24.5100 
  102.2500   -32.2650     2.2160    61.8670    10.3710     8.8120    13.4670    24.4360 
  102.3750   -31.8690     2.2350    60.6650    10.2420     8.6990    13.4310    24.3940 
  102.5000   -31.5060     2.2530    62.1770    10.1500     8.6050    12.7510    24.3350 
  102.6250   -31.2080     2.2690    65.5220    10.1960     8.6020    11.8180    24.2380 
  102.7500   -31.0320     2.2730    67.1600    10.4480     8.7450    12.4880    24.1700 
  102.8750   -30.9720     2.2580    66.3750    10.8210     8.9990    15.5100    24.1910 
  103.0000   -31.0150     2.2300    65.2060    11.1790     9.2830    18.6830    24.2770 
  103.1250   -31.1430     2.2020    65.1810    11.3720     9.4850    17.7460    24.3270 
  103.2500   -31.3250     2.1890    65.7080    11.3090     9.5140    14.6550    24.2670 
  103.3750   -31.5300     2.1920    65.4250    11.0960     9.4110    13.2800    24.1660 
  103.5000   -31.7110     2.2060    63.8570    10.8890     9.2700    12.9680    24.0530 
  103.6250   -31.8310     2.2250    61.7070    10.8390     9.2120    12.8860    23.9140 
  103.7500   -31.8650     2.2380    61.5860    11.0280     9.3190    12.9500    23.7790 
  103.8750   -31.8380     2.2390    65.3240    11.3630     9.5590    13.3050    23.6950 
  104.0000   -31.7740     2.2350    70.4820    11.7160     9.8550    13.8560    23.6720 
  104.1250   -31.6790     2.2300    72.1330    11.9430    10.0980    14.3680    23.7030 
  104.2500   -31.5750     2.2250    68.7020    11.9240    10.1810    14.6340    23.7940 
  104.3750   -31.5050     2.2200    65.7340    11.6920    10.0920    14.9030    23.9200 
  104.5000   -31.5220     2.2170    66.4150    11.3350     9.8730    15.4920    24.0490 
  104.6250   -31.6230     2.2150    67.7430    10.9760     9.6040    15.5820    24.1460 
  104.7500   -31.7560     2.2120    67.0460    10.7090     9.3610    14.1020    24.2020 
  104.8750   -31.8830     2.2050    65.8990    10.5220     9.1630    12.2550    24.2260 
  105.0000   -31.9640     2.1990    65.1650    10.3390     8.9740    11.6710    24.2060 
  105.1250   -32.0000     2.2010    65.2710    10.0620     8.7250    11.7090    24.1310 
  105.2500   -32.0070     2.2120    66.1050     9.6320     8.3640    11.5410    24.0240 
  105.3750   -32.0230     2.2250    67.2800     9.1370     7.9400    10.5460    23.9280 
  105.5000   -32.0860     2.2350    68.9260     8.7120     7.5460     8.5690    23.8670 
  105.6250   -32.2460     2.2360    71.9310     8.5050     7.2930     6.8090    23.8400 
  105.7500   -32.5650     2.2280    75.2110     8.6160     7.2740     6.7390    23.8690 
  105.8750   -33.0110     2.2130    74.7630     8.9780     7.4730     8.2380    23.9420 
  106.0000   -33.5580     2.1910    70.4570     9.4850     7.8360    10.0420    24.0160 
  106.1250   -34.1720     2.1700    65.6440     9.9880     8.2630    11.0170    24.0810 
  106.2500   -34.8120     2.1590    62.1660    10.3340     8.6200    11.2270    24.1340 
  106.3750   -35.4250     2.1580    60.6620    10.4770     8.8190    11.3280    24.1680 
  106.5000   -35.9440     2.1620    61.6030    10.4490     8.8550    11.5750    24.1860 
  106.6250   -36.3360     2.1680    64.5480    10.3310     8.7730    11.7460    24.1990 
  106.7500   -36.5650     2.1740    65.8990    10.1910     8.6310    11.5760    24.2170 
  106.8750   -36.6450     2.1790    65.0630    10.0660     8.4770    11.4690    24.2530 
  107.0000   -36.6220     2.1830    63.0920     9.9500     8.3230    11.6490    24.3810 
  107.1250   -36.5270     2.1850    60.0620     9.8470     8.1850    11.8570    24.6280 
  107.2500   -36.3960     2.1860    56.6760     9.7820     8.0940    11.7160    24.8960 
  107.3750   -36.2500     2.1870    55.5550     9.7920     8.0760    11.4580    24.9750 
  107.5000   -36.1090     2.1870    57.5720     9.9010     8.1490    11.4810    24.8730 
  107.6250   -35.9510     2.1840    59.6030    10.1110     8.3110    11.8550    24.7610 
  107.7500   -35.7390     2.1810    58.8210    10.3870     8.5370    12.4240    24.7860 
  107.8750   -35.4660     2.1790    57.9300    10.6500     8.7630    12.8570    24.9120 
  108.0000   -35.1380     2.1790    58.5230    10.8290     8.9270    13.0320    25.0920 
  108.1250   -34.7720     2.1820    59.8320    10.8450     8.9600    13.0390    25.2940 
  108.2500   -34.3420     2.1890    60.3060    10.6070     8.7900    12.9970    25.5040 
  108.3750   -33.8430     2.2010    60.2710    10.1200     8.4140    12.6340    25.6220 
  108.5000   -33.2920     2.2180    60.2340     9.4500     7.8810    11.5840    25.5180 
  108.6250   -32.7400     2.2450    62.3780     8.7500     7.2980     9.8120    25.1530 
  108.7500   -32.3130     2.2790    68.6330     8.2160     6.8080     7.7270    24.6740 
  108.8750   -32.1200     2.2990    74.3560     7.9810     6.5100     6.4370    24.3370 
  109.0000   -32.1480     2.2910    75.3890     8.1070     6.4670     6.4190    24.2260 
  109.1250   -32.3440     2.2600    71.5060     8.5910     6.7080     7.9220    24.2980 
  109.2500   -32.6870     2.2320    68.3920     9.3720     7.2330    10.5470    24.4130 
  109.3750   -33.1350     2.2160    69.4910    10.2660     7.9270    12.5250    24.5210 
  109.5000   -33.6100     2.2030    71.3560    11.1060     8.6680    14.1280    24.6460 
  109.6250   -33.9950     2.1890    70.4880    11.7000     9.2840    15.1970    24.8360 
  109.7500   -34.1490     2.1730    67.4960    11.8860     9.6050    15.5350    25.0480 
  109.8750   -33.9800     2.1630    66.7120    11.7290     9.6350    15.3060    25.1750 
  110.0000   -33.4820     2.1660    67.3040    11.3690     9.4570    15.0350    25.1800 
  110.1250   -32.7040     2.1800    67.6960    11.0130     9.2140    14.6300    25.1160 
