~V
VERS. 2.00: Ver 2.00
~W
STRT.M 49.0000:
STOP.M 247.0000:
STEP.M 0.1250:
NULL. -999.2500:
UWI. F11144:
~C
DEPT.M :
DEN.GM/CC :
SP.MV :
GR.API :
RML.OHMM :
RI. :
RXO.OHMM :
CALI.CM :
~A
# ...
   60.2500     2.2840   -19.8320    96.5630     4.7560     5.0320     6.6690    23.5340 
   60.3750     2.2950   -21.3040    99.1140     4.8940     5.2620     6.4870    23.6440 
   60.5000     2.3020   -22.5110   102.7140     5.0980     5.4910     6.4020    23.8330 
   60.6250     2.2980   -23.5900   104.9110     5.3180     5.7220     6.5690    24.0970 
   60.7500     2.2820   -24.5730   102.6450     5.5590     5.9880     6.9580    24.2670 
   60.8750     2.2670   -25.5400    99.9990     5.8460     6.3100     7.2970    24.2910 
   61.0000     2.2570   -26.4570    98.3340     6.1970     6.6820     7.5200    24.2330 
   61.1250     2.2520   -27.3250    94.9980     6.6040     7.0740     7.8060    24.2060 
   61.2500     2.2510   -28.1190    88.7890     7.0080     7.4170     7.9300    24.1930 
   61.3750     2.2660   -28.7900    85.1620     7.3080     7.6300     8.2420    24.1790 
   61.5000     2.2910   -29.3840    87.0010     7.4050     7.6320     8.1640    24.1350 
   61.6250     2.3040   -29.9010    89.9880     7.2530     7.3870     7.6890    24.0140 
   61.7500     2.2860   -30.3470    91.5450     6.8640     6.9080     7.6560    23.8250 
   61.8750     2.2660   -30.7310    94.2480     6.3830     6.3410     7.6770    23.6230 
   62.0000     2.2680   -31.1060    98.1740     5.9390     5.8050     7.3960    23.4340 
   62.1250     2.2880   -31.4820   101.3850     5.6890     5.4310     6.8390    23.2530 
   62.2500     2.3080   -31.9150   101.0200     5.9140     5.4370     6.9880    23.1950 
   62.3750     2.3160   -32.4550    98.2900     6.7830     5.9800     7.6960    23.3840 
   62.5000     2.3180   -33.0460    93.3780     8.5420     7.3410     9.0350    23.9030 
   62.6250     2.3290   -33.7710    85.8370    11.4810     9.8820    11.6780    24.5840 
   62.7500     2.3640   -34.7080    76.6660    15.9700    14.0790    18.2980    24.8680 
   62.8750     2.4100   -35.7330    67.7950    20.7770    18.9560    30.5100    24.8400 
   63.0000     2.4400   -36.8910    61.3560    23.1280    22.2600    40.4920    24.6840 
   63.1250     2.4260   -38.1530    57.2890    20.8930    21.6780    39.3990    24.5290 
   63.2500     2.3550   -39.3800    55.4430    15.9510    17.5740    28.5430    24.4110 
   63.3750     2.2640   -40.5090    57.1210    11.8030    13.2700    18.4880    24.2940 
   63.5000     2.1900   -41.5470    61.8070     9.1310    10.0340    12.5400    24.0900 
   63.6250     2.1560   -42.4130    66.6890     7.6860     7.9860     9.7950    23.6730 
   63.7500     2.1740   -43.0480    70.4220     7.1870     6.9730     9.0760    23.4380 
   63.8750     2.2090   -43.5850    74.1630     7.1770     6.5560     9.0570    23.3930 
   64.0000     2.2240   -43.9480    75.7130     7.4380     6.5330     9.1970    23.5560 
   64.1250     2.1980   -44.1470    73.3320     7.7890     6.7260     9.4230    24.0080 
   64.2500     2.1400   -44.1970    70.0100     8.1000     7.0010     9.8080    24.7440 
   64.3750     2.0890   -44.2140    69.1480     8.3340     7.2630    10.1650    25.3600 
   64.5000     2.0650   -44.2310    69.3580     8.4900     7.4740    10.3450    25.6030 
   64.6250     2.0740   -44.2560    69.4220     8.5720     7.6100    10.5700    25.6200 
   64.7500     2.1050   -44.3390    69.8100     8.5630     7.6440    10.8630    25.6730 
   64.8750     2.1300   -44.3750    70.3950     8.4820     7.5910    11.0770    25.8670 
   65.0000     2.1310   -44.4260    69.2710     8.3520     7.4720    10.8770    26.1500 
   65.1250     2.1110   -44.5310    66.2640     8.2210     7.3270    10.4700    26.4070 
   65.2500     2.0830   -44.7430    63.4630     8.1730     7.2200    10.1550    26.4630 
   65.3750     2.0650   -45.0190    61.8780     8.2430     7.1890    10.1600    26.3320 
   65.5000     2.0650   -45.3090    62.1110     8.4310     7.2500    10.2890    26.0920 
   65.6250     2.0810   -45.5810    64.5040     8.6790     7.3820    10.4310    25.7790 
   65.7500     2.1040   -45.8570    67.2380     8.8680     7.5110    10.5570    25.4200 
   65.8750     2.1200   -46.1700    68.5080     8.8940     7.5430    10.5150    24.9400 
   66.0000     2.1230   -46.4960    71.8480     8.7210     7.4240    10.1660    24.3560 
   66.1250     2.1200   -46.8690    77.1930     8.4020     7.1660     9.7180    23.8230 
   66.2500     2.1210   -47.2410    78.2250     8.0670     6.8460     9.2160    23.4650 
   66.3750     2.1330   -47.6770    74.7590     7.8520     6.5730     8.7940    23.2930 
   66.5000     2.1560   -48.2240    72.3880     7.8170     6.4100     8.7300    23.4580 
   66.6250     2.1810   -48.8400    73.2200     7.9450     6.3700     9.1360    24.1100 
   66.7500     2.1900   -49.4410    71.2150     8.1340     6.4220     9.9950    24.8370 
   66.8750     2.1880   -49.9970    66.6240     8.2250     6.4640    10.4580    25.3650 
   67.0000     2.1900   -50.4880    63.0420     8.1620     6.4350    10.6860    25.7660 
   67.1250     2.1990   -50.8730    60.9460     8.0710     6.3650    10.8140    26.2650 
   67.2500     2.2060   -51.1140    58.6930     8.3620     6.4640    11.0220    26.8040 
   67.3750     2.2030   -51.1600    57.6340     9.3260     6.9590    11.2240    27.2090 
   67.5000     2.2010   -51.0410    58.4510    11.0770     8.0080    11.4910    27.0470 
   67.6250     2.2250   -50.7870    59.2720    13.4550     9.6320    13.1020    25.9210 
   67.7500     2.3030   -50.4560    59.2260    15.6920    11.4960    20.0600    24.1310 
   67.8750     2.3940   -50.1010    60.3980    16.5540    12.6520    32.1080    23.3470 
   68.0000     2.4050   -49.6950    61.8280    15.3860    12.3690    31.0730    23.6120 
   68.1250     2.2910   -49.2250    60.5910    12.8400    10.8450    17.6640    24.7960 
   68.2500     2.1560   -48.7070    58.1560    10.4280     9.0400    13.3260    26.1580 
   68.3750     2.0800   -48.0830    57.7550     8.9280     7.6700    12.2600    27.0960 
   68.5000     2.0540   -47.3310    59.7740     8.3310     6.8650    12.2840    27.2960 
   68.6250     2.0480   -46.4720    63.0810     8.3650     6.5580    12.2730    27.1470 
   68.7500     2.0390   -45.3700    66.3730     8.6750     6.6090    12.3100    26.7190 
   68.8750     2.0210   -44.0610    67.7810     8.8910     6.7390    12.5320    25.9160 
   69.0000     2.0040   -42.6830    68.5850     8.8670     6.7930    12.5900    25.0220 
   69.1250     2.0080   -41.2900    71.9400     8.6130     6.7170    12.1970    24.3030 
   69.2500     2.0620   -39.9990    77.3460     8.2660     6.5500    10.9070    23.9390 
   69.3750     2.1500   -38.9770    80.8840     8.0270     6.4130     9.5620    23.7250 
   69.5000     2.2300   -38.1700    80.7550     8.0200     6.3940     9.0790    23.5230 
   69.6250     2.2590   -37.5240    77.2420     8.2780     6.5380     9.3160    23.2740 
   69.7500     2.2410   -37.1110    73.5280     8.7320     6.8390    10.4200    23.0520 
   69.8750     2.2230   -36.7980    73.9600     9.1680     7.1730    10.7840    22.9240 
   70.0000     2.2200   -36.5260    78.8620     9.4080     7.4140    10.5690    22.8450 
   70.1250     2.2220   -36.2980    81.9170     9.3430     7.4520     9.9560    22.8380 
   70.2500     2.2140   -36.0630    80.7600     8.9600     7.2230     9.0670    22.9300 
   70.3750     2.2000   -35.8310    81.7680     8.4510     6.8420     8.1500    22.9830 
   70.5000     2.1950   -35.7310    85.3160     7.9490     6.4150     7.5980    22.8720 
   70.6250     2.2060   -35.8210    88.2070     7.5400     6.0260     7.3500    22.5450 
   70.7500     2.2230   -36.2360    90.6160     7.2940     5.7480     7.1880    22.1130 
   70.8750     2.2310   -37.0820    92.9780     7.2110     5.6000     7.0110    21.8940 
   71.0000     2.2310   -38.3030    91.9480     7.2920     5.5910     7.0310    21.8960 
   71.1250     2.2290   -39.8380    86.3680     7.5200     5.7110     7.2420    22.0610 
   71.2500     2.2210   -41.6470    80.1150     7.8510     5.9390     7.8880    22.4060 
   71.3750     2.2030   -43.4510    75.1210     8.1760     6.1920     8.8890    22.9290 
