~V
VERS. 2.00: Ver 2.00
~W
STRT.M 50.0000:
STOP.M 264.0000:
STEP.M 0.1250:
NULL. -999.2500:
UWI. F11182:
~C
DEPT.M :
SP.MV :
GR.API :
RI. :
RML.OHMM :
RXO.OHMM :
DEN.GM/CC :
~A
# ...
  256.0000     6.4670    40.3220     3.8930     4.3880     5.7710     2.2810 
  256.1250     6.4670    40.3220     3.8770     4.3710     6.7380     2.2970 
  256.2500     6.4670    40.3220     3.8750     4.3690     6.7110     2.2860 
  256.3750     6.4670    40.3220     3.8780     4.3720     5.9940     2.2470 
  256.5000     6.4670    40.3220     3.8750     4.3680     5.6400     2.2330 
  256.6250     6.4670    40.3220     3.8830     4.3770     5.3840     2.2490 
  256.7500     6.4670    40.3220     3.8880     4.3820     5.6140     2.2660 
  256.8750     6.4670    40.3220     3.8890     4.3840     5.8600     2.2650 
  257.0000     6.4670    40.3220     3.8890     4.3830     5.5880     2.2510 
  257.1250     6.4670    40.3220     3.8930     4.3880     5.2280     2.2360 
  257.2500     6.4670    40.3220     3.8930     4.3880     5.2510     2.2340 
  257.3750     6.4670    40.3220     3.8930     4.3880     5.3120     2.2430 
  257.5000     6.4670    40.3220     3.8930     4.3880     5.2360     2.2680 
  257.6250     6.4670    40.3220     3.8930     4.3880     5.2470     2.3300 
  257.7500     6.4670    40.3220     3.8930     4.3880     5.4890     2.3590 
  257.8750     6.4670    40.3220     3.8930     4.3880     6.6390     2.3470 
  258.0000     6.4670    40.3220     3.8930     4.3880     7.3710     2.3210 
  258.1250     6.4670    40.3220     3.8930     4.3880     7.2110     2.3160 
  258.2500     6.4670    40.3220     3.8930     4.3880     6.9880     2.3290 
  258.3750     6.4670    40.3220     3.8930     4.3880     7.4960     2.3320 
  258.5000     6.4670    40.3220     3.8930     4.3880     8.2140     2.3130 
  258.6250     6.4670    40.3220     3.8930     4.3880     8.6170     2.2740 
  258.7500     6.4670    40.3220     3.8930     4.3880     8.0550     2.2360 
  258.8750     6.4670    40.3220     3.8930     4.3880     6.8080     2.1370 
  259.0000     6.4670    40.3220     3.8930     4.3880     6.0740     2.0630 
  259.1250     6.4670    40.3220     3.8930     4.3880     5.4610     1.9980 
  259.2500     6.4670    40.3220     3.8930     4.3880     4.7590     1.9940 
  259.3750     6.4670    40.3220     3.8930     4.3880     2.8690     2.0100 
  259.5000     6.4670    40.3220     3.8930     4.3880     2.1380     2.0180 
  259.6250     6.4670    40.3220     3.8930     4.3880     2.0110     2.0220 
  259.7500     6.4670    40.3220     3.8930     4.3880     2.0100     2.0200 
  259.8750     6.4670    40.3220     3.8930     4.3880     2.0100     2.0100 
  260.0000     6.4670    40.3220     3.8930     4.3880     2.0100     2.0040 
  260.1250     6.4670    40.3220     3.8930     4.3880     2.0090     2.0020 
  260.2500     6.4670    40.3220     3.8930     4.3880     2.0080     2.0020 
  260.3750     6.4670    40.3220     3.8930     4.3880     2.0080     2.0050 
  260.5000     6.4670    40.3220     3.8930     4.3880     2.0070     2.0090 
  260.6250     6.4670    40.3220     3.8930     4.3880     2.0060     2.0150 
  260.7500     6.4670    40.3220     3.8930     4.3880     2.0060     2.0150 
  260.8750     6.4670    40.3220     3.8930     4.3880     2.0050     2.0130 
  261.0000     6.4670    40.3220     3.8930     4.3880     2.0040     2.0160 
  261.1250     6.4670    40.3220     3.8930     4.3880     2.0020     2.0240 
  261.2500     6.4670    40.3220     3.8930     4.3880     2.0000     2.0260 
  261.3750     6.4670    40.3220     3.8930     4.3880     1.9960     2.0190 
  261.5000     6.4670    40.3220     3.8930     4.3880     1.9910     2.0120 
  261.6250     6.4670    40.3220     3.8930     4.3880     2.1470     2.0030 
  261.7500     6.4670    40.3220     3.8930     4.3880     2.6140     1.9980 
  261.8750     6.4670    40.3220     3.8930     4.3880     3.4670     1.9990 
  262.0000     6.4670    40.3220     3.8930     4.3880     3.7120     2.0060 
  262.1250     6.4670    40.3220     3.8930     4.3880     3.9340     2.0170 
  262.2500     6.4670    40.3220     3.8930     4.3880     4.1530     2.0180 
  262.3750     6.4670    40.3220     3.8930     4.3880     4.6300     2.0110 
  262.5000     6.4670    40.3220     3.8930     4.3880     4.9700     2.0070 
  262.6250     6.4670    40.3220     3.8930     4.3880     4.8940     2.0090 
  262.7500     6.4670    40.3220     3.8930     4.3880     4.5280     2.0140 
  262.8750     6.4670    40.3220     3.8930     4.3880     4.1050     2.0170 
  263.0000     6.4670    40.3220     3.8930     4.3880     4.0070     2.0170 
  263.1250     6.4670    40.3220     3.8930     4.3880     3.8740     2.0120 
  263.2500     6.4670    40.3220     3.8930     4.3880     3.6270     2.0070 
  263.3750     6.4670    40.3220     3.8930     4.3880     3.3940     2.0050 
  263.5000     6.4670    40.3220     3.8930     4.3880     3.6030     2.0080 
  263.6250     6.4670    40.3220     3.8930     4.3880     3.9440     2.0110 
  263.7500     6.4670    40.3220     3.8930     4.3880     3.6600     2.0060 
  263.8750     6.4670    40.3220     3.8930     4.3880     3.1380     2.0000 
  264.0000     6.4670    40.3220     3.8930     4.3880     3.3290     2.0020 
