~V
VERS. 2.00: Ver 2.00
~W
STRT.M 50.0000:
STOP.M 170.0000:
STEP.M 0.1250:
NULL. -999.2500:
UWI. F11116:
~C
DEPT.M :
SP.MV :
DEN.GM/CC :
GR.API :
RML.OHMM :
RI. :
RXO.OHMM :
CALI.CM :
~A
# ...
   83.7500   -12.1100     2.2930    97.7630     6.2060     4.8320     4.7320    25.1510 
   83.8750   -12.2950     2.3080   103.5720     6.0710     4.6860     4.6430    25.1510 
   84.0000   -12.6590     2.3110   102.9610     6.3760     4.7940     4.7740    25.1520 
   84.1250   -13.1810     2.3220    93.2110     7.6310     5.4360     5.3660    25.1530 
   84.2500   -13.7970     2.3560    81.6550    10.1360     6.7760     7.4860    25.1390 
   84.3750   -14.4720     2.4180    72.5310    14.1120     8.9830    13.4190    25.0880 
   84.5000   -15.1690     2.4970    66.0240    19.1960    11.9720    25.6060    24.9980 
   84.6250   -15.8470     2.5610    62.6490    23.4020    14.8250    35.6000    24.9060 
   84.7500   -16.4840     2.5760    63.5550    24.2520    16.0170    37.7030    24.8530 
   84.8750   -17.0860     2.5300    67.5630    21.3270    14.9860    30.8720    24.8380 
   85.0000   -17.6620     2.4370    72.9010    16.6740    12.5980    20.9310    24.9240 
   85.1250   -18.1960     2.3290    77.1360    12.8400    10.2180    12.9170    25.1760 
   85.2500   -18.6880     2.2400    77.8370    10.4670     8.4700     9.3810    25.4590 
   85.3750   -19.1360     2.1860    74.1350     9.2870     7.3760     8.3200    25.6300 
   85.5000   -19.5510     2.1640    68.6600     8.8840     6.8060     8.2020    25.6680 
   85.6250   -19.9090     2.1610    64.8800     8.9490     6.6440     8.1620    25.6620 
   85.7500   -20.1810     2.1560    63.8760     9.1440     6.6730     8.2430    25.6420 
   85.8750   -20.3480     2.1470    65.2680     9.3140     6.7760     8.2530    25.6040 
   86.0000   -20.4290     2.1380    67.8670     9.3860     6.8680     8.1860    25.5700 
   86.1250   -20.4410     2.1360    69.1770     9.3330     6.9010     8.1670    25.5590 
   86.2500   -20.4130     2.1410    69.7630     9.1900     6.8770     8.1940    25.5500 
   86.3750   -20.3500     2.1500    70.6390     8.9820     6.8050     8.1770    25.5240 
   86.5000   -20.2470     2.1570    71.0300     8.7660     6.7010     8.0390    25.5050 
   86.6250   -20.1060     2.1590    70.9240     8.6320     6.5890     7.8330    25.5230 
   86.7500   -19.9450     2.1610    71.6050     8.5930     6.4920     7.6560    25.5390 
   86.8750   -19.7570     2.1650    73.1250     8.6010     6.4090     7.5120    25.4720 
   87.0000   -19.5390     2.1720    74.9680     8.5720     6.3220     7.3720    25.2940 
   87.1250   -19.3070     2.1790    76.7200     8.4080     6.2020     7.2300    25.1040 
   87.2500   -19.0830     2.1840    78.0720     8.1290     6.0480     7.0860    25.0080 
   87.3750   -18.8860     2.1860    77.7420     7.8170     5.8770     6.8610    24.9950 
   87.5000   -18.7200     2.1860    75.5260     7.5710     5.7160     6.5860    25.0030 
   87.6250   -18.6110     2.1880    73.1340     7.4710     5.6010     6.4520    25.0010 
   87.7500   -18.5560     2.1950    70.9040     7.5110     5.5500     6.4850    25.0010 
   87.8750   -18.5500     2.2020    68.9140     7.6810     5.5760     6.6630    25.0020 
   88.0000   -18.5780     2.2030    67.7130     7.9450     5.6800     6.8770    25.0130 
   88.1250   -18.6310     2.1880    66.8740     8.2540     5.8520     6.8790    25.0130 
   88.2500   -18.6850     2.1580    66.3510     8.5470     6.0460     6.7530    24.8630 
   88.3750   -18.7170     2.1220    67.1770     8.7860     6.2210     6.6550    24.4710 
   88.5000   -18.7090     2.0950    69.5690     8.9310     6.3490     6.9870    23.9420 
   88.6250   -18.6510     2.0860    70.8500     8.9470     6.4120     6.9060    23.5580 
   88.7500   -18.5510     2.0930    68.6340     8.8770     6.4280     7.2640    23.3990 
   88.8750   -18.4370     2.1090    64.8320     8.7650     6.4130     8.1800    23.3910 
   89.0000   -18.3140     2.1280    61.5220     8.6680     6.3770     9.1080    23.4970 
   89.1250   -18.1920     2.1450    62.3830     8.6270     6.3220     8.7590    23.8060 
   89.2500   -18.0770     2.1560    66.2590     8.6260     6.2560     8.0660    24.3430 
   89.3750   -17.9710     2.1610    69.1930     8.6360     6.1870     7.8630    24.9730 
   89.5000   -17.8650     2.1610    69.4260     8.6230     6.1300     7.8980    25.4520 
   89.6250   -17.7640     2.1580    67.2880     8.5770     6.1040     8.0130    25.6120 
   89.7500   -17.6600     2.1590    64.3760     8.5330     6.1090     8.1410    25.6220 
   89.8750   -17.5470     2.1650    61.8150     8.5150     6.1410     8.1790    25.6150 
   90.0000   -17.4190     2.1750    61.4850     8.5290     6.1910     8.1610    25.6150 
   90.1250   -17.2520     2.1880    64.3200     8.5570     6.2460     8.1750    25.6120 
   90.2500   -17.0250     2.2010    68.3390     8.5610     6.2840     8.0120    25.6090 
   90.3750   -16.7280     2.2090    72.8470     8.5060     6.2780     7.6460    25.6100 
   90.5000   -16.3500     2.2090    76.6320     8.3730     6.2020     6.9160    25.6230 
   90.6250   -15.8760     2.2010    75.9100     8.1270     6.0170     6.2870    25.6610 
   90.7500   -15.3480     2.1910    73.4140     7.7680     5.7470     6.2670    25.6380 
   90.8750   -14.7960     2.1870    72.7280     7.3620     5.4570     6.3000    25.4640 
   91.0000   -14.2510     2.1940    74.1400     7.0940     5.2700     5.9100    25.1870 
   91.1250   -13.7600     2.2320    74.9350     7.3070     5.3790     5.9420    24.9980 
   91.2500   -13.3460     2.3030    74.0920     8.1530     5.8570     6.2070    24.9390 
   91.3750   -13.0400     2.4000    72.1600     9.7090     6.7440     8.4900    24.8610 
   91.5000   -12.8700     2.4910    70.0060    11.7930     7.9670    15.8260    24.6660 
   91.6250   -12.8930     2.5230    68.8570    13.6480     9.1860    19.3800    24.4540 
   91.7500   -13.0750     2.4870    69.7600    14.3270     9.8550    15.1100    24.3920 
   91.8750   -13.3900     2.4100    70.1210    13.4870     9.6820     9.7910    24.5280 
   92.0000   -13.8050     2.3270    69.8450    11.6410     8.8240     7.9040    24.7640 
   92.1250   -14.2820     2.2660    71.9890     9.8080     7.7680     7.4810    24.9380 
   92.2500   -14.7850     2.2290    75.8110     8.6370     6.9540     6.9050    24.9950 
   92.3750   -15.2880     2.2130    76.6380     8.2250     6.5110     6.3780    24.9830 
   92.5000   -15.7700     2.2080    73.0300     8.4220     6.4160     6.6030    24.9630 
   92.6250   -16.2160     2.2060    68.8470     8.9830     6.6000     7.3990    24.9540 
   92.7500   -16.6340     2.1970    66.8430     9.5230     6.8640     8.2320    24.9510 
   92.8750   -17.0270     2.1830    65.4480     9.7860     7.0640     8.5220    24.9470 
   93.0000   -17.3980     2.1660    64.0690     9.6550     7.1030     8.1780    24.9420 
   93.1250   -17.7330     2.1540    64.8750     9.2270     6.9750     7.3830    24.9620 
   93.2500   -18.0190     2.1510    66.9110     8.8270     6.8180     6.9750    25.0220 
   93.3750   -18.2530     2.1560    68.1120     8.6340     6.7280     7.1340    25.0970 
   93.5000   -18.4390     2.1670    69.1550     8.6890     6.7440     7.6930    25.1460 
   93.6250   -18.5690     2.1770    69.6530     8.9090     6.8390     7.9490    25.1600 
   93.7500   -18.6530     2.1770    67.7000     9.1120     6.9200     8.0180    25.2060 
   93.8750   -18.6870     2.1620    63.4000     9.1920     6.9330     7.9070    25.3230 
   94.0000   -18.6720     2.1390    60.7930     9.1280     6.8730     7.7030    25.4690 
   94.1250   -18.6180     2.1250    62.1770     9.0000     6.7770     7.3180    25.5110 
   94.2500   -18.5610     2.1210    63.6290     8.9270     6.7110     7.3640    25.4310 
   94.3750   -18.5230     2.1220    62.8940     8.9600     6.7100     7.7930    25.3250 
   94.5000   -18.5070     2.1240    61.1500     9.0940     6.7800     8.1410    25.2760 
   94.6250   -18.5080     2.1310    61.4360     9.3010     6.9100     8.1420    25.2570 
   94.7500   -18.4990     2.1520    62.6550     9.5160     7.0530     8.3010    25.2140 
   94.8750   -18.4720     2.1850    63.4260     9.6780     7.1570     9.0270    25.1660 
