~V
VERS. 2.00: Ver 2.00
~W
STRT.M 62.0000:
STOP.M 219.0000:
STEP.M 0.1250:
NULL. -999.2500:
UWI. F11127:
~C
DEPT.M :
SP.MV :
DEN.GM/CC :
GR.API :
RML.OHMM :
RI. :
RXO.OHMM :
CALI.CM :
~A
# ...
  185.7500   -22.6360     2.4030    54.8240     7.9420     7.2970     9.7560    24.2740 
  185.8750   -22.7110     2.4000    55.1130     7.8630     7.2700     9.5160    24.3010 
  186.0000   -22.8180     2.3960    54.9240     7.8330     7.2550     9.0760    24.2990 
  186.1250   -22.9520     2.3890    53.9900     7.8450     7.2530     8.4820    24.2260 
  186.2500   -23.0730     2.3780    53.8850     7.8850     7.2650     8.1520    24.0840 
  186.3750   -23.2240     2.3690    54.1760     7.9870     7.2840     8.1190    23.9350 
  186.5000   -23.4800     2.3680    53.7460     8.0670     7.2990     8.1530    23.7540 
  186.6250   -23.8250     2.3750    53.5250     8.0890     7.2910     8.1420    23.6270 
  186.7500   -24.1150     2.3830    55.7010     8.0070     7.2210     7.9890    23.6510 
  186.8750   -24.2800     2.3860    57.8670     7.8210     7.0750     7.7160    23.7260 
  187.0000   -24.3910     2.3780    57.3560     7.5450     6.8530     7.3250    23.8320 
  187.1250   -24.4780     2.3540    54.9620     7.2110     6.5790     6.9070    23.9730 
  187.2500   -24.4830     2.3220    52.7120     6.8840     6.2960     6.5020    24.0490 
  187.3750   -24.3470     2.3010    51.1040     6.6370     6.0540     6.2220    24.0370 
  187.5000   -24.1190     2.2990    49.9490     6.5100     5.8830     6.0890    24.0180 
  187.6250   -23.8100     2.3120    49.1420     6.5030     5.7900     6.0400    24.0280 
  187.7500   -23.4590     2.3340    49.6810     6.5860     5.7740     6.0920    24.0560 
  187.8750   -23.1380     2.3510    52.7110     6.6880     5.8020     6.1410    24.0810 
  188.0000   -22.8840     2.3570    57.6790     6.7750     5.8570     6.2120    24.0880 
  188.1250   -22.6440     2.3520    62.1710     6.8380     5.9220     6.3540    24.0790 
  188.2500   -22.3910     2.3430    64.3770     6.8780     5.9750     6.3990    23.9690 
  188.3750   -22.0950     2.3350    64.1070     6.8920     5.9950     6.4960    23.8380 
  188.5000   -21.7210     2.3270    61.5190     6.8630     5.9610     6.5890    23.7690 
  188.6250   -21.3650     2.3220    57.2360     6.7860     5.8610     6.5370    23.8150 
  188.7500   -21.0650     2.3260    53.7810     6.6840     5.7070     6.2600    23.8970 
  188.8750   -20.8980     2.3380    51.8010     6.6170     5.5560     5.9910    23.9350 
  189.0000   -20.8300     2.3520    51.3630     6.6400     5.4680     5.8920    23.8420 
  189.1250   -20.7240     2.3610    52.6510     6.7820     5.4890     5.9610    23.6730 
  189.2500   -20.6190     2.3570    54.2090     7.0350     5.6540     6.1610    23.5820 
  189.3750   -20.5260     2.3420    53.8970     7.3150     5.9080     6.6840    23.6450 
  189.5000   -20.4150     2.3250    52.0200     7.5440     6.1860     7.4420    23.7880 
  189.6250   -20.2820     2.3150    49.6060     7.6590     6.4180     7.9840    23.9470 
  189.7500   -20.1450     2.3170    47.7660     7.6290     6.5280     8.0880    24.0440 
  189.8750   -19.8970     2.3270    48.7030     7.5320     6.5230     7.8750    24.1990 
  190.0000   -19.5310     2.3420    53.4020     7.4330     6.4360     7.5540    24.3480 
  190.1250   -19.2140     2.3590    59.1060     7.3570     6.3190     7.2880    24.4480 
  190.2500   -18.9650     2.3750    59.5540     7.2860     6.2200     7.0970    24.4030 
  190.3750   -18.7930     2.3840    55.7000     7.1850     6.1490     7.0750    24.3190 
  190.5000   -18.6980     2.3830    51.8510     7.0530     6.0880     7.1560    24.2950 
  190.6250   -18.6650     2.3730    50.8550     6.9220     6.0130     7.2060    24.3400 
  190.7500   -18.6490     2.3550    52.5860     6.8280     5.9010     7.0470    24.3940 
  190.8750   -18.6340     2.3330    54.2960     6.7660     5.7630     6.6900    24.4100 
  191.0000   -18.6000     2.3170    54.2430     6.7150     5.6190     6.3080    24.3060 
  191.1250   -18.5670     2.3100    52.6230     6.6640     5.4950     6.1340    24.0510 
  191.2500   -18.5740     2.3080    50.7190     6.6210     5.4120     6.0860    23.8220 
  191.3750   -18.6100     2.3060    49.5310     6.5970     5.3650     6.0340    23.6510 
  191.5000   -18.6690     2.3060    48.8050     6.5960     5.3450     5.9820    23.4810 
  191.6250   -18.7650     2.3070    48.3440     6.6150     5.3510     5.9850    23.4440 
  191.7500   -18.8890     2.3110    48.0940     6.6590     5.3950     6.0240    23.4670 
  191.8750   -19.0610     2.3150    47.6740     6.7440     5.4890     6.0470    23.6230 
  192.0000   -19.3340     2.3170    47.7190     6.8830     5.6350     6.1060    23.9350 
  192.1250   -19.5980     2.3170    49.1630     7.0610     5.8190     6.3010    24.4520 
  192.2500   -19.7300     2.3190    50.5720     7.2320     6.0040     6.7490    23.4820 
  192.3750   -19.7330     2.3260    51.1590     7.3450     6.1450     7.3060    22.8380 
  192.5000   -19.6530     2.3330    51.3100     7.3760     6.2120     7.7160    22.5800 
  192.6250   -19.5220     2.3380    51.6250     7.3350     6.2010     7.7120    22.7710 
  192.7500   -19.3730     2.3440    51.2410     7.2580     6.1330     7.1610    23.1670 
  192.8750   -19.1890     2.3520    49.3680     7.1890     6.0600     6.8960    23.5230 
  193.0000   -18.9190     2.3620    47.9470     7.1420     6.0080     6.8870    23.7060 
  193.1250   -18.6160     2.3690    48.5200     7.1040     5.9800     6.9740    23.7690 
  193.2500   -18.3720     2.3690    50.0660     7.0370     5.9460     7.1800    23.7700 
  193.3750   -18.1760     2.3650    50.0020     6.9110     5.8670     7.3980    23.7810 
  193.5000   -17.9030     2.3570    48.5490     6.7110     5.7210     7.5330    23.8130 
  193.6250   -17.5480     2.3460    47.6930     6.4520     5.5130     7.4670    23.9240 
  193.7500   -17.1190     2.3290    47.8290     6.1840     5.2790     7.0100    24.0360 
  193.8750   -16.6260     2.3120    47.6040     5.9800     5.0760     6.4340    24.0990 
  194.0000   -16.0520     2.3060    46.6920     5.8930     4.9490     6.0680    24.1450 
  194.1250   -15.4970     2.3160    44.8950     5.9410     4.9280     5.9300    24.1720 
  194.2500   -15.0100     2.3400    42.3940     6.1170     5.0310     5.9180    24.1210 
  194.3750   -14.5810     2.3710    40.8930     6.3410     5.2140     5.9820    24.0650 
  194.5000   -14.2580     2.4060    41.7090     6.5540     5.4310     6.0410    23.9920 
  194.6250   -14.0140     2.4360    44.2450     6.7100     5.6330     6.0490    23.8710 
  194.7500   -13.8750     2.4390    47.2440     6.7750     5.7690     6.1540    23.7360 
  194.8750   -13.8000     2.4100    50.7830     6.7680     5.8250     6.2860    23.6170 
  195.0000   -13.7220     2.3640    55.0360     6.7120     5.8040     6.3330    23.4750 
  195.1250   -13.6200     2.3220    59.7800     6.6270     5.7210     6.3300    23.2630 
  195.2500   -13.4440     2.3000    63.9500     6.5220     5.5850     6.3590    23.0220 
  195.3750   -13.2140     2.2960    66.9980     6.3940     5.4210     6.2120    22.9270 
  195.5000   -13.0480     2.2990    68.4960     6.2440     5.2420     5.9560    23.0770 
  195.6250   -13.0310     2.3010    68.3530     6.0970     5.0710     5.8240    23.3970 
  195.7500   -13.1190     2.2990    66.4000     6.0120     4.9560     5.7830    23.7810 
  195.8750   -13.2690     2.3000    62.7790     6.0340     4.9340     5.7740    23.9570 
  196.0000   -13.5180     2.3020    58.5770     6.1800     5.0290     5.8150    23.9990 
  196.1250   -13.7970     2.3080    55.5550     6.4340     5.2420     5.9320    24.0070 
  196.2500   -14.1540     2.3200    53.7660     6.7490     5.5460     6.4810    24.0420 
  196.3750   -14.6120     2.3390    51.8600     7.0450     5.8640     7.1540    24.0770 
  196.5000   -15.0340     2.3590    49.7800     7.2690     6.1350     7.5680    24.0890 
  196.6250   -15.2680     2.3730    48.0420     7.3840     6.3150     7.5520    24.0660 
  196.7500   -15.3140     2.3810    46.7980     7.3680     6.3630     7.4170    23.9710 
  196.8750   -15.2710     2.3860    45.6640     7.2710     6.3120     7.3510    23.8590 
