~V
VERS. 2.00: Ver 2.00
~W
STRT.M 45.0000:
STOP.M 270.0000:
STEP.M 0.1250:
NULL. -999.2500:
UWI. F11186:
~C
DEPT.M :
SP.MV :
GR.API :
RI. :
RML.OHMM :
RXO.OHMM :
DEN.GM/CC :
~A
# ...
  251.0000   -14.3700    72.4340    19.7070    20.7580    38.2090     2.4340 
  251.1250   -14.2570    71.2540    21.0540    22.1650    77.7190     2.4410 
  251.2500   -14.1830    72.0050    21.9420    23.0870   103.8650     2.4630 
  251.3750   -14.1390    73.8770    22.0920    23.2100    60.9360     2.4850 
  251.5000   -14.1050    73.6460    21.5550    22.6070    24.4020     2.4840 
  251.6250   -14.0650    72.2970    20.4570    21.4760    20.8760     2.4460 
  251.7500   -14.0140    72.2130    19.1190    20.1090    17.1660     2.3930 
  251.8750   -13.9210    71.5640    17.5650    18.5340    13.8590     2.3640 
  252.0000   -13.8680    71.2160    16.8470    17.8070    10.6220     2.3610 
  252.1250   -13.8630    71.4630    16.5530    17.5340     9.5480     2.3580 
  252.2500   -13.9150    72.1540    16.5530    17.5680    14.5820     2.3600 
  252.3750   -13.9970    73.2020    16.8430    17.9740    18.1530     2.3760 
  252.5000   -14.0570    73.9770    17.4940    18.7990    18.8770     2.3940 
  252.6250   -14.0630    74.0220    17.3010    18.6360    20.4840     2.3970 
  252.7500   -14.0310    73.1190    16.4080    17.7250    30.4380     2.4000 
  252.8750   -13.9960    71.9270    14.2120    15.2950    47.4240     2.4260 
  253.0000   -13.9810    71.5000    11.5600    12.4010    47.0250     2.4360 
  253.1250   -13.9860    73.7330     9.4200    10.0980    25.6810     2.3780 
  253.2500   -13.9960    78.0890     7.8300     8.4170    11.1020     2.2920 
  253.3750   -14.0020    80.9190     6.8220     7.3970     8.7280     2.2420 
  253.5000   -14.0050    81.9720     6.1280     6.7500     8.3470     2.2400 
  253.6250   -14.0050    82.7560     5.7830     6.4300     9.5650     2.2510 
  253.7500   -14.0050    83.1590     5.4820     6.1080    11.9180     2.2530 
  253.8750   -14.0050    81.5370     5.2230     5.8030    11.3880     2.2450 
  254.0000   -14.0050    79.4320     5.0330     5.5780     8.5770     2.2410 
  254.1250   -14.0050    80.1620     4.8790     5.4060     7.9860     2.2650 
  254.2500   -14.0050    82.3640     4.7450     5.2900     9.7930     2.2980 
  254.3750   -14.0050    83.0430     4.7540     5.3750    10.6650     2.3080 
  254.5000   -14.0050    81.4420     4.8300     5.5340     9.5860     2.3050 
  254.6250   -14.0050    78.5720     4.6520     5.3900     8.7210     2.3370 
  254.7500   -14.0050    75.6310     4.2430     4.9540    12.4640     2.4210 
  254.8750   -14.0050    72.8770     3.5460     4.1600    18.1390     2.4710 
  255.0000   -14.0050    71.2180     2.8570     3.3570    14.9160     2.4060 
  255.1250   -14.0050    71.0170     2.3060     2.7050     6.6930     2.2680 
  255.2500   -14.0050    71.0130     1.8990     2.2390     3.3890     2.1940 
  255.3750   -14.0050    70.7070     1.6620     2.0080     3.1270     2.2080 
  255.5000   -14.0050    70.2980     1.5900     1.9830     3.2280     2.2110 
  255.6250   -14.0050    70.2030     1.6360     2.0820     3.4570     2.1780 
  255.7500   -14.0050    69.8940     1.6980     2.1730     3.5270     2.1700 
  255.8750   -14.0050    69.3420     1.7310     2.2100     3.7450     2.2090 
  256.0000   -14.0050    70.4170     1.7540     2.2360     4.1120     2.2470 
  256.1250   -14.0050    72.2120     1.7620     2.2480     4.0700     2.2480 
  256.2500   -14.0050    72.8470     1.7580     2.2450     3.6490     2.2270 
  256.3750   -14.0050    72.1780     1.7400     2.2280     3.4000     2.2110 
  256.5000   -14.0050    71.5600     1.7190     2.2110     3.4300     2.1930 
  256.6250   -14.0050    72.2320     1.7030     2.2000     3.6790     2.1670 
  256.7500   -14.0050    73.1060     1.6990     2.2120     4.1590     2.1490 
  256.8750   -14.0050    72.9650     1.7040     2.2440     4.2670     2.1570 
  257.0000   -14.0050    72.4090     1.7160     2.2820     4.0700     2.1850 
  257.1250   -14.0050    72.2310     1.7260     2.3190     3.7770     2.1960 
  257.2500   -14.0050    72.8010     1.7330     2.3390     3.7630     2.1810 
  257.3750   -14.0050    73.2440     1.7390     2.3440     3.9380     2.1720 
  257.5000   -14.0050    72.8090     1.7370     2.3440     3.8990     2.1910 
  257.6250   -14.0050    72.7710     1.7440     2.3450     3.7070     2.2300 
  257.7500   -14.0050    74.1200     1.7470     2.3460     3.6810     2.2520 
  257.8750   -14.0050    75.4760     1.7530     2.3490     3.7410     2.2570 
  258.0000   -14.0050    74.7700     1.7520     2.3510     3.5890     2.2780 
  258.1250   -14.0050    73.4630     1.7520     2.3510     3.2090     2.3150 
  258.2500   -14.0050    74.0730     1.7470     2.3510     3.1060     2.3300 
  258.3750   -14.0050    75.8660     1.7460     2.3490     3.3240     2.3010 
  258.5000   -14.0050    76.8260     1.7500     2.3500     3.3080     2.2540 
  258.6250   -14.0050    75.4420     1.7510     2.3480     3.1540     2.2170 
  258.7500   -14.0050    72.8760     1.7520     2.3470     3.1000     2.1900 
  258.8750   -14.0050    71.6210     1.7480     2.3480     2.9100     2.1890 
  259.0000   -14.0050    71.6840     1.7410     2.3510     2.5600     2.2270 
  259.1250   -14.0050    71.7810     1.7360     2.3530     2.3980     2.2710 
  259.2500   -14.0050    71.2680     1.7340     2.3550     2.4700     2.2680 
  259.3750   -14.0050    70.9070     1.7360     2.3490     2.7100     2.2260 
  259.5000   -14.0050    70.8880     1.7390     2.3520     3.2050     2.2060 
  259.6250   -14.0050    70.6160     1.7450     2.3470     3.6640     2.2170 
  259.7500   -14.0050    70.8240     1.7500     2.3570     3.7480     2.2140 
  259.8750   -14.0050    71.6630     1.7430     2.3660     3.6390     2.2130 
  260.0000   -14.0050    72.4810     1.7410     2.3710     3.5140     2.2340 
  260.1250   -14.0050    72.2710     1.7380     2.3720     3.6750     2.2430 
  260.2500   -14.0050    71.5430     1.7450     2.3600     4.1150     2.2240 
  260.3750   -14.0050    70.9130     1.7500     2.3550     4.1670     2.2100 
  260.5000   -14.0050    70.6180     1.7520     2.3570     3.9110     2.2250 
  260.6250   -14.0050    70.6240     1.7490     2.3480     4.2930     2.2490 
  260.7500   -14.0050    70.6380     1.7400     2.3440     4.9580     2.2480 
  260.8750   -14.0050    70.6360     1.7400     2.3450     5.0160     2.2130 
  261.0000   -14.0050    70.6360     1.7400     2.3550     5.0890     2.1740 
  261.1250   -14.0050    70.6360     1.7410     2.3540     5.2200     2.1750 
  261.2500   -14.0050    70.6360     1.7520     2.3560     5.0290     2.2150 
  261.3750   -14.0050    70.6360     1.7400     2.3650     4.7890     2.2630 
  261.5000   -14.0050    70.6360     1.7440     2.3560     4.5090     2.2970 
  261.6250   -14.0050    70.6360     1.7470     2.3470     4.1220     2.3100 
  261.7500   -14.0050    70.6360     1.7530     2.3560     3.6780     2.3090 
  261.8750   -14.0050    70.6360     1.7530     2.3510     3.8680     2.2920 
  262.0000   -14.0050    70.6360     1.7510     2.3820     4.3810     2.2690 
  262.1250   -14.0050    70.6360     1.7480     2.3850     4.8640     2.2610 
  262.2500   -14.0050    70.6360     1.7470     2.3820     5.0300     2.2710 
  262.3750   -14.0050    70.6360     1.7490     2.3640     5.3710     2.2720 
  262.5000   -14.0050    70.6360     1.7530     2.3610     5.9470     2.2660 
  262.6250   -14.0050    70.6360     1.7540     2.3500     5.9200     2.2820 
  262.7500   -14.0050    70.6360     1.7610     2.3650     5.7690     2.3110 
  262.8750   -14.0050    70.6360     1.7570     2.3660     6.1070     2.3120 
  263.0000   -14.0050    70.6360     1.7550     2.3600     6.1460     2.2890 
  263.1250   -14.0050    70.6360     1.7550     2.3600     5.5830     2.2770 
  263.2500   -14.0050    70.6360     1.7550     2.3600     5.5760     2.2910 
  263.3750   -14.0050    70.6360     1.7550     2.3600     6.1950     2.3180 
  263.5000   -14.0050    70.6360     1.7550     2.3600     6.3040     2.3340 
  263.6250   -14.0050    70.6360     1.7550     2.3600     5.9880     2.3360 
  263.7500   -14.0050    70.6360     1.7550     2.3600     5.8470     2.3390 
