~V
VERS. 2.00: Ver 2.00
~W
STRT.M 49.0000:
STOP.M 247.0000:
STEP.M 0.1250:
NULL. -999.2500:
UWI. F11144:
~C
DEPT.M :
DEN.GM/CC :
SP.MV :
GR.API :
RML.OHMM :
RI. :
RXO.OHMM :
CALI.CM :
~A
   49.0000  -999.2500   116.5890    47.8320     1.8920     0.2700     1.2660    24.2950 
   49.1250  -999.2500   116.6440    45.5260     1.9350     0.2760     1.2830    24.2900 
   49.2500  -999.2500   116.2080    43.0670     1.9750     0.2790     1.2920    24.2060 
   49.3750  -999.2500   115.4900    44.1790     2.0270     0.2800     1.2830    24.1070 
   49.5000  -999.2500   114.6590    48.2030     2.0760     0.2770     1.2540    24.0480 
   49.6250  -999.2500   113.8360    52.9450     2.1030     0.2720     1.2060    24.0320 
   49.7500  -999.2500   113.0840    55.5750     2.0970     0.2660     1.1670    24.0370 
   49.8750  -999.2500   112.4050    53.8310     2.0800     0.2620     1.1470    24.0390 
   50.0000  -999.2500   111.8130    50.7190     2.0640     0.2620     1.1400    24.0240 
   50.1250  -999.2500   111.3340    50.3540     2.0510     0.2650     1.1340    24.0130 
   50.2500  -999.2500   110.9520    52.0600     2.0450     0.2670     1.1240    24.0100 
   50.3750  -999.2500   110.5500    52.2350     2.0490     0.2630     1.1150    24.0130 
   50.5000  -999.2500   110.0510    50.4660     2.0570     0.2560     1.1110    24.0740 
   50.6250  -999.2500   109.4540    49.2630     2.0550     0.2500     1.1170    24.3010 
   50.7500  -999.2500   108.7840    50.3680     2.0210     0.2470     1.1280    24.8170 
   50.8750  -999.2500   108.1050    52.0190     1.9610     0.2480     1.1530    25.2860 
   51.0000  -999.2500   107.4900    53.9020     1.8960     0.2510     1.1830    25.5490 
   51.1250  -999.2500   106.9760    56.3470     1.8540     0.2540     1.2030    25.6470 
   51.2500  -999.2500   106.5810    58.2010     1.8560     0.2580     1.2070    25.6670 
   51.3750  -999.2500   106.2560    57.7880     1.8880     0.2600     1.2030    25.6700 
   51.5000  -999.2500   106.0820    56.4150     1.9390     0.2600     1.1920    25.6620 
   51.6250  -999.2500   106.1030    56.2170     1.9910     0.2560     1.1840    25.6400 
   51.7500  -999.2500   106.2880    56.0220     2.0210     0.2490     1.1790    25.6010 
   51.8750  -999.2500   106.4910    54.1810     2.0140     0.2460     1.1760    25.5650 
   52.0000  -999.2500   106.6340    52.7780     1.9640     0.2490     1.1680    25.5280 
   52.1250  -999.2500   106.7070    53.9150     1.8790     0.2550     1.1580    25.4890 
   52.2500  -999.2500   106.7400    54.0930     1.7890     0.2600     1.1490    25.4260 
   52.3750  -999.2500   106.7620    51.1590     1.7200     0.2610     1.1400    25.3650 
   52.5000  -999.2500   106.7120    46.7400     1.6720     0.2590     1.1360    25.3210 
   52.6250  -999.2500   106.5430    44.5390     1.6250     0.2540     1.1370    25.2930 
   52.7500  -999.2500   106.2850    45.9660     1.5540     0.2480     1.1370    25.2480 
   52.8750  -999.2500   105.9930    47.4280     1.4730     0.2420     1.1360    25.1690 
   53.0000  -999.2500   105.6740    46.9660     1.4170     0.2380     1.1390    25.0690 
   53.1250  -999.2500   105.3040    45.1230     1.4170     0.2370     1.1450    24.9810 
   53.2500  -999.2500   104.7850    45.7490     1.4780     0.2380     1.1410    24.9320 
   53.3750  -999.2500   104.1440    47.9870     1.5500     0.2380     1.1250    24.9090 
   53.5000  -999.2500   103.4210    48.3870     1.5830     0.2350     1.1040    24.8780 
   53.6250  -999.2500   102.6060    46.4560     1.5560     0.2300     1.0760    24.8200 
   53.7500  -999.2500   101.6630    47.1210     1.4800     0.2240     1.0400    24.7450 
   53.8750  -999.2500   100.6410    49.4150     1.3970     0.2230     1.0110    24.6850 
   54.0000  -999.2500    99.5270    49.9950     1.3270     0.2290     0.9970    24.6170 
   54.1250  -999.2500    98.4070    47.8560     1.2690     0.2390     0.9890    24.5420 
   54.2500  -999.2500    97.4190    44.5970     1.2050     0.2500     0.9850    24.4870 
   54.3750   334.4720    96.4900    41.8000     1.1270     0.2580     0.9840    24.4680 
   54.5000   334.4720    95.6160    39.7650     1.0380     0.2630     0.9860    24.4650 
   54.6250     0.0000    94.8360    39.3690     0.9530     0.2660     0.9880    24.4650 
   54.7500     0.5020    94.1080    41.0220     0.8880     0.2680     0.9910    24.4650 
   54.8750     2.0030    93.4290    42.0180     0.8530     0.2660     0.9970    24.4650 
   55.0000     1.9880    92.8650    42.8090     0.8460     0.2590     1.0000    24.4650 
   55.1250     1.9660    92.3580    44.1960     0.8580     0.2500     1.0010    24.4650 
   55.2500     1.9370    91.7460    46.0240     0.8700     0.2470     1.0020    24.4650 
   55.3750     1.9050    91.1070    46.4190     0.8680     0.2510     1.0020    24.4650 
   55.5000     1.8780    90.4720    45.0730     0.8430     0.2590     1.0020    24.4650 
   55.6250     1.8630    89.8310    45.0820     0.8000     0.2680     1.0030    24.4650 
   55.7500     1.8650    89.2640    47.9080     0.7530     0.2720     1.0020    24.4650 
   55.8750     1.8790    88.7540    49.6750     0.7130     0.2740     0.9960    24.4650 
   56.0000     1.8950    88.2400    48.8090     0.6820     0.2760     0.9850    24.4610 
   56.1250     1.9020    87.7070    47.7790     0.6560     0.2800     0.9770    24.4540 
   56.2500     1.8960    87.2890    49.4930     0.6390     0.2860     0.9800    24.4500 
   56.3750     1.8910    86.9990    51.4800     0.6330     0.2930     0.9950    24.4590 
   56.5000     1.8930    86.7960    53.1430     0.6380     0.2990     1.0100    24.4640 
   56.6250     1.9000    86.6510    54.3500     0.6510     0.3030     1.0150    24.4650 
   56.7500     1.9050    86.5640    53.8260     0.6610     0.3010     1.0150    24.4650 
   56.8750     1.9040    86.5510    52.4770     0.6620     0.2960     1.0140    24.4650 
   57.0000     1.8910    86.6100    50.9770     0.6530     0.2920     1.0130    24.4650 
   57.1250     1.8580    86.7370    48.5450     0.6360     0.2910     1.0110    24.4650 
   57.2500     1.8100    86.8700    45.3560     0.6150     0.2960     1.0060    24.4650 
   57.3750     1.7740    86.9230    42.8230     0.5960     0.3040     1.0050    24.4650 
   57.5000     1.7620    86.9030    41.4360     0.5830     0.3100     1.0080    24.4650 
   57.6250     1.7730    86.8770    40.3270     0.5800     0.3090     1.0130    24.4650 
   57.7500     1.7960    86.9280    38.9940     0.5920     0.3040     1.0150    24.4650 
   57.8750     1.8220    87.1000    38.4340     0.6170     0.3000     1.0130    24.4650 
   58.0000     1.8490    87.3500    39.5090     0.6490     0.2990     1.0080    24.4650 
   58.1250     1.8820    87.5300    39.9940     0.6760     0.2960     0.9890    24.4650 
   58.2500     1.9230    87.4010    37.8680     0.6650     0.2810     0.9690    24.4650 
   58.3750     1.9790    86.7580    36.0100     0.5900     0.2510     0.9690    24.4650 
   58.5000     2.0630    85.2230    37.7570     0.4490     0.2100     0.9920    24.4650 
   58.6250     2.1820    82.4520    42.4590     0.2890     0.1670     1.0060    24.4650 
   58.7500     2.3320    77.8060    46.2180     0.1810     0.1300     1.0030    24.4650 
   58.8750     2.4870    71.1420    46.4800     0.1380     0.1030     1.0190    24.4650 
   59.0000     2.6290    62.4050    44.6390     0.1580     0.0940     1.0770    24.4560 
   59.1250     2.7260    51.8430    45.2160     0.2600     0.1200     1.3040    24.4160 
   59.2500     2.7000    40.0890    53.5860     0.5400     0.2400     2.2340    24.3610 
   59.3750     2.5660    28.2470    64.8750     1.1070     0.5240     4.5640    24.3210 
   59.5000     2.3960    16.9720    76.0490     2.1100     1.0720     7.4390    24.1990 
   59.6250     2.2670     6.6650    85.6270     3.5590     1.9490     8.2350    23.9510 
   59.7500     2.2220    -2.0980    91.6020     4.8220     3.0380     6.9770    23.7240 
   59.8750     2.2300    -9.1700    94.1660     5.2120     3.9380     6.3600    23.5860 
   60.0000     2.2550   -14.3800    94.6950     5.0040     4.4900     6.3840    23.5180 
   60.1250     2.2730   -17.8040    95.2900     4.7640     4.8010     6.7360    23.4970 
