~V
VERS. 2.00: Ver 2.00
~W
STRT.M 53.0000:
STOP.M 252.0000:
STEP.M 0.1250:
NULL. -999.2500:
UWI. F11141:
~C
DEPT.M :
SP.MV :
DEN.GM/CC :
GR.API :
RML.OHMM :
RI. :
RXO.OHMM :
CALI.CM :
~A
   53.0000    35.4410  -999.2500  -999.2500  -999.2500  -999.2500  -999.2500  -999.2500 
   53.1250    35.5820  -999.2500  -999.2500  -999.2500  -999.2500  -999.2500  -999.2500 
   53.2500    35.8640  -999.2500  -999.2500  -999.2500  -999.2500  -999.2500  -999.2500 
   53.3750    36.1760  -999.2500  -999.2500  -999.2500  -999.2500  -999.2500  -999.2500 
   53.5000    36.5560  -999.2500  -999.2500  -999.2500  -999.2500  -999.2500  -999.2500 
   53.6250    37.0270  -999.2500  -999.2500  -999.2500  -999.2500  -999.2500  -999.2500 
   53.7500    37.4530  -999.2500  -999.2500  -999.2500  -999.2500  -999.2500  -999.2500 
   53.8750    37.8470  -999.2500  -999.2500  -999.2500  -999.2500  -999.2500  -999.2500 
   54.0000    38.2670  -999.2500  -999.2500  -999.2500  -999.2500  -999.2500  -999.2500 
   54.1250    38.6470  -999.2500  -999.2500  -999.2500  -999.2500  -999.2500  -999.2500 
   54.2500    38.9220  -999.2500  -999.2500  -999.2500  -999.2500  -999.2500  -999.2500 
   54.3750    39.0950  -999.2500  -999.2500  -999.2500  -999.2500  -999.2500  -999.2500 
   54.5000    39.2350  -999.2500  -999.2500  -999.2500  -999.2500  -999.2500  -999.2500 
   54.6250    39.3930  -999.2500  -999.2500  -999.2500  -999.2500  -999.2500  -999.2500 
   54.7500    39.5410  -999.2500  -999.2500  -999.2500  -999.2500  -999.2500  -999.2500 
   54.8750    39.6670  -999.2500  -999.2500  -999.2500  -999.2500  -999.2500  -999.2500 
   55.0000    39.7940  -999.2500  -999.2500  -999.2500  -999.2500  -999.2500  -999.2500 
   55.1250    39.9880  -999.2500  -999.2500  -999.2500  -999.2500  -999.2500  -999.2500 
   55.2500    40.3000  -999.2500  -999.2500  -999.2500  -999.2500  -999.2500  -999.2500 
   55.3750    40.7070  -999.2500  -999.2500  -999.2500  -999.2500  -999.2500  -999.2500 
   55.5000    41.0890  -999.2500  -999.2500  -999.2500  -999.2500  -999.2500  -999.2500 
   55.6250    41.4160    -2.4410  -999.2500  -999.2500  -999.2500  -999.2500  -999.2500 
   55.7500    41.7690    -2.4410  -999.2500  -999.2500  -999.2500  -999.2500  -999.2500 
   55.8750    42.1510    -2.4410  -999.2500  -999.2500  -999.2500  -999.2500  -999.2500 
   56.0000    42.5610     0.0000  -999.2500  -999.2500  -999.2500  -999.2500  -999.2500 
   56.1250    42.9750     1.7820  -999.2500  -999.2500  -999.2500  -999.2500  -999.2500 
   56.2500    43.3330     1.7910  -999.2500  -999.2500  -999.2500  -999.2500  -999.2500 
   56.3750    43.6030     1.8030  -999.2500  -999.2500  -999.2500  -999.2500  -999.2500 
   56.5000    43.8120     1.8140  -999.2500  -999.2500  -999.2500  -999.2500  -999.2500 
   56.6250    43.9060     1.8180  -999.2500  -999.2500  -999.2500  -999.2500  -999.2500 
   56.7500    27.5160     1.8130  -999.2500  -999.2500  -999.2500  -999.2500  -999.2500 
   56.8750    11.7850     1.8000  -999.2500  -999.2500  -999.2500  -999.2500  -999.2500 
   57.0000    12.8900     1.7830  -999.2500  -999.2500  -999.2500  -999.2500  -999.2500 
   57.1250    13.8950     1.7710  -999.2500  -999.2500  -999.2500  -999.2500  -999.2500 
   57.2500    14.4330     1.7680  -999.2500  -999.2500  -999.2500  -999.2500  -999.2500 
   57.3750    14.5710     1.7730  -999.2500  -999.2500  -999.2500  -999.2500  -999.2500 
   57.5000    15.3090     1.7820  -999.2500  -999.2500  -999.2500  -999.2500  -999.2500 
   57.6250    15.8140     1.7870  -999.2500  -999.2500  -999.2500  -999.2500  -999.2500 
   57.7500    15.9190     1.7860  -999.2500  -999.2500  -999.2500  -999.2500  -999.2500 
   57.8750    16.1240     1.7840  -999.2500  -999.2500  -999.2500  -999.2500  -999.2500 
   58.0000    16.3950     1.7860    41.9560     6.4070     0.9910 11438.7290    25.4070 
   58.1250    16.6340     1.8060    41.9560     6.4070     0.9910 11438.7290    25.4070 
   58.2500    17.0720     1.8400    41.9560     6.4070     0.9910 11438.7290    25.4070 
   58.3750    17.0100     1.8780    41.9560     6.4070     0.9910 11438.7290    25.4070 
   58.5000    17.0810     1.9020    46.3100     5.4390     0.9640 11438.7290    25.4350 
   58.6250    40.3330     1.8890    48.7330     5.6060     0.9690 11438.7290    25.4300 
   58.7500    40.1460     1.8450    48.6680     5.7310     0.9720 11438.7290    25.4390 
   58.8750    40.0200     1.7860    48.1750     5.7690     0.9710 11438.7290    25.4550 
   59.0000    39.9390     1.7340    48.7470     5.7590     0.9660 11438.7290    25.4600 
   59.1250    39.9060     1.7080    52.5110     5.7690     0.9610 11438.7290    25.4440 
   59.2500    39.8960     1.7030    55.3190     5.7860     0.9590 11438.7290    25.4250 
   59.3750    39.9000     1.7120    56.9740     5.8050     0.9600 11438.7290    25.4150 
   59.5000    39.9460     1.7250    56.8490     5.8380     0.9660 11438.7290    25.4060 
   59.6250    39.9860     1.7310    53.9680     5.8670     0.9750 11438.7290    25.4060 
   59.7500    39.9880     1.7280    54.3330     5.8790     0.9800 11438.7290    25.4060 
   59.8750    39.9640     1.7150    58.4260     5.8270     0.9780 11438.7290    25.4060 
   60.0000    39.9130     1.6950    61.4010     5.6490     0.9680 11438.7290    25.4060 
   60.1250    39.7990     1.6770    59.8480     5.2820     0.9500 11438.7290    25.4070 
   60.2500    39.6430     1.6680    57.3940     4.7780     0.9380 11438.7290    25.4110 
   60.3750    39.4980     1.6700    56.6430     4.2560     0.9380 11438.7290    25.4220 
   60.5000    39.3820     1.6820    54.8680     3.8860     0.9490 11438.7290    25.4420 
   60.6250    39.3170     1.6980    48.3970     3.8250     0.9640 11438.7290    25.4590 
   60.7500    39.3100     1.7070    41.7840     4.0110     0.9730 11438.7290    25.4640 
   60.8750    39.4020     1.7000    40.2180     4.3370     0.9750 11438.7290    25.4620 
   61.0000    39.6140     1.6760    42.5740     4.6650     0.9700 11438.7290    25.4600 
   61.1250    40.0050     1.6500    42.4450     4.8600     0.9660    83.6460    25.4570 
   61.2500    40.6450     1.6460    40.4660     4.9230     0.9650    38.9150    25.4620 
   61.3750    41.6330     1.6750    39.9570     4.9030     0.9630    44.7400    25.4660 
   61.5000    43.1260     1.7360    41.2700     4.8570     0.9560    97.4360    25.4650 
   61.6250    45.3800     1.8100    42.4770     4.8290     0.9490 11438.7290    25.4690 
   61.7500    48.1640     1.8760    43.7180     4.8170     0.9470 11438.7290    25.4710 
   61.8750    51.0390     1.9170    45.5410     4.7850     0.9580 11438.7290    25.4710 
   62.0000    53.6500     1.9210    47.1490     4.7150     0.9810 11438.7290    25.4700 
   62.1250    55.8540     1.8650    47.5120     4.6570     1.0060 11438.7290    25.4690 
   62.2500    57.6770     1.7640    48.4640     4.6590     1.0120 11438.7290    25.4690 
   62.3750    59.0090     1.6550    50.3840     4.6550     0.9800 11438.7290    25.4690 
   62.5000    59.7110     1.5920    52.0990     4.3740     0.8840 11438.7290    25.4690 
   62.6250    59.5020     1.6480    53.3190     3.4050     0.6880  9032.0790    25.4690 
   62.7500    58.5720     1.8110    55.1160     2.1840     0.4540  1192.1020    25.4690 
   62.8750    57.2690     2.0400    57.0990     1.2390     0.2590   143.1890    25.4690 
   63.0000    55.7870     2.2690    58.4490     0.7050     0.1360     0.2060    25.4700 
   63.1250    53.8900     2.4230    59.7900     0.5210     0.0900     0.2370    25.4450 
   63.2500    51.2250     2.4870    64.8870     0.5340     0.1060     1.4870    25.3080 
   63.3750    47.5030     2.4750    76.8220     0.7160     0.2080     2.9100    24.9900 
   63.5000    42.8060     2.4210    93.7670     1.0980     0.4530     4.8640    24.6130 
   63.6250    37.4920     2.3600   109.3490     1.8190     0.9830     5.9680    24.4040 
   63.7500    31.9790     2.3050   118.3690     2.8470     1.8200     5.9890    24.3510 
   63.8750    26.3810     2.2530   119.4390     3.9410     2.8740     5.5090    24.3820 
   64.0000    20.8350     2.2010   113.2910     4.7840     3.9430     5.5450    24.3930 
   64.1250    16.4430     2.1690   103.7530     5.3750     4.8920     5.9760    24.2740 
