~V
VERS. 2.00: Ver 2.00
~W
STRT.M 40.0000:
STOP.M 206.0000:
STEP.M 0.1250:
NULL. -999.2500:
UWI. F11104:
~C
DEPT.M :
GR.API :
RML.OHMM :
RI. :
RXO.OHMM :
CALI.CM :
SP.MV :
DEN.GM/CC :
~A
# ...
  107.5000    73.8740     8.4740     7.0480     9.1500    25.9100   -22.7490     2.1580 
  107.6250    72.3460     8.3280     6.9370     9.2990    25.9090   -23.0930     2.1790 
  107.7500    74.5990     7.8590     6.6170     9.3130    25.9200   -23.3030     2.2070 
  107.8750    78.4240     7.1710     6.1440     9.1060    25.9550   -23.3530     2.2320 
  108.0000    81.4630     6.4850     5.6430     8.2980    26.0120   -23.2240     2.2450 
  108.1250    84.7010     6.0890     5.2920     6.8260    26.0510   -22.9060     2.2380 
  108.2500    86.5760     6.0700     5.1690     5.8910    26.0490   -22.5100     2.2180 
  108.3750    84.4300     6.4080     5.2870     6.4640    26.0220   -22.1380     2.1950 
  108.5000    78.8470     6.9880     5.5890     8.2720    25.9970   -21.8920     2.1780 
  108.6250    71.7080     7.5880     5.9560     9.2980    26.0010   -21.8590     2.1700 
  108.7500    66.9800     7.9700     6.2330     9.5640    26.0390   -21.9940     2.1710 
  108.8750    67.1090     8.0450     6.3500     9.5420    26.0880   -22.2340     2.1760 
  109.0000    70.5850     7.8980     6.3310     9.4920    26.1280   -22.5210     2.1840 
  109.1250    72.3790     7.7390     6.2700     9.5420    26.1240   -22.7750     2.1880 
  109.2500    71.4220     7.7240     6.2640     9.4700    26.0510   -22.9260     2.1870 
  109.3750    70.7850     7.8770     6.3440     9.5010    25.9200   -22.9340     2.1860 
  109.5000    71.7920     8.1450     6.4960    10.0470    25.8050   -22.8160     2.1850 
  109.6250    74.6060     8.4360     6.6910    10.3850    25.8140   -22.6070     2.1880 
  109.7500    75.8290     8.6850     6.8810    10.4870    25.9120   -22.3780     2.1910 
  109.8750    73.6250     8.8770     7.0480    10.3490    26.0090   -22.1570     2.1900 
  110.0000    70.4790     9.0140     7.1820    10.1220    26.0620   -21.9280     2.1850 
  110.1250    69.1340     9.0840     7.2660     9.8900    26.1100   -21.6320     2.1790 
  110.2500    69.5160     9.0690     7.2830     9.7720    26.2000   -21.2430     2.1790 
  110.3750    71.2710     8.9160     7.2000     9.6430    26.3290   -20.7430     2.1880 
  110.5000    75.1750     8.5690     6.9810     9.3810    26.4730   -20.1350     2.2070 
  110.6250    78.2790     7.9890     6.5990     9.0070    26.5990   -19.4060     2.2290 
  110.7500    79.2760     7.2990     6.1330     8.9060    26.7070   -18.5850     2.2460 
  110.8750    81.8850     6.6490     5.6810     8.6360    26.8260   -17.6880     2.2500 
  111.0000    85.9040     6.2020     5.3480     7.2760    26.9660   -16.7530     2.2400 
  111.1250    86.8470     6.1180     5.2510     5.9320    27.0700   -15.8610     2.2210 
  111.2500    85.0460     6.3340     5.3660     5.7590    27.1110   -15.0780     2.2080 
  111.3750    82.5820     6.7310     5.6320     6.7650    27.1150   -14.4450     2.2080 
  111.5000    80.7840     7.1140     5.9270     8.1410    27.1170   -13.9580     2.2220 
  111.6250    80.8470     7.2180     6.0710     8.2930    27.1330   -13.6070     2.2470 
  111.7500    84.8150     7.0000     5.9980     7.5070    27.1720   -13.3420     2.2700 
  111.8750    88.9870     6.5700     5.7470     6.5870    27.2320   -13.1320     2.2840 
  112.0000    89.6960     6.1200     5.4330     5.8430    27.2920   -12.9510     2.2810 
  112.1250    88.2900     5.8440     5.1840     5.7300    27.3220   -12.7610     2.2630 
  112.2500    87.6490     5.7590     5.0470     5.7750    27.3260   -12.5500     2.2390 
  112.3750    88.1640     5.8040     5.0060     5.8600    27.3210   -12.3340     2.2150 
  112.5000    88.3580     5.8730     5.0070     6.2080    27.3190   -12.1510     2.2000 
  112.6250    86.5630     5.8810     5.0010     6.6750    27.3180   -12.0600     2.2070 
  112.7500    83.6910     5.8710     5.0000     7.6080    27.3180   -12.0710     2.2460 
  112.8750    81.1260     5.9350     5.0480     8.4320    27.3190   -12.1830     2.3120 
  113.0000    80.5730     6.1660     5.1930     7.1500    27.3180   -12.3760     2.3820 
  113.1250    80.4700     6.6490     5.4830     6.6590    27.3150   -12.6420     2.4160 
  113.2500    76.9970     7.2930     5.8800     7.7680    27.3140   -12.9640     2.4050 
  113.3750    70.9340     7.9470     6.3160     9.3880    27.3160   -13.3530     2.3630 
  113.5000    65.1160     8.4340     6.6920     8.8120    27.3200   -13.8220     2.3120 
  113.6250    61.0030     8.5920     6.9030     8.6130    27.3240   -14.3760     2.2680 
  113.7500    57.8900     8.5070     6.9620     8.8900    27.3280   -14.9800     2.2320 
  113.8750    56.7800     8.3100     6.9250     9.0890    27.3270   -15.6200     2.2020 
  114.0000    59.0030     8.1400     6.8730     8.9220    27.3240   -16.2870     2.1800 
  114.1250    61.3800     8.0880     6.8750     9.1640    27.3180   -16.9500     2.1670 
  114.2500    62.0150     8.1080     6.9180     9.8710    27.3240   -17.5520     2.1610 
  114.3750    61.3790     8.1620     6.9800    10.0360    27.3670   -18.0460     2.1620 
  114.5000    60.4500     8.2390     7.0480     9.7320    27.4470   -18.3890     2.1680 
  114.6250    61.1070     8.3360     7.1250     9.3580    27.5180   -18.5370     2.1770 
  114.7500    62.3980     8.4150     7.1940     9.2210    27.5440   -18.5090     2.1890 
  114.8750    63.6940     8.4190     7.2160     9.4450    27.5550   -18.3070     2.2030 
  115.0000    63.7600     8.2860     7.1470     9.9770    27.5910   -17.9330     2.2200 
  115.1250    64.3260     7.9500     6.9330    10.0720    27.6430   -17.3750     2.2360 
  115.2500    66.9190     7.4810     6.6160     9.0430    27.6720   -16.6890     2.2470 
  115.3750    69.5640     6.9760     6.2590     7.3140    27.6770   -15.9050     2.2500 
  115.5000    71.4310     6.5540     5.9450     6.5920    27.6810   -15.0790     2.2410 
  115.6250    71.0280     6.3610     5.7770     6.8810    27.6890   -14.2720     2.2280 
  115.7500    70.0000     6.4190     5.7800     6.8000    27.6900   -13.5320     2.2260 
  115.8750    68.9270     6.7180     5.9570     6.6550    27.6870   -12.8830     2.2470 
  116.0000    67.6920     7.1940     6.2780     6.5760    27.6850   -12.3370     2.2950 
  116.1250    68.4900     7.7110     6.6720     6.8940    27.6870   -11.9060     2.3540 
  116.2500    69.2520     8.0680     7.0030     7.3120    27.6900   -11.5530     2.3920 
  116.3750    68.0640     8.1020     7.1420     7.3370    27.6880   -11.2570     2.3950 
  116.5000    65.4610     7.7550     7.0070     6.9060    27.7020   -10.9990     2.3710 
  116.6250    65.4670     7.0870     6.5890     6.9100    27.7750   -10.7670     2.3360 
  116.7500    69.9860     6.3430     6.0560     6.4640    27.8810   -10.5440     2.3020 
  116.8750    74.6540     5.6830     5.5410     5.5900    27.9620   -10.3190     2.2760 
  117.0000    75.2070     5.2270     5.1580     4.9940    27.9900   -10.1050     2.2650 
  117.1250    72.1110     5.1400     5.0560     5.5150    27.9890    -9.9340     2.2860 
  117.2500    70.6980     5.5130     5.2960     5.9350    27.9900    -9.7970     2.3380 
  117.3750    72.0530     6.5470     5.9880     6.2200    27.9890    -9.6750     2.4150 
  117.5000    72.2850     8.5000     7.2790     7.4620    27.9860    -9.5350     2.4990 
  117.6250    65.9620    11.7180     9.4170    12.6300    28.0060    -9.3660     2.5620 
  117.7500    56.3050    15.6590    12.1460    20.9830    28.0590    -9.1970     2.5930 
  117.8750    49.8340    19.1050    14.7640    27.2120    28.1290    -9.0410     2.5860 
  118.0000    48.8320    20.1730    16.0110    29.5730    28.1840    -8.8930     2.5410 
  118.1250    50.2790    17.4280    14.6840    27.2710    28.2020    -8.7230     2.4710 
  118.2500    51.8870    13.2320    12.0830    19.1500    28.2030    -8.5340     2.4050 
  118.3750    56.0380     9.6800     9.5730    11.5200    28.2020    -8.3530     2.3700 
  118.5000    63.8400     7.6830     7.9020     6.9650    28.2020    -8.2080     2.3790 
  118.6250    68.5300     7.5430     7.4270     6.0520    28.1910    -8.1190     2.4320 
