~V
VERS. 2.00: Ver 2.00
~W
STRT.M 45.0000:
STOP.M 250.0000:
STEP.M 0.1250:
NULL. -999.2500:
UWI. F11133:
~C
DEPT.M :
SP.MV :
DEN.GM/CC :
GR.API :
RML.OHMM :
RI. :
RXO.OHMM :
CALI.CM :
~A
# ...
   56.2500    64.1910     2.2290    41.4630     2.9250     1.3320    -0.8480    25.0060 
   56.3750    63.8320     2.2450    39.2810     2.7990     1.3170     0.1640    24.8830 
   56.5000    63.2990     2.2590    39.1810     2.7830     1.3060     0.9510    24.7570 
   56.6250    62.6140     2.2770    40.9190     2.8520     1.3010     0.7260    24.6370 
   56.7500    61.8270     2.2930    42.7460     2.9510     1.3030    -0.4710    24.4720 
   56.8750    60.9970     2.2980    42.5830     3.0220     1.3110    -1.5830    24.1840 
   57.0000    60.1660     2.2920    40.5870     3.0450     1.3210    -2.1110    23.9270 
   57.1250    59.3430     2.2850    39.7200     3.0360     1.3290    -2.2860    23.7150 
   57.2500    58.5080     2.2800    41.9910     3.0110     1.3350    -2.3110    23.5500 
   57.3750    57.6070     2.2770    45.1450     2.9660     1.3370    -2.2610    23.3750 
   57.5000    56.5560     2.2760    46.5580     2.8960     1.3370    -2.1430    23.0880 
   57.6250    55.2650     2.2820    46.5210     2.7890     1.3340    -1.9390    22.6640 
   57.7500    53.6220     2.2990    45.7230     2.6050     1.3220    -1.6740    22.2030 
   57.8750    51.5700     2.3280    44.2030     2.2730     1.2800    -1.3880    21.8140 
   58.0000    49.1400     2.3730    42.8280     1.7360     1.1810    -1.1300    21.5120 
   58.1250    46.3140     2.4300    43.0220     1.0360     1.0060    -0.9560    21.3310 
   58.2500    43.0520     2.4920    45.3290     0.3910     0.7890    -0.9640    21.2980 
   58.3750    39.3530     2.5510    49.2630    -0.0170     0.5970    -1.1670    21.3980 
   58.5000    35.2690     2.6020    53.1060    -0.2250     0.4710    -1.3500    21.5070 
   58.6250    30.7690     2.6400    56.1370    -0.3080     0.4120    -1.3170    21.5670 
   58.7500    25.7550     2.6410    61.3640    -0.3040     0.4220    -0.8740    21.5490 
   58.8750    20.1870     2.5790    69.5520    -0.2100     0.5260     0.0060    21.4410 
   59.0000    14.2220     2.4720    74.6830     0.0120     0.7730     2.9900    21.2690 
   59.1250     8.1080     2.3700    74.0710     0.4450     1.2440     7.5070    21.1000 
   59.2500     2.1270     2.3210    71.6420     1.2270     2.0930     9.2440    21.0040 
   59.3750    -3.5030     2.3400    69.5910     2.4820     3.4930    10.1320    20.9910 
   59.5000    -8.6630     2.4000    65.5170     4.1770     5.4500    11.7460    21.0230 
   59.6250   -13.2710     2.4640    60.4120     6.1120     7.7310    13.9900    21.0630 
   59.7500   -17.1790     2.4860    58.2350     7.7710     9.6690    15.5620    21.0850 
   59.8750   -20.2870     2.4340    59.4630     8.5720    10.5190    14.8760    21.0920 
   60.0000   -22.7190     2.3330    61.2770     8.3950    10.1630    12.7790    21.0910 
   60.1250   -24.6190     2.2330    62.0750     7.5800     9.0520    11.2350    21.0890 
   60.2500   -26.1380     2.1760    61.4400     6.7040     7.8660    10.6670    21.0950 
   60.3750   -27.4050     2.1640    60.8140     6.1850     7.0660    10.5850    21.1260 
   60.5000   -28.5090     2.1710    62.0940     6.0880     6.7120    10.6150    21.2160 
   60.6250   -29.4570     2.1780    64.2720     6.3040     6.6890    10.7560    21.4360 
   60.7500   -30.2370     2.1820    65.4920     6.6440     6.8230    11.1180    21.8470 
   60.8750   -30.8380     2.1850    65.5420     6.9280     6.9640    11.6840    22.3640 
   61.0000   -31.2820     2.1860    65.4020     7.0810     7.0380    12.1670    22.7640 
   61.1250   -31.6270     2.1830    65.5410     7.1290     7.0530    12.3170    22.9460 
   61.2500   -31.9060     2.1750    65.4010     7.1440     7.0430    12.2160    22.9890 
   61.3750   -32.1240     2.1670    64.1900     7.1840     7.0490    12.1300    22.9990 
   61.5000   -32.2950     2.1620    62.9260     7.2640     7.0880    12.1980    23.0200 
   61.6250   -32.4160     2.1620    63.5190     7.3650     7.1500    12.3690    23.0450 
   61.7500   -32.4810     2.1660    65.8100     7.4520     7.2130    12.5430    23.0580 
   61.8750   -32.4950     2.1690    67.4940     7.4960     7.2480    12.6190    23.0620 
   62.0000   -32.4930     2.1690    67.8360     7.4970     7.2380    12.4630    23.0620 
   62.1250   -32.4750     2.1650    68.4750     7.4760     7.1920    12.1340    23.0620 
   62.2500   -32.4120     2.1590    69.6460     7.4760     7.1400    11.8100    23.0620 
   62.3750   -32.2940     2.1550    69.4830     7.5450     7.1240    11.5490    23.0660 
   62.5000   -32.1200     2.1480    67.6610     7.7060     7.1660    11.2800    23.0910 
   62.6250   -31.8740     2.1420    66.0830     7.9550     7.2600    10.9060    23.1600 
   62.7500   -31.5270     2.1430    66.5160     8.2410     7.3630    10.3590    23.2660 
   62.8750   -31.0480     2.1560    69.0760     8.4360     7.4030     9.7130    23.3680 
   63.0000   -30.4130     2.1810    72.3210     8.3990     7.3210     9.1030    23.4580 
   63.1250   -29.6320     2.2140    75.9470     8.0840     7.0970     8.5790    23.5440 
   63.2500   -28.7490     2.2480    80.8970     7.6000     6.7560     8.0350    23.6440 
   63.3750   -27.8160     2.2730    87.2390     7.1390     6.3780     7.2910    23.7940 
   63.5000   -26.8960     2.2800    91.7240     6.8370     6.0630     6.5860    23.9700 
   63.6250   -26.0570     2.2760    91.5950     6.7570     5.9020     6.2310    24.0970 
   63.7500   -25.3700     2.2680    88.6960     6.9440     5.9870     6.2720    24.1470 
   63.8750   -24.8840     2.2640    86.6320     7.3930     6.3450     6.6740    24.1440 
   64.0000   -24.6350     2.2680    86.0810     7.9860     6.8800     7.5460    24.1020 
   64.1250   -24.6590     2.2840    85.2140     8.5570     7.4350     9.2350    24.0020 
   64.2500   -24.9520     2.3050    82.9110     8.8670     7.8080    11.4770    23.8520 
   64.3750   -25.4540     2.3140    80.2690     8.7890     7.8840    12.2280    23.7030 
   64.5000   -26.0770     2.3040    80.2800     8.4540     7.7470    10.6090    23.6100 
   64.6250   -26.7790     2.2850    83.1440     8.0730     7.5390     9.3400    23.5770 
   64.7500   -27.5410     2.2690    84.2200     7.8180     7.3780     9.6030    23.5650 
   64.8750   -28.3400     2.2580    79.8910     7.7400     7.3060    10.8570    23.5450 
   65.0000   -29.1140     2.2460    73.0930     7.7710     7.2930    11.4450    23.5090 
   65.1250   -29.8020     2.2340    67.8790     7.8260     7.2960    10.8850    23.4720 
   65.2500   -30.3800     2.2310    65.6040     7.8840     7.3030    10.0210    23.4630 
   65.3750   -30.8660     2.2450    65.9460     8.1120     7.4140     9.8690    23.5000 
   65.5000   -31.2850     2.2750    67.4640     8.8250     7.8300    10.5390    23.5680 
   65.6250   -31.6140     2.3160    67.6210    10.2940     8.7630    11.6080    23.6730 
   65.7500   -31.8520     2.3630    65.6640    12.6120    10.3680    14.2740    23.8230 
   65.8750   -32.0570     2.4110    63.0880    15.3850    12.4670    21.8850    23.9680 
   66.0000   -32.3220     2.4460    60.4200    17.5820    14.3030    33.0530    24.0320 
   66.1250   -32.6880     2.4480    57.0570    18.1080    14.9140    35.9450    23.9850 
   66.2500   -33.1610     2.3970    55.0550    16.5210    13.8260    26.4750    23.8540 
   66.3750   -33.7200     2.3070    56.2910    13.7100    11.6860    16.2170    23.7120 
   66.5000   -34.3350     2.2230    58.9120    11.1330     9.6080    11.3390    23.6360 
   66.6250   -34.9850     2.1680    61.3860     9.4740     8.0790     9.8490    23.6270 
   66.7500   -35.6250     2.1410    64.2130     8.9480     7.2740     9.5860    23.6220 
   66.8750   -36.2130     2.1300    66.3970     9.4280     7.1650     9.7830    23.6030 
   67.0000   -36.6960     2.1250    65.9180    10.5130     7.5540    10.0040    23.5960 
   67.1250   -37.0460     2.1260    63.8440    11.8440     8.2590    10.1830    23.6130 
   67.2500   -37.2850     2.1350    62.4340    12.9750     9.0060    10.5130    23.6360 
   67.3750   -37.4350     2.1490    61.3570    13.4990     9.4850    10.9660    23.6470 
