~V
VERS. 2.00: Ver 2.00
~W
STRT.M 55.0000:
STOP.M 210.0000:
STEP.M 0.1250:
NULL. -999.2500:
UWI. F11105:
~C
DEPT.M :
DEN.GM/CC :
GR.API :
RML.OHMM :
RI. :
RXO.OHMM :
CALI.CM :
SP.MV :
~A
# ...
  133.7500     2.4680    55.9830    15.9170    14.3130    13.9980    28.9130   -17.9880 
  133.8750     2.4070    63.1080    14.9560    13.4510    12.0950    28.9290   -18.2500 
  134.0000     2.3410    66.7480    14.2880    12.7430    11.3040    29.4090   -18.5540 
  134.1250     2.2930    67.6430    14.2440    12.4630    10.7960    29.5790   -18.9310 
  134.2500     2.2650    69.0120    14.8340    12.6690    11.1740    29.5960   -19.3700 
  134.3750     2.2490    68.8820    16.0220    13.3770    12.9570    29.5590   -19.8360 
  134.5000     2.2380    64.3660    17.6900    14.5350    15.3430    29.6680   -20.3010 
  134.6250     2.2290    59.7030    19.7040    16.0860    17.3620    29.9320   -20.7110 
  134.7500     2.2280    59.6730    21.8450    17.8250    19.5420    30.5550   -21.0140 
  134.8750     2.2360    62.7530    24.0170    19.6230    21.3340    31.0790   -21.2200 
  135.0000     2.2450    62.6150    26.1770    21.3870    23.1100    31.9420   -21.3530 
  135.1250     2.2360    56.5240    28.2790    23.0620    25.3620    32.5590   -21.4130 
  135.2500     2.2040    51.7170    30.1890    24.6090    28.8900    33.0860   -21.3670 
  135.3750     2.1560    53.4540    31.6270    25.8620    32.1080    33.5800   -21.2190 
  135.5000     2.1130    58.4070    32.2580    26.5600    31.9940    33.7900   -21.0200 
  135.6250     2.0950    58.7660    31.7300    26.3490    29.4360    33.2100   -20.8200 
  135.7500     2.1060    56.1930    30.4180    25.4330    28.2240    31.4450   -20.6510 
  135.8750     2.1370    56.4890    28.7990    24.1620    27.2690    30.8180   -20.4830 
  136.0000     2.1740    60.4460    27.3900    22.9620    24.6600    30.6840   -20.2770 
  136.1250     2.2000    63.7680    26.7050    22.2750    22.4840    30.6610   -20.0330 
  136.2500     2.2120    66.1830    26.7450    22.1740    22.5900    30.7500   -19.7930 
  136.3750     2.2140    68.8690    27.3530    22.5970    25.4910    30.7150   -19.5710 
  136.5000     2.2100    69.6110    28.1880    23.3250    28.0040    30.8000   -19.3640 
  136.6250     2.2030    63.9040    28.6560    23.9110    28.0500    30.8180   -19.1380 
  136.7500     2.1960    57.2340    28.2910    23.8920    27.2800    30.7770   -18.9160 
  136.8750     2.1920    56.6670    26.9120    23.0230    26.4020    30.7110   -18.8170 
  137.0000     2.1930    61.8550    24.7000    21.3770    24.4760    30.7090   -18.8650 
  137.1250     2.1990    66.5570    22.1270    19.3010    20.6080    30.8030   -18.9820 
  137.2500     2.2080    67.0160    19.8060    17.3300    16.4470    30.7340   -19.1620 
  137.3750     2.2190    65.1470    18.0940    15.7760    13.3430    30.5590   -19.4110 
  137.5000     2.2310    64.8030    17.1640    14.8070    12.0190    30.3730   -19.6970 
  137.6250     2.2450    66.7470    17.1090    14.5520    12.4700    30.3730   -20.0400 
  137.7500     2.2590    66.6530    17.6010    14.8000    13.7000    30.4390   -20.3880 
  137.8750     2.2700    64.1100    18.3720    15.3730    14.7670    30.4540   -20.6500 
  138.0000     2.2750    62.4780    19.1370    16.0490    14.9700    30.3590   -20.8290 
  138.1250     2.2720    63.8470    19.6430    16.5960    14.5500    30.3410   -20.9760 
  138.2500     2.2660    64.7100    19.9290    16.9640    14.6050    30.4710   -21.0800 
  138.3750     2.2610    62.9320    20.1540    17.2410    14.5210    30.5410   -21.1380 
  138.5000     2.2560    60.4270    20.5140    17.5720    15.1440    30.5950   -21.1790 
  138.6250     2.2490    59.8970    21.1550    18.1000    17.9770    30.5790   -21.1580 
  138.7500     2.2400    61.7740    21.9570    18.7860    22.4690    30.4360   -21.0640 
  138.8750     2.2300    63.9350    22.6900    19.4830    25.8450    30.4340   -20.9240 
  139.0000     2.2210    63.5120    23.0280    19.9360    25.6470    30.7010   -20.7470 
  139.1250     2.2170    60.5380    22.5310    19.7490    23.5640    30.6870   -20.5690 
  139.2500     2.2160    58.2600    21.2720    18.9040    20.4370    30.7600   -20.4130 
  139.3750     2.2200    57.4060    19.5450    17.5940    17.3810    30.8110   -20.2510 
  139.5000     2.2290    57.8020    17.8200    16.1830    14.4270    30.7600   -20.0470 
  139.6250     2.2430    60.6680    16.6320    15.1080    11.6170    30.6020   -19.7990 
  139.7500     2.2570    65.3310    16.0770    14.5070     9.9500    30.4850   -19.5780 
  139.8750     2.2670    67.5900    16.0160    14.3400    10.0580    30.4410   -19.3990 
  140.0000     2.2670    66.5910    16.1280    14.4190    12.8760    30.5180   -19.2560 
  140.1250     2.2590    67.6080    15.9760    14.4210    16.0610    30.6380   -19.1270 
  140.2500     2.2470    71.5440    15.3880    14.1160    15.1890    30.6250   -19.0010 
  140.3750     2.2370    72.6690    14.4690    13.4920    11.8180    30.5710   -18.8970 
  140.5000     2.2320    69.9240    13.5060    12.7230     9.8440    30.5450   -18.8860 
  140.6250     2.2380    68.0620    12.8480    12.0880    10.0820    30.4770   -19.0680 
  140.7500     2.2510    67.3970    12.5640    11.7280    10.5680    30.4920   -19.3930 
  140.8750     2.2680    66.6420    12.6410    11.6810    11.0350    30.4890   -19.7420 
  141.0000     2.2830    66.3280    13.0730    11.9450    11.2040    30.5020   -20.0540 
  141.1250     2.2880    66.8590    13.9830    12.5880    12.0690    30.5840   -20.3910 
  141.2500     2.2790    65.8020    15.3540    13.5850    14.1010    30.6480   -20.7930 
  141.3750     2.2610    62.8910    17.1610    14.9540    17.6280    30.6600   -21.2770 
  141.5000     2.2400    60.9600    19.2460    16.6400    22.5130    30.6640   -21.7950 
  141.6250     2.2230    60.3460    21.1910    18.3980    26.6110    30.7730   -22.2500 
  141.7500     2.2140    61.5320    22.5080    19.7560    26.9090    30.8880   -22.6080 
  141.8750     2.2100    64.1720    22.9310    20.3600    25.4820    30.9200   -22.9470 
  142.0000     2.2110    65.3510    22.5910    20.1860    25.2960    30.9070   -23.3290 
  142.1250     2.2140    62.8830    22.0350    19.6000    24.2670    30.9890   -23.6930 
  142.2500     2.2170    60.4590    21.9210    19.2190    20.9320    31.0000   -23.9860 
  142.3750     2.2200    62.5650    22.5690    19.3700    17.8940    31.0190   -24.1970 
  142.5000     2.2210    67.0130    24.0140    20.1680    18.3590    31.1240   -24.3320 
  142.6250     2.2200    64.3010    26.0830    21.5790    25.5360    31.0600   -24.3890 
  142.7500     2.2180    57.4520    28.2490    23.2120    30.7430    31.0610   -24.4280 
  142.8750     2.2170    52.7620    30.1230    24.7200    31.2800    31.0000   -24.4660 
  143.0000     2.2150    54.0050    31.4670    25.8190    29.1340    30.8800   -24.5230 
  143.1250     2.2140    57.9980    32.2620    26.3950    27.3480    30.8180   -24.6030 
  143.2500     2.2140    60.0510    32.9080    26.7770    27.3640    30.7830   -24.7010 
  143.3750     2.2130    60.1960    33.6820    27.2440    28.1640    30.8550   -24.8130 
  143.5000     2.2110    59.4880    34.6930    27.9350    29.2010    30.8940   -24.9340 
  143.6250     2.2060    60.3630    35.9000    28.8280    30.3700    30.7920   -25.0390 
  143.7500     2.2000    62.5960    37.1100    29.7410    31.2630    30.6820   -25.0670 
  143.8750     2.1930    63.6910    38.1380    30.5330    32.2740    30.6140   -25.0120 
  144.0000     2.1870    63.1680    38.7460    31.0540    33.0830    30.4850   -24.9120 
  144.1250     2.1820    59.5350    38.4890    31.0120    32.9860    30.3100   -24.7970 
  144.2500     2.1780    56.9370    37.2680    30.2880    32.7440    30.1590   -24.6690 
  144.3750     2.1760    59.6670    35.1460    28.8650    32.0180    30.0020   -24.5180 
  144.5000     2.1750    65.3200    32.4570    26.9380    29.5320    29.8300   -24.3220 
  144.6250     2.1760    68.6540    29.7090    24.8530    24.4730    29.6530   -24.1090 
  144.7500     2.1770    68.4130    27.2990    22.9520    19.9970    29.5880   -23.9600 
  144.8750     2.1790    66.7460    25.3350    21.3620    17.8240    29.4280   -23.8930 
