~V
VERS. 2.00: Ver 2.00
~W
STRT.M 45.0000:
STOP.M 264.0000:
STEP.M 0.1250:
NULL. -999.2500:
UWI. F11189:
~C
DEPT.M :
SP.MV :
GR.API :
RI. :
RML.OHMM :
RXO.OHMM :
DEN.GM/CC :
~A
# ...
  135.1250    -4.2490    67.5800     5.5340     6.2020     6.6130     2.1190 
  135.2500    -4.2150    67.1290     5.5920     6.2400     6.8740     2.1220 
  135.3750    -4.1450    65.3310     5.6230     6.2310     6.6440     2.1160 
  135.5000    -4.0620    62.4310     5.5720     6.1410     6.0840     2.1090 
  135.6250    -4.0000    60.4530     5.4530     5.9850     6.0260     2.1080 
  135.7500    -3.9830    59.3430     5.2900     5.8090     6.4960     2.1130 
  135.8750    -4.0250    60.2640     5.1260     5.6530     6.7730     2.1210 
  136.0000    -4.1140    63.8180     4.9360     5.4590     6.4680     2.1290 
  136.1250    -4.2390    67.1040     4.6070     5.1010     6.0550     2.1290 
  136.2500    -4.3940    66.9720     4.1640     4.5930     5.9950     2.1190 
  136.3750    -4.5970    67.0950     3.6650     4.0050     5.8170     2.1170 
  136.5000    -4.8710    70.5550     3.2310     3.4940     4.2940     2.1350 
  136.6250    -5.2350    76.2860     2.9370     3.1620     3.9060     2.1620 
  136.7500    -5.6620    81.3370     2.7980     3.0250     3.6300     2.1830 
  136.8750    -6.1000    85.0350     2.7950     3.0470     3.5780     2.1920 
  137.0000    -6.4840    84.0890     2.8950     3.1940     4.0570     2.1960 
  137.1250    -6.7690    80.2930     3.0400     3.3710     4.3170     2.1960 
  137.2500    -6.9600    78.6940     3.1420     3.4850     4.0410     2.1920 
  137.3750    -7.0800    80.1540     3.1560     3.4900     4.0160     2.1840 
  137.5000    -7.1610    79.7730     3.0640     3.3660     4.2480     2.1800 
  137.6250    -7.2110    77.9000     2.8630     3.1200     4.1340     2.1840 
  137.7500    -7.2300    78.0220     2.6440     2.8530     3.8320     2.1940 
  137.8750    -7.2060    80.6490     2.4320     2.6050     3.6030     2.2070 
  138.0000    -7.1440    84.7560     2.2780     2.4310     3.4440     2.2210 
  138.1250    -7.0540    87.9520     2.2130     2.3720     3.2640     2.2290 
  138.2500    -6.9590    88.8610     2.2570     2.4430     3.0900     2.2350 
  138.3750    -6.8800    88.1360     2.3930     2.6160     3.2280     2.2420 
  138.5000    -6.8270    87.3030     2.5860     2.8540     3.5770     2.2370 
  138.6250    -6.8040    85.6090     2.7980     3.0950     3.9130     2.2120 
  138.7500    -6.8050    82.3130     2.9500     3.2590     3.9510     2.1890 
  138.8750    -6.8180    81.6240     3.0080     3.3130     3.7930     2.1900 
  139.0000    -6.8330    84.0260     2.9870     3.2820     3.9380     2.2020 
  139.1250    -6.8420    86.9760     2.9120     3.2030     4.0710     2.2120 
  139.2500    -6.8450    87.5210     2.8000     3.0930     4.0410     2.2170 
  139.3750    -6.8440    87.3480     2.6710     2.9560     4.0510     2.2200 
  139.5000    -6.8420    89.1050     2.5290     2.8040     3.8850     2.2220 
  139.6250    -6.8330    92.7680     2.4350     2.7070     3.6230     2.2300 
  139.7500    -6.8090    96.0720     2.4210     2.7000     3.5140     2.2430 
  139.8750    -6.7550    95.7880     2.5000     2.7990     3.6530     2.2480 
  140.0000    -6.6640    93.2500     2.7210     3.0710     4.0770     2.2280 
  140.1250    -6.5200    91.3540     3.1030     3.5330     4.3400     2.1990 
  140.2500    -6.3180    90.8900     3.6340     4.1600     4.3800     2.1990 
  140.3750    -6.0470    87.1000     4.2420     4.8850     5.3630     2.2380 
  140.5000    -5.7250    78.3710     4.8280     5.5760     6.4180     2.2590 
  140.6250    -5.3910    68.8000     5.2550     6.0580     5.8270     2.2140 
  140.7500    -5.1110    63.8920     5.3290     6.1100     5.0070     2.1420 
  140.8750    -4.9580    64.8020     4.9210     5.5840     5.0220     2.1120 
  141.0000    -4.9600    67.3710     4.2330     4.7420     5.3730     2.1440 
  141.1250    -5.1130    69.2550     3.4390     3.7970     5.2820     2.2000 
  141.2500    -5.3510    74.0760     2.8520     3.1000     4.2470     2.2290 
  141.3750    -5.6070    82.1630     2.5580     2.7480     3.2790     2.2220 
  141.5000    -5.8270    87.1940     2.5160     2.7090     3.1630     2.2100 
  141.6250    -5.9900    84.4640     2.7960     3.0760     4.0480     2.2210 
  141.7500    -6.1100    78.7210     3.2820     3.6730     5.4980     2.2280 
  141.8750    -6.2060    75.0320     3.7290     4.1680     5.8040     2.1950 
  142.0000    -6.2980    73.6050     3.9100     4.3160     4.9540     2.1340 
  142.1250    -6.3890    73.7410     3.7390     4.0390     4.5510     2.1050 
  142.2500    -6.4680    76.0130     3.3220     3.5140     4.3910     2.1380 
  142.3750    -6.5170    78.6620     2.9280     3.0670     3.9850     2.2040 
  142.5000    -6.5280    81.0880     2.6300     2.7620     3.6990     2.2460 
  142.6250    -6.4960    82.1790     2.4270     2.5690     3.4870     2.2380 
  142.7500    -6.4320    82.4220     2.2860     2.4470     3.4570     2.2090 
  142.8750    -6.3460    84.6520     2.1710     2.3330     3.5550     2.2050 
  143.0000    -6.2540    90.4810     2.0830     2.2280     3.3370     2.2360 
  143.1250    -6.1770    97.7160     2.1110     2.2500     3.1240     2.2670 
  143.2500    -6.1320   101.3420     2.3580     2.5420     3.2420     2.2840 
  143.3750    -6.1420    98.5710     2.9170     3.2320     4.0290     2.3200 
  143.5000    -6.2020    89.6600     3.6730     4.1680     7.9890     2.3860 
  143.6250    -6.3020    79.0360     4.2980     4.9050    14.9000     2.4110 
  143.7500    -6.4140    73.4890     4.5010     5.0750    16.0730     2.3510 
  143.8750    -6.5120    74.6000     4.2080     4.6260     9.4050     2.2510 
  144.0000    -6.5750    78.3460     3.7030     3.9590     4.3110     2.1940 
  144.1250    -6.5800    83.0510     3.3360     3.5320     3.5740     2.1920 
  144.2500    -6.5160    87.0010     3.2950     3.5550     3.9860     2.1930 
  144.3750    -6.3860    85.6950     3.5670     3.9550     4.3930     2.1650 
  144.5000    -6.2200    78.5800     3.9550     4.4770     4.6110     2.1170 
  144.6250    -6.0620    71.5690     4.2750     4.8690     4.7020     2.0820 
  144.7500    -5.9450    68.6920     4.4180     5.0230     4.7610     2.0740 
  144.8750    -5.8830    68.2750     4.3640     4.9220     4.7170     2.0740 
  145.0000    -5.8510    67.4860     4.2310     4.7330     4.5120     2.0600 
  145.1250    -5.8180    66.7270     4.1450     4.6200     4.5360     2.0420 
  145.2500    -5.7610    66.1700     4.1450     4.6100     4.8020     2.0510 
  145.3750    -5.6700    68.4910     4.2360     4.7020     4.8830     2.0810 
  145.5000    -5.5580    74.3370     4.3680     4.8480     4.7810     2.1020 
  145.6250    -5.4410    81.6340     4.5050     5.0330     4.7440     2.1040 
  145.7500    -5.3430    83.9730     4.6100     5.1820     5.3590     2.0980 
  145.8750    -5.2800    77.9330     4.6600     5.2680     9.0980     2.0920 
  146.0000    -5.2520    70.0310     4.6540     5.2660    11.8810     2.0850 
  146.1250    -5.2460    67.0870     4.6090     5.2040     8.5020     2.0820 
  146.2500    -5.2400    66.7340     4.5590     5.1360     5.4620     2.0840 
  146.3750    -5.2190    64.8520     4.5590     5.1360     5.3200     2.0850 
  146.5000    -5.1760    62.6010     4.6330     5.2320     5.0750     2.0860 
  146.6250    -5.1150    66.0580     4.7660     5.3940     5.1300     2.0900 
  146.7500    -5.0440    72.2820     4.9340     5.5950     5.3650     2.0880 
  146.8750    -4.9700    74.1880     5.1450     5.8360     5.4950     2.0770 
  147.0000    -4.9020    72.1240     5.3330     6.0440     5.8080     2.0640 
  147.1250    -4.8460    71.6170     5.4470     6.1650     6.6680     2.0510 
  147.2500    -4.8020    73.4290     5.4500     6.1550     7.9870     2.0360 
  147.3750    -4.7630    73.7190     5.3240     5.9900     8.2710     2.0320 
  147.5000    -4.7160    70.9590     5.0920     5.6950     7.0070     2.0520 
  147.6250    -4.6590    68.3500     4.7940     5.3160     5.8440     2.0820 
  147.7500    -4.5950    67.2830     4.5220     4.9700     5.6310     2.0970 
  147.8750    -4.5370    65.9070     4.3540     4.7480     5.8030     2.0940 
