~V
VERS. 2.00: Ver 2.00
~W
STRT.M 62.0000:
STOP.M 219.0000:
STEP.M 0.1250:
NULL. -999.2500:
UWI. F11127:
~C
DEPT.M :
SP.MV :
DEN.GM/CC :
GR.API :
RML.OHMM :
RI. :
RXO.OHMM :
CALI.CM :
~A
# ...
  152.0000    -9.1600     2.2690    79.5300    11.2100     9.2380    11.1630    24.3960 
  152.1250    -9.0850     2.2730    78.9290    11.9480     9.8930    11.3590    24.4600 
  152.2500    -8.9870     2.2700    74.9520    12.6160    10.5710    12.5660    24.5420 
  152.3750    -8.8870     2.2640    71.8250    13.1080    11.1520    14.2200    24.5600 
  152.5000    -8.7940     2.2570    71.3400    13.2900    11.5060    15.3600    24.5270 
  152.6250    -8.7040     2.2500    71.9910    13.0890    11.5310    15.2630    24.4930 
  152.7500    -8.6500     2.2420    72.6410    12.5140    11.1750    14.0760    24.4630 
  152.8750    -8.6120     2.2360    74.5800    11.8110    10.6290    12.7410    24.4320 
  153.0000    -8.5530     2.2350    78.2640    11.1770    10.0680    11.4650    24.4050 
  153.1250    -8.4620     2.2370    82.9140    10.7480     9.6250    10.7090    24.3760 
  153.2500    -8.4050     2.2360    84.9560    10.5790     9.3800    10.8930    24.3520 
  153.3750    -8.4900     2.2300    83.0420    10.5460     9.2630    11.3100    24.3330 
  153.5000    -8.7250     2.2140    78.9420    10.5470     9.2130    11.4830    24.3530 
  153.6250    -8.9720     2.1900    76.7110    10.5200     9.1810    11.3240    24.3810 
  153.7500    -9.1830     2.1740    77.9360    10.4740     9.1650    11.1850    24.3110 
  153.8750    -9.3930     2.1810    79.0980    10.4840     9.2020    11.2810    24.1160 
  154.0000    -9.6540     2.2110    79.0610    10.6180     9.3400    11.3540    23.8330 
  154.1250    -9.8880     2.2520    78.5850    10.9110     9.6100    11.3830    23.5790 
  154.2500   -10.0020     2.2880    78.3620    11.3590    10.0240    11.6780    23.4650 
  154.3750    -9.9980     2.3130    78.0630    11.8610    10.5020    12.2180    23.4330 
  154.5000    -9.9120     2.3250    77.0390    12.3190    10.9630    12.6570    23.4440 
  154.6250    -9.7470     2.3230    75.8270    12.6270    11.3090    12.8590    23.4840 
  154.7500    -9.4500     2.3070    76.1160    12.6460    11.4040    13.0650    23.6240 
  154.8750    -9.0820     2.2850    77.6250    12.3710    11.2240    13.0580    23.8790 
  155.0000    -8.7420     2.2670    78.4650    11.8350    10.7810    12.5610    24.1800 
  155.1250    -8.4140     2.2590    78.1850    11.1320    10.1490    11.6630    24.3380 
  155.2500    -8.0900     2.2610    78.9120    10.4130     9.4490    10.6260    24.3760 
  155.3750    -7.7640     2.2690    80.2350     9.8360     8.8290     9.9390    24.3860 
  155.5000    -7.4330     2.2810    80.3610     9.5180     8.3930     9.5540    24.3820 
  155.6250    -7.1530     2.2910    77.9380     9.5610     8.2320     9.4810    24.3530 
  155.7500    -6.9840     2.2930    75.2080    10.1450     8.5070     9.9010    24.3690 
  155.8750    -6.9030     2.2870    74.2890    11.2600     9.2440    10.7500    24.3990 
  156.0000    -6.7980     2.2800    73.3440    12.8750    10.4730    12.5400    24.4300 
  156.1250    -6.6310     2.2740    71.5370    14.8120    12.1170    15.6170    24.4560 
  156.2500    -6.4700     2.2680    69.7620    16.6370    13.9160    19.6820    24.4690 
  156.3750    -6.3420     2.2590    68.7570    17.8530    15.4000    23.2240    24.4770 
  156.5000    -6.2880     2.2470    68.3190    18.2170    16.1780    24.8300    24.5160 
  156.6250    -6.3110     2.2430    70.0570    17.6570    16.0580    22.9460    24.5510 
  156.7500    -6.3430     2.2580    75.1090    16.5750    15.1330    19.4160    24.5400 
  156.8750    -6.3110     2.2850    78.9050    15.6200    14.0120    16.7680    24.4540 
  157.0000    -6.2580     2.3070    78.8640    14.8280    13.0590    15.9300    24.3790 
  157.1250    -6.3510     2.3100    76.1500    14.2270    12.4190    15.6850    24.3590 
  157.2500    -6.5310     2.2960    74.3090    13.9400    12.0770    15.0780    24.3640 
  157.3750    -6.6590     2.2780    75.0570    13.6630    11.8250    14.8030    24.3640 
  157.5000    -6.7280     2.2650    76.7320    13.2230    11.5100    14.3460    24.3610 
  157.6250    -6.7990     2.2600    76.7390    12.5570    11.0360    13.5820    24.3550 
  157.7500    -6.8760     2.2690    75.6960    11.7090    10.3840    12.6010    24.3330 
  157.8750    -6.9700     2.2850    76.3490    10.8560     9.6820    11.6440    24.2770 
  158.0000    -7.1330     2.3050    79.0830    10.1450     9.0590    10.6480    24.1950 
  158.1250    -7.2880     2.3180    82.7730     9.6820     8.6270     9.5120    24.1150 
  158.2500    -7.3910     2.3190    86.1520     9.5470     8.4870     8.9040    24.0750 
  158.3750    -7.5070     2.3090    87.2100     9.6430     8.5810     9.0890    24.0310 
  158.5000    -7.6230     2.2920    85.9480     9.8650     8.8300     9.7840    23.9950 
  158.6250    -7.7180     2.2720    84.4160    10.0750     9.1140    10.2790    24.0650 
  158.7500    -7.8120     2.2600    83.4400    10.0970     9.2580    10.0910    24.1990 
  158.8750    -7.8800     2.2590    81.7070     9.8680     9.1670     9.8020    24.2840 
  159.0000    -7.9060     2.2660    79.7860     9.3990     8.8250     9.2670    24.2150 
  159.1250    -7.9040     2.2790    78.8990     8.7830     8.3010     8.5210    24.0410 
  159.2500    -7.8700     2.2950    80.2400     8.1830     7.7350     7.8130    23.9520 
  159.3750    -7.8250     2.3060    83.1090     7.7560     7.2850     7.3590    23.9750 
  159.5000    -7.8890     2.3090    86.7550     7.5940     7.0470     7.2010    23.9720 
  159.6250    -8.0410     2.3030    90.5850     7.7410     7.0790     7.2590    23.8700 
  159.7500    -8.2400     2.2940    93.5030     8.2370     7.4470     7.5870    23.7440 
  159.8750    -8.4410     2.2850    92.8850     8.9710     8.0730     8.3170    23.6620 
  160.0000    -8.5750     2.2770    88.1870     9.8560     8.8870     9.4090    23.6190 
  160.1250    -8.7340     2.2740    82.1560    10.7830     9.7930    10.6220    23.6050 
  160.2500    -9.0210     2.2760    79.2880    11.6210    10.6600    11.6690    23.6290 
  160.3750    -9.3810     2.2780    80.8580    12.2910    11.3780    12.6170    23.6610 
  160.5000    -9.6240     2.2760    85.0750    12.7600    11.8870    13.3370    23.7120 
  160.6250    -9.7560     2.2690    88.7030    13.0510    12.1820    13.7730    23.7300 
  160.7500    -9.9120     2.2560    90.6230    13.2530    12.3080    14.4040    23.7230 
  160.8750   -10.1930     2.2400    92.7020    13.5460    12.4210    14.6080    23.7650 
  161.0000   -10.5670     2.2290    94.0780    14.1380    12.6860    14.8730    23.9240 
  161.1250   -10.9440     2.2300    92.0240    15.3190    13.3230    15.6230    24.1700 
  161.2500   -11.3480     2.2410    88.3030    17.7010    14.8070    17.2600    24.2650 
  161.3750   -11.7740     2.2490    85.9690    21.6800    17.5340    20.2550    24.0690 
  161.5000   -12.1900     2.2500    84.6640    28.4010    22.1290    26.1120    23.9000 
  161.6250   -12.6400     2.2440    81.6670    38.0210    29.3360    36.7810    24.0440 
  161.7500   -13.1180     2.2320    76.8480    52.4150    40.4120    54.4290    24.4750 
  161.8750   -13.5740     2.2180    72.4710    70.5760    54.8460    77.5640    24.7140 
  162.0000   -13.9720     2.2080    68.7670    89.4670    71.6430   101.3460    24.7380 
  162.1250   -14.3310     2.2020    65.6870   108.0580    88.8450   119.3830    24.6780 
  162.2500   -14.6260     2.1980    64.1700   123.3430   103.2810   132.7400    24.6140 
  162.3750   -14.8800     2.1960    63.6090   133.2510   113.2820   143.0250    24.5790 
  162.5000   -15.1550     2.1940    62.6930   137.7560   118.6030   147.6880    24.5850 
  162.6250   -15.4600     2.1920    62.1600   138.4840   120.3530   143.7430    24.6260 
  162.7500   -15.8480     2.1910    63.3940   137.6740   120.2690   136.3210    24.6110 
  162.8750   -16.2350     2.1940    63.8410   137.5690   120.5400   126.1330    24.5860 
  163.0000   -16.5940     2.1980    63.0960   139.3170   122.4410   122.6320    24.5850 
  163.1250   -16.8950     2.1980    63.7910   143.3680   126.6230   129.0160    24.6280 
