~V
VERS. 2.00: Ver 2.00
~W
STRT.M 14.0000:
STOP.M 209.0000:
STEP.M 0.1250:
NULL. -999.2500:
UWI. F11100:
~C
DEPT.M :
GR.API :
RML.OHMM :
RI. :
RXO.OHMM :
CALI.CM :
SP.MV :
DEN.GM/CC :
~A
# ...
   81.5000    64.4950     8.6820     5.9850     7.2980    25.4300   -13.7420     2.1170 
   81.6250    63.2040     8.6740     5.9840     7.5320    25.2050   -13.6360     2.1210 
   81.7500    64.1340     8.6450     5.9630     7.6490    25.0600   -13.5780     2.1230 
   81.8750    67.3570     8.6150     5.9350     7.6140    25.0080   -13.5600     2.1220 
   82.0000    71.0300     8.6020     5.9130     7.4890    24.9820   -13.5690     2.1210 
   82.1250    71.5460     8.6240     5.9060     7.4860    24.9340   -13.5940     2.1210 
   82.2500    68.8730     8.6720     5.9110     7.7390    24.8800   -13.6110     2.1220 
   82.3750    65.5490     8.7290     5.9220     8.0060    24.8350   -13.6210     2.1180 
   82.5000    63.3510     8.7730     5.9310     8.1130    24.7960   -13.6140     2.1110 
   82.6250    62.1940     8.7800     5.9320     8.1190    24.7490   -13.6030     2.1030 
   82.7500    61.5000     8.7570     5.9250     8.1400    24.7130   -13.5670     2.1010 
   82.8750    60.6220     8.7200     5.9170     8.1010    24.7020   -13.5020     2.1040 
   83.0000    61.1400     8.6870     5.9130     8.1530    24.7060   -13.4110     2.1110 
   83.1250    64.4400     8.6740     5.9180     8.1330    24.7090   -13.2950     2.1160 
   83.2500    66.8060     8.6800     5.9290     8.1050    24.7090   -13.1570     2.1170 
   83.3750    66.7780     8.6990     5.9470     8.1640    24.7120   -12.9810     2.1190 
   83.5000    66.1140     8.7130     5.9720     8.2320    24.7300   -12.7650     2.1240 
   83.6250    66.0610     8.7070     6.0070     8.2830    24.8140   -12.4850     2.1320 
   83.7500    65.7730     8.6820     6.0500     8.3840    25.0070   -12.1520     2.1390 
   83.8750    64.6430     8.6630     6.1020     8.4570    25.3320   -11.7530     2.1420 
   84.0000    63.2760     8.6920     6.1700     8.3210    25.7330   -11.2920     2.1390 
   84.1250    61.2870     8.8170     6.2670     8.0750    26.0440   -10.7340     2.1300 
   84.2500    60.0080     8.9890     6.3770     7.8140    26.1820   -10.1150     2.1210 
   84.3750    61.6440     9.1030     6.4650     7.6800    26.2000    -9.4160     2.1120 
   84.5000    65.1090     9.0480     6.4720     7.7010    26.1900    -8.6410     2.1040 
   84.6250    67.5050     8.7230     6.3180     7.6270    26.1910    -7.7370     2.1050 
   84.7500    68.6640     8.1990     6.0130     7.0350    26.1920    -6.7360     2.1200 
   84.8750    70.3490     7.5670     5.5900     6.1240    26.1950    -5.6600     2.1550 
   85.0000    73.5460     6.9220     5.1120     5.6130    26.1980    -4.5490     2.2080 
   85.1250    78.3860     6.3520     4.6650     5.4930    26.1980    -3.5050     2.2600 
   85.2500    83.7600     5.9540     4.3390     5.1910    26.1860    -2.5870     2.2840 
   85.3750    86.4220     5.9190     4.2470     4.9250    26.1660    -1.8730     2.2760 
   85.5000    82.9210     6.5540     4.5270     5.0370    26.1140    -1.3950     2.2540 
   85.6250    77.1090     8.4540     5.4680     6.2600    25.9380    -1.2300     2.2600 
   85.7500    74.2990    11.7620     7.1570    10.4190    25.6750    -1.3260     2.3200 
   85.8750    71.6600    16.3690     9.6030    21.4290    25.4550    -1.6580     2.4350 
   86.0000    66.7700    21.2700    12.4040    41.9600    25.3680    -2.1880     2.5660 
   86.1250    63.8240    23.5180    14.1660    52.2190    25.3750    -2.9160     2.6280 
   86.2500    65.9390    21.7270    13.9350    38.4340    25.3790    -3.7370     2.5980 
   86.3750    68.0550    17.3760    12.1050    20.6660    25.3780    -4.6190     2.5070 
   86.5000    64.8420    13.0640     9.8510    11.5270    25.3760    -5.4980     2.3950 
   86.6250    58.7770    10.3900     8.1250     9.0190    25.3730    -6.2820     2.2950 
   86.7500    56.9550     9.0370     7.0310     8.3290    25.3690    -6.9000     2.2180 
   86.8750    61.8390     8.5620     6.4480     8.0200    25.3870    -7.2860     2.1620 
   87.0000    69.2690     8.5270     6.1910     7.7870    25.4500    -7.4200     2.1270 
   87.1250    72.1640     8.5500     6.0720     7.6600    25.5530    -7.2490     2.1150 
   87.2500    71.5880     8.4090     5.9220     7.5500    25.6490    -6.8750     2.1220 
   87.3750    71.5910     8.0840     5.6940     7.2250    25.7100    -6.3230     2.1470 
   87.5000    74.2910     7.6490     5.4080     6.4740    25.7420    -5.6710     2.1850 
   87.6250    77.4860     7.2280     5.1270     5.4020    25.7490    -5.0070     2.2240 
   87.7500    79.1970     6.9340     4.9180     4.9330    25.7270    -4.4370     2.2500 
   87.8750    79.1820     6.8290     4.8250     4.8870    25.6800    -3.9950     2.2570 
   88.0000    78.7080     6.9410     4.8730     4.9580    25.6280    -3.7100     2.2460 
   88.1250    75.8210     7.2830     5.0720     5.1120    25.6050    -3.5730     2.2240 
   88.2500    72.4240     7.7220     5.3430     5.5530    25.6020    -3.5560     2.2040 
   88.3750    71.6440     8.1100     5.5960     6.2580    25.6020    -3.6130     2.1910 
   88.5000    72.8870     8.2860     5.7350     7.1590    25.6000    -3.7020     2.1910 
   88.6250    73.7610     8.1240     5.6840     7.2480    25.5980    -3.7530     2.2040 
   88.7500    77.2760     7.7730     5.5140     6.4900    25.5980    -3.7620     2.2190 
   88.8750    82.5870     7.4350     5.3270     5.5360    25.6000    -3.7320     2.2270 
   89.0000    81.9900     7.3030     5.2300     5.2930    25.6030    -3.6840     2.2230 
   89.1250    73.3480     7.5140     5.3140     5.7590    25.6040    -3.6310     2.2070 
   89.2500    66.8890     7.9350     5.5280     6.5600    25.6050    -3.5570     2.1890 
   89.3750    65.2220     8.3650     5.7710     7.6220    25.6340    -3.4470     2.1720 
   89.5000    65.8920     8.5600     5.9110     8.9360    25.7110    -3.2860     2.1610 
   89.6250    68.9100     8.3000     5.8140     9.5430    25.8240    -3.0340     2.1640 
   89.7500    74.7950     7.7240     5.5330     7.6880    25.9210    -2.6900     2.1800 
   89.8750    79.5530     7.0450     5.1620     5.5430    25.9800    -2.2850     2.2040 
   90.0000    81.2630     6.4590     4.8060     4.5960    26.0030    -1.8480     2.2260 
   90.1250    83.9580     6.0890     4.5530     4.4910    25.9980    -1.4760     2.2390 
   90.2500    88.0940     5.8920     4.4110     4.5470    25.9860    -1.2110     2.2480 
   90.3750    89.9860     5.8370     4.3750     4.5730    25.9810    -1.1010     2.2580 
   90.5000    88.6760     5.9040     4.4280     4.5810    25.9790    -1.1470     2.2690 
   90.6250    87.8580     6.0960     4.5510     4.6450    25.9720    -1.3790     2.2700 
   90.7500    86.1880     6.3620     4.7040     4.8290    25.9580    -1.7210     2.2560 
   90.8750    81.1370     6.6370     4.8580     5.0580    25.9410    -2.1350     2.2310 
   91.0000    77.3340     6.8410     4.9800     5.2240    25.9270    -2.5650     2.2060 
   91.1250    80.4670     6.9040     5.0460     5.3130    25.9020    -2.9860     2.1910 
   91.2500    84.2920     6.8890     5.0680     5.3060    25.8520    -3.3500     2.1840 
   91.3750    82.9320     6.8740     5.0690     5.2230    25.7850    -3.6550     2.1780 
   91.5000    77.0130     6.9140     5.0750     5.2020    25.7250    -3.9010     2.1700 
   91.6250    71.6410     7.0330     5.1080     5.3040    25.6890    -4.1140     2.1610 
   91.7500    69.5320     7.1860     5.1630     5.5600    25.6740    -4.3260     2.1520 
   91.8750    69.9850     7.3310     5.2270     5.9210    25.6870    -4.5600     2.1450 
   92.0000    70.8130     7.4430     5.2810     6.3820    25.7230    -4.8200     2.1370 
   92.1250    70.5950     7.5170     5.3040     6.8510    25.7500    -5.0890     2.1300 
   92.2500    70.0950     7.5660     5.2950     7.1410    25.7370    -5.3560     2.1260 
   92.3750    69.5480     7.5940     5.2650     7.1870    25.6950    -5.6080     2.1260 
   92.5000    68.5540     7.6050     5.2320     7.0580    25.6620    -5.8330     2.1270 
   92.6250    67.0180     7.6250     5.2230     7.0330    25.6580    -5.9950     2.1190 
