~V
VERS. 2.00: Ver 2.00
~W
STRT.M 50.0000:
STOP.M 206.0000:
STEP.M 0.1250:
NULL. -999.2500:
UWI. F11107:
~C
DEPT.M :
DEN.GM/CC :
GR.API :
RML.OHMM :
RI. :
RXO.OHMM :
CALI.CM :
SP.MV :
~A
# ...
  185.0000     2.3280    98.6980     6.1220     6.1480     6.4260    24.2830    -6.5090 
  185.1250     2.3010    97.6880     6.0710     6.0150     6.6210    24.2960    -6.5040 
  185.2500     2.2820    95.6960     6.0350     5.9090     6.4420    24.1640    -6.5910 
  185.3750     2.2820    94.5000     6.0360     5.8380     5.9960    23.9630    -6.6920 
  185.5000     2.3010    94.8180     6.0860     5.8080     5.3630    23.8000    -6.7830 
  185.6250     2.3320    94.7310     6.1910     5.8320     4.6880    23.7820    -6.9050 
  185.7500     2.3620    93.9600     6.3230     5.8950     4.8330    23.7700    -6.9270 
  185.8750     2.3850    95.4400     6.4580     5.9760     5.6900    23.8020    -6.9020 
  186.0000     2.3900    98.3280     6.5690     6.0460     7.1500    23.9890    -6.9110 
  186.1250     2.3720    97.0510     6.6230     6.0650     8.6970    24.1170    -6.8270 
  186.2500     2.3360    93.2570     6.6160     6.0210     8.4330    24.0430    -6.6490 
  186.3750     2.2970    92.0540     6.5510     5.9210     7.0490    23.8750    -6.4800 
  186.5000     2.2660    92.5920     6.4440     5.7840     6.2380    23.8680    -6.2580 
  186.6250     2.2570    89.6660     6.3170     5.6390     6.2800    23.9630    -5.9470 
  186.7500     2.2660    83.8450     6.2020     5.5140     6.3920    23.9960    -5.7030 
  186.8750     2.2850    79.3970     6.1240     5.4250     6.3040    24.0120    -5.4950 
  187.0000     2.3060    78.0940     6.1070     5.3840     6.2590    24.1300    -5.2630 
  187.1250     2.3250    77.6700     6.1800     5.4080     6.1270    24.1920    -5.1350 
  187.2500     2.3410    77.0070     6.3250     5.4880     5.9480    24.1060    -5.0560 
  187.3750     2.3590    77.0920     6.5140     5.6120     5.8840    24.0310    -4.9450 
  187.5000     2.3810    78.8260     6.7010     5.7570     6.0550    24.0490    -4.9030 
  187.6250     2.4000    78.7290     6.8200     5.8810     6.2870    24.0570    -4.9110 
  187.7500     2.3990    76.9370     6.8510     5.9510     7.0110    24.0890    -4.8820 
  187.8750     2.3580    75.0250     6.8060     5.9560     8.1230    24.0510    -4.8440 
  188.0000     2.2730    74.4190     6.7310     5.9080     8.4310    23.7720    -4.7750 
  188.1250     2.1710    75.4670     6.6870     5.8460     7.1790    23.6610    -4.6240 
  188.2500     2.1040    76.9920     6.6960     5.8030     6.5110    23.8710    -4.4580 
  188.3750     2.1020    77.7110     6.7310     5.7820     6.3530    24.0780    -4.2870 
  188.5000     2.1610    76.5090     6.7430     5.7560     6.7930    24.1500    -4.0730 
  188.6250     2.2460    74.8360     6.6640     5.6770     7.4010    24.0990    -3.9400 
  188.7500     2.3140    73.9740     6.5030     5.5390     7.6000    23.9870    -3.8540 
  188.8750     2.3530    73.0200     6.3070     5.3680     7.1330    23.8310    -3.7800 
  189.0000     2.3700    71.3160     6.1460     5.2190     6.0410    23.7470    -3.7440 
  189.1250     2.3790    69.3990     6.1090     5.1660     5.3640    23.8070    -3.6920 
  189.2500     2.3870    70.2130     6.2030     5.2240     6.4200    23.9080    -3.6730 
  189.3750     2.3920    72.7250     6.3960     5.3770     9.8380    24.0570    -3.7190 
  189.5000     2.3890    75.9370     6.6190     5.5720    13.7390    24.1560    -3.7380 
  189.6250     2.3700    79.0840     6.7660     5.7210     9.6520    24.0980    -3.6810 
  189.7500     2.3350    79.1300     6.7850     5.7640     7.1480    23.9770    -3.5910 
  189.8750     2.2890    73.7980     6.6750     5.6820     6.4260    24.0170    -3.4370 
  190.0000     2.2470    67.3490     6.4720     5.5010     5.7060    24.1860    -3.2800 
  190.1250     2.2240    68.4050     6.2210     5.2610     5.1460    24.2810    -3.1210 
  190.2500     2.2200    71.7470     5.9650     5.0160     4.8170    24.2190    -2.9230 
  190.3750     2.2270    71.6170     5.7310     4.7940     5.0410    24.1620    -2.6740 
  190.5000     2.2360    69.5800     5.5550     4.6190     5.3160    24.0900    -2.4380 
  190.6250     2.2450    68.1950     5.5060     4.5320     4.9160    24.1070    -2.2060 
  190.7500     2.2590    67.3540     5.6090     4.5520     4.5190    24.2300    -2.0410 
  190.8750     2.2790    67.4810     5.8720     4.6970     4.5440    24.3460    -1.9630 
  191.0000     2.3030    70.0350     6.2660     4.9690     5.2000    24.4390    -1.9000 
  191.1250     2.3270    76.3270     6.7240     5.3490     6.3610    24.2970    -1.8780 
  191.2500     2.3490    81.7800     7.1490     5.7560     6.9590    23.9720    -1.8970 
  191.3750     2.3720    84.1340     7.4830     6.1250     7.6970    23.8300    -1.9680 
  191.5000     2.3960    85.4340     7.7080     6.4090     8.7990    23.8770    -2.1020 
  191.6250     2.4180    88.5610     7.8470     6.5920     9.3660    23.7390    -2.2610 
  191.7500     2.4290    90.9170     7.9740     6.7280     8.1110    23.4760    -2.3950 
  191.8750     2.4240    89.5410     8.1270     6.8550     7.6100    23.3690    -2.4920 
  192.0000     2.4050    87.5630     8.3030     6.9890     8.3140    23.4720    -2.5900 
  192.1250     2.3800    88.2980     8.4470     7.1040     9.5330    23.5270    -2.7030 
  192.2500     2.3630    88.2500     8.5030     7.1580    10.0810    23.4220    -2.7950 
  192.3750     2.3620    86.1220     8.4440     7.1200     9.5320    23.3850    -2.8490 
  192.5000     2.3780    82.9010     8.2850     6.9860     8.6490    23.5770    -2.8650 
  192.6250     2.4040    79.0260     8.0730     6.7830     7.3990    23.7320    -2.8720 
  192.7500     2.4250    75.0390     7.8760     6.5780     6.9460    23.7950    -2.8650 
  192.8750     2.4330    72.8440     7.7340     6.4200     7.1240    23.7600    -2.8530 
  193.0000     2.4240    72.3810     7.6700     6.3390     7.8650    23.6680    -2.8530 
  193.1250     2.4030    72.6530     7.7070     6.3660     8.2110    23.4640    -2.8690 
  193.2500     2.3800    74.6940     7.8290     6.4770     8.6530    23.1580    -2.9110 
  193.3750     2.3600    79.6460     8.0220     6.6590     8.1460    22.9170    -2.9930 
  193.5000     2.3440    84.3230     8.2620     6.8910     7.3360    23.0310    -3.0480 
  193.6250     2.3290    83.7870     8.5210     7.1510     7.1530    23.5940    -3.1290 
  193.7500     2.3130    81.7480     8.7700     7.4140     7.5650    23.8010    -3.2400 
  193.8750     2.2980    82.0120     8.9960     7.6620     8.2960    23.7120    -3.3840 
  194.0000     2.2920    83.6880     9.1930     7.8880     8.8950    23.6830    -3.5300 
  194.1250     2.3030    83.6360     9.3570     8.0810     9.7130    23.8810    -3.6930 
  194.2500     2.3310    82.3840     9.4940     8.2450    10.6260    24.0850    -3.8380 
  194.3750     2.3670    81.6720     9.5990     8.3790    10.9400    24.0580    -3.9420 
  194.5000     2.4010    82.5510     9.6750     8.4860    10.9550    23.9560    -4.1040 
  194.6250     2.4190    83.8240     9.7310     8.5690    10.1300    23.8130    -4.2790 
  194.7500     2.4200    83.2910     9.7870     8.6420     9.7420    23.7650    -4.4330 
  194.8750     2.4100    81.8380     9.8510     8.7120     9.7670    23.7790    -4.5370 
  195.0000     2.3990    82.6330     9.9070     8.7790    10.5300    23.7880    -4.6410 
  195.1250     2.3970    85.3980     9.9120     8.8280    11.9280    23.7360    -4.6820 
  195.2500     2.4020    86.3400     9.8390     8.8400    11.7710    23.6590    -4.7260 
  195.3750     2.4060    86.3400     9.6760     8.7920    10.0970    23.6330    -4.8030 
  195.5000     2.4030    86.3400     9.6380     8.7770     9.6430    23.6350    -4.8180 
  195.6250     2.3930    86.3400     9.2010     8.4990     8.6760    24.0370    -4.9030 
  195.7500     2.3890    86.3400     8.8740     8.2200     8.6040    24.3030    -4.8580 
  195.8750     2.3930    86.3400     8.5300     7.8950     7.3200    24.2830    -4.8270 
  196.0000     2.4000    86.3400     8.1810     7.5510     6.8790    24.1830    -4.7320 
  196.1250     2.3990    86.3400     7.8460     7.2160     7.5550    24.2250    -4.6410 
