~V
VERS. 2.00: Ver 2.00
~W
STRT.M 50.0000:
STOP.M 170.0000:
STEP.M 0.1250:
NULL. -999.2500:
UWI. F11116:
~C
DEPT.M :
SP.MV :
DEN.GM/CC :
GR.API :
RML.OHMM :
RI. :
RXO.OHMM :
CALI.CM :
~A
# ...
   72.5000   -16.2280     2.4260   100.3980     7.3120     5.6180     6.6770    24.5780 
   72.6250   -16.4510     2.3650   101.5170     7.2300     5.6190     5.5780    24.8350 
   72.7500   -16.7660     2.3090   100.5160     6.9500     5.4660     4.9620    25.0920 
   72.8750   -17.1410     2.2760    96.2510     6.6450     5.2540     4.8260    25.2120 
   73.0000   -17.5580     2.2710    91.1240     6.4240     5.0600     4.9310    25.1770 
   73.1250   -18.0250     2.2900    89.1490     6.3150     4.9260     5.0170    25.0500 
   73.2500   -18.5540     2.3050    91.6960     6.2560     4.8390     4.8520    24.9140 
   73.3750   -19.1540     2.2910    94.4660     6.2400     4.8000     4.8780    24.8440 
   73.5000   -19.8340     2.2350    92.7670     6.3370     4.8440     5.0860    24.8980 
   73.6250   -20.6250     2.1440    87.2410     6.7320     5.0680     5.1010    25.0740 
   73.7500   -21.5100     2.0580    81.7660     7.5190     5.5190     5.3950    25.2000 
   73.8750   -22.4700     2.0110    74.6140     8.7270     6.2230     5.9130    25.1380 
   74.0000   -23.4600     2.0430    64.4110    10.2260     7.1320     6.5420    24.9270 
   74.1250   -24.4290     2.1940    57.9430    11.6070     8.0470     6.4100    24.8090 
   74.2500   -25.3610     2.3880    58.0850    12.3840     8.6680     7.4280    24.8540 
   74.3750   -26.2350     2.5090    60.1940    12.3040     8.7970    11.3570    24.9310 
   74.5000   -27.0330     2.5000    59.9380    11.4980     8.4360    12.6950    24.9490 
   74.6250   -27.7070     2.4060    58.7400    10.4300     7.7770     9.2160    24.9710 
   74.7500   -28.2590     2.3140    60.2900     9.5750     7.1390     7.6260    25.0370 
   74.8750   -28.6870     2.2520    62.4660     9.0740     6.6640     7.5130    25.1030 
   75.0000   -29.0120     2.2260    62.9700     8.8950     6.3890     7.7940    25.1260 
   75.1250   -29.2380     2.2160    61.9620     8.9180     6.2890     8.0810    25.1570 
   75.2500   -29.3850     2.1860    59.6100     8.9500     6.2500     8.1890    25.4510 
   75.3750   -29.4650     2.1280    55.5120     8.9040     6.2070     7.8750    26.2090 
   75.5000   -29.4930     2.0550    50.7460     8.7900     6.1470     7.0810    27.2730 
   75.6250   -29.4810     2.0070    50.3980     8.6900     6.1050     6.7560    27.8610 
   75.7500   -29.4460     2.0090    53.1870     8.6650     6.1050     6.9170    27.4770 
   75.8750   -29.3890     2.0630    55.2180     8.7250     6.1440     7.5360    26.4530 
   76.0000   -29.3060     2.1390    55.5960     8.8250     6.2020     8.2770    25.6370 
   76.1250   -29.2030     2.1860    55.8190     8.8760     6.2480     8.6290    25.7480 
   76.2500   -29.1050     2.1920    56.2150     8.8410     6.2650     8.5430    26.4280 
   76.3750   -29.0400     2.1730    55.0770     8.7400     6.2520     8.1880    27.1760 
   76.5000   -29.0240     2.1550    52.4120     8.6210     6.2180     8.2810    27.7160 
   76.6250   -29.0440     2.1530    51.4890     8.5290     6.1730     8.0290    27.9630 
   76.7500   -29.0740     2.1650    53.3980     8.4740     6.1240     7.7490    28.0450 
   76.8750   -29.0850     2.1790    55.3370     8.4490     6.0740     7.6920    28.0800 
   77.0000   -29.0590     2.1830    55.5680     8.4410     6.0210     7.9050    28.2020 
   77.1250   -28.9680     2.1670    55.5680     8.4310     5.9640     7.7120    28.5490 
   77.2500   -28.8090     2.1480    55.9960     8.4030     5.9130     7.7850    29.0920 
   77.3750   -28.5770     2.1390    54.4990     8.3600     5.8810     7.9250    29.6830 
   77.5000   -28.2790     2.1410    51.3510     8.3200     5.8770     7.7360    30.1330 
   77.6250   -27.9510     2.1390    50.8910     8.3100     5.9080     7.6340    30.3090 
   77.7500   -27.6330     2.1180    53.5230     8.3210     5.9520     7.3920    30.3450 
   77.8750   -27.3370     2.0840    55.4940     8.3230     5.9860     7.3990    30.3430 
   78.0000   -27.0500     2.0500    55.2830     8.2850     5.9910     7.5120    30.2060 
   78.1250   -26.7360     2.0360    54.0330     8.2000     5.9560     7.2800    29.7630 
   78.2500   -26.3830     2.0400    52.9230     8.0950     5.8960     7.0730    29.1790 
   78.3750   -25.9580     2.0570    51.9530     7.9930     5.8220     7.4000    28.5700 
   78.5000   -25.4380     2.0820    52.7420     7.9010     5.7440     8.0040    27.8030 
   78.6250   -24.7980     2.1150    57.7480     7.8100     5.6660     7.9750    26.7330 
   78.7500   -24.0930     2.1450    63.9520     7.7190     5.5910     7.6700    25.7660 
   78.8750   -23.3670     2.1640    66.5730     7.6440     5.5270     7.4520    25.3050 
   79.0000   -22.6620     2.1710    64.4390     7.5980     5.4870     7.4980    25.3290 
   79.1250   -21.9940     2.1680    61.7590     7.5950     5.4890     7.6190    25.4600 
   79.2500   -21.3270     2.1700    60.3890     7.6410     5.5400     7.5780    25.4230 
   79.3750   -20.6240     2.1720    59.7250     7.7360     5.6370     7.6740    25.2800 
   79.5000   -19.8560     2.1580    59.2370     7.8530     5.7590     7.7950    25.1680 
   79.6250   -18.9790     2.1160    59.8280     7.9290     5.8530     7.7330    25.1480 
   79.7500   -17.9830     2.0670    62.7830     7.9060     5.8710     7.6720    25.1560 
   79.8750   -16.8820     2.0380    67.7180     7.7470     5.7780     7.6030    25.1210 
   80.0000   -15.7260     2.0530    74.7370     7.4550     5.5680     7.0560    25.0150 
   80.1250   -14.5860     2.1280    83.5920     7.0730     5.2620     5.9370    24.8810 
   80.2500   -13.5460     2.2320    91.2840     6.6850     4.9320     5.0350    24.8090 
   80.3750   -12.6500     2.3280    95.5400     6.3500     4.6230     4.4770    24.8090 
   80.5000   -11.9220     2.3890    94.6730     6.0990     4.3630     4.1880    24.8350 
   80.6250   -11.4080     2.4000    92.9310     5.9260     4.1670     4.0760    24.8550 
   80.7500   -11.0870     2.3740    94.2160     5.7560     4.0080     3.9820    24.8890 
   80.8750   -10.9540     2.3250    97.5520     5.5590     3.8740     3.9430    24.9470 
   81.0000   -10.9930     2.2670    99.6900     5.4010     3.7960     4.0400    25.0130 
   81.1250   -11.2070     2.2160    99.2540     5.5510     3.9020     4.2330    25.0460 
   81.2500   -11.5410     2.1880    97.0800     6.2430     4.3080     4.4530    25.0400 
   81.3750   -11.9770     2.2000    93.7930     7.6530     5.1250     5.2370    25.0210 
   81.5000   -12.5030     2.2650    88.0730     9.7790     6.3860     8.3840    24.9750 
   81.6250   -13.1080     2.3700    79.0140    12.2070     7.9370    18.5120    24.8340 
   81.7500   -13.7550     2.4470    70.7780    13.8850     9.2130    28.0110    24.6310 
   81.8750   -14.4120     2.4520    66.5780    13.9950     9.7000    23.2530    24.4620 
   82.0000   -15.0540     2.3990    67.1410    12.6270     9.2990    12.6540    24.3880 
   82.1250   -15.6330     2.3440    68.0460    10.7830     8.4110     8.8760    24.3860 
   82.2500   -16.1150     2.3070    67.3620     9.4430     7.6330     8.1850    24.4070 
   82.3750   -16.4590     2.2720    67.7180     8.8170     7.1740     8.3450    24.4750 
   82.5000   -16.6210     2.2200    71.2750     8.7470     7.0320     8.2310    24.6690 
   82.6250   -16.5390     2.1530    77.3910     8.9060     7.0730     7.8190    24.9960 
   82.7500   -16.2420     2.0980    81.0570     8.9600     7.0880     7.3100    25.2520 
   82.8750   -15.7440     2.0730    79.8640     8.8060     6.9820     7.1030    25.3060 
   83.0000   -15.0830     2.0870    76.9090     8.4810     6.7470     6.7210    25.2170 
   83.1250   -14.3120     2.1260    77.2420     8.0790     6.4190     6.0020    25.1560 
   83.2500   -13.5560     2.1650    80.4660     7.6890     6.0710     5.3820    25.1480 
   83.3750   -12.8980     2.1960    84.1170     7.3190     5.7340     5.2270    25.1500 
   83.5000   -12.3990     2.2260    86.9630     6.9450     5.4110     5.1500    25.1490 
   83.6250   -12.1400     2.2620    91.2100     6.5500     5.1010     4.9600    25.1500 
