~V
VERS. 2.00: Ver 2.00
~W
STRT.M 52.0000:
STOP.M 239.0000:
STEP.M 0.1250:
NULL. -999.2500:
UWI. F11118:
~C
DEPT.M :
DEN.GM/CC :
GR.API :
RML.OHMM :
RI. :
RXO.OHMM :
CALI.CM :
SP.MV :
~A
# ...
   74.5000     2.1820    86.9910     6.6820     5.0080     6.8720    23.5980   -24.2910 
   74.6250     2.1670    76.1790     7.1150     5.4120     8.3190    23.2610   -25.5490 
   74.7500     2.1450    66.6690     7.4150     5.7360     8.7640    23.2210   -26.8750 
   74.8750     2.1200    61.1140     7.5820     5.9500     8.6850    23.1880   -28.1870 
   75.0000     2.1010    59.5130     7.7040     6.0950     8.7080    22.9300   -29.4470 
   75.1250     2.1000    59.9850     7.9030     6.2840     8.9930    22.8380   -30.5500 
   75.2500     2.1220    61.3040     8.2280     6.5970     9.4250    22.9790   -31.4510 
   75.3750     2.1660    62.1260     8.6940     7.0440     9.9820    23.8200   -32.1100 
   75.5000     2.2190    59.6530     9.2570     7.5650    11.1890    25.0090   -32.5280 
   75.6250     2.2560    55.4760     9.7820     7.9660    12.4390    25.3910   -32.7180 
   75.7500     2.2640    56.9520    10.0990     8.0850    11.6530    24.2880   -32.8080 
   75.8750     2.2460    63.2770    10.1000     7.8950     9.7510    23.3820   -32.8520 
   76.0000     2.2180    67.8280     9.8170     7.5040     9.1110    23.1930   -32.8810 
   76.1250     2.1950    67.7750     9.4330     7.1030     9.1230    23.1470   -32.9800 
   76.2500     2.1830    70.1150     9.1990     6.8440     9.0280    22.9440   -33.1910 
   76.3750     2.1780    75.2800     9.2170     6.7660     8.9700    22.4440   -33.5680 
   76.5000     2.1770    75.8890     9.4430     6.8330     9.1110    21.8400   -34.1000 
   76.6250     2.1770    69.3370     9.7250     6.9750     9.2310    21.6740   -34.7670 
   76.7500     2.1740    64.0030     9.9080     7.1040     9.1400    21.6480   -35.4850 
   76.8750     2.1650    63.8380     9.9520     7.1900     8.9120    21.6450   -36.2220 
   77.0000     2.1510    64.5450     9.9010     7.2340     8.7590    21.6390   -36.9310 
   77.1250     2.1360    60.8120     9.8240     7.2540     8.6040    21.6350   -37.5490 
   77.2500     2.1240    56.7390     9.7610     7.2660     8.4270    21.5660   -38.0720 
   77.3750     2.1180    54.5910     9.6810     7.2620     8.3650    21.2610   -38.4570 
   77.5000     2.1180    53.9100     9.5170     7.2190     8.4430    21.0660   -38.7000 
   77.6250     2.1210    55.5120     9.2420     7.1240     8.3890    21.0330   -38.7770 
   77.7500     2.1210    60.8710     8.9600     7.0100     8.1800    21.0300   -38.7510 
   77.8750     2.1190    67.3570     8.7840     6.9230     7.9050    21.0300   -38.6510 
   78.0000     2.1160    68.0170     8.7830     6.9060     7.8780    21.0300   -38.5460 
   78.1250     2.1150    61.2100     8.9670     6.9950     8.3070    21.0300   -38.4740 
   78.2500     2.1160    55.6400     9.2280     7.1710     8.8660    21.0280   -38.3890 
   78.3750     2.1200    55.7550     9.4980     7.4030     9.2120    21.0180   -38.2780 
   78.5000     2.1250    59.9350     9.7470     7.6440     9.3110    20.9570   -38.1110 
   78.6250     2.1310    61.9200     9.9520     7.8230     9.2390    20.9600   -37.8500 
   78.7500     2.1380    60.7490    10.0250     7.8660     9.1910    21.0280   -37.4820 
   78.8750     2.1480    58.9470     9.8200     7.6890     9.2070    21.2470   -36.9580 
   79.0000     2.1580    60.0890     9.2230     7.2370     9.2240    21.7370   -36.2480 
   79.1250     2.1670    64.5840     8.2660     6.5170     8.6660    22.6240   -35.3140 
   79.2500     2.1700    71.2040     7.2920     5.7500     7.5140    23.9920   -34.2790 
   79.3750     2.1660    79.6370     6.5800     5.1240     6.3950    25.0270   -33.2810 
   79.5000     2.1560    85.7080     6.3020     4.7730     5.7330    25.2140   -32.4690 
   79.6250     2.1410    83.0110     6.5750     4.8230     5.9100    24.0490   -32.0170 
   79.7500     2.1280    74.4530     7.2540     5.2120     6.8100    21.8430   -31.9010 
   79.8750     2.1190    66.8790     8.1920     5.8700     8.0670    20.3890   -32.1230 
   80.0000     2.1160    62.7980     9.1510     6.6700     8.8040    19.9520   -32.5840 
   80.1250     2.1200    61.7330     9.7810     7.4070     8.8830    19.8890   -33.1810 
   80.2500     2.1250    61.4530     9.9840     7.9480     8.8390    19.8170   -33.7670 
   80.3750     2.1290    60.5670     9.8640     8.2860     8.7930    19.7440   -34.2340 
   80.5000     2.1300    60.3050     9.6230     8.4880     8.7630    19.7220   -34.4440 
   80.6250     2.1280    61.3240     9.4060     8.5930     8.8560    19.7420   -34.1800 
   80.7500     2.1290    62.1040     9.1830     8.5690     9.1670    19.8630   -33.4820 
   80.8750     2.1330    62.2400     8.8650     8.3220     9.4970    20.1360   -32.3720 
   81.0000     2.1390    64.7380     8.3890     7.8000     9.9250    20.7360   -30.9210 
   81.1250     2.1480    73.4040     7.7660     7.0120     9.6200    22.0050   -29.1930 
   81.2500     2.1580    82.8670     7.1280     6.1420     8.1050    23.8120   -27.3470 
   81.3750     2.1720    87.5100     6.5400     5.3310     6.3050    25.4180   -25.4680 
   81.5000     2.1910    88.6610     6.0130     4.6670     5.3950    26.3240   -23.6810 
   81.6250     2.2150    92.6290     5.6240     4.2410     5.0910    26.4810   -22.1420 
   81.7500     2.2380    97.4890     5.5400     4.0750     5.0150    26.3560   -20.8790 
   81.8750     2.2580    98.3030     5.9870     4.2470     5.0520    26.0060   -19.9490 
   82.0000     2.2810    95.2890     7.1580     4.8820     5.3960    25.4970   -19.4130 
   82.1250     2.3140    90.9190     9.3170     6.2650     6.9320    25.1500   -19.3870 
   82.2500     2.3560    85.8470    12.2450     8.4250    11.5670    25.5470   -19.7910 
   82.3750     2.3930    80.8570    15.4240    11.1960    24.2060    26.1580   -20.5570 
   82.5000     2.4050    78.0420    17.6640    13.7700    34.5090    26.2060   -21.5850 
   82.6250     2.3750    74.3710    17.2100    14.4950    23.1450    24.6180   -22.8300 
   82.7500     2.3200    70.2450    14.8680    13.4090    12.5890    22.4130   -24.1570 
   82.8750     2.2600    70.0480    12.2240    11.5700     9.1710    21.3880   -25.4790 
   83.0000     2.2130    72.4910    10.3380     9.9300     8.2880    21.0250   -26.6920 
   83.1250     2.1850    72.2820     9.5070     8.9260     8.1660    21.1550   -27.7370 
   83.2500     2.1700    69.3730     9.2400     8.3930     8.1360    21.5490   -28.5960 
   83.3750     2.1600    68.5710     9.2100     8.1580     8.0150    22.0440   -29.2490 
   83.5000     2.1550    72.2110     9.2350     8.0690     7.8530    22.5260   -29.7120 
   83.6250     2.1520    75.5050     9.2990     8.0370     7.8690    23.2030   -29.9890 
   83.7500     2.1530    76.0820     9.4110     8.0250     7.9760    23.9210   -30.1690 
   83.8750     2.1560    74.0410     9.5170     8.0050     8.1410    24.4470   -30.3080 
   84.0000     2.1610    71.2780     9.5110     7.9390     8.5410    24.2210   -30.4860 
   84.1250     2.1630    68.6330     9.2810     7.7740     9.0440    24.2450   -30.7040 
   84.2500     2.1620    67.4160     8.9090     7.5290     9.1780    25.2950   -30.9670 
   84.3750     2.1610    68.8390     8.5460     7.2670     8.9170    26.3450   -31.2950 
   84.5000     2.1600    70.4550     8.3530     7.0730     8.6050    26.8590   -31.6750 
   84.6250     2.1630    67.3840     8.4660     7.0480     8.3720    26.4500   -32.1200 
   84.7500     2.1670    62.5260     8.8230     7.1910     8.3110    25.2640   -32.6260 
   84.8750     2.1680    61.1780     9.3240     7.4740     8.7040    23.9640   -33.1600 
   85.0000     2.1590    62.3250     9.8360     7.8210     9.5690    23.6790   -33.7120 
   85.1250     2.1370    61.1100    10.1890     8.1110    11.2890    24.1640   -34.2350 
   85.2500     2.1040    57.4230    10.3160     8.2610    13.7100    25.0910   -34.7120 
   85.3750     2.0710    55.9270    10.2270     8.2720    14.6280    25.6380   -35.1350 
   85.5000     2.0500    58.9900    10.0360     8.2240    12.3080    25.6850   -35.4870 
   85.6250     2.0660    62.1360     9.9270     8.2330    10.4680    25.6290   -35.7400 
