~V
VERS. 2.00: Ver 2.00
~W
STRT.M 50.0000:
STOP.M 209.0000:
STEP.M 0.1250:
NULL. -999.2500:
UWI. F11109:
~C
DEPT.M :
GR.API :
RML.OHMM :
RI. :
RXO.OHMM :
CALI.CM :
SP.MV :
DEN.GM/CC :
~A
# ...
  151.2500    76.3150    18.3310    16.1010    14.0560    25.4040   -21.8830     2.2510 
  151.3750    75.2980    18.0440    15.8420    14.2810    25.3970   -21.7960     2.2520 
  151.5000    74.8620    17.6310    15.4800    15.2240    25.3670   -21.7500     2.2610 
  151.6250    72.6360    17.2000    15.0920    16.6990    25.3750   -21.7740     2.2760 
  151.7500    69.9190    16.9360    14.8190    16.9780    25.4410   -21.8720     2.2890 
  151.8750    69.3270    16.9590    14.7550    16.5100    25.5130   -22.0280     2.2960 
  152.0000    72.1920    17.2790    14.9180    16.5490    25.5420   -22.2290     2.2950 
  152.1250    75.8490    17.7910    15.2590    18.2750    25.5380   -22.4700     2.2880 
  152.2500    77.0620    18.2790    15.6280    20.1690    25.5360   -22.7090     2.2840 
  152.3750    76.5910    18.6410    15.9470    20.6690    25.5340   -22.9180     2.2870 
  152.5000    77.1170    18.8860    16.2010    19.6900    25.5310   -23.0890     2.2970 
  152.6250    77.8160    19.1220    16.4480    18.0880    25.5270   -23.2250     2.3080 
  152.7500    77.2960    19.4630    16.7590    18.8900    25.5290   -23.3490     2.3120 
  152.8750    76.3590    19.9330    17.1600    22.0090    25.5300   -23.4660     2.3110 
  153.0000    74.9360    20.5070    17.6450    24.2880    25.5280   -23.5820     2.3070 
  153.1250    73.8740    21.2260    18.2290    23.5080    25.5310   -23.6910     2.3040 
  153.2500    74.4390    22.2060    18.9770    21.7390    25.5330   -23.8140     2.3020 
  153.3750    75.5570    23.5870    19.9920    22.4400    25.5300   -23.9540     2.3000 
  153.5000    75.5180    25.3510    21.3030    26.9000    25.5270   -24.1100     2.2990 
  153.6250    72.8190    27.0920    22.6800    31.7340    25.5080   -24.2670     2.3030 
  153.7500    69.9360    28.1440    23.6060    33.1470    25.4870   -24.4110     2.3140 
  153.8750    69.1160    28.1130    23.7010    30.8680    25.4760   -24.5220     2.3300 
  154.0000    70.4670    27.1950    23.0240    26.5000    25.4520   -24.5950     2.3460 
  154.1250    73.5080    26.3130    22.1920    22.2770    25.2790   -24.6360     2.3500 
  154.2500    75.9070    26.6140    22.0580    19.5740    24.9350   -24.6670     2.3400 
  154.3750    76.3690    29.0260    23.3080    19.3000    24.6010   -24.7170     2.3200 
  154.5000    74.3880    34.3040    26.5960    23.6990    24.4680   -24.8210     2.3000 
  154.6250    70.3260    43.6120    33.0950    33.2680    24.5380   -24.9980     2.2880 
  154.7500    66.3400    56.4530    42.8080    45.6610    24.8330   -25.2580     2.2840 
  154.8750    63.3400    71.9530    55.3590    64.4280    25.3580   -25.5820     2.2860 
  155.0000    63.3760    87.9790    69.1180    93.0200    25.5670   -25.9520     2.2910 
  155.1250    66.5910   100.5280    80.6850   112.0490    25.5810   -26.3420     2.2940 
  155.2500    68.7860   107.4610    87.8420   119.2050    25.5370   -26.7090     2.2950 
  155.3750    67.5190   108.5860    90.0930   118.2510    25.5320   -27.0300     2.2940 
  155.5000    63.3330   105.2590    88.2930   121.6430    25.5360   -27.3060     2.2940 
  155.6250    60.0900    99.2520    83.7680   116.9030    25.5400   -27.5290     2.2950 
  155.7500    61.0490    92.6520    78.4670    96.0610    25.5420   -27.7290     2.2960 
  155.8750    64.4100    86.2430    73.1890    80.1030    25.5410   -27.9120     2.2970 
  156.0000    66.6470    80.4350    68.3590    75.0450    25.5400   -28.0880     2.3000 
  156.1250    66.2510    75.6870    64.4130    71.3440    25.5380   -28.2460     2.3090 
  156.2500    65.3170    72.0500    61.4330    63.1490    25.5390   -28.3860     2.3220 
  156.3750    64.8890    69.5930    59.4850    55.8720    25.5420   -28.5010     2.3380 
  156.5000    65.7260    68.2780    58.5410    50.3320    25.5430   -28.5780     2.3490 
  156.6250    68.4030    68.0760    58.5910    50.0310    25.5430   -28.6210     2.3530 
  156.7500    70.8020    68.4990    59.2300    54.9030    25.5420   -28.6240     2.3540 
  156.8750    71.3410    69.2070    60.1640    61.7130    25.5380   -28.5990     2.3540 
  157.0000    71.7870    69.9100    61.1160    66.1960    25.5280   -28.5630     2.3540 
  157.1250    72.4680    70.4600    61.9050    62.2330    25.4980   -28.5360     2.3490 
  157.2500    72.2740    70.9850    62.6200    58.3420    25.4850   -28.5240     2.3400 
  157.3750    70.1730    71.6230    63.3990    58.9230    25.4460   -28.5210     2.3280 
  157.5000    68.4230    72.3380    64.2450    67.1430    25.2630   -28.5150     2.3220 
  157.6250    69.7420    72.8070    64.8940    72.0070    25.2930   -28.5110     2.3230 
  157.7500    72.0720    72.7430    65.0660    72.5250    25.4280   -28.5380     2.3270 
  157.8750    72.0130    72.0710    64.6440    72.9020    25.5160   -28.5980     2.3250 
  158.0000    69.9030    71.0440    63.7960    69.6580    25.5320   -28.6860     2.3150 
  158.1250    68.5870    70.3350    63.0640    62.0380    25.5310   -28.7980     2.3030 
  158.2500    69.0550    70.5000    62.9910    56.2680    25.5310   -28.9280     2.2970 
  158.3750    70.5020    71.8330    63.8850    57.1400    25.5310   -29.0830     2.2990 
  158.5000    71.3720    74.4330    65.8870    61.1590    25.5300   -29.2580     2.3080 
  158.6250    69.8980    78.4410    69.1670    69.6580    25.5310   -29.4340     2.3200 
  158.7500    66.7040    83.5110    73.4140    76.7900    25.5320   -29.5900     2.3290 
  158.8750    63.2430    89.5820    78.5400    79.9160    25.5340   -29.7460     2.3350 
  159.0000    61.0610    96.6610    84.5210    84.7160    25.5350   -29.9290     2.3370 
  159.1250    59.8090   104.8950    91.4720    93.1530    25.5350   -30.1400     2.3300 
  159.2500    59.1850   114.0000    99.2080    97.2810    25.5360   -30.3610     2.3150 
  159.3750    58.9800   123.6810   107.5770   105.7430    25.5360   -30.5650     2.2940 
  159.5000    59.4540   133.2200   116.0690   101.6030    25.5350   -30.7200     2.2700 
  159.6250    59.9920   140.9110   123.2590    86.1390    25.5360   -30.7980     2.2530 
  159.7500    60.6160   145.4500   127.8220    81.8680    25.5380   -30.8080     2.2440 
  159.8750    61.2010   145.9700   128.7870    92.1980    25.5400   -30.7310     2.2420 
  160.0000    60.5760   142.6130   126.0600    98.7650    25.5270   -30.5840     2.2470 
  160.1250    58.8170   136.8300   120.7370    94.5920    25.5100   -30.3930     2.2550 
  160.2500    58.8940   131.7030   115.7330    93.8030    25.5020   -30.2120     2.2650 
  160.3750    61.0080   129.2270   113.1050   111.7410    25.5230   -30.0730     2.2760 
  160.5000    63.1960   130.4360   114.0810   122.3300    25.5380   -30.0010     2.2840 
  160.6250    62.8080   135.8480   119.5020   125.7610    25.5380   -30.0170     2.2840 
  160.7500    60.6760   143.6140   127.7410   160.6200    25.5340   -30.0570     2.2780 
  160.8750    58.7960   151.9600   137.1090   225.2890    25.5320   -30.1010     2.2700 
  161.0000    58.0650   159.2770   145.8960   228.0280    25.5280   -30.1290     2.2640 
  161.1250    59.6300   164.5160   152.9070   203.2050    25.5310   -30.1180     2.2560 
  161.2500    61.9570   167.5180   157.9520   188.2130    25.5290   -30.0610     2.2410 
  161.3750    64.5420   166.5380   159.4200   174.7930    25.5280   -29.9600     2.2180 
  161.5000    66.5500   158.5760   154.2470   141.7350    25.5300   -29.8380     2.1910 
  161.6250    66.0330   140.3840   138.4790   123.0490    25.5290   -29.6950     2.1760 
  161.7500    63.8910   116.5140   115.8470   123.1980    25.5280   -29.5390     2.1910 
  161.8750    62.0650    92.8330    92.1070   103.7220    25.5270   -29.3860     2.2420 
  162.0000    63.2160    74.3420    72.7700    59.7030    25.5290   -29.2450     2.3210 
  162.1250    66.4880    64.8040    61.9990    36.1790    25.5460   -29.1610     2.3930 
  162.2500    66.7870    63.5330    59.1300    31.8110    25.6480   -29.1260     2.4220 
  162.3750    63.3670    71.1010    64.7480    34.8400    25.7530   -29.1260     2.4050 
