~V
VERS. 2.00: Ver 2.00
~W
STRT.M 53.0000:
STOP.M 212.0000:
STEP.M 0.1250:
NULL. -999.2500:
UWI. F11124:
~C
DEPT.M :
SP.MV :
DEN.GM/CC :
GR.API :
RML.OHMM :
RI. :
RXO.OHMM :
CALI.CM :
~A
   53.0000  -999.2500  -999.2500    39.7860     0.4470     0.2070     0.0970    25.4230 
   53.1250  -999.2500  -999.2500    40.6160     0.4190     0.2070     0.0950    25.4230 
   53.2500  -999.2500  -999.2500    40.0120     0.3970     0.2090     0.0940    25.4190 
   53.3750  -999.2500  -999.2500    39.8410     0.3810     0.2100     0.0950    25.4150 
   53.5000  -999.2500  -999.2500    40.4310     0.3740     0.2080     0.0950    25.4150 
   53.6250  -999.2500  -999.2500    41.3080     0.3820     0.2030     0.0920    25.4160 
   53.7500  -999.2500  -999.2500    42.8250     0.4010     0.2010     0.0920    25.4150 
   53.8750  -999.2500  -999.2500    43.9470     0.4210     0.2030     0.0960    25.4140 
   54.0000  -999.2500  -999.2500    44.0100     0.4330     0.2070     0.1030    25.4210 
   54.1250  -999.2500  -999.2500    43.2150     0.4280     0.2110     0.1100    25.4260 
   54.2500  -999.2500  -999.2500    43.0220     0.4140     0.2120     0.1120    25.4280 
   54.3750  -999.2500  -999.2500    43.9670     0.3980     0.2110     0.1100    25.4270 
   54.5000  -999.2500  -999.2500    43.9100     0.3840     0.2090     0.1050    25.4240 
   54.6250  -999.2500  -999.2500    43.1000     0.3710     0.2090     0.1020    25.4240 
   54.7500  -999.2500  -999.2500    42.6860     0.3590     0.2110     0.1000    25.4200 
   54.8750  -999.2500  -999.2500    43.2060     0.3500     0.2120     0.1000    25.4100 
   55.0000     0.0000  -999.2500    43.1690     0.3480     0.2120     0.1030    25.4080 
   55.1250     0.0000  -999.2500    42.5490     0.3530     0.2090     0.1060    25.4050 
   55.2500     0.0000  -999.2500    42.9630     0.3620     0.2070     0.1080    25.4130 
   55.3750     0.0000  -999.2500    42.8910     0.3730     0.2050     0.1090    25.4040 
   55.5000     0.0000  -999.2500    42.4900     0.3840     0.2040     0.1100    25.3890 
   55.6250     0.0000  -999.2500    43.8920     0.3960     0.2030     0.1090    25.3800 
   55.7500     0.0000  -999.2500    44.7800     0.4050     0.2000     0.1060    25.3800 
   55.8750    55.0230  -999.2500    41.9780     0.4040     0.1990     0.1000    25.3800 
   56.0000    73.1440  -999.2500    38.3010     0.3860     0.1990     0.0950    25.3830 
   56.1250    72.8730  -999.2500    39.1840     0.3460     0.2020     0.0950    25.3830 
   56.2500    72.5420  -999.2500    40.7390     0.2990     0.2070     0.0950    25.3750 
   56.3750    72.1920  -999.2500    40.5610     0.2590     0.2090     0.0970    25.3760 
   56.5000    71.8910  -999.2500    42.5980     0.2370     0.2090     0.1010    25.3970 
   56.6250    71.6760  -999.2500    49.0200     0.2450     0.2040     0.1070    25.3920 
   56.7500    71.5050  -999.2500    53.3420     0.2760     0.1990     0.1100    25.3730 
   56.8750    71.3840  -999.2500    54.6620     0.3170     0.1950     0.1090    25.3730 
   57.0000    71.3140  -999.2500    55.4000     0.3500     0.1960     0.1080    25.3790 
   57.1250    71.3530  -999.2500    55.0630     0.3560     0.2010     0.1080    25.3760 
   57.2500    71.5240  -999.2500    53.0380     0.3400     0.2040     0.1090    25.3710 
   57.3750    71.7170  -999.2500    50.8140     0.3160     0.2040     0.1090    25.3760 
   57.5000    71.8370  -999.2500    49.2270     0.2980     0.1990     0.1110    25.3790 
   57.6250    71.9430  -999.2500    48.6030     0.2980     0.1950     0.1160    25.3710 
   57.7500    72.0770  -999.2500    48.6930     0.3060     0.1940     0.1220    25.3530 
   57.8750    72.1650  -999.2500    49.5100     0.3100     0.1970     0.1270    25.3440 
   58.0000    72.1880     2.0290    49.4440     0.3040     0.2020     0.1300    25.3380 
   58.1250    72.0920     2.0290    48.1900     0.2890     0.2030     0.1300    25.3370 
   58.2500    71.7630     2.0310    46.5900     0.2720     0.2010     0.1300    25.3420 
   58.3750    71.1870     2.0410    45.2290     0.2560     0.1990     0.1320    25.3520 
   58.5000    70.3550     2.0510    43.8620     0.2410     0.1980     0.1370    25.3650 
   58.6250    69.1580     2.0540    41.4940     0.2290     0.2020     0.1410    25.3620 
   58.7500    67.6680     2.0510    38.9970     0.2190     0.2070     0.1390    25.3590 
   58.8750    65.9860     2.0440    38.4610     0.2130     0.2090     0.1330    25.3580 
   59.0000    64.1940     2.0380    38.6600     0.2150     0.2080     0.1310    25.3550 
   59.1250    62.3030     2.0350    37.7660     0.2210     0.2030     0.1390    25.3510 
   59.2500    60.4700     2.0330    36.3640     0.2240     0.2000     0.1540    25.3440 
   59.3750    58.8290     2.0280    36.3170     0.2180     0.2000     0.1710    25.3370 
   59.5000    57.4780     2.0240    38.2340     0.2010     0.2050     0.1780    25.3330 
   59.6250    56.5020     2.0330    39.3620     0.1840     0.2110     0.1680    25.3330 
   59.7500    55.7950     2.0590    38.7130     0.1820     0.2140     0.1500    25.3340 
   59.8750    55.2850     2.0920    38.1530     0.1990     0.2140     0.1300    25.3380 
   60.0000    54.8940     2.1200    39.1500     0.2300     0.2130     0.1130    25.3450 
   60.1250    54.6170     2.1290    40.7080     0.2570     0.2140     0.1050    25.3490 
   60.2500    54.3980     2.1200    41.3330     0.2670     0.2160     0.1050    25.3490 
   60.3750    54.1560     2.0940    42.1250     0.2600     0.2190     0.1100    25.3410 
   60.5000    53.8410     2.0580    44.0900     0.2470     0.2200     0.1160    25.3250 
   60.6250    53.4330     2.0280    46.8160     0.2380     0.2190     0.1180    25.3140 
   60.7500    52.9700     2.0110    49.9840     0.2340     0.2180     0.1140    25.3120 
   60.8750    52.4710     2.0070    53.4930     0.2280     0.2190     0.1070    25.3010 
   61.0000    51.9650     2.0120    56.6700     0.2200     0.2230     0.0980    25.2870 
   61.1250    51.4630     2.0220    57.4180     0.2100     0.2270     0.0880    25.2780 
   61.2500    50.9330     2.0330    56.6830     0.2060     0.2310     0.0820    25.2690 
   61.3750    50.4020     2.0410    57.7860     0.2120     0.2340     0.0810    25.2650 
   61.5000    49.8510     2.0450    60.0810     0.2270     0.2340     0.0870    25.2640 
   61.6250    49.2050     2.0450    60.0900     0.2420     0.2330     0.1000    25.2660 
   61.7500    48.4310     2.0500    57.3890     0.2530     0.2330     0.1150    25.2700 
   61.8750    47.5010     2.0620    54.0600     0.2590     0.2320     0.1270    25.2700 
   62.0000    46.3630     2.0850    51.7440     0.2630     0.2300     0.1270    25.2620 
   62.1250    44.9070     2.1220    50.1350     0.2600     0.2230     0.1160    25.2380 
   62.2500    43.1090     2.1730    48.2780     0.2410     0.2070     0.1030    25.2050 
   62.3750    40.8720     2.2520    46.5340     0.1950     0.1820     0.0860    25.1820 
   62.5000    38.1210     2.3660    47.1300     0.1280     0.1480     0.0410    25.1650 
   62.6250    34.7000     2.4890    50.7750     0.0720     0.1090     0.0120    25.1630 
   62.7500    30.6400     2.5780    54.2530     0.0430     0.0760     0.1230    25.1400 
   62.8750    25.8710     2.6090    56.8640     0.0380     0.0560     0.5490    25.1010 
   63.0000    20.4250     2.5730    59.5330     0.0550     0.0590     1.3940    25.0350 
   63.1250    14.5210     2.4560    62.9870     0.1210     0.1160     2.7600    25.0120 
   63.2500     8.6260     2.3140    66.5670     0.2830     0.2680     4.2230    25.1290 
   63.3750     3.0190     2.2030    68.2020     0.6420     0.5840     5.3290    25.3350 
   63.5000    -2.1180     2.1520    67.5410     1.4120     1.1570     5.8980    25.2990 
   63.6250    -6.5880     2.1500    66.9290     3.4470     2.0920     6.2570    25.0870 
   63.7500   -10.3590     2.1550    66.3340     7.8320     3.2250     6.6790    24.9470 
   63.8750   -13.2920     2.1560    65.8140    14.0730     4.3130     7.0630    24.9580 
   64.0000   -15.3770     2.1610    67.7430    19.6350     5.1820     7.2890    25.0290 
   64.1250   -16.6910     2.1690    72.4980    22.0930     5.8050     7.3860    25.0620 
