~V
VERS. 2.00: Ver 2.00
~W
STRT.M 55.0000:
STOP.M 210.0000:
STEP.M 0.1250:
NULL. -999.2500:
UWI. F11105:
~C
DEPT.M :
DEN.GM/CC :
GR.API :
RML.OHMM :
RI. :
RXO.OHMM :
CALI.CM :
SP.MV :
~A
# ...
  122.5000     2.4800    47.7840    28.0940    25.5770    20.3050    27.6150   -15.9000 
  122.6250     2.4650    45.1520    27.9230    25.3620    20.3100    27.6110   -15.9970 
  122.7500     2.4460    44.9890    28.0390    25.4300    20.7690    27.5490   -16.0750 
  122.8750     2.4260    47.9990    28.2740    25.6510    21.9490    27.5430   -16.1310 
  123.0000     2.4100    53.9300    28.4510    25.8570    23.5890    27.5750   -16.1710 
  123.1250     2.4060    57.7940    28.4030    25.8830    23.6470    27.6000   -16.2260 
  123.2500     2.4130    56.8560    28.1140    25.6960    22.8590    27.5820   -16.2940 
  123.3750     2.4240    54.2820    27.6370    25.3230    21.5550    27.5140   -16.3710 
  123.5000     2.4340    52.9040    27.1100    24.8680    20.3930    27.4140   -16.4420 
  123.6250     2.4360    52.0910    26.7590    24.5230    20.4380    27.3460   -16.4860 
  123.7500     2.4310    49.3820    26.6860    24.4080    19.5930    27.1770   -16.5280 
  123.8750     2.4240    45.6570    26.8850    24.5550    18.9820    26.9710   -16.5880 
  124.0000     2.4210    44.1660    27.2560    24.9070    19.6740    26.7330   -16.6630 
  124.1250     2.4240    47.1700    27.6300    25.3300    21.8360    26.5180   -16.7230 
  124.2500     2.4300    52.3250    27.8500    25.6440    23.8820    26.3600   -16.7800 
  124.3750     2.4370    55.1410    27.8610    25.7580    25.3330    26.1070   -16.8330 
  124.5000     2.4450    52.8770    27.7080    25.6710    25.8460    26.0810   -16.8730 
  124.6250     2.4500    49.0280    27.5090    25.4690    24.4750    26.1460   -16.9340 
  124.7500     2.4540    47.6970    27.3680    25.2790    24.3050    26.2750   -16.9930 
  124.8750     2.4560    48.3620    27.2790    25.1350    23.6320    26.3670   -17.0420 
  125.0000     2.4570    49.0930    27.1630    24.9920    23.8250    26.4030   -17.0890 
  125.1250     2.4610    49.7710    26.9010    24.7470    24.1600    26.4480   -17.1350 
  125.2500     2.4680    51.3630    26.4980    24.3780    23.0100    26.4730   -17.1750 
  125.3750     2.4780    53.3410    26.0630    23.9500    21.1580    26.5610   -17.2150 
  125.5000     2.4860    54.8330    25.7700    23.5970    20.4230    26.7780   -17.2860 
  125.6250     2.4890    53.9380    25.8190    23.4910    20.7780    26.9170   -17.3660 
  125.7500     2.4840    49.9680    26.1930    23.6550    21.4250    27.1970   -17.4640 
  125.8750     2.4740    46.1940    26.8060    24.0510    22.2780    27.3670   -17.5710 
  126.0000     2.4620    45.8860    27.5000    24.5750    23.8740    27.4800   -17.6660 
  126.1250     2.4530    48.7750    28.0720    25.0700    24.2000    27.5430   -17.7360 
  126.2500     2.4470    50.5450    28.4480    25.4340    22.9920    27.5750   -17.8080 
  126.3750     2.4450    48.8880    28.6660    25.6660    22.0840    27.6680   -17.8800 
  126.5000     2.4470    45.7510    28.8230    25.8200    22.1210    27.8190   -17.9250 
  126.6250     2.4530    44.0790    29.0480    25.9830    22.5070    27.8970   -17.9470 
  126.7500     2.4610    45.1380    29.4060    26.2240    23.1290    28.0650   -17.9530 
  126.8750     2.4690    47.0140    29.8720    26.5550    23.1820    28.1720   -17.9420 
  127.0000     2.4760    47.5480    30.3580    26.9240    22.8990    28.2800   -17.9390 
  127.1250     2.4840    46.7230    30.7420    27.2300    22.9950    28.4620   -17.9490 
  127.2500     2.4910    46.7000    30.9410    27.3840    24.1170    28.6280   -17.9160 
  127.3750     2.4930    47.2990    30.8460    27.2900    24.9140    28.7940   -17.8550 
  127.5000     2.4860    48.4000    30.3290    26.8470    23.6570    29.3630   -17.7950 
  127.6250     2.4660    49.4670    29.2240    25.9300    21.1010    28.9410   -17.7270 
  127.7500     2.4420    50.3530    27.6950    24.6690    20.5540    28.8130   -17.6610 
  127.8750     2.4220    50.9030    25.9840    23.2420    19.9810    28.9080   -17.6100 
  128.0000     2.4160    51.6550    24.4010    21.8840    18.5220    29.3310   -17.5650 
  128.1250     2.4280    52.4770    23.2880    20.8590    17.7020    29.1040   -17.5380 
  128.2500     2.4470    51.4730    22.6910    20.2290    16.8760    29.0450   -17.5230 
  128.3750     2.4660    50.0040    22.5940    20.0080    17.4440    28.9700   -17.4900 
  128.5000     2.4770    49.1730    22.8990    20.1470    18.8930    28.5610   -17.4390 
  128.6250     2.4790    48.5730    23.4300    20.5470    19.1910    28.7140   -17.4030 
  128.7500     2.4780    46.8870    23.9100    20.9730    18.9180    28.8480   -17.3760 
  128.8750     2.4770    44.0360    24.1360    21.2440    19.4340    28.8330   -17.3490 
  129.0000     2.4780    41.0690    23.9740    21.2180    20.7440    28.7880   -17.3250 
  129.1250     2.4800    38.6080    23.3830    20.8170    20.0880    29.0060   -17.3080 
  129.2500     2.4810    39.1630    22.6040    20.2190    18.6940    28.7910   -17.3410 
  129.3750     2.4810    44.1590    21.8730    19.6000    17.7640    28.9420   -17.4420 
  129.5000     2.4810    51.1030    21.3910    19.1380    16.2150    28.9230   -17.5710 
  129.6250     2.4860    55.5710    21.2720    18.9640    15.4900    28.9190   -17.6660 
  129.7500     2.4950    56.9360    21.2980    18.9480    16.3760    28.9790   -17.7370 
  129.8750     2.5050    55.8680    21.2020    18.8890    18.9390    29.0410   -17.7800 
  130.0000     2.5080    53.2870    20.7630    18.5850    21.5640    29.0570   -17.7620 
  130.1250     2.4940    50.4810    19.8640    17.8930    21.1130    29.0880   -17.6830 
  130.2500     2.4700    48.7000    18.7730    16.9970    17.5570    29.1170   -17.5310 
  130.3750     2.4430    48.0490    17.7860    16.1270    14.4610    29.1940   -17.2920 
  130.5000     2.4270    48.4220    17.1510    15.4880    13.5630    29.0650   -16.9950 
  130.6250     2.4290    49.5800    17.0440    15.2370    13.9050    29.0140   -16.6840 
  130.7500     2.4430    50.3520    17.3170    15.3030    14.0130    29.3950   -16.3830 
  130.8750     2.4620    49.9660    17.8190    15.6020    14.1040    29.5870   -16.0900 
  131.0000     2.4800    48.2720    18.3730    16.0120    14.9500    28.9910   -15.8320 
  131.1250     2.4910    46.6970    18.8310    16.4020    15.5380    28.9720   -15.6180 
  131.2500     2.4970    46.1310    19.1650    16.7030    15.8710    28.9120   -15.4540 
  131.3750     2.4980    45.9380    19.3610    16.8860    15.9840    28.5880   -15.3450 
  131.5000     2.4960    45.2260    19.3950    16.9270    16.1710    28.7270   -15.3090 
  131.6250     2.4950    45.0240    19.2320    16.8000    15.5930    28.3810   -15.3600 
  131.7500     2.4960    45.4210    18.9580    16.5720    15.1020    28.2530   -15.4810 
  131.8750     2.5010    46.8180    18.6590    16.3020    15.0590    28.1420   -15.6700 
  132.0000     2.5060    51.4090    18.3910    16.0440    15.0030    28.1280   -15.9030 
  132.1250     2.5060    60.0340    18.1370    15.8150    14.4850    28.2320   -16.1320 
  132.2500     2.5000    66.5840    17.8270    15.5820    14.8570    28.3900   -16.3650 
  132.3750     2.4890    67.5960    17.4270    15.3120    15.8790    28.5920   -16.6150 
  132.5000     2.4790    64.0970    16.9690    15.0040    16.2990    28.7030   -16.8570 
  132.6250     2.4730    58.2670    16.5540    14.7040    14.7860    28.8020   -17.0450 
  132.7500     2.4710    52.8360    16.2890    14.4870    13.3280    28.8340   -17.1780 
  132.8750     2.4700    49.9150    16.2520    14.4230    13.1120    28.7960   -17.2840 
  133.0000     2.4680    51.5350    16.4750    14.5590    13.7540    28.7640   -17.3660 
  133.1250     2.4690    54.9880    16.9280    14.9040    14.2090    28.6370   -17.4330 
  133.2500     2.4790    54.0110    17.4000    15.3050    13.9940    28.5250   -17.4950 
  133.3750     2.4960    49.1470    17.6720    15.5860    14.0210    28.4400   -17.5560 
  133.5000     2.5130    45.4490    17.5440    15.5680    15.2760    28.5140   -17.6240 
  133.6250     2.5060    48.5030    16.8750    15.0900    15.3540    28.6910   -17.7630 
