~V
VERS. 2.00: Ver 2.00
~W
STRT.M 59.0000:
STOP.M 247.0000:
STEP.M 0.1250:
NULL. -999.2500:
UWI. F11130:
~C
DEPT.M :
DEN.GM/CC :
SP.MV :
GR.API :
RML.OHMM :
RI. :
RXO.OHMM :
CALI.CM :
~A
# ...
   81.5000     2.3030   -16.9510    69.8450    12.1070     8.9320    12.3840    24.3090 
   81.6250     2.2990   -17.2410    65.2630    11.9990     8.8550    12.3010    24.3150 
   81.7500     2.2780   -17.5760    58.6100    11.7460     8.6650    12.2350    24.2760 
   81.8750     2.2520   -17.9870    57.0670    11.4340     8.4310    12.2500    24.1990 
   82.0000     2.2290   -18.3290    61.7330    11.1660     8.2320    12.1370    24.1410 
   82.1250     2.2100   -18.5600    65.7910    11.0340     8.1290    11.9540    24.1380 
   82.2500     2.1920   -18.6620    66.1130    11.0140     8.1110    12.0770    24.1880 
   82.3750     2.1760   -18.7110    65.0670    11.0430     8.1420    12.6150    24.2820 
   82.5000     2.1660   -18.6910    64.6290    11.0460     8.1660    13.0490    24.4240 
   82.6250     2.1660   -18.6700    66.4630    10.9570     8.1240    12.8410    24.5850 
   82.7500     2.1730   -18.6310    70.9790    10.7990     8.0200    12.2070    24.7030 
   82.8750     2.1840   -18.4960    75.7720    10.6230     7.8960    11.5760    24.7690 
   83.0000     2.1960   -18.3480    76.5180    10.4850     7.8000    11.2690    24.8340 
   83.1250     2.2060   -18.1900    71.5810    10.4260     7.7750    11.3440    24.8910 
   83.2500     2.2110   -18.1230    66.7380    10.4190     7.8100    11.5370    24.9380 
   83.3750     2.2110   -18.0660    64.9510    10.4210     7.8760    11.8780    24.9880 
   83.5000     2.2070   -18.0570    63.5850    10.3900     7.9330    12.3080    25.0780 
   83.6250     2.2000   -17.9710    59.8380    10.2930     7.9370    12.2020    25.2270 
   83.7500     2.1910   -17.8250    57.3770    10.1530     7.8890    11.8620    25.3780 
   83.8750     2.1790   -17.6560    59.9100     9.9950     7.8070    11.7310    25.4950 
   84.0000     2.1670   -17.4220    64.4750     9.8510     7.7220    11.7100    25.5640 
   84.1250     2.1570   -17.1240    64.7420     9.7550     7.6770    11.6990    25.6100 
   84.2500     2.1540   -16.7050    60.8330     9.7230     7.6970    11.7060    25.6190 
   84.3750     2.1570   -16.2200    56.0440     9.7680     7.7840    11.7260    25.5900 
   84.5000     2.1610   -15.6330    53.6810     9.8980     7.9260    11.6690    25.5760 
   84.6250     2.1610   -14.8540    55.3050    10.1060     8.1130    11.5590    25.6020 
   84.7500     2.1550   -13.8110    57.9900    10.3120     8.3080    11.5260    25.6430 
   84.8750     2.1500   -12.5160    60.4470    10.4000     8.4410    11.6010    25.6960 
   85.0000     2.1560   -10.9110    63.3960    10.2400     8.4020    11.6350    25.7060 
   85.1250     2.1840    -9.0670    67.2350     9.6770     8.0330    11.7520    25.6880 
   85.2500     2.2280    -7.1560    71.1310     8.8100     7.3690    11.4580    25.6830 
   85.3750     2.2750    -5.3600    77.1850     7.8130     6.5250     9.9290    25.6530 
   85.5000     2.3170    -3.8900    88.6960     6.9430     5.7010     7.2060    25.7390 
   85.6250     2.3560    -2.9560   100.9160     6.5520     5.1720     5.9890    25.8360 
   85.7500     2.3980    -2.7100   105.3160     6.7640     5.0590     5.5340    25.8660 
   85.8750     2.4390    -3.0970   101.1850     7.6260     5.4430     5.7350    25.8120 
   86.0000     2.4620    -4.1450    92.3640     9.0490     6.3650     7.6410    25.7130 
   86.1250     2.4380    -5.6400    82.8800    10.7140     7.8160    14.8700    25.5690 
   86.2500     2.3720    -7.1890    73.9680    12.0240     9.3400    27.2190    25.3800 
   86.3750     2.2850    -8.5280    67.8300    12.5270    10.3660    27.5310    25.2190 
   86.5000     2.2110    -9.3440    65.7260    12.0810    10.4670    17.4760    25.1330 
   86.6250     2.1810    -9.5360    66.3600    10.8890     9.6440    12.6040    25.1420 
   86.7500     2.1870    -9.1570    68.2590     9.5760     8.5390    10.6570    25.2740 
   86.8750     2.2130    -8.3300    73.7650     8.4780     7.5070     8.8200    25.4250 
   87.0000     2.2390    -7.1860    83.1520     7.7370     6.6990     7.0330    25.4490 
   87.1250     2.2580    -5.8610    90.4780     7.4510     6.2060     6.6620    25.2660 
   87.2500     2.2820    -4.7040    93.2320     7.5820     6.0190     7.2230    25.1240 
   87.3750     2.3180    -3.8710    94.6380     8.1750     6.1880     7.3160    25.1710 
   87.5000     2.3650    -3.5810    96.9770     9.2410     6.7580     7.0830    25.3740 
   87.6250     2.4010    -3.9480    96.2730    10.7140     7.7790     8.9310    25.5270 
   87.7500     2.4050    -4.7360    90.0150    12.2180     9.0300    13.9200    25.5160 
   87.8750     2.3750    -5.8960    80.7780    13.3620    10.1960    18.3030    25.3860 
   88.0000     2.3220    -7.2570    73.6400    13.8230    10.8980    16.5750    25.2010 
   88.1250     2.2710    -8.7850    72.4440    13.4300    10.8170    12.9810    25.0880 
   88.2500     2.2360   -10.3730    74.8380    12.6110    10.2590    11.3950    25.0480 
   88.3750     2.2190   -11.9140    77.9180    11.7500     9.5730    11.0710    25.0750 
   88.5000     2.2140   -13.3380    78.4510    11.1260     9.0230    11.1240    25.1370 
   88.6250     2.2150   -14.5000    76.0920    10.8640     8.7390    11.2330    25.2390 
   88.7500     2.2150   -15.4800    74.1650    10.8130     8.6300    11.8240    25.3460 
   88.8750     2.2100   -16.2330    73.7160    10.8490     8.6120    12.5930    25.4300 
   89.0000     2.2030   -16.7600    73.5410    10.8780     8.6130    12.7390    25.4960 
   89.1250     2.1940   -17.1690    70.5320    10.8500     8.5910    12.3310    25.5750 
   89.2500     2.1860   -17.3530    67.0580    10.7760     8.5400    11.9240    25.6700 
   89.3750     2.1790   -17.3660    64.9590    10.6730     8.4650    11.7900    25.7590 
   89.5000     2.1760   -17.1600    64.8060    10.5530     8.3700    11.6830    25.8420 
   89.6250     2.1760   -16.7280    67.4690    10.4200     8.2520    11.5890    25.8620 
   89.7500     2.1810   -16.2210    70.6850    10.2770     8.1120    11.3700    25.8160 
   89.8750     2.1870   -15.5940    73.4450    10.1250     7.9570    11.1200    25.7360 
   90.0000     2.1930   -14.9890    74.4070     9.9690     7.7970    10.9440    25.6550 
   90.1250     2.1980   -14.4010    72.2030     9.8170     7.6460    10.7250    25.6040 
   90.2500     2.2000   -13.8690    69.9130     9.6750     7.5120    10.5400    25.5880 
   90.3750     2.2000   -13.4470    69.4430     9.5520     7.3950    10.4540    25.5970 
   90.5000     2.1960   -13.1430    71.3930     9.4570     7.2970    10.3810    25.5970 
   90.6250     2.1890   -13.0520    73.1360     9.4060     7.2240    10.3000    25.5760 
   90.7500     2.1790   -13.0350    72.4580     9.3990     7.1840    10.1810    25.5560 
   90.8750     2.1700   -13.1840    71.5140     9.4370     7.1870    10.2560    25.5370 
   91.0000     2.1630   -13.4290    72.7890     9.5170     7.2410    10.4640    25.5040 
   91.1250     2.1580   -13.6270    74.6980     9.6240     7.3440    10.7430    25.4460 
   91.2500     2.1540   -13.8190    72.3300     9.7190     7.4600    10.9200    25.4200 
   91.3750     2.1510   -13.8830    66.6220     9.7640     7.5500    11.0160    25.4160 
   91.5000     2.1500   -13.8230    63.9700     9.7240     7.5770    11.0990    25.4240 
   91.6250     2.1550   -13.6890    67.9870     9.5730     7.5050    11.1000    25.4460 
   91.7500     2.1660   -13.5020    75.1310     9.3500     7.3550    10.7930    25.4830 
   91.8750     2.1780   -13.2250    81.8660     9.0950     7.1580    10.2530    25.5260 
   92.0000     2.1870   -12.8260    83.5960     8.8510     6.9500     9.8620    25.5600 
   92.1250     2.1910   -12.4570    78.8080     8.6610     6.7680     9.6220    25.5560 
   92.2500     2.1920   -12.1250    75.6860     8.5360     6.6330     9.4970    25.4750 
   92.3750     2.1900   -11.9130    77.6140     8.4720     6.5480     9.4190    25.3590 
   92.5000     2.1890   -11.8680    81.4380     8.4580     6.5100     9.2840    25.2840 
   92.6250     2.1860   -11.8110    81.8450     8.4870     6.5140     9.2130    25.2410 
