~V
VERS. 2.00: Ver 2.00
~W
STRT.M 52.0000:
STOP.M 239.0000:
STEP.M 0.1250:
NULL. -999.2500:
UWI. F11118:
~C
DEPT.M :
DEN.GM/CC :
GR.API :
RML.OHMM :
RI. :
RXO.OHMM :
CALI.CM :
SP.MV :
~A
# ...
  209.5000     2.2820    89.7450    11.0150     9.4140     7.7350    24.4250   -17.0580 
  209.6250     2.2780    89.5580    11.1670     9.5450     7.4250    24.4370   -16.7920 
  209.7500     2.2670    85.7030    10.9190     9.3320     7.1120    24.4560   -16.4930 
  209.8750     2.2500    81.5290    10.3180     8.8180     6.6830    24.4990   -16.1390 
  210.0000     2.2300    77.7850     9.4940     8.1150     6.1230    24.4960   -15.7450 
  210.1250     2.2190    74.4890     8.6170     7.3650     5.2510    24.3490   -15.2830 
  210.2500     2.2220    73.9690     7.8530     6.7120     4.6870    23.9870   -14.8160 
  210.3750     2.2410    75.2010     7.3020     6.2410     4.5670    23.7240   -14.3540 
  210.5000     2.2680    74.5790     7.0200     6.0000     4.8510    23.5930   -13.8820 
  210.6250     2.2940    71.1550     7.0530     6.0280     5.5380    23.5660   -13.4560 
  210.7500     2.3110    69.1830     7.2930     6.2340     6.4830    23.7450   -13.1270 
  210.8750     2.3180    71.3790     7.6470     6.5360     7.2530    24.0250   -12.9000 
  211.0000     2.3180    74.9540     8.0070     6.8440     7.5080    24.1090   -12.7820 
  211.1250     2.3140    74.7880     8.2640     7.0630     7.2000    24.1830   -12.7910 
  211.2500     2.3110    72.0630     8.4010     7.1800     7.2930    24.3120   -12.8540 
  211.3750     2.3120    71.1670     8.4450     7.2180     7.4440    24.3410   -13.0010 
  211.5000     2.3150    74.8150     8.4450     7.2180     7.4920    24.3480   -13.2630 
  211.6250     2.3200    78.9500     8.4540     7.2260     7.4490    24.3600   -13.6160 
  211.7500     2.3230    76.9500     8.4970     7.2620     7.6330    24.3600   -14.0040 
  211.8750     2.3260    72.6640     8.5660     7.3210     8.0520    24.3530   -14.4230 
  212.0000     2.3280    73.8420     8.6370     7.3820     8.6100    24.3790   -14.8240 
  212.1250     2.3280    80.3630     8.6680     7.4090     8.6780    24.4530   -15.1640 
  212.2500     2.3250    83.9310     8.6560     7.3980     8.1460    24.5110   -15.4610 
  212.3750     2.3160    83.9140     8.6220     7.3690     7.2680    24.5170   -15.6990 
  212.5000     2.3020    83.5150     8.5880     7.3400     6.3720    24.4970   -15.8360 
  212.6250     2.2850    83.4410     8.5850     7.3380     6.0090    24.3160   -15.8510 
  212.7500     2.2730    82.2250     8.5960     7.3470     6.0880    23.8570   -15.7890 
  212.8750     2.2660    81.4560     8.5920     7.3440     6.4840    23.2190   -15.6730 
  213.0000     2.2640    81.8480     8.5600     7.3160     6.9010    22.9300   -15.5660 
  213.1250     2.2610    82.6240     8.5000     7.2650     6.8600    23.1630   -15.4680 
  213.2500     2.2560    83.0220     8.4280     7.2040     7.2290    23.5620   -15.3760 
  213.3750     2.2450    82.1390     8.3380     7.1270     7.8790    24.0500   -15.2660 
  213.5000     2.2290    79.9870     8.1950     7.0040     8.9070    24.2400   -15.1680 
  213.6250     2.2130    78.4150     7.9410     6.7870     9.4190    23.9530   -15.1230 
  213.7500     2.2030    78.4590     7.5850     6.4830     8.0690    24.1460   -15.1430 
  213.8750     2.2070    79.2030     7.1830     6.1390     6.4160    24.4850   -15.2310 
  214.0000     2.2290    82.0910     6.8260     5.8350     5.5510    24.4910   -15.3500 
  214.1250     2.2650    88.7800     6.6300     5.6670     5.5900    24.4850   -15.5110 
  214.2500     2.3010    95.0820     6.6220     5.6600     6.1240    24.9030   -15.6850 
  214.3750     2.3250    96.9260     6.7950     5.8080     6.7400    25.0710   -15.8490 
  214.5000     2.3350    95.0160     7.0900     6.0600     7.3400    25.1310   -15.9830 
  214.6250     2.3360    93.9350     7.4070     6.3310     8.0830    25.2020   -16.0560 
  214.7500     2.3360    95.4700     7.6630     6.5490     8.6570    25.3780   -16.0410 
  214.8750     2.3380    98.4980     7.8330     6.6950     8.3640    25.4610   -15.9470 
  215.0000     2.3420   100.7180     7.9380     6.7840     7.9300    25.4670   -15.7990 
  215.1250     2.3480   100.3080     8.0170     6.8520     7.7860    25.4180   -15.6150 
  215.2500     2.3570    98.4500     8.0900     6.9140     7.9390    25.4510   -15.4500 
  215.3750     2.3660    96.4960     8.1540     6.9690     8.0900    25.4750   -15.3170 
  215.5000     2.3740    96.6560     8.1970     7.0060     8.1750    25.4790   -15.2360 
  215.6250     2.3780    99.4330     8.2030     7.0110     8.1550    25.4740   -15.2240 
  215.7500     2.3770   102.0330     8.1780     6.9900     8.1540    25.4710   -15.2570 
  215.8750     2.3730   104.0190     8.1300     6.9490     8.1390    25.4650   -15.2760 
  216.0000     2.3670   106.3840     8.0780     6.9040     8.0950    25.4150   -15.2710 
  216.1250     2.3630   106.0190     8.0650     6.8930     7.9990    25.2010   -15.2390 
  216.2500     2.3640   103.3800     8.1320     6.9510     7.9490    25.1410   -15.1460 
  216.3750     2.3690    99.8400     8.2860     7.0820     7.9720    25.1360   -14.9840 
  216.5000     2.3740    97.4960     8.4750     7.2440     8.1550    25.1730   -14.7330 
  216.6250     2.3740    99.6940     8.5740     7.3290     8.2100    25.2060   -14.3740 
  216.7500     2.3700   105.1420     8.4990     7.2640     8.0110    25.1520   -13.9570 
  216.8750     2.3630   108.4920     8.2250     7.0300     7.6350    24.9940   -13.5450 
  217.0000     2.3550   105.4810     7.7970     6.6640     7.3190    24.5640   -13.1510 
  217.1250     2.3460   100.6550     7.3100     6.2480     6.5970    23.7900   -12.7780 
  217.2500     2.3360    99.3110     6.8370     5.8440     6.1720    23.3850   -12.4420 
  217.3750     2.3250    98.7280     6.3930     5.4640     5.8960    23.2560   -12.1790 
  217.5000     2.3110    95.6860     5.9970     5.1260     5.6300    22.9320   -11.9960 
  217.6250     2.2970    92.9900     5.7010     4.8730     5.6580    22.5870   -11.9000 
  217.7500     2.2860    94.2040     5.5310     4.7280     5.8410    22.4460   -11.8640 
  217.8750     2.2810    95.7030     5.4960     4.6980     5.8380    22.4050   -11.8610 
  218.0000     2.2840    93.2400     5.5830     4.7720     6.0400    22.9890   -11.8600 
  218.1250     2.2890    89.6550     5.7900     4.9490     7.1180    23.9410   -11.8920 
  218.2500     2.2920    89.0950     6.0780     5.1950     9.1930    24.3240   -11.9360 
  218.3750     2.2910    87.4410     6.4160     5.4840     9.7500    24.4220   -11.9750 
  218.5000     2.2860    83.5000     6.7680     5.7840     8.4450    24.4360   -12.0300 
  218.6250     2.2820    80.8340     7.0610     6.0350     7.2220    24.4540   -12.0860 
  218.7500     2.2820    79.3860     7.2680     6.2120     7.1400    24.4970   -12.1270 
  218.8750     2.2880    75.2570     7.3820     6.3090     7.0730    24.5070   -12.1540 
  219.0000     2.3000    68.7550     7.4110     6.3350     6.6820    24.4520   -12.1810 
  219.1250     2.3210    65.1260     7.3720     6.3010     6.5080    24.4660   -12.1780 
  219.2500     2.3480    64.9530     7.3040     6.2430     6.5890    24.5150   -12.1720 
  219.3750     2.3730    64.5100     7.2550     6.2010     6.7200    24.5320   -12.1700 
  219.5000     2.3920    62.3660     7.2780     6.2210     6.8920    24.5970   -12.1500 
  219.6250     2.3990    63.7310     7.4100     6.3330     7.2680    24.6180   -12.1370 
  219.7500     2.3950    69.8080     7.6050     6.5000     7.5890    24.6640   -12.1520 
  219.8750     2.3810    75.5680     7.8250     6.6880     7.7240    24.8040   -12.2130 
  220.0000     2.3610    75.6640     8.0300     6.8630     7.6660    24.9040   -12.2130 
  220.1250     2.3400    70.2070     8.1830     6.9940     7.5270    24.9850   -12.1560 
  220.2500     2.3220    64.6960     8.2780     7.0750     7.5170    25.0950   -12.0810 
  220.3750     2.3080    61.3420     8.3180     7.1100     7.6310    25.0780   -12.0250 
  220.5000     2.2980    60.9200     8.3030     7.0960     7.7910    25.1140   -12.0020 
  220.6250     2.2890    64.5580     8.1950     7.0040     7.7190    25.1040   -11.9730 
