~V
VERS. 2.00: Ver 2.00
~W
STRT.M 47.0000:
STOP.M 248.0000:
STEP.M 0.1250:
NULL. -999.2500:
UWI. F11134:
~C
DEPT.M :
GR.API :
RML.OHMM :
RI. :
RXO.OHMM :
CALI.CM :
SP.MV :
DEN.GM/CC :
~A
# ...
   58.2500    73.1820     5.1650     5.9220     6.7000    24.3650   -17.0420     2.2660 
   58.3750    66.4310     5.6500     6.4550     7.9160    24.3240   -18.3060     2.2780 
   58.5000    63.2230     6.1630     7.0180     9.7120    24.3270   -19.7080     2.2990 
   58.6250    63.2250     6.6490     7.5430    10.6860    24.3270   -21.1500     2.3180 
   58.7500    63.4540     7.0540     7.9600     9.9060    24.2620   -22.5910     2.3280 
   58.8750    61.7250     7.3130     8.1940     8.7740    24.1240   -23.9700     2.3290 
   59.0000    58.5010     7.4070     8.2260     8.2800    24.0030   -25.2380     2.3100 
   59.1250    56.3440     7.3800     8.1020     8.2390    23.9690   -26.3750     2.2610 
   59.2500    56.4720     7.2960     7.8880     8.3830    23.9920   -27.3730     2.2010 
   59.3750    56.0760     7.2160     7.6610     8.4510    24.0230   -28.2100     2.1680 
   59.5000    54.1800     7.1720     7.4720     8.3810    24.0520   -28.8950     2.1710 
   59.6250    52.9900     7.1760     7.3490     8.3020    24.0680   -29.4660     2.1860 
   59.7500    53.3520     7.2240     7.2940     8.2850    24.0610   -29.9380     2.1900 
   59.8750    54.1200     7.3080     7.2970     8.3060    24.0360   -30.3340     2.1810 
   60.0000    54.9620     7.4140     7.3350     8.4610    24.0140   -30.6570     2.1720 
   60.1250    56.2090     7.5190     7.3860     8.7020    24.0060   -30.9030     2.1740 
   60.2500    56.0550     7.5940     7.4260     8.9170    24.0050   -31.0440     2.1850 
   60.3750    55.0540     7.6090     7.4270     9.0690    24.0050   -31.0520     2.1980 
   60.5000    56.4400     7.5650     7.3820     9.1040    24.0050   -30.9110     2.2100 
   60.6250    59.6090     7.5070     7.3210     8.9430    24.0050   -30.6160     2.2180 
   60.7500    61.2190     7.5040     7.2980     8.6410    24.0050   -30.1670     2.2120 
   60.8750    60.2070     7.6310     7.3790     8.3670    24.0050   -29.5300     2.1910 
   61.0000    57.9380     7.8750     7.5600     8.3450    24.0050   -28.6980     2.1680 
   61.1250    55.2520     8.1420     7.7670     8.6130    24.0110   -27.7070     2.1610 
   61.2500    53.8820     8.3090     7.9030     8.8760    24.0380   -26.5990     2.1760 
   61.3750    56.9510     8.2570     7.8660     8.7390    24.1160   -25.4000     2.2160 
   61.5000    63.6860     7.9980     7.6510     7.9870    24.2120   -24.1800     2.2690 
   61.6250    70.2390     7.6520     7.3390     6.9320    24.2410   -22.9980     2.3130 
   61.7500    73.9880     7.3380     7.0190     6.4450    24.1710   -21.8520     2.3380 
   61.8750    75.0630     7.1300     6.7580     6.9330    24.1030   -20.7390     2.3420 
   62.0000    75.7850     7.0200     6.5650     7.2290    24.1590   -19.6780     2.3350 
   62.1250    78.2860     6.9630     6.4220     6.7510    24.3690   -18.6860     2.3220 
   62.2500    82.1670     6.9280     6.3090     6.0920    24.6560   -17.8000     2.3080 
   62.3750    85.5230     6.9080     6.2220     5.9010    24.8990   -17.0930     2.2990 
   62.5000    87.2850     6.9090     6.1670     6.1470    25.0110   -16.5470     2.2950 
   62.6250    86.0090     6.9310     6.1430     6.6220    25.0080   -16.1200     2.2980 
   62.7500    81.7810     6.9530     6.1380     7.2120    24.9390   -15.8110     2.3040 
   62.8750    79.0900     6.9860     6.1520     6.8300    24.8370   -15.6810     2.3040 
   63.0000    81.3400     7.0940     6.2250     6.1760    24.7350   -15.7590     2.2950 
   63.1250    85.5080     7.3580     6.4180     6.1220    24.6430   -16.0370     2.2850 
   63.2500    85.9440     7.8140     6.7670     6.6500    24.5520   -16.4780     2.2860 
   63.3750    82.3400     8.4090     7.2530     7.1330    24.4550   -17.0090     2.3020 
   63.5000    77.9540     8.9640     7.7470     7.6220    24.3560   -17.5800     2.3310 
   63.6250    73.5740     9.2580     8.0620     8.0560    24.2840   -18.1500     2.3550 
   63.7500    69.5020     9.1510     8.0480     8.0150    24.2640   -18.6670     2.3560 
   63.8750    69.9220     8.6610     7.6710     7.6670    24.3210   -19.0640     2.3300 
   64.0000    76.2090     8.0240     7.1030     7.0610    24.4730   -19.3540     2.3010 
   64.1250    83.0690     7.5020     6.5660     6.2520    24.7110   -19.6120     2.2870 
   64.2500    84.9860     7.2460     6.1970     5.6500    24.9280   -19.9090     2.2820 
   64.3750    82.2110     7.3080     6.0650     5.6630    24.9060   -20.3210     2.2700 
   64.5000    78.6040     7.6070     6.1300     6.2890    24.6670   -20.8740     2.2460 
   64.6250    76.4630     8.0230     6.3180     6.9550    24.4480   -21.5880     2.2120 
   64.7500    76.0680     8.4940     6.5850     7.1050    24.3720   -22.5260     2.1780 
   64.8750    75.3650     9.0320     6.9340     6.8950    24.3590   -23.7480     2.1520 
   65.0000    72.3050     9.6760     7.3800     7.0010    24.3140   -25.1650     2.1330 
   65.1250    66.7410    10.4070     7.9110     7.5560    24.2280   -26.5820     2.1190 
   65.2500    60.3330    11.0990     8.4510     8.0910    24.1760   -27.8090     2.1090 
   65.3750    55.1820    11.4700     8.8250     8.3770    24.2180   -28.6880     2.1270 
   65.5000    52.3420    11.3550     8.8910     8.3970    24.2950   -29.2050     2.1860 
   65.6250    52.5490    10.8390     8.6520     8.1530    24.3460   -29.4360     2.2630 
   65.7500    55.2220    10.1940     8.2420     7.6500    24.3870   -29.4450     2.3090 
   65.8750    58.5460     9.7610     7.8760     7.1750    24.4060   -29.2900     2.2940 
   66.0000    60.5230     9.7030     7.7000     7.2220    24.3470   -29.0540     2.2470 
   66.1250    60.0100     9.9910     7.7480     7.8810    24.2250   -28.8440     2.2030 
   66.2500    58.1050    10.5060     7.9780     8.6580    24.0990   -28.7950     2.1620 
   66.3750    57.5060    11.0570     8.2940     9.1390    24.0050   -29.0560     2.1130 
   66.5000    58.8750    11.4660     8.5800     9.3790    23.9790   -29.6670     2.0600 
   66.6250    59.7410    11.6470     8.7520     9.5050    24.0610   -30.5490     2.0190 
   66.7500    58.0890    11.6180     8.7960     9.3480    24.2820   -31.5770     1.9990 
   66.8750    55.2510    11.4580     8.7380     8.8680    24.5490   -32.6110     2.0050 
   67.0000    53.0210    11.2580     8.6270     8.5710    24.7170   -33.5850     2.0280 
   67.1250    51.0830    11.0710     8.4980     8.6360    24.8130   -34.5000     2.0550 
   67.2500    48.8560    10.9100     8.3660     8.8050    24.9870   -35.3300     2.0770 
   67.3750    47.3060    10.7720     8.2360     8.8730    25.2710   -35.9920     2.1040 
   67.5000    46.3050    10.6450     8.1120     8.8260    25.5210   -36.4190     2.1470 
   67.6250    44.6950    10.5280     8.0020     8.7790    25.6400   -36.5950     2.1990 
   67.7500    43.2740    10.4390     7.9210     8.8630    25.6760   -36.5380     2.2440 
   67.8750    44.6090    10.4040     7.8890     8.9600    25.7000   -36.2880     2.2710 
   68.0000    47.6460    10.4380     7.9120     8.8630    25.6680   -35.8690     2.2840 
   68.1250    49.3600    10.5430     7.9840     8.8150    25.5400   -35.2460     2.2960 
   68.2500    48.7800    10.7090     8.1010     9.2040    25.4090   -34.4250     2.3050 
   68.3750    47.4170    10.9000     8.2420     9.6810    25.3220   -33.4640     2.3080 
   68.5000    47.7070    11.0520     8.3670     9.4660    25.1600   -32.4290     2.3160 
   68.6250    51.3360    11.0790     8.4190     8.8990    24.8240   -31.3640     2.3370 
   68.7500    57.6020    10.9090     8.3470     8.6520    24.4600   -30.2880     2.3520 
   68.8750    63.8170    10.5250     8.1250     8.5320    24.2600   -29.2250     2.3390 
   69.0000    69.3720    10.0490     7.8160     8.0370    24.2240   -28.2250     2.3120 
   69.1250    74.5360     9.6560     7.5280     7.3290    24.2770   -27.3590     2.2870 
   69.2500    77.2060     9.4700     7.3460     6.7860    24.3470   -26.6560     2.2700 
   69.3750    76.3170     9.5500     7.3220     6.6350    24.3550   -26.1150     2.2570 
