~V
VERS. 2.00: Ver 2.00
~W
STRT.M 45.0000:
STOP.M 270.0000:
STEP.M 0.1250:
NULL. -999.2500:
UWI. F11186:
~C
DEPT.M :
SP.MV :
GR.API :
RI. :
RML.OHMM :
RXO.OHMM :
DEN.GM/CC :
~A
# ...
   83.6250   -34.8390    88.7730     4.3540     4.9250     5.0200     2.1670 
   83.7500   -35.5100    85.8890     4.6680     5.2680     5.5220     2.1140 
   83.8750   -36.2850    78.2600     5.0660     5.7190     6.4390     2.0650 
   84.0000   -37.0680    68.5580     5.4900     6.1830     6.9580     2.0470 
   84.1250   -37.7470    62.0690     5.8280     6.5200     7.0610     2.0520 
   84.2500   -38.2450    60.7390     6.0240     6.6550     7.0800     2.0550 
   84.3750   -38.5010    60.6510     6.0490     6.5760     7.0430     2.0470 
   84.5000   -38.5260    59.5410     5.9720     6.4400     7.2480     2.0390 
   84.6250   -38.3190    55.9530     5.8860     6.3430     7.4610     2.0350 
   84.7500   -37.9090    51.8670     5.8230     6.3300     7.3620     2.0370 
   84.8750   -37.2750    50.1580     5.8120     6.4200     7.2270     2.0420 
   85.0000   -36.4260    51.6350     5.9150     6.6460     7.2360     2.0600 
   85.1250   -35.3390    55.0100     6.0150     6.8580     7.3240     2.1170 
   85.2500   -34.0570    57.0640     5.9250     6.8040     7.1080     2.2150 
   85.3750   -32.6370    60.6970     5.5420     6.3590     8.5560     2.2970 
   85.5000   -31.1930    69.0690     4.9610     5.6410    10.8930     2.3060 
   85.6250   -29.8570    80.6890     4.3640     4.8370     8.8610     2.2600 
   85.7500   -28.7250    92.3220     3.9300     4.2680     4.8460     2.2210 
   85.8750   -27.8650    99.7290     3.7370     4.0250     3.7000     2.2100 
   86.0000   -27.2500   101.9810     3.7220     4.0270     4.0000     2.2020 
   86.1250   -26.8530   100.7770     3.8530     4.2170     4.1430     2.1910 
   86.2500   -26.6050    99.6610     4.0070     4.3840     4.1910     2.1890 
   86.3750   -26.4780    99.6480     4.0340     4.3730     4.0120     2.2010 
   86.5000   -26.4420    99.6330     3.9060     4.1680     3.7230     2.2200 
   86.6250   -26.5010   100.4780     3.6900     3.8970     3.5710     2.2370 
   86.7500   -26.6570   103.2880     3.5010     3.6910     3.5020     2.2430 
   86.8750   -26.9400   106.2450     3.4380     3.6450     3.5570     2.2510 
   87.0000   -27.3500   105.0090     3.5000     3.7560     3.8930     2.2600 
   87.1250   -27.8830   100.0720     3.5840     3.8810     4.2980     2.2370 
   87.2500   -28.4800    97.1660     3.6840     4.0250     4.8010     2.1930 
   87.3750   -29.0680    96.3250     3.8480     4.2530     5.3240     2.1750 
   87.5000   -29.5870    94.3840     4.0150     4.4690     5.6940     2.1940 
   87.6250   -30.0260    89.8550     4.2380     4.7570     7.3940     2.2090 
   87.7500   -30.4450    85.5990     4.5640     5.1740     9.9400     2.2160 
   87.8750   -30.9350    82.9310     4.9680     5.6630    10.4390     2.2490 
   88.0000   -31.5570    81.4530     5.3210     6.0820    13.0130     2.2680 
   88.1250   -32.3380    81.4160     5.5310     6.3030    16.0690     2.2120 
   88.2500   -33.2250    81.5010     5.5610     6.3130    11.8090     2.1170 
   88.3750   -34.1400    78.8980     5.4380     6.1390     7.1640     2.0590 
   88.5000   -34.9820    73.5090     5.3210     6.0310     6.8740     2.0540 
   88.6250   -35.6640    68.6540     5.1870     5.9230     7.0220     2.0640 
   88.7500   -36.1700    68.8620     5.0490     5.8100     6.7880     2.0660 
   88.8750   -36.5110    71.6860     5.0140     5.8070     6.5860     2.0640 
   89.0000   -36.7460    72.9820     5.0170     5.8200     6.7290     2.0650 
   89.1250   -36.9090    72.8430     5.0510     5.8760     6.8860     2.0640 
   89.2500   -37.0170    73.2540     5.1010     5.9640     6.9590     2.0570 
   89.3750   -37.0530    73.2000     5.1680     6.0530     6.9790     2.0510 
   89.5000   -37.0020    71.7270     5.2180     6.0920     6.9210     2.0540 
   89.6250   -36.8380    70.5750     5.2220     6.0650     6.8820     2.0620 
   89.7500   -36.5630    70.2780     5.1900     5.9930     6.8060     2.0660 
   89.8750   -36.1890    71.0280     5.1390     5.8860     6.6230     2.0640 
   90.0000   -35.7650    73.1650     5.0950     5.8250     6.5340     2.0620 
   90.1250   -35.3410    76.6760     5.0860     5.8180     6.5880     2.0590 
   90.2500   -34.9570    79.5040     5.1260     5.8500     6.6160     2.0510 
   90.3750   -34.6180    79.3650     5.1940     5.9450     6.6620     2.0420 
   90.5000   -34.2840    76.7370     5.2260     5.9910     6.8120     2.0490 
   90.6250   -33.8860    73.4300     5.1520     5.9270     6.9140     2.0820 
   90.7500   -33.3730    71.0060     4.9590     5.7310     6.6510     2.1220 
   90.8750   -32.7370    71.6400     4.6710     5.4090     6.0110     2.1440 
   91.0000   -32.0620    75.8470     4.3440     5.0200     5.4590     2.1500 
   91.1250   -31.4940    81.8030     4.0370     4.6450     5.1720     2.1560 
   91.2500   -31.1750    87.5720     3.8040     4.3590     4.8920     2.1680 
   91.3750   -31.2380    90.9350     3.6890     4.2320     4.6250     2.1690 
   91.5000   -31.6920    91.1350     3.7150     4.2910     4.5460     2.1530 
   91.6250   -32.5180    88.1090     3.9040     4.5380     4.8090     2.1290 
   91.7500   -33.5810    84.0020     4.2100     4.9200     5.4500     2.1100 
   91.8750   -34.7360    80.5820     4.5860     5.3700     6.1890     2.1020 
   92.0000   -35.8280    76.8400     4.9750     5.8150     6.6500     2.0980 
   92.1250   -36.7290    74.8310     5.2860     6.1540     6.7840     2.0940 
   92.2500   -37.3980    73.8060     5.4870     6.3360     6.9810     2.0870 
   92.3750   -37.8100    70.1110     5.5780     6.3930     7.4270     2.0780 
   92.5000   -38.0110    63.9020     5.5810     6.3660     7.8520     2.0750 
   92.6250   -38.0200    59.7850     5.5300     6.2970     7.9010     2.0720 
   92.7500   -37.8740    60.8110     5.4620     6.2120     7.9450     2.0670 
   92.8750   -37.5680    63.0210     5.3950     6.1190     8.2600     2.0600 
   93.0000   -37.1060    62.3230     5.4110     6.1930     8.0290     2.0740 
   93.1250   -36.4570    59.7290     5.5280     6.4180     7.4400     2.1390 
   93.2500   -35.6270    58.5720     5.5460     6.5090     8.3080     2.2410 
   93.3750   -34.6270    60.7950     5.3830     6.3570    18.1030     2.3050 
   93.5000   -33.5410    64.3310     5.0520     5.9680    25.2770     2.2920 
   93.6250   -32.4840    67.4860     4.6370     5.4480    14.4930     2.2560 
   93.7500   -31.5780    71.5080     4.2630     4.9750     5.3250     2.2740 
   93.8750   -30.9250    75.8730     3.9980     4.6860     5.4470     2.3120 
   94.0000   -30.5280    79.2760     3.8160     4.4830     5.3260     2.2820 
   94.1250   -30.3640    81.0390     3.7450     4.4330     4.8590     2.1950 
   94.2500   -30.3510    83.2740     3.7320     4.3770     4.6560     2.1420 
   94.3750   -30.4440    86.5120     3.7030     4.2830     4.8220     2.1450 
   94.5000   -30.6020    88.0310     3.7420     4.3040     4.9490     2.1480 
   94.6250   -30.7980    86.2430     3.9000     4.4970     5.0530     2.1280 
   94.7500   -30.9650    82.5350     4.1220     4.7710     5.3810     2.1050 
   94.8750   -30.9910    80.5330     4.2360     4.8820     5.8270     2.1080 
   95.0000   -30.7840    81.5200     4.1600     4.7470     5.6690     2.1440 
   95.1250   -30.2770    84.2270     3.8630     4.3430     4.7040     2.2000 
   95.2500   -29.5490    87.0910     3.4660     3.8540     3.9020     2.2430 
   95.3750   -28.7340    90.1390     3.0960     3.4280     3.7210     2.2540 
   95.5000   -28.0010    93.2830     2.8470     3.1720     3.6530     2.2460 
   95.6250   -27.4890    95.7200     2.7530     3.1270     3.6520     2.2310 
   95.7500   -27.2220    97.5090     2.7960     3.2160     3.7820     2.2200 
   95.8750   -27.1840    98.9890     2.8950     3.3490     3.8440     2.2250 
   96.0000   -27.2830   100.8000     3.0010     3.4680     3.8410     2.2390 
   96.1250   -27.4430   101.7590     3.0940     3.5410     4.0970     2.2400 
   96.2500   -27.6020   100.4750     3.1780     3.6090     4.5140     2.2210 
   96.3750   -27.7340    98.9740     3.2770     3.7200     4.5720     2.2090 
