~V
VERS. 2.00: Ver 2.00
~W
STRT.M 53.0000:
STOP.M 202.0000:
STEP.M 0.1250:
NULL. -999.2500:
UWI. F11113:
~C
DEPT.M :
DEN.GM/CC :
SP.MV :
GR.API :
RML.OHMM :
RI. :
RXO.OHMM :
CALI.CM :
~A
# ...
  188.0000     2.0490    -9.9720    68.3500     6.5860     5.5850     5.6310    26.3450 
  188.1250     2.0560    -9.9730    65.5970     6.4730     5.4660     5.5130    26.8990 
  188.2500     2.0910   -10.0100    66.6040     6.4500     5.4330     5.3380    26.6160 
  188.3750     2.1250   -10.0480    69.0950     6.5370     5.4850     5.3210    26.0330 
  188.5000     2.1520   -10.1160    72.0920     6.7210     5.6070     5.6280    25.8850 
  188.6250     2.1830   -10.1910    75.2340     6.9600     5.7790     6.1080    26.1660 
  188.7500     2.2100   -10.2150    78.5340     7.1770     5.9610     6.1910    25.9600 
  188.8750     2.2160   -10.2250    83.6970     7.3500     6.1350     6.2390    25.7970 
  189.0000     2.2130   -10.2230    89.8820     7.5000     6.3030     6.7090    26.0060 
  189.1250     2.2220   -10.2330    90.7300     7.6800     6.4920     7.0030    26.2540 
  189.2500     2.2440   -10.2330    85.5390     7.9000     6.7060     7.0770    26.1410 
  189.3750     2.2750   -10.2340    80.2500     8.1180     6.9180     7.0490    25.8790 
  189.5000     2.3110   -10.2560    79.0160     8.2670     7.0790     7.6320    25.5900 
  189.6250     2.3420   -10.2680    80.1330     8.2710     7.1280     8.6350    25.2920 
  189.7500     2.3620   -10.3310    81.0650     8.1670     7.0830     9.1110    25.1150 
  189.8750     2.3710   -10.4130    81.6010     8.0290     6.9890     8.7760    25.0620 
  190.0000     2.3700   -10.5160    81.1550     7.9420     6.9080     8.4720    25.0920 
  190.1250     2.3520   -10.6260    79.5160     7.9710     6.9020     8.4190    25.1580 
  190.2500     2.3150   -10.7650    77.6810     8.0690     6.9670     8.6620    25.1810 
  190.3750     2.2540   -10.9210    76.6360     8.1520     7.0690     9.0400    25.1850 
  190.5000     2.1650   -11.0500    76.6030     8.1320     7.1460     9.3260    25.2700 
  190.6250     2.0500   -11.2030    77.9310     7.9340     7.1110     9.0960    25.5910 
  190.7500     1.9390   -11.3260    79.8460     7.6150     6.9440     9.3260    26.1340 
  190.8750     1.8660   -11.3710    82.3730     7.2470     6.6660     9.2160    27.1060 
  191.0000     1.8480   -11.3950    84.5530     6.8950     6.3310     8.5490    28.3530 
  191.1250     1.8790   -11.3480    83.8610     6.5990     6.0060     7.6980    29.1070 
  191.2500     1.9150   -11.2680    81.0390     6.3480     5.7320     6.9790    29.1210 
  191.3750     1.9460   -11.1700    79.7450     6.1390     5.5260     6.0930    29.1360 
  191.5000     1.9920   -11.0500    79.7450     5.9850     5.3890     5.7830    29.4800 
  191.6250     2.0590   -10.9170    79.7450     5.9130     5.3240     5.5910    29.4060 
  191.7500     2.0960   -10.7890    79.7450     5.9160     5.3070     5.6310    28.7750 
  191.8750     2.0820   -10.7260    79.7450     5.9800     5.3240     5.4850    28.5580 
  192.0000     2.0620   -10.6750    79.7450     6.0770     5.3560     5.2120    28.9420 
  192.1250     2.0920   -10.6590    79.7450     6.1660     5.3830     5.1840    28.9300 
  192.2500     2.1560   -10.6670    79.7450     6.2140     5.3910     5.3580    28.0680 
  192.3750     2.2220   -10.6980    79.7450     6.2110     5.3760     5.4210    27.0560 
  192.5000     2.2720   -10.7570    79.7450     6.1690     5.3450     5.4650    26.1140 
  192.6250     2.2920   -10.8050    79.7450     6.1360     5.3290     5.4350    25.6370 
  192.7500     2.2890   -10.8600    79.7450     6.1700     5.3630     5.3720    25.4350 
  192.8750     2.2790   -10.9180    79.7450     6.2940     5.4660     5.4580    25.6420 
  193.0000     2.2750   -10.9980    79.7450     6.4980     5.6330     5.8110    26.1080 
  193.1250     2.2760   -11.0680    79.7450     6.7430     5.8240     6.1720    26.0780 
  193.2500     2.2690   -11.1010    79.7450     6.9410     5.9680     6.3900    25.6230 
  193.3750     2.2580   -11.1110    79.7450     7.0010     6.0070     6.7390    25.3090 
  193.5000     2.2510   -11.1110    79.7450     6.8730     5.9130     7.1590    25.4860 
  193.6250     2.2550   -11.1170    79.7450     6.5800     5.7020     7.3030    25.9850 
  193.7500     2.2630   -11.1070    79.7450     6.2690     5.4580     6.8740    26.3610 
  193.8750     2.2700   -11.0790    79.7450     6.0470     5.2410     5.9740    26.7790 
  194.0000     2.2770   -11.0110    79.7450     5.9650     5.0950     5.7950    27.1890 
  194.1250     2.2900   -10.9000    79.7450     6.0300     5.0550     6.1630    27.0880 
  194.2500     2.3060   -10.7590    79.7450     6.1760     5.1070     6.3700    26.8740 
  194.3750     2.3160   -10.6040    79.7450     6.3960     5.2350     6.0740    26.5680 
  194.5000     2.3040   -10.4890    79.7450     6.7040     5.4160     6.6160    26.2910 
  194.6250     2.2570   -10.4120    79.7450     7.0800     5.6080     7.9280    25.8700 
  194.7500     2.2000   -10.3230    79.7450     7.4340     5.7680     8.4900    25.7880 
  194.8750     2.1610   -10.2330    79.7450     7.7150     5.8740     7.8470    26.1660 
  195.0000     2.1610   -10.1930    79.7450     7.9080     5.9300     7.5570    26.8940 
  195.1250     2.1990   -10.2430    79.7450     8.0210     5.9490     7.5250    27.3730 
  195.2500     2.2420   -10.3530    79.7450     8.0900     5.9520     7.2780    27.1250 
  195.3750     2.2630   -10.4960    79.7450     8.1280     5.9490     7.1610    26.4180 
  195.5000     2.2570   -10.6110    79.7450     8.1360     5.9420     6.2980    25.7940 
  195.6250     2.2330   -10.7190    79.7450     8.1100     5.9320     5.9050    25.5320 
  195.7500     2.2080   -10.8600    79.7450     8.0730     5.9230     5.5660    25.3420 
  195.8750     2.1960   -11.0010    79.7450     8.0480     5.9180     5.0070    25.5710 
  196.0000     2.1990   -11.1270    79.7450     8.0480     5.9180     4.5850    26.0820 
  196.1250     2.1960   -11.2440    79.7450     8.0630     5.9220     5.3380    26.3520 
  196.2500     2.1640   -11.3570    79.7450     8.0770     5.9270     7.8550    26.6660 
  196.3750     2.1230   -11.4440    79.7450     8.0830     5.9300    11.2100    26.8470 
  196.5000     2.1070   -11.5390    79.7450     8.0830     5.9290    10.1760    26.4200 
  196.6250     2.1200   -11.6220    79.7450     8.0820     5.9230     9.1310    25.5050 
  196.7500     2.1400   -11.6750    79.7450     8.0840     5.9150     7.1820    25.0820 
  196.8750     2.1660   -11.7550    79.7450     8.0870     5.9080     6.2790    24.8620 
  197.0000     2.2070   -11.8540    79.7450     8.0850     5.9030     6.0710    24.8010 
  197.1250     2.2420   -11.9290    79.7450     8.0810     5.9020     5.8560    24.8850 
  197.2500     2.2460   -11.9650    79.7450     8.0800     5.9020     5.5290    25.5090 
  197.3750     2.2260   -12.0150    79.7450     8.0800     5.9020     5.1700    26.7830 
  197.5000     2.2170   -12.0460    79.7450     8.0800     5.9020     4.9620    28.2670 
  197.6250     2.2510   -12.0360    79.7450     8.0800     5.9020     4.9190    28.3160 
  197.7500     2.3120   -11.9990    79.7450     8.0800     5.9020     5.1550    26.9510 
  197.8750     2.3620   -11.9340    79.7450     8.0800     5.9020     5.7100    25.5060 
  198.0000     2.3780   -11.8600    79.7450     8.0800     5.9020     6.1840    24.8380 
  198.1250     2.3740   -11.7950    79.7450     8.0800     5.9020     6.6460    24.7200 
  198.2500     2.3730   -11.7450    79.7450     8.0800     5.9020     6.9960    24.8090 
  198.3750     2.3760   -11.6910    79.7450     8.0800     5.9020     6.7320    25.1020 
  198.5000     2.3850   -11.6310    79.7450     8.0800     5.9020     6.3530    25.3740 
  198.6250     2.3950   -11.6970    79.7450     8.0800     5.9020     6.6750    25.2570 
  198.7500     2.3890   -11.8430    79.7450     8.0800     5.9020     7.9710    25.0710 
  198.8750     2.3550   -11.9750    79.7450     8.0800     5.9020     9.3340    24.9410 
  199.0000     2.2960   -12.0610    79.7450     8.0800     5.9020     9.8400    24.6880 
  199.1250     2.2120   -12.0830    79.7450     8.0800     5.9020     9.6190    24.3620 
