~V
VERS. 2.00: Ver 2.00
~W
STRT.M 52.0000:
STOP.M 216.0000:
STEP.M 0.1250:
NULL. -999.2500:
UWI. F11106:
~C
DEPT.M :
DEN.GM/CC :
GR.API :
RML.OHMM :
RI. :
RXO.OHMM :
CALI.CM :
SP.MV :
~A
# ...
   97.0000     2.2030    53.9600     7.1170     5.8480     5.9030    23.3540   -22.3790 
   97.1250     2.2110    54.0630     7.1260     5.8760     6.0610    23.6850   -22.1430 
   97.2500     2.2170    57.2260     7.1690     5.8910     6.1340    24.0220   -21.9170 
   97.3750     2.2180    60.1740     7.2480     5.8930     6.1340    24.1810   -21.7690 
   97.5000     2.2140    61.9200     7.3540     5.8930     6.1360    24.2180   -21.6880 
   97.6250     2.2050    61.7860     7.5020     5.9150     6.1550    24.2370   -21.6600 
   97.7500     2.1940    60.0510     7.7160     5.9730     6.2620    24.3160   -21.6630 
   97.8750     2.1840    58.7250     7.9960     6.0790     6.3890    24.4320   -21.6930 
   98.0000     2.1750    59.5650     8.3130     6.2400     6.5500    24.4570   -21.7970 
   98.1250     2.1690    61.2440     8.6350     6.4730     6.6930    24.3690   -21.9790 
   98.2500     2.1660    60.6590     8.9520     6.7660     6.8780    24.1150   -22.1620 
   98.3750     2.1640    60.0020     9.2710     7.1070     7.2850    23.8120   -22.3080 
   98.5000     2.1630    60.1890     9.5800     7.4630     8.2760    23.6370   -22.4670 
   98.6250     2.1600    60.3660     9.8040     7.7540     9.6370    23.6320   -22.6690 
   98.7500     2.1550    59.1160     9.8770     7.9100     9.8200    23.6710   -22.8660 
   98.8750     2.1460    56.9010     9.7910     7.9060     8.6740    23.6680   -23.0260 
   99.0000     2.1360    55.1200     9.6040     7.7750     8.0480    23.6350   -23.1190 
   99.1250     2.1320    54.1790     9.3910     7.5980     8.2140    23.4800   -23.1860 
   99.2500     2.1360    55.2430     9.1990     7.4570     8.4070    23.4820   -23.2520 
   99.3750     2.1480    57.8920     9.0500     7.3750     8.3480    23.4560   -23.2870 
   99.5000     2.1660    59.8630     8.9510     7.3400     8.3060    23.4370   -23.2700 
   99.6250     2.1820    58.9510     8.9120     7.3330     8.5180    23.4000   -23.2130 
   99.7500     2.1930    56.2980     8.9160     7.3470     8.5890    23.2920   -23.1600 
   99.8750     2.1960    53.4270     8.9410     7.3900     8.4210    23.2840   -23.1150 
  100.0000     2.1940    51.7830     8.9630     7.4540     8.1650    23.5920   -23.0980 
  100.1250     2.1890    53.0700     8.9770     7.5190     7.9570    23.5700   -23.1330 
  100.2500     2.1860    55.3040     8.9800     7.5470     7.9040    23.4680   -23.2230 
  100.3750     2.1860    56.9520     8.9340     7.5050     7.9750    23.1720   -23.3760 
  100.5000     2.1880    58.2910     8.7960     7.3810     7.9330    22.7680   -23.5610 
  100.6250     2.1910    58.2100     8.5520     7.1820     7.2060    22.6670   -23.7540 
  100.7500     2.1910    55.6530     8.2960     6.9740     6.7230    22.7790   -23.9450 
  100.8750     2.1870    53.3360     8.1410     6.8270     6.4510    22.9450   -24.1490 
  101.0000     2.1810    54.8760     8.1900     6.8120     6.3820    23.1010   -24.3350 
  101.1250     2.1730    58.2330     8.5320     7.0090     6.7730    23.1790   -24.4460 
  101.2500     2.1650    59.0660     9.0720     7.3780     8.2610    23.1930   -24.4650 
  101.3750     2.1580    57.1460     9.6540     7.8410    12.5270    23.2000   -24.4350 
  101.5000     2.1530    54.3160    10.0660     8.2570    22.3000    23.2080   -24.4070 
  101.6250     2.1500    54.2520    10.0630     8.4220    23.2780    23.0790   -24.3410 
  101.7500     2.1470    57.5860     9.7120     8.3050    15.5600    22.5880   -24.2170 
  101.8750     2.1450    61.7810     9.1990     7.9870    10.1830    22.0840   -24.0570 
  102.0000     2.1430    63.9350     8.7560     7.6180     8.5400    21.8450   -23.8990 
  102.1250     2.1420    62.0990     8.5620     7.3400     8.0770    21.9400   -23.7050 
  102.2500     2.1420    59.2050     8.5560     7.1920     7.7090    22.2080   -23.5110 
  102.3750     2.1450    58.0430     8.6150     7.1540     7.5320    22.4560   -23.2800 
  102.5000     2.1490    59.6550     8.6060     7.1590     7.5510    22.5640   -22.9890 
  102.6250     2.1550    60.9960     8.4120     7.1130     7.5940    22.3790   -22.7110 
  102.7500     2.1610    59.4960     8.0650     6.9620     7.5600    22.2820   -22.4690 
  102.8750     2.1670    58.7620     7.6340     6.7010     7.3860    22.2950   -22.2230 
  103.0000     2.1740    59.9140     7.2120     6.3760     6.9810    22.4570   -21.9860 
  103.1250     2.1840    59.5720     6.9020     6.0830     6.4090    22.8240   -21.8400 
  103.2500     2.1940    57.7420     6.7440     5.9010     6.3550    23.2090   -21.7540 
  103.3750     2.2010    56.5850     6.7490     5.8670     7.1680    23.3170   -21.7550 
  103.5000     2.2020    55.8760     6.8840     5.9770     8.0620    23.2660   -21.8020 
  103.6250     2.1950    54.9830     7.0830     6.1910     8.5100    23.2150   -21.8570 
  103.7500     2.1860    57.3590     7.2620     6.4020     8.5670    23.2010   -21.9420 
  103.8750     2.1780    62.1100     7.3890     6.5300     8.3540    23.1950   -22.0500 
  104.0000     2.1720    64.4400     7.4650     6.5490     8.3320    23.1940   -22.1250 
  104.1250     2.1680    62.9900     7.5050     6.4830     8.3630    23.1930   -22.1270 
  104.2500     2.1620    64.0700     7.5160     6.3970     8.3040    23.1840   -22.0840 
  104.3750     2.1550    68.3610     7.4870     6.3180     8.0330    23.1890   -22.0280 
  104.5000     2.1480    70.9360     7.4200     6.2490     7.8270    23.1700   -22.0200 
  104.6250     2.1430    67.9010     7.3540     6.1790     7.4720    23.2100   -22.0330 
  104.7500     2.1400    64.0230     7.3380     6.1260     7.1260    23.0370   -22.0220 
  104.8750     2.1380    63.2640     7.3920     6.1310     6.7340    22.8840   -22.0480 
  105.0000     2.1360    65.7800     7.5090     6.2320     6.6260    22.7020   -22.1530 
  105.1250     2.1320    68.7370     7.6790     6.4520     6.9000    22.8530   -22.3000 
  105.2500     2.1270    67.6020     7.8770     6.7430     7.1440    23.4640   -22.4600 
  105.3750     2.1220    62.7520     8.0840     7.0410     7.2330    23.6010   -22.5470 
  105.5000     2.1190    57.6050     8.2660     7.2700     7.2970    23.8020   -22.5300 
  105.6250     2.1200    56.8580     8.3630     7.3490     7.3410    24.0980   -22.4440 
  105.7500     2.1220    59.3850     8.3780     7.3010     7.3560    24.3620   -22.2580 
  105.8750     2.1250    60.1670     8.3620     7.1830     7.3690    24.6380   -21.9290 
  106.0000     2.1280    57.4030     8.3860     7.0700     7.4480    24.8770   -21.4670 
  106.1250     2.1320    54.7220     8.5710     7.0730     7.6570    24.9200   -20.8880 
  106.2500     2.1440    54.8790     8.9920     7.2640     7.9580    25.0270   -20.2000 
  106.3750     2.1670    54.8360     9.7250     7.7030     8.4020    25.3550   -19.4150 
  106.5000     2.2050    50.6120    10.8180     8.4410     8.9720    25.7280   -18.5670 
  106.6250     2.2610    46.2590    12.2700     9.5370    10.3360    25.8030   -17.7010 
  106.7500     2.3270    46.1000    13.7930    10.8300    13.3150    25.4710   -16.9030 
  106.8750     2.3930    49.0310    15.0250    12.0640    17.2490    25.2270   -16.2050 
  107.0000     2.4490    52.2730    15.6200    12.9090    17.2410    25.1810   -15.5930 
  107.1250     2.4790    51.7560    15.4190    13.0860    13.5580    25.1800   -15.0980 
  107.2500     2.4880    49.5840    14.8640    12.8560    12.5400    25.1800   -14.7530 
  107.3750     2.4830    48.9330    14.2750    12.4850    13.0840    25.1800   -14.6420 
  107.5000     2.4730    50.6490    13.7720    12.1220    13.6950    25.1800   -14.7190 
  107.6250     2.4630    51.0160    13.2250    11.7080    13.6040    25.1740   -14.9310 
  107.7500     2.4520    49.5840    12.4470    11.1040    13.6540    25.1140   -15.2860 
  107.8750     2.4340    50.0110    11.4020    10.2630    13.1370    24.8480   -15.7830 
  108.0000     2.4080    53.7590    10.2210     9.2900    11.0800    24.0600   -16.4150 
  108.1250     2.3750    58.6540     9.1600     8.3880     9.2530    23.6980   -17.1790 
