~V
VERS. 2.00: Ver 2.00
~W
STRT.M 51.0000:
STOP.M 249.0000:
STEP.M 0.1250:
NULL. -999.2500:
UWI. F11143:
~C
DEPT.M :
GR.API :
RML.OHMM :
RI. :
RXO.OHMM :
CALI.CM :
SP.MV :
DEN.GM/CC :
~A
# ...
  208.5000    79.8100    17.8100    14.8880    18.5530    23.8470   -17.5730     2.3250 
  208.6250    73.6090    18.0140    15.0190    18.3600    23.8650   -17.6600     2.3170 
  208.7500    68.2950    18.5710    15.4740    18.4450    23.8760   -17.8170     2.3040 
  208.8750    66.8870    19.3750    16.1960    19.4530    23.8650   -17.9650     2.2900 
  209.0000    66.7920    20.2390    17.0600    20.9100    23.8510   -18.0610     2.2770 
  209.1250    66.3940    20.8750    17.8410    21.7070    23.8180   -18.1960     2.2670 
  209.2500    66.8200    21.1420    18.3470    21.9010    23.8330   -18.3290     2.2590 
  209.3750    67.7860    21.0420    18.4990    21.9270    23.9280   -18.4430     2.2560 
  209.5000    68.4870    20.6900    18.3410    21.8940    24.0540   -18.5420     2.2580 
  209.6250    70.0500    20.2500    17.9980    21.8220    24.1690   -18.6520     2.2640 
  209.7500    73.2780    19.8620    17.6530    21.7260    24.2530   -18.7280     2.2670 
  209.8750    78.2160    19.5840    17.3960    21.6420    24.3060   -18.7770     2.2670 
  210.0000    81.3050    19.4690    17.2850    21.5330    24.3540   -18.8710     2.2700 
  210.1250    78.6490    19.7100    17.4570    21.4170    24.3640   -18.9170     2.2730 
  210.2500    74.3890    20.4930    18.0470    21.9550    24.3010   -18.9900     2.2730 
  210.3750    72.7520    22.0210    19.2320    22.9570    24.2020   -19.0630     2.2700 
  210.5000    74.8340    24.3640    21.1420    24.2280    24.1180   -19.1640     2.2660 
  210.6250    72.9910    27.3860    23.8440    25.5960    24.1450   -19.2930     2.2610 
  210.7500    66.3660    30.3540    26.8280    29.5630    24.2280   -19.3890     2.2520 
  210.8750    61.7990    32.4570    29.3740    37.1750    24.2700   -19.5400     2.2410 
  211.0000    63.0720    32.9910    30.6580    43.8530    24.2520   -19.6700     2.2310 
  211.1250    66.2730    31.5460    29.9770    39.6790    24.1610   -19.8070     2.2320 
  211.2500    66.6160    29.0470    28.0280    32.0280    23.9870   -19.9740     2.2440 
  211.3750    65.5000    26.3240    25.5800    26.8590    23.7110   -20.1420     2.2600 
  211.5000    65.4760    24.0190    23.3010    23.6010    23.3330   -20.3650     2.2730 
  211.6250    66.2760    22.6230    21.7290    21.2880    23.1010   -20.5810     2.2800 
  211.7500    66.4870    22.1220    20.9420    19.9180    23.0790   -20.8500     2.2850 
  211.8750    65.1530    22.5370    20.9950    20.0630    23.2340   -21.1550     2.2850 
  212.0000    64.5570    23.8670    21.9090    21.6100    23.4510   -21.4570     2.2780 
  212.1250    66.2040    26.2410    23.8580    24.3620    23.6260   -21.8010     2.2680 
  212.2500    66.2230    29.4450    26.7090    28.4430    23.7810   -22.1280     2.2600 
  212.3750    63.3330    36.6580    30.4000    34.2950    23.9050   -22.4450     2.2560 
  212.5000    61.4460    42.5470    34.7620    39.4500    23.9670   -22.7190     2.2520 
  212.6250    63.6620    47.5410    39.5220    43.1930    23.9880   -22.9660     2.2500 
  212.7500    64.8400    52.1790    44.1780    46.6630    23.9790   -23.2100     2.2500 
  212.8750    61.2030    56.0760    48.3140    50.6740    23.9140   -23.3720     2.2480 
  213.0000    55.5150    58.8980    51.5750    55.0990    23.8060   -23.5430     2.2530 
  213.1250    55.0770    60.0450    53.4010    56.6340    23.6810   -23.6620     2.2730 
  213.2500    58.5790    59.4440    53.6690    56.2840    23.6700   -23.7650     2.2930 
  213.3750    60.4800    57.1280    52.3130    56.0090    23.7930   -23.8780     2.2930 
  213.5000    59.4220    53.6080    49.6930    56.5410    23.9030   -23.9940     2.2750 
  213.6250    59.4310    49.8250    46.5570    53.3210    23.8400   -24.1450     2.2610 
  213.7500    61.0770    46.7470    43.8280    47.3630    23.7460   -24.3260     2.2570 
  213.8750    61.3180    44.8310    41.9860    41.2850    23.7690   -24.5620     2.2540 
  214.0000    58.8490    44.1600    41.2110    39.4850    23.8920   -24.8110     2.2460 
  214.1250    56.3320    44.6660    41.5740    42.3780    24.0390   -25.1340     2.2290 
  214.2500    54.9360    45.8680    42.6840    46.2260    24.1280   -25.4610     2.2130 
  214.3750    54.0290    47.6030    44.3550    48.0140    24.0870   -25.8420     2.2040 
  214.5000    53.8970    49.8980    46.5210    47.5190    24.0000   -26.2260     2.2010 
  214.6250    55.9250    53.1960    49.4960    46.1710    23.9890   -26.6530     2.1980 
  214.7500    61.0750    57.7720    53.5880    47.3450    24.1180   -27.0710     2.1890 
  214.8750    66.3200    63.8230    59.1230    53.9730    24.2340   -27.4890     2.1780 
  215.0000    68.8570    71.1380    66.0670    66.6580    24.2720   -27.9100     2.1720 
  215.1250    67.3430    78.9340    73.7860    78.4360    24.2450   -28.2780     2.1750 
  215.2500    63.8770    85.9420    80.9200    82.5110    24.1890   -28.6820     2.1840 
  215.3750    60.7890    91.3640    86.5030    83.0610    24.0670   -29.0400     2.1930 
  215.5000    59.5320    95.0930    90.2310    78.7490    23.8170   -29.3810     2.2000 
  215.6250    62.0010    97.6830    92.4640    70.1500    23.4070   -29.6840     2.2000 
  215.7500    65.3490   100.2480    94.3620    66.4080    23.1150   -29.9480     2.1990 
  215.8750    66.7350   103.4160    96.6170    69.1340    23.0770   -30.1660     2.1990 
  216.0000    65.6850   107.6600    99.7330    77.6920    23.4010   -30.3320     2.2040 
  216.1250    62.8250   113.7990   104.4560    88.4780    23.8400   -30.4600     2.2030 
  216.2500    60.1220   122.1220   111.0610    98.4160    24.1090   -30.5180     2.2040 
  216.3750    58.1240   132.9920   119.8910   110.2720    24.1230   -30.5340     2.2170 
  216.5000    56.9230   146.4840   131.0510   125.7610    24.0800   -30.5020     2.2410 
  216.6250    57.3450   162.4760   144.4860   145.2010    24.2140   -30.4070     2.2510 
  216.7500    58.6340   179.5770   158.9810   161.5580    24.3010   -30.2550     2.2430 
  216.8750    59.6280   196.7220   173.5680   172.1250    24.3310   -30.0790     2.2310 
  217.0000    59.4720   213.1390   187.4790   175.9400    24.3230   -29.8910     2.2250 
  217.1250    59.0210   228.3560   200.1520   180.6760    24.2970   -29.6680     2.2180 
  217.2500    58.4300   242.4950   211.6970   186.8940    24.2830   -29.4180     2.2110 
  217.3750    57.6960   255.2620   221.9860   194.3230    24.2780   -29.1400     2.2070 
  217.5000    58.0420   265.7800   230.5280   201.2620    24.2590   -28.8590     2.2030 
  217.6250    59.2910   271.2200   235.4880   204.6120    24.2080   -28.5420     2.1970 
  217.7500    60.1520   269.3270   235.3850   206.9040    24.1590   -28.2420     2.1950 
  217.8750    61.6540   258.1000   228.6560   210.4330    24.1690   -27.9340     2.1960 
  218.0000    62.9680   238.0090   215.0560   216.6370    24.2530   -27.6130     2.1950 
  218.1250    62.0900   212.4880   196.0010   219.3710    24.2970   -27.2850     2.1990 
  218.2500    58.4730   187.7520   176.0410   202.7580    24.1990   -26.9510     2.2220 
  218.3750    55.7710   167.1180   158.2260   168.9160    23.9490   -26.5840     2.2620 
  218.5000    57.5210   151.7900   144.3060   138.0660    23.7520   -26.1660     2.2910 
  218.6250    62.6730   141.5000   134.8470   130.0960    23.7230   -25.7270     2.2740 
  218.7500    64.5020   132.6620   127.1430   122.3630    23.7590   -25.2380     2.2400 
  218.8750    61.8960   121.8350   118.1090   116.1350    23.8810   -24.7040     2.2210 
  219.0000    58.1630   106.4370   104.8660   106.1000    23.9690   -24.1210     2.2260 
  219.1250    57.3390    86.6380    86.5000    93.9220    23.9540   -23.5060     2.2600 
  219.2500    59.5270    67.0710    67.3330    71.8340    23.8210   -22.8720     2.3230 
  219.3750    62.9300    50.8780    51.0150    47.9240    23.6960   -22.2440     2.4000 
  219.5000    63.6410    39.2710    39.2530    31.0100    23.6420   -21.6360     2.4540 
  219.6250    60.6750    32.6920    32.5200    24.3220    23.6970   -21.0590     2.4570 
