~V
VERS. 2.00: Ver 2.00
~W
STRT.M 50.0000:
STOP.M 170.0000:
STEP.M 0.1250:
NULL. -999.2500:
UWI. F11116:
~C
DEPT.M :
SP.MV :
DEN.GM/CC :
GR.API :
RML.OHMM :
RI. :
RXO.OHMM :
CALI.CM :
~A
# ...
  128.7500    -5.7110     2.4600    56.8600    22.2430    19.0420    18.5170    25.0680 
  128.8750    -5.6380     2.4880    53.6770    22.6270    19.2130    19.8540    25.1020 
  129.0000    -5.6480     2.5320    50.2470    23.1820    19.5140    22.3980    25.1150 
  129.1250    -5.7190     2.5670    49.3250    23.6980    19.8660    21.3560    25.1200 
  129.2500    -5.8150     2.5810    51.4340    23.9740    20.1410    22.7060    25.1190 
  129.3750    -5.9180     2.5750    54.4000    23.9450    20.2770    23.6930    25.1190 
  129.5000    -6.0150     2.5580    55.7250    23.6970    20.3040    22.1450    25.1210 
  129.6250    -6.1100     2.5440    53.9830    23.4780    20.3570    20.6810    25.1250 
  129.7500    -6.2000     2.5420    51.1510    23.5240    20.5800    21.4640    25.1270 
  129.8750    -6.2970     2.5500    49.2480    23.9560    21.0590    24.1290    25.1250 
  130.0000    -6.4130     2.5650    48.5130    24.7860    21.8100    26.6480    25.1220 
  130.1250    -6.5440     2.5840    47.8930    25.7510    22.6860    27.9850    25.1200 
  130.2500    -6.6710     2.6020    46.4600    26.1450    23.1920    28.1350    25.1200 
  130.3750    -6.7770     2.6070    45.7440    25.2160    22.7230    28.0500    25.1220 
  130.5000    -6.8520     2.5880    48.0650    22.5660    20.8740    26.1690    25.1220 
  130.6250    -6.8700     2.5370    53.3550    18.4640    17.7210    24.4440    25.1200 
  130.7500    -6.8540     2.4710    59.7270    14.2060    14.2650    23.2690    25.1230 
  130.8750    -6.8120     2.4090    67.4840    10.6110    11.1690    17.8730    25.1370 
  131.0000    -6.7540     2.3640    75.4300     8.0190     8.7570    10.9870    25.1570 
  131.1250    -6.6960     2.3460    81.8930     6.4720     7.1700     7.2350    25.1690 
  131.2500    -6.6500     2.3440    88.5660     5.5700     6.1800     5.8960    25.1610 
  131.3750    -6.6310     2.3470    95.7850     5.1750     5.7110     5.3980    25.1260 
  131.5000    -6.6430     2.3450    99.5170     5.2740     5.7450     5.6100    25.0620 
  131.6250    -6.6750     2.3440    93.2650     6.1260     6.4430     6.1050    24.9620 
  131.7500    -6.7070     2.3570    81.3960     7.9150     7.8730     7.2800    24.8580 
  131.8750    -6.7360     2.3910    68.5130    10.8750    10.2170    10.5560    24.7840 
  132.0000    -6.7610     2.4480    58.5950    14.8940    13.4870    17.5370    24.7520 
  132.1250    -6.7880     2.5090    54.7430    18.8790    17.0110    25.0410    24.8080 
  132.2500    -6.8140     2.5480    54.3720    20.8860    19.1280    28.8640    24.9640 
  132.3750    -6.8290     2.5490    54.9620    19.7820    18.6650    30.8440    25.1650 
  132.5000    -6.8270     2.5110    56.0930    16.2770    16.0310    27.3020    25.3040 
  132.6250    -6.8080     2.4440    59.0280    12.4490    12.8610    19.1250    25.3310 
  132.7500    -6.7710     2.3710    62.6730     9.7520    10.4160    11.4110    25.3280 
  132.8750    -6.7060     2.3100    65.1970     8.3950     8.9460     7.9360    25.3250 
  133.0000    -6.6200     2.2770    65.8840     8.2080     8.3960     7.0760    25.2990 
  133.1250    -6.5360     2.2840    65.0800     9.1360     8.7870     8.6720    25.2440 
  133.2500    -6.4720     2.3220    64.5760    10.7810     9.8560    12.6290    25.1940 
  133.3750    -6.4480     2.3720    64.0030    12.8170    11.3990    15.7870    25.1720 
  133.5000    -6.4610     2.4150    61.7670    14.8550    13.1220    15.5710    25.1730 
  133.6250    -6.5120     2.4420    57.4910    16.5780    14.7120    14.4670    25.1660 
  133.7500    -6.6000     2.4660    53.2100    18.1370    16.1340    14.3800    25.1370 
  133.8750    -6.7230     2.4980    49.7140    19.8490    17.5550    15.8980    25.0980 
  134.0000    -6.8690     2.5370    47.2330    21.9250    19.1530    20.3270    25.0690 
  134.1250    -7.0120     2.5740    45.0980    24.1550    20.8550    24.6940    25.0540 
  134.2500    -7.1350     2.5980    43.4840    25.8260    22.1870    26.4790    25.0360 
  134.3750    -7.2330     2.6070    43.7580    26.3360    22.6820    26.8810    25.0200 
  134.5000    -7.3020     2.6010    45.7320    25.5490    22.1900    27.0190    25.0130 
  134.6250    -7.3210     2.5820    49.2440    23.9210    20.9950    24.4610    25.0120 
  134.7500    -7.2880     2.5580    53.5760    22.4330    19.8210    19.9430    25.0120 
  134.8750    -7.2000     2.5380    58.4100    21.5890    19.0720    17.0000    25.0120 
  135.0000    -7.0650     2.5280    60.9230    21.5070    18.8910    18.1210    25.0150 
  135.1250    -6.8940     2.5280    59.5560    22.0820    19.2540    20.7490    25.0140 
  135.2500    -6.7050     2.5260    56.5530    22.8460    19.8140    24.5660    25.0100 
  135.3750    -6.5070     2.5210    54.4010    23.4520    20.2890    27.5840    25.0030 
  135.5000    -6.3250     2.5150    53.4250    23.6760    20.4930    25.8620    25.0010 
  135.6250    -6.1980     2.5110    52.5190    23.5010    20.4050    23.0130    25.0050 
  135.7500    -6.1190     2.5090    50.7100    23.2070    20.2400    21.4540    25.0100 
  135.8750    -6.0810     2.5070    48.9850    22.9710    20.1280    21.5480    25.0130 
  136.0000    -6.0780     2.5050    49.0290    22.8720    20.1170    21.6560    25.0130 
  136.1250    -6.1030     2.5040    49.2120    22.9310    20.2080    21.7030    25.0140 
  136.2500    -6.1500     2.5070    49.4360    23.0990    20.3620    21.1980    25.0140 
  136.3750    -6.2170     2.5160    49.7400    23.3900    20.5720    20.6420    25.0120 
  136.5000    -6.2940     2.5300    49.4680    23.8140    20.8190    21.5230    25.0090 
  136.6250    -6.3710     2.5420    48.7540    24.3310    21.0750    22.6470    25.0080 
  136.7500    -6.4520     2.5420    49.5500    24.8010    21.3100    24.0380    25.0070 
  136.8750    -6.5340     2.5230    51.2880    25.0800    21.4750    24.6420    24.9970 
  137.0000    -6.6020     2.4900    51.7680    25.0610    21.5060    23.6700    24.9670 
  137.1250    -6.6440     2.4600    51.9450    24.7380    21.3500    21.5950    24.9100 
  137.2500    -6.6760     2.4480    53.3020    24.2980    21.0850    21.2110    24.8500 
  137.3750    -6.6980     2.4620    53.5420    23.8220    20.7560    21.0210    24.8110 
  137.5000    -6.7180     2.4930    51.7140    23.2960    20.3780    19.6930    24.7950 
  137.6250    -6.7290     2.5200    50.1260    22.6670    19.9320    19.5110    24.8030 
  137.7500    -6.7330     2.5320    50.5270    21.9730    19.4310    20.7280    24.8540 
  137.8750    -6.7220     2.5300    51.3300    21.3270    18.9350    20.5450    24.9480 
  138.0000    -6.6850     2.5180    52.5140    20.8890    18.5560    17.6760    25.0310 
  138.1250    -6.5950     2.5070    54.8090    20.8000    18.4250    16.2450    25.0550 
  138.2500    -6.4500     2.5020    55.5500    20.9290    18.4870    17.1400    25.0480 
  138.3750    -6.2890     2.5050    53.4280    21.1120    18.6370    18.9770    25.0420 
  138.5000    -6.1390     2.5070    50.3290    21.1750    18.7330    19.8300    25.0390 
  138.6250    -6.0220     2.4960    51.0400    20.9170    18.5940    20.8460    25.0410 
  138.7500    -5.9490     2.4770    54.1970    20.3380    18.1920    20.8790    25.0480 
  138.8750    -5.9330     2.4650    56.5270    19.5240    17.5820    18.8570    25.0300 
  139.0000    -5.9690     2.4720    56.9420    18.6040    16.8680    17.4430    24.9890 
  139.1250    -6.0450     2.5030    55.9030    17.7140    16.1620    15.9300    24.9750 
  139.2500    -6.1250     2.5350    55.8230    16.9690    15.5530    15.0810    25.0050 
  139.3750    -6.1810     2.5460    58.5950    16.4760    15.1280    14.5770    25.0440 
  139.5000    -6.2060     2.5310    63.1870    16.3450    14.9710    14.1380    25.0560 
  139.6250    -6.2020     2.5020    65.0150    16.7550    15.2250    13.5730    25.0550 
  139.7500    -6.1710     2.4830    62.9680    17.6680    15.8610    14.0760    25.0590 
  139.8750    -6.1210     2.4840    60.7530    18.9780    16.8120    16.3100    25.0630 
