~V
VERS. 2.00: Ver 2.00
~W
STRT.M 60.0000:
STOP.M 282.0000:
STEP.M 0.1250:
NULL. -999.2500:
UWI. F11159:
~C
DEPT.M :
GR.API :
RML.OHMM :
RI. :
RXO.OHMM :
CALI.CM :
SP.MV :
DEN.GM/CC :
~A
# ...
  228.7500   123.8160     7.0070     6.6140     6.7320    24.7230   -24.3530     2.3000 
  228.8750   118.0900     7.0130     6.5640     6.7360    24.3970   -24.2390     2.3090 
  229.0000   111.6260     7.0080     6.4950     6.6800    24.2050   -24.1760     2.2940 
  229.1250   109.3270     6.9910     6.4120     6.6170    24.3680   -24.1730     2.2590 
  229.2500   106.8550     6.9660     6.3210     6.7750    24.6640   -24.2030     2.2250 
  229.3750   102.5100     6.9610     6.2400     6.9700    25.0820   -24.2710     2.2090 
  229.5000    98.7550     7.0660     6.2240     7.0640    25.6330   -24.3900     2.2150 
  229.6250   100.4600     7.4950     6.4120     7.4010    25.4370   -24.5360     2.2380 
  229.7500   104.2570     8.4120     6.9250     8.0890    24.8850   -24.7310     2.2590 
  229.8750   103.4390    10.0130     7.9230     9.6050    24.3820   -24.9630     2.2670 
  230.0000    96.0270    12.4600     9.5720    12.5820    24.0930   -25.2260     2.2620 
  230.1250    87.4290    15.9670    12.1690    19.0360    23.8450   -25.4990     2.2480 
  230.2500    83.6090    20.2490    15.6070    25.1490    23.8170   -25.7480     2.2360 
  230.3750    82.2550    25.0200    19.7170    28.6650    24.0180   -25.9600     2.2280 
  230.5000    78.9160    29.9910    24.2120    30.6300    24.1050   -26.1230     2.2250 
  230.6250    74.4770    35.0590    28.9130    34.3390    24.0920   -26.2420     2.2230 
  230.7500    73.1920    40.2310    33.7670    41.8290    24.0630   -26.2970     2.2220 
  230.8750    73.7670    45.2810    38.6280    50.4410    24.1700   -26.2920     2.2220 
  231.0000    72.1760    49.4780    42.9390    63.3290    24.2380   -26.2150     2.2210 
  231.1250    69.3030    51.3750    45.4560    69.8380    24.1860   -26.0380     2.2200 
  231.2500    68.7580    50.9230    45.9010    64.2230    24.1260   -25.8180     2.2210 
  231.3750    68.6850    48.9240    44.7360    52.9880    24.1160   -25.5520     2.2220 
  231.5000    67.7260    46.6030    42.9390    44.3690    24.1180   -25.2500     2.2230 
  231.6250    67.9180    44.9070    41.4290    42.8650    24.0920   -24.9070     2.2220 
  231.7500    67.6870    43.6890    40.3420    45.7700    24.0650   -24.5180     2.2180 
  231.8750    65.9060    42.3250    39.2880    47.7600    24.0600   -24.0870     2.2140 
  232.0000    66.6190    40.0470    37.6230    45.9460    24.0580   -23.6330     2.2140 
  232.1250    70.6830    35.9770    34.9680    41.9190    24.0590   -23.1540     2.2230 
  232.2500    71.6400    32.0630    30.6600    37.0970    24.1200   -22.6500     2.2450 
  232.3750    68.4760    28.1030    26.5670    30.7900    24.2270   -22.1600     2.2770 
  232.5000    66.6770    24.8420    23.4060    24.6080    24.2560   -21.6670     2.3170 
  232.6250    69.4040    22.8740    21.6970    21.4380    24.1660   -21.1900     2.3530 
  232.7500    70.4740    22.0350    21.1480    21.5060    23.9920   -20.7460     2.3770 
  232.8750    66.8070    22.1270    21.4560    24.1840    23.8370   -20.3480     2.3830 
  233.0000    60.2010    22.7790    22.1470    25.5560    23.7720   -20.0010     2.3690 
  233.1250    57.0150    23.3520    22.5060    25.5110    23.9160   -19.7540     2.3380 
  233.2500    59.4930    23.2070    22.0300    25.6300    24.0240   -19.5680     2.3000 
  233.3750    64.4530    22.1010    20.6260    25.9240    23.9580   -19.4180     2.2620 
  233.5000    68.4740    20.2710    18.6370    24.0140    23.8290   -19.3300     2.2320 
  233.6250    72.8410    18.3110    16.7020    19.5460    23.7740   -19.2930     2.2150 
  233.7500    78.1600    16.7450    15.2880    15.4470    23.6890   -19.2960     2.2070 
  233.8750    80.0540    15.7720    14.5490    14.0710    23.6290   -19.3130     2.2070 
  234.0000    77.0920    15.4060    14.4310    14.4190    23.5420   -19.3360     2.2130 
  234.1250    72.7170    15.5340    14.7160    15.4900    23.4000   -19.3660     2.2230 
  234.2500    68.9510    15.7470    14.9610    15.9640    23.3510   -19.4060     2.2340 
  234.3750    66.5610    15.7450    14.8940    15.9670    23.3980   -19.4690     2.2430 
  234.5000    67.9260    15.3970    14.4650    15.8320    23.5630   -19.5430     2.2480 
  234.6250    73.6930    14.8010    13.8550    14.8910    23.5320   -19.6350     2.2470 
  234.7500    78.5000    14.2470    13.3680    13.6820    23.1400   -19.7360     2.2420 
  234.8750    80.8850    13.9120    13.1610    12.7970    22.8530   -19.8500     2.2370 
  235.0000    81.2510    13.8820    13.2810    13.5010    22.7220   -19.9710     2.2310 
  235.1250    78.4330    14.2190    13.7470    14.4700    22.6680   -20.0530     2.2270 
  235.2500    76.0230    14.8290    14.4480    14.8850    22.5540   -20.1140     2.2240 
  235.3750    75.9180    15.6510    15.3140    15.2130    22.4580   -20.1340     2.2220 
  235.5000    74.9680    16.6020    16.2600    16.1770    22.4780   -20.1170     2.2230 
  235.6250    68.9000    17.5600    17.1410    18.6020    22.4670   -20.0560     2.2240 
  235.7500    64.2540    18.3630    17.8030    20.7730    22.4640   -19.9770     2.2200 
  235.8750    66.3920    18.8640    18.1160    21.2240    22.4390   -19.8610     2.2110 
  236.0000    71.7320    18.9710    18.0300    20.4870    22.4630   -19.7140     2.1960 
  236.1250    72.4700    18.6510    17.5670    19.6380    22.5760   -19.5590     2.1830 
  236.2500    69.3560    18.0680    16.8990    18.9770    22.7750   -19.4000     2.1780 
  236.3750    67.3380    17.2920    16.0890    18.3440    23.1920   -19.2640     2.1830 
  236.5000    67.5090    16.3660    15.1710    17.7480    23.6510   -19.1410     2.1940 
  236.6250    66.8140    15.3870    14.2370    17.0940    23.7220   -19.0630     2.2030 
  236.7500    66.0480    14.5390    13.4650    16.1710    23.7050   -18.9910     2.2020 
  236.8750    67.6210    13.9720    12.9990    14.6140    23.6670   -18.9560     2.1880 
  237.0000    69.8620    13.7700    12.9030    13.0290    23.6230   -18.9640     2.1690 
  237.1250    67.8200    13.9500    13.1340    13.0470    23.5200   -18.9960     2.1570 
  237.2500    62.3770    14.2740    13.4110    14.6380    23.3370   -19.0310     2.1560 
  237.3750    58.5410    14.5010    13.4960    15.7030    23.1600   -19.0520     2.1660 
  237.5000    58.4480    14.4300    13.2480    15.0620    23.0430   -19.0490     2.1810 
  237.6250    60.2920    13.9910    12.7010    13.2020    22.9330   -19.0080     2.1930 
  237.7500    62.6530    13.4370    12.1510    11.6700    22.8870   -18.9480     2.2010 
  237.8750    63.3300    12.9900    11.8070    10.9900    22.8860   -18.8520     2.2050 
  238.0000    62.3030    12.7810    11.7500    11.2170    22.9020   -18.7190     2.2100 
  238.1250    63.0990    12.8460    11.9450    11.5430    22.9570   -18.5880     2.2190 
  238.2500    66.6720    13.0300    12.2030    12.0800    23.0060   -18.4570     2.2310 
  238.3750    68.5020    13.2020    12.4060    12.6520    23.0760   -18.3300     2.2490 
  238.5000    64.7040    13.2900    12.5210    13.0410    23.2370   -18.2190     2.2740 
  238.6250    60.5200    13.2970    12.7040    13.3400    23.4290   -18.1230     2.3040 
  238.7500    60.9340    13.4250    13.1150    13.8090    23.5690   -18.0420     2.3300 
  238.8750    62.2640    14.1610    13.5990    14.0290    23.6500   -17.9840     2.3410 
  239.0000    61.4470    15.3710    14.5000    14.0850    23.5540   -17.9560     2.3320 
  239.1250    59.6530    17.1080    15.9380    16.1270    23.2900   -17.9530     2.3040 
  239.2500    59.2350    19.0830    17.7180    19.8440    23.3610   -17.9690     2.2720 
  239.3750    59.8290    20.9640    19.5640    22.9750    23.4940   -17.9980     2.2450 
  239.5000    60.6380    22.3910    21.1130    24.0560    23.5680   -18.0360     2.2280 
  239.6250    61.1880    23.0160    21.9420    24.2410    23.6210   -18.0800     2.2200 
  239.7500    60.7410    23.0490    22.1390    24.5700    23.6830   -18.1270     2.2150 
  239.8750    58.1170    22.7900    21.9440    24.0280    23.6170   -18.1880     2.2100 
