~V
VERS. 2.00: Ver 2.00
~W
STRT.M 50.0000:
STOP.M 221.0000:
STEP.M 0.1250:
NULL. -999.2500:
UWI. F11120:
~C
DEPT.M :
DEN.GM/CC :
GR.API :
RML.OHMM :
RI. :
RXO.OHMM :
CALI.CM :
SP.MV :
~A
# ...
   83.7500     2.1530    62.5420    12.1810     8.7190    12.6940    26.0320   -27.0060 
   83.8750     2.1620    62.0210    11.7060     8.4530    12.2280    26.1210   -26.5310 
   84.0000     2.1740    62.6900    10.6530     7.8250    11.5140    26.2710   -25.9100 
   84.1250     2.1900    67.8090     9.2190     6.9390     9.6880    26.5720   -25.1560 
   84.2500     2.2080    77.7500     7.8790     6.0710     7.2450    26.9500   -24.3260 
   84.3750     2.2210    87.4950     6.9380     5.4050     5.6730    27.2470   -23.4710 
   84.5000     2.2190    91.7020     6.5600     5.0460     5.3250    27.3880   -22.6630 
   84.6250     2.2020    88.3210     6.8710     5.0970     5.7110    27.3830   -22.0120 
   84.7500     2.1850    81.5900     7.6940     5.4850     6.4190    27.2620   -21.5580 
   84.8750     2.1810    73.9850     8.8490     6.1420     7.6380    27.0210   -21.3240 
   85.0000     2.1880    67.1390    10.0420     6.9220     9.1380    26.7850   -21.3100 
   85.1250     2.1930    63.4080    10.8160     7.5630    10.0180    26.7660   -21.5080 
   85.2500     2.1770    62.9960    10.9910     7.8810    10.0940    26.9390   -21.8120 
   85.3750     2.1450    64.6060    10.6330     7.8440     9.6380    27.2190   -22.1260 
   85.5000     2.1150    65.2370     9.9990     7.5590     8.2780    27.5340   -22.3550 
   85.6250     2.1010    63.9070     9.3850     7.1870     6.4820    27.7660   -22.3840 
   85.7500     2.0970    64.0060     8.9230     6.8490     5.6000    27.8570   -22.2100 
   85.8750     2.0990    66.7320     8.6000     6.5670     5.6180    27.8160   -21.8390 
   86.0000     2.1070    69.7020     8.3590     6.3280     5.9440    27.7540   -21.2860 
   86.1250     2.1240    71.0190     8.1620     6.1300     6.6240    27.7810   -20.5650 
   86.2500     2.1480    72.4590     8.0220     5.9790     6.9300    27.9020   -19.7710 
   86.3750     2.1710    75.0490     8.0010     5.9050     6.6690    28.0480   -18.9860 
   86.5000     2.1860    78.8210     8.1660     5.9370     6.8520    28.1380   -18.2810 
   86.6250     2.1820    80.4880     8.5540     6.1050     7.5420    28.1780   -17.7220 
   86.7500     2.1660    77.6850     9.0360     6.3510     7.9450    28.2050   -17.2810 
   86.8750     2.1480    73.9840     9.4670     6.6110     8.1640    28.2170   -16.9250 
   87.0000     2.1370    74.3320     9.7130     6.8100     8.5090    28.2180   -16.6290 
   87.1250     2.1370    78.6750     9.6760     6.8730     8.6420    28.2190   -16.3910 
   87.2500     2.1470    82.6550     9.4670     6.8240     8.1710    28.2240   -16.1870 
   87.3750     2.1640    85.2090     9.2050     6.7130     7.4020    28.2360   -15.9890 
   87.5000     2.1790    86.7140     8.9800     6.5890     7.2540    28.2530   -15.7660 
   87.6250     2.1910    87.5400     8.8380     6.4880     7.3880    28.2360   -15.5010 
   87.7500     2.2040    88.1720     8.7490     6.4130     7.1900    28.2240   -15.2130 
   87.8750     2.2230    88.6450     8.6750     6.3550     6.8810    28.2240   -14.9400 
   88.0000     2.2410    89.8210     8.5790     6.2990     6.8370    28.2410   -14.7090 
   88.1250     2.2400    92.1690     8.4570     6.2360     6.5590    28.2740   -14.5410 
   88.2500     2.2250    94.1380     8.3480     6.1780     6.5370    28.2890   -14.4300 
   88.3750     2.2140    94.5040     8.2870     6.1390     6.5960    28.2940   -14.3850 
   88.5000     2.2150    95.3000     8.2860     6.1280     6.7120    28.3010   -14.4110 
   88.6250     2.2220    96.9280     8.3540     6.1550     6.7150    28.3260   -14.5130 
   88.7500     2.2240    96.2130     8.4690     6.2140     6.7530    28.3710   -14.6580 
   88.8750     2.2170    93.2150     8.6120     6.2960     6.8490    28.4300   -14.8180 
   89.0000     2.2000    90.5710     8.7520     6.3840     7.0690    28.4960   -14.9650 
   89.1250     2.1770    88.2640     8.8440     6.4520     7.2020    28.5440   -15.0870 
   89.2500     2.1580    85.6000     8.8630     6.4840     7.0810    28.5720   -15.1930 
   89.3750     2.1450    82.4110     8.8030     6.4730     6.8350    28.5750   -15.2940 
   89.5000     2.1380    79.6180     8.6830     6.4240     6.5830    28.5530   -15.3950 
   89.6250     2.1370    78.5210     8.5490     6.3510     6.5090    28.4980   -15.4850 
   89.7500     2.1410    81.1890     8.4540     6.2800     6.4780    28.4370   -15.5640 
   89.8750     2.1450    86.2670     8.4240     6.2270     6.4630    28.3770   -15.6340 
   90.0000     2.1510    86.9530     8.4590     6.1980     6.4330    28.3230   -15.7080 
   90.1250     2.1580    81.7630     8.5420     6.1950     6.4270    28.2940   -15.8120 
   90.2500     2.1640    77.0770     8.6220     6.1980     6.5450    28.2690   -15.9530 
   90.3750     2.1640    76.0670     8.6550     6.1840     6.7340    28.2290   -16.1340 
   90.5000     2.1570    77.2760     8.6110     6.1420     6.9040    28.1750   -16.3530 
   90.6250     2.1490    77.5810     8.4930     6.0760     6.9930    28.1180   -16.6140 
   90.7500     2.1420    78.5290     8.3790     6.0260     7.2290    28.0580   -16.9140 
   90.8750     2.1380    79.5120     8.3760     6.0400     7.4440    27.9920   -17.2540 
   91.0000     2.1400    79.8590     8.6090     6.1770     7.7290    27.8980   -17.6290 
   91.1250     2.1570    78.9540     9.2580     6.5350     8.3940    27.7840   -18.0180 
   91.2500     2.1930    76.7270    10.3170     7.1260     8.9790    27.6560   -18.3930 
   91.3750     2.2550    75.0270    11.7280     7.9470     9.3650    27.5540   -18.7310 
   91.5000     2.3390    74.0080    13.3130     8.9220     9.5530    27.4480   -19.0280 
   91.6250     2.4190    73.5140    14.6620     9.8440     9.8470    27.2940   -19.3030 
   91.7500     2.4600    71.9720    15.3520    10.4390     9.9980    27.1310   -19.5800 
   91.8750     2.4470    70.1280    15.1050    10.4990     9.9320    27.0230   -19.8740 
   92.0000     2.3850    69.8920    13.9510     9.9920     9.7620    26.9860   -20.1860 
   92.1250     2.3000    71.1560    12.2690     9.0940     9.6060    26.9800   -20.5110 
   92.2500     2.2260    73.8590    10.7210     8.1990     9.4770    26.9590   -20.8410 
   92.3750     2.1790    76.6890     9.6590     7.5240     8.9210    26.9050   -21.1790 
   92.5000     2.1610    77.4970     9.2320     7.1810     8.1770    26.7840   -21.5260 
   92.6250     2.1610    75.4050     9.5090     7.2420     8.8000    26.5540   -21.8650 
   92.7500     2.1660    71.1210    10.2280     7.5920    10.4550    26.3610   -22.1670 
   92.8750     2.1700    65.6400    11.1840     8.1370    11.6480    26.2720   -22.4020 
   93.0000     2.1720    61.3280    12.1630     8.7570    11.8910    26.2290   -22.5490 
   93.1250     2.1690    62.8430    12.8930     9.2800    12.1070    26.1590   -22.5910 
   93.2500     2.1610    65.9750    13.1950     9.5460    12.4710    26.0830   -22.5520 
   93.3750     2.1560    65.9410    12.8910     9.4130    12.5930    26.0910   -22.4290 
   93.5000     2.1580    62.6680    11.8630     8.7990    12.3480    26.1930   -22.2050 
   93.6250     2.1660    61.4880    10.1640     7.7490    11.4680    26.3790   -21.8470 
   93.7500     2.1810    65.0980     8.4470     6.6570     9.6350    26.5580   -21.3840 
   93.8750     2.2080    72.4940     7.3140     5.8550     7.3980    26.6930   -20.8570 
   94.0000     2.2520    79.6670     7.1700     5.5680     6.2560    26.7490   -20.3230 
   94.1250     2.3080    79.9520     8.3650     6.0250     7.3040    26.7290   -19.8470 
   94.2500     2.3720    74.8950    10.5970     7.1510    12.7960    26.6680   -19.4810 
   94.3750     2.4360    71.1820    13.4020     8.8120    27.0610    26.6060   -19.2720 
   94.5000     2.4730    72.4880    15.8050    10.5580    45.3410    26.5630   -19.2600 
   94.6250     2.4230    73.0510    16.2760    11.4550    45.1030    26.5320   -19.5010 
   94.7500     2.3150    67.8170    14.9790    11.2560    29.9070    26.4970   -19.9340 
   94.8750     2.2070    59.9540    12.9630    10.3770    17.6820    26.5110   -20.5010 
