~V
VERS. 2.00: Ver 2.00
~W
STRT.M 45.0000:
STOP.M 250.0000:
STEP.M 0.1250:
NULL. -999.2500:
UWI. F11133:
~C
DEPT.M :
SP.MV :
DEN.GM/CC :
GR.API :
RML.OHMM :
RI. :
RXO.OHMM :
CALI.CM :
~A
# ...
  180.0000   -33.5830     2.2630    69.2640    40.0240    38.3990    37.9600    24.3510 
  180.1250   -33.9260     2.2570    66.0380    46.0580    43.2480    44.6340    24.2810 
  180.2500   -34.2740     2.2530    62.8410    53.2260    49.0480    53.6300    24.3260 
  180.3750   -34.6190     2.2490    62.0940    61.4160    55.6400    62.5270    24.4170 
  180.5000   -34.9620     2.2440    63.3190    70.3390    62.6740    70.4550    24.5320 
  180.6250   -35.2850     2.2390    64.4470    79.8660    69.9470    79.2290    24.6700 
  180.7500   -35.5710     2.2340    63.3820    90.0480    77.4560    89.9810    24.7770 
  180.8750   -35.8180     2.2290    60.2090   101.0650    85.4000    99.6730    24.8290 
  181.0000   -36.0300     2.2250    56.9760   112.9480    93.9520   106.7710    24.8410 
  181.1250   -36.2110     2.2220    55.1200   125.4530   103.0580   114.7300    24.8430 
  181.2500   -36.3530     2.2200    55.5940   137.7890   112.2670   127.2320    24.8420 
  181.3750   -36.4400     2.2200    57.4960   148.8120   120.8430   142.9300    24.8390 
  181.5000   -36.4810     2.2220    58.0710   157.4150   128.0140   150.6790    24.8330 
  181.6250   -36.4920     2.2230    56.4410   162.2010   132.7420   149.2480    24.8220 
  181.7500   -36.4860     2.2260    55.6880   160.7190   133.0110   146.1990    24.8210 
  181.8750   -36.4600     2.2290    57.4880   151.3200   127.0930   146.3390    24.8350 
  182.0000   -36.4180     2.2300    58.3600   136.0180   115.8840   146.7980    24.8420 
  182.1250   -36.3640     2.2260    56.7110   118.6600   102.0210   132.8920    24.8410 
  182.2500   -36.3070     2.2240    55.9510   103.7180    89.2300    99.8830    24.8290 
  182.3750   -36.2550     2.2290    58.5720    93.6590    80.0970    70.5860    24.8020 
  182.5000   -36.2110     2.2390    60.7470    87.9340    74.6890    58.5910    24.7620 
  182.6250   -36.1880     2.2490    59.7120    85.3340    72.1280    56.2740    24.7050 
  182.7500   -36.1860     2.2530    58.4320    84.8760    71.5800    53.2460    24.6270 
  182.8750   -36.1930     2.2530    60.2330    86.1470    72.6850    46.2550    24.5510 
  183.0000   -36.1880     2.2510    62.1090    89.0240    75.3360    40.2030    24.4850 
  183.1250   -36.1650     2.2480    61.3790    93.4080    79.4870    37.6780    24.4140 
  183.2500   -36.1450     2.2380    59.8570    98.2160    84.3050    45.7080    24.3920 
  183.3750   -36.1350     2.2220    59.0670   101.0430    87.7950    66.1140    24.4580 
  183.5000   -36.1310     2.2110    58.4680    99.5210    87.7970    81.7940    24.5400 
  183.6250   -36.1250     2.2150    58.4570    93.0480    83.5150    78.6120    24.5290 
  183.7500   -36.1110     2.2320    60.0190    83.3660    76.0520    63.8230    24.4240 
  183.8750   -36.0810     2.2520    62.6910    73.4530    67.7690    51.4870    24.3190 
  184.0000   -36.0470     2.2660    65.0570    65.3730    60.6170    47.5380    24.2270 
  184.1250   -36.0120     2.2730    65.9950    59.4460    55.1120    47.0590    24.1310 
  184.2500   -35.9620     2.2770    64.7090    55.2510    51.0900    47.4430    24.0710 
  184.3750   -35.9010     2.2790    62.8310    52.2260    48.1480    46.2860    24.0740 
  184.5000   -35.8400     2.2800    62.4460    50.0480    46.0000    43.3950    24.1060 
  184.6250   -35.7760     2.2810    62.7710    48.8730    44.7460    39.8510    24.1230 
  184.7500   -35.7210     2.2810    62.9950    49.0180    44.6570    38.2260    24.1270 
  184.8750   -35.7000     2.2780    63.5810    50.5270    45.8120    38.7810    24.1860 
  185.0000   -35.7190     2.2690    63.8950    52.8850    47.8110    40.2580    24.3050 
  185.1250   -35.7700     2.2550    62.7790    55.4850    50.1310    43.8570    24.4070 
  185.2500   -35.8440     2.2450    61.8640    57.7140    52.1750    52.0300    24.4720 
  185.3750   -35.9400     2.2460    63.6690    59.3860    53.6740    58.4870    24.5310 
  185.5000   -36.0590     2.2590    66.7940    60.9370    54.9470    55.5710    24.5860 
  185.6250   -36.2080     2.2730    67.6520    62.9310    56.5000    50.9560    24.6120 
  185.7500   -36.3890     2.2800    65.8520    65.7450    58.7390    51.7210    24.6160 
  185.8750   -36.5880     2.2760    64.4540    69.2280    61.6440    58.5000    24.6140 
  186.0000   -36.7910     2.2670    65.0090    72.6930    64.6890    69.8640    24.6150 
  186.1250   -37.0050     2.2590    65.6150    75.4920    67.2830    80.9440    24.6150 
  186.2500   -37.2450     2.2540    63.9710    77.3080    68.9960    83.2270    24.6040 
  186.3750   -37.5140     2.2510    61.3480    78.4870    69.9750    77.1190    24.5750 
  186.5000   -37.8010     2.2500    60.4960    79.7540    70.8560    67.9260    24.5320 
  186.6250   -38.0940     2.2500    60.8720    81.3460    71.9940    61.6010    24.4570 
  186.7500   -38.3710     2.2510    59.6560    82.7340    73.1320    70.0220    24.2960 
  186.8750   -38.6200     2.2530    57.0580    82.9140    73.4860   101.0150    24.0260 
  187.0000   -38.8530     2.2580    56.8820    81.4420    72.5250   125.3680    23.7360 
  187.1250   -39.0690     2.2690    59.1750    78.9170    70.5380   110.1250    23.5690 
  187.2500   -39.2490     2.2810    60.2730    76.9600    68.7220    75.3230    23.6020 
  187.3750   -39.3810     2.2860    58.8380    77.3260    68.5630    55.2830    23.8040 
  187.5000   -39.4760     2.2830    58.0460    80.8740    70.9820    54.8620    24.0750 
  187.6250   -39.5420     2.2720    59.4580    87.7620    76.3390    71.7210    24.3440 
  187.7500   -39.5990     2.2560    59.7110    97.4810    84.4680   100.5680    24.5480 
  187.8750   -39.6600     2.2440    55.7620   108.6360    94.3580   127.0110    24.6520 
  188.0000   -39.7180     2.2400    51.2840   119.3340   104.2960   140.5280    24.6840 
  188.1250   -39.7650     2.2410    52.1490   128.5110   113.1100   142.3080    24.6880 
  188.2500   -39.8140     2.2420    57.5500   136.2780   120.5170   139.6530    24.6840 
  188.3750   -39.8770     2.2360    60.5500   143.9330   127.3900   135.2340    24.6680 
  188.5000   -39.9430     2.2270    58.2710   152.8920   135.0340   129.5210    24.6440 
  188.6250   -40.0120     2.2180    53.8250   163.5720   144.0680   131.5600    24.6260 
  188.7500   -40.0880     2.2110    51.4700   175.1640   154.1700   149.4830    24.6200 
  188.8750   -40.1690     2.2070    53.2610   185.6830   163.9530   178.4640    24.6250 
  189.0000   -40.2560     2.2110    57.3640   192.9350   171.5890   198.6030    24.6380 
  189.1250   -40.3560     2.2190    59.4820   195.4220   175.6580   205.4580    24.6550 
  189.2500   -40.4750     2.2260    56.9520   192.2460   175.0790   202.8640    24.6700 
  189.3750   -40.6250     2.2300    52.8720   183.7690   169.7750   193.3130    24.6900 
  189.5000   -40.8140     2.2280    51.4150   171.8780   161.0420   178.6060    24.7140 
  189.6250   -41.0100     2.2190    51.9910   158.2020   150.1000   165.2180    24.7370 
  189.7500   -41.1910     2.2080    51.7230   144.4450   138.3430   150.4370    24.7360 
  189.8750   -41.3770     2.2030    49.9790   132.0840   127.1750   125.1970    24.6880 
  190.0000   -41.5790     2.2030    49.8830   121.9970   117.6710    96.3220    24.5970 
  190.1250   -41.7980     2.2040    53.1890   114.6220   110.4480    73.1310    24.4840 
  190.2500   -42.0450     2.2040    57.1340   110.1090   105.8240    65.6980    24.3870 
  190.3750   -42.3160     2.2050    57.8090   108.1610   103.6240    77.1020    24.3280 
  190.5000   -42.5990     2.2130    56.6320   108.1700   103.2710    97.4870    24.2670 
  190.6250   -42.9200     2.2250    56.6430   110.2440   104.7980   111.1950    24.1960 
  190.7500   -43.2910     2.2330    57.2460   115.4630   109.1380   110.1370    24.1440 
  190.8750   -43.6820     2.2310    56.4410   125.4360   117.7770   102.9000    24.1460 
  191.0000   -44.0610     2.2180    54.5130   141.3660   131.9380   100.7250    24.1850 
  191.1250   -44.4250     2.1940    53.3020   164.3870   152.8030   112.0380    24.2390 
