~V
VERS. 2.00: Ver 2.00
~W
STRT.M 63.0000:
STOP.M 244.0000:
STEP.M 0.1250:
NULL. -999.2500:
UWI. F11131:
~C
DEPT.M :
SP.MV :
DEN.GM/CC :
GR.API :
RML.OHMM :
RI. :
RXO.OHMM :
CALI.CM :
~A
# ...
  220.5000   -19.0920     2.1790    44.7420    14.4360    14.4920    21.6150    24.5610 
  220.6250   -18.2820     2.1490    47.8740    10.4500    10.8940    12.2360    25.1090 
  220.7500   -17.5170     2.1230    49.8430     7.9800     8.4930     8.1180    25.7870 
  220.8750   -16.8580     2.0990    48.7780     6.5520     6.9940     6.4960    26.1710 
  221.0000   -16.3760     2.0980    46.5740     5.7760     6.1370     5.7110    26.2420 
  221.1250   -16.0610     2.1210    47.0410     5.4200     5.7550     5.0920    26.6400 
  221.2500   -15.8870     2.1450    49.3740     5.2390     5.5930     4.8430    27.4560 
  221.3750   -15.8780     2.1340    49.9350     5.1320     5.5220     4.8030    27.8390 
  221.5000   -16.0400     2.0720    46.3650     5.0470     5.4620     4.7930    27.2110 
  221.6250   -16.3860     1.9930    41.9830     4.9570     5.3720     4.9620    26.1590 
  221.7500   -16.8730     1.9310    41.6640     4.8610     5.2600     5.0580    25.5180 
  221.8750   -17.4700     1.9040    45.2870     4.7730     5.1510     4.6630    25.3220 
  222.0000   -18.1400     1.9250    49.9150     4.7180     5.0730     4.3850    25.4350 
  222.1250   -18.8890     1.9770    54.6400     4.7290     5.0430     4.4340    25.7780 
  222.2500   -19.7540     2.0510    60.9920     4.8040     5.0450     4.6040    25.8770 
  222.3750   -20.6510     2.1320    66.3080     4.9350     5.0660     4.6810    25.4560 
  222.5000   -21.5700     2.2010    68.9720     5.1120     5.1020     4.9190    24.8300 
  222.6250   -22.4550     2.2570    73.4350     5.3320     5.1740     5.2040    24.4460 
  222.7500   -23.3370     2.3020    78.2160     5.4810     5.2360     5.4150    24.3300 
  222.8750   -24.1730     2.3370    85.3260     5.6570     5.3310     5.4880    24.3060 
  223.0000   -24.9450     2.3520    97.9770     5.9950     5.5350     5.6700    24.3250 
  223.1250   -25.6270     2.3460   107.6930     6.3970     5.8020     6.4830    24.4060 
  223.2500   -26.2180     2.3220   115.7050     6.8150     6.0920     7.4870    24.4730 
  223.3750   -26.7580     2.2950   124.0100     7.2150     6.3850     8.2620    24.5000 
  223.5000   -27.1970     2.2820   130.3490     7.5850     6.6730     8.5950    24.5050 
  223.6250   -27.5470     2.2850   127.6200     7.9350     6.9800     8.9770    24.5080 
  223.7500   -27.7280     2.2960   115.4230     8.3130     7.3440     9.4110    24.5140 
  223.8750   -27.7220     2.3060   101.0120     8.7830     7.7980     9.8140    24.5190 
  224.0000   -27.5700     2.3060    92.2600     9.3880     8.3560    10.2300    24.5300 
  224.1250   -27.2190     2.3020    88.3640    10.0830     8.9620    11.4880    24.5310 
  224.2500   -26.6750     2.3000    85.2900    10.6950     9.4800    13.6760    24.4940 
  224.3750   -25.9170     2.3010    83.8720    11.0560     9.7860    15.2710    24.4160 
  224.5000   -25.0000     2.2990    86.2150    11.0680     9.8070    14.9530    24.3360 
  224.6250   -23.9640     2.2950    87.4640    10.7040     9.5080    13.6630    24.3010 
  224.7500   -22.8790     2.2930    85.7930    10.1360     9.0160    12.1780    24.2930 
  224.8750   -21.8170     2.3010    84.3770     9.4750     8.4200    10.7570    24.2930 
  225.0000   -20.7640     2.3220    84.6320     8.7850     7.7890    10.2640    24.2930 
  225.1250   -19.8470     2.3470    84.5220     8.1220     7.1800    10.5100    24.2950 
  225.2500   -19.0430     2.3670    85.2390     7.5420     6.6310     9.5920    24.2930 
  225.3750   -18.3620     2.3760    87.2550     7.1070     6.1850     7.7870    24.2890 
  225.5000   -17.8220     2.3790    89.4990     6.8980     5.9040     6.7780    24.2890 
  225.6250   -17.3600     2.3860    90.8690     7.1010     5.9300     6.8770    24.2930 
  225.7500   -16.9590     2.4070    90.2220     7.8070     6.3300     7.2520    24.2980 
  225.8750   -16.6210     2.4370    87.7650     9.0840     7.1730     7.3590    24.3010 
  226.0000   -16.3270     2.4590    85.8230    10.8650     8.4500     7.5230    24.2920 
  226.1250   -15.9580     2.4630    86.6890    12.8910    10.0350     9.3920    24.2630 
  226.2500   -15.5430     2.4540    87.5860    14.6980    11.5690    13.8120    24.2330 
  226.3750   -15.0950     2.4430    87.1140    15.9370    12.7480    18.2420    24.2210 
  226.5000   -14.5810     2.4340    87.3030    16.4070    13.3480    20.8540    24.2260 
  226.6250   -14.0560     2.4270    88.1810    16.0000    13.2040    19.9480    24.2330 
  226.7500   -13.5410     2.4200    87.4860    15.0470    12.5550    17.0540    24.2360 
  226.8750   -13.0200     2.4150    86.3430    13.8150    11.6050    15.2710    24.2380 
  227.0000   -12.5180     2.4140    87.2400    12.5910    10.5760    19.3370    24.2440 
  227.1250   -12.1260     2.4090    88.3510    11.6330     9.6830    20.9520    24.2560 
  227.2500   -11.7860     2.3870    86.7280    10.9090     8.9800    16.5320    24.2580 
  227.3750   -11.4680     2.3500    84.2530    10.2750     8.4080    10.7200    24.2300 
  227.5000   -11.1940     2.3100    84.1450     9.5780     7.8620     9.3870    24.1790 
  227.6250   -10.9540     2.2790    84.1450     8.6990     7.2340    11.4480    24.1500 
  227.7500   -10.7730     2.2570    84.1450     7.7300     6.5370    11.4800    24.1810 
  227.8750   -10.6140     2.2380    84.1450     6.8420     5.8660     8.9770    24.2710 
  228.0000   -10.4740     2.2170    84.1450     6.2030     5.3410     5.7940    24.3720 
  228.1250   -10.3320     2.2010    84.1450     5.9410     5.0750     4.7850    24.4240 
  228.2500   -10.2080     2.1970    84.1450     5.9560     5.0130     4.4200    24.4330 
  228.3750   -10.1070     2.2080    84.1450     6.1390     5.0780     4.4350    24.4320 
  228.5000   -10.0590     2.2270    84.1450     6.3640     5.1850     4.4460    24.4320 
  228.6250   -10.0230     2.2460    84.1450     6.5220     5.2650     4.5990    24.4330 
  228.7500    -9.9640     2.2580    84.1450     6.5790     5.2940     4.8570    24.4330 
  228.8750    -9.8820     2.2650    84.1450     6.5290     5.2740     5.0190    24.4280 
  229.0000    -9.8020     2.2680    84.1450     6.3910     5.2150     4.7180    24.4230 
  229.1250    -9.7370     2.2690    84.1450     6.2260     5.1410     4.5140    24.4260 
  229.2500    -9.6920     2.2710    84.1450     6.0920     5.0750     4.3850    24.4340 
  229.3750    -9.6620     2.2740    84.1450     6.0130     5.0220     4.3750    24.4400 
  229.5000    -9.6010     2.2720    84.1450     5.9970     4.9810     4.3930    24.4380 
  229.6250    -9.4960     2.2650    84.1450     6.0400     4.9480     4.4970    24.4320 
  229.7500    -9.3990     2.2570    84.1450     6.1130     4.9220     4.7550    24.4330 
  229.8750    -9.3260     2.2530    84.1450     6.1980     4.9050     5.1750    24.4420 
  230.0000    -9.2710     2.2560    84.1450     6.2830     4.8950     5.5410    24.4480 
  230.1250    -9.1810     2.2620    84.1450     6.3490     4.8850     5.3130    24.4440 
  230.2500    -9.0640     2.2630    84.1450     6.3970     4.8710     4.9540    24.4380 
  230.3750    -8.9420     2.2590    84.1450     6.4330     4.8530     4.7570    24.4390 
  230.5000    -8.8440     2.2550    84.1450     6.4550     4.8360     4.6700    24.4450 
  230.6250    -8.8090     2.2560    84.1450     6.4510     4.8250     4.6210    24.4570 
  230.7500    -8.7620     2.2610    84.1450     6.4370     4.8220     4.5920    24.4740 
  230.8750    -8.7230     2.2690    84.1450     6.4310     4.8280     4.5430    24.4900 
  231.0000    -8.6670     2.2730    84.1450     6.4490     4.8400     4.4230    24.5010 
  231.1250    -8.6520     2.2730    84.1450     6.4920     4.8560     4.3820    24.5060 
  231.2500    -8.6880     2.2690    84.1450     6.5410     4.8690     4.3940    24.5200 
  231.3750    -8.7660     2.2620    84.1450     6.5790     4.8800     4.3870    24.5440 
  231.5000    -8.8560     2.2530    84.1450     6.6060     4.8870     4.3670    24.5670 
  231.6250    -8.9360     2.2460    84.1450     6.6250     4.8910     4.3550    24.5760 
