~V
VERS. 2.00: Ver 2.00
~W
STRT.M 50.0000:
STOP.M 245.0000:
STEP.M 0.1250:
NULL. -999.2500:
UWI. F11135:
~C
DEPT.M :
GR.API :
RML.OHMM :
RI. :
RXO.OHMM :
CALI.CM :
SP.MV :
DEN.GM/CC :
~A
# ...
  128.7500    44.3200    18.8270    17.2350    15.7390    23.8740   -19.0580     2.4380 
  128.8750    44.1390    19.0770    17.2350    15.4940    23.9650   -19.1210     2.4570 
  129.0000    42.8670    19.8110    17.4470    16.0930    23.9710   -19.1820     2.4820 
  129.1250    42.8130    20.8450    17.9160    17.1250    23.9140   -19.1940     2.5040 
  129.2500    41.4520    21.7170    18.4870    18.4880    23.9120   -19.2330     2.5200 
  129.3750    38.2040    22.1780    18.9870    19.9330    23.9730   -19.2410     2.5270 
  129.5000    35.5400    22.2460    19.2620    20.0470    24.1060   -19.2660     2.5260 
  129.6250    34.8960    22.1090    19.2410    18.7990    24.0820   -19.3090     2.5230 
  129.7500    36.5010    21.9580    19.0900    17.6070    24.0700   -19.3660     2.5210 
  129.8750    39.4850    21.8290    18.9400    17.2520    24.0220   -19.4200     2.5200 
  130.0000    42.0150    21.7370    18.8490    17.8290    23.8790   -19.4730     2.5170 
  130.1250    42.6430    21.7310    18.8130    18.4010    23.7240   -19.5410     2.5090 
  130.2500    42.4490    21.7630    18.7840    18.5790    23.7200   -19.5730     2.4980 
  130.3750    41.1190    21.7140    18.7530    18.0610    23.7380   -19.6230     2.4890 
  130.5000    39.9710    21.5180    18.7520    17.7710    23.7630   -19.6060     2.4840 
  130.6250    43.0310    21.3140    18.8300    18.0760    23.7650   -19.5860     2.4870 
  130.7500    46.3380    21.3290    18.9800    18.0510    23.6780   -19.5500     2.4920 
  130.8750    46.0340    21.6580    19.1660    17.2590    23.9870   -19.5190     2.4940 
  131.0000    43.7630    22.2220    19.3620    17.2260    24.2760   -19.4820     2.4890 
  131.1250    44.6080    22.7710    19.5400    17.7000    24.3920   -19.4620     2.4780 
  131.2500    47.6830    23.0700    19.6630    17.8010    24.4450   -19.4510     2.4640 
  131.3750    48.4170    23.0750    19.6850    17.8850    24.4710   -19.4270     2.4530 
  131.5000    47.2210    22.8410    19.5740    18.4080    24.6010   -19.4320     2.4460 
  131.6250    47.7910    22.3180    19.3110    18.5160    24.9580   -19.4120     2.4430 
  131.7500    48.0410    21.4760    18.9720    17.5530    25.5840   -19.4200     2.4420 
  131.8750    44.8060    20.3960    18.6180    16.1070    26.4130   -19.4310     2.4430 
  132.0000    40.4690    19.3050    18.2760    16.0630    27.2090   -19.4980     2.4480 
  132.1250    41.2660    18.4970    17.9240    16.5850    27.5320   -19.5670     2.4580 
  132.2500    43.9110    18.0420    17.5410    16.5090    27.5500   -19.6690     2.4690 
  132.3750    43.9420    17.8800    17.1190    16.2220    27.3540   -19.7800     2.4730 
  132.5000    42.4090    17.8400    16.6710    15.8910    27.2690   -19.8820     2.4650 
  132.6250    41.1930    17.7840    16.2630    15.0360    27.2560   -20.0050     2.4460 
  132.7500    39.5320    17.7260    15.9480    14.6340    27.2620   -20.0920     2.4200 
  132.8750    38.0110    17.7250    15.7570    14.6170    27.3120   -20.1830     2.4080 
  133.0000    38.5260    17.8190    15.7130    14.7360    27.5130   -20.2040     2.3850 
  133.1250    40.5920    18.0680    15.8570    15.1920    28.0680   -20.2280     2.3590 
  133.2500    42.1220    18.4530    16.1390    15.0890    28.5730   -20.2120     2.3450 
  133.3750    42.6700    18.8840    16.4830    14.4730    28.2090   -20.1880     2.3510 
  133.5000    40.6470    19.1820    16.7660    14.1360    26.9950   -20.2030     2.3780 
  133.6250    35.7980    19.0970    16.8210    13.7480    26.4480   -20.2360     2.4170 
  133.7500    32.6990    18.6740    16.6580    13.2870    26.6270   -20.3210     2.4480 
  133.8750    32.7280    18.1130    16.3750    12.9740    26.8340   -20.4150     2.4630 
  134.0000    34.3560    17.6670    16.0970    12.8340    26.4100   -20.5800     2.4630 
  134.1250    36.5600    17.5760    15.9170    12.6150    25.8980   -20.7410     2.4580 
  134.2500    38.7240    17.7490    15.8400    12.5660    25.6540   -20.9420     2.4510 
  134.3750    38.5050    17.9880    15.8490    12.3380    25.7590   -21.1430     2.4420 
  134.5000    35.6450    18.0790    15.8850    11.7040    26.2120   -21.3170     2.4300 
  134.6250    34.9650    17.8520    15.8380    10.9190    26.3240   -21.4950     2.4220 
  134.7500    37.3050    17.3610    15.6220    10.9390    26.4190   -21.6430     2.4210 
  134.8750    40.1980    16.6550    15.1970    10.9860    26.7180   -21.7950     2.4260 
  135.0000    42.6540    15.7580    14.5710    10.2260    26.8980   -21.9140     2.4330 
  135.1250    44.7680    14.6760    13.7910     8.8320    26.5200   -22.0710     2.4350 
  135.2500    45.7170    13.5460    12.9960     8.0860    25.7680   -22.2250     2.4340 
  135.3750    46.4230    12.5540    12.2970     7.7850    24.5210   -22.4010     2.4350 
  135.5000    49.3700    11.9300    11.7870     7.4080    23.7710   -22.5720     2.4380 
  135.6250    53.0930    11.9230    11.5790     6.9440    23.5700   -22.7120     2.4400 
  135.7500    52.8630    12.4280    11.6630     7.1290    23.4550   -22.8640     2.4350 
  135.8750    50.3630    13.2940    12.0390     7.8910    23.3350   -23.0030     2.4240 
  136.0000    49.7280    14.3100    12.6720     8.6170    23.2900   -23.1510     2.4140 
  136.1250    51.1280    15.2890    13.4660     8.9950    23.2770   -23.2490     2.4100 
  136.2500    51.2570    16.0960    14.1980     9.3900    23.2700   -23.3570     2.4150 
  136.3750    51.5960    16.6160    14.6870     9.7810    23.2230   -23.4470     2.4250 
  136.5000    54.4530    16.7670    14.8470    10.0120    23.2110   -23.5580     2.4310 
  136.6250    60.2040    16.5000    14.7050     9.8920    23.2630   -23.6830     2.4290 
  136.7500    64.6250    16.0480    14.4590     9.5980    23.3960   -23.8140     2.4220 
  136.8750    63.8080    15.6270    14.2200     9.6160    23.4510   -23.9400     2.4120 
  137.0000    60.1470    15.4130    14.0580     9.8990    23.5640   -24.0510     2.4050 
  137.1250    59.4630    15.5160    14.0320    10.4340    23.8310   -24.1810     2.4040 
  137.2500    61.8500    15.8120    14.1310    10.9910    23.9930   -24.3070     2.4060 
  137.3750    65.8940    16.2160    14.3340    11.2600    24.1380   -24.4610     2.4090 
  137.5000    70.4840    16.6760    14.6030    11.0830    24.2550   -24.5870     2.4110 
  137.6250    74.7620    17.1460    14.8810    11.0750    24.4680   -24.7230     2.4070 
  137.7500    73.9130    17.5380    15.0930    11.4870    24.7620   -24.8060     2.3950 
  137.8750    67.3380    17.7900    15.1900    12.0790    25.2640   -24.8670     2.3730 
  138.0000    59.7810    17.9240    15.1750    12.2070    25.8320   -24.9100     2.3480 
  138.1250    57.2490    18.0450    15.1210    11.5340    26.4670   -24.9080     2.3270 
  138.2500    60.1560    18.2830    15.1620    10.7780    26.6990   -24.8880     2.3180 
  138.3750    64.4690    18.7130    15.3960    10.1920    26.5660   -24.8310     2.3250 
  138.5000    66.0500    19.3520    15.8760     9.9020    26.1920   -24.7860     2.3440 
  138.6250    62.2600    20.1580    16.6050     8.4230    25.8470   -24.6970     2.3710 
  138.7500    56.7720    20.9350    17.3920     7.9210    25.5060   -24.6480     2.3990 
  138.8750    54.6360    21.4780    18.0360     7.8230    25.2040   -24.5990     2.4240 
  139.0000    56.1860    21.6480    18.3670     7.9800    25.1180   -24.5650     2.4410 
  139.1250    57.4250    21.4670    18.3370     8.2530    25.1850   -24.5510     2.4440 
  139.2500    57.7490    21.2950    18.2080     8.4150    25.1380   -24.5040     2.4330 
  139.3750    59.7680    21.4090    18.2080     8.5700    25.0890   -24.4650     2.4150 
  139.5000    63.8170    21.8800    18.4580     8.6870    25.1240   -24.3930     2.3980 
  139.6250    66.4300    22.5040    18.9380     9.3550    25.2580   -24.3270     2.3890 
  139.7500    66.0910    22.9300    19.4320    10.8410    25.7320   -24.2130     2.3890 
  139.8750    64.3970    22.9850    19.7570    11.9880    26.2510   -24.0980     2.3940 
