~V
VERS. 2.00: Ver 2.00
~W
STRT.M 20.0000:
STOP.M 279.0000:
STEP.M 0.1250:
NULL. -999.2500:
UWI. F11153:
~C
DEPT.M :
DEN.GM/CC :
GR.API :
RML.OHMM :
RI. :
RXO.OHMM :
CALI.CM :
SP.MV :
~A
# ...
   98.7500     2.1900    70.2440     8.1920     6.4070     7.6860    25.7180   -31.1140 
   98.8750     2.1910    67.0870     8.2620     6.4360     8.1340    25.6230   -30.7350 
   99.0000     2.1880    66.7630     8.3690     6.5120     8.9690    25.5780   -30.4440 
   99.1250     2.1850    66.2690     8.4280     6.5860     9.0340    25.6080   -30.2090 
   99.2500     2.1810    64.3130     8.4200     6.6310     8.5450    25.6640   -29.9910 
   99.3750     2.1760    63.2260     8.3840     6.6540     8.1270    25.7110   -29.8380 
   99.5000     2.1690    64.9610     8.3720     6.6710     8.1770    25.7370   -29.6910 
   99.6250     2.1630    64.3730     8.3980     6.6860     8.3610    25.7610   -29.4530 
   99.7500     2.1600    59.8830     8.3810     6.6680     8.3910    25.8280   -29.1800 
   99.8750     2.1590    56.0940     8.2000     6.5530     8.3210    25.9660   -28.9100 
  100.0000     2.1580    58.3030     7.7740     6.2830     8.0560    26.1380   -28.6560 
  100.1250     2.1620    65.9710     7.1840     5.8740     7.4610    26.2990   -28.4810 
  100.2500     2.1760    71.0050     6.7080     5.4880     7.1630    26.4230   -28.4200 
  100.3750     2.1990    72.1300     6.5490     5.2660     6.8780    26.5590   -28.5500 
  100.5000     2.2300    71.3640     6.8060     5.3050     6.4160    26.7180   -28.9280 
  100.6250     2.2730    71.3600     7.5110     5.6810     6.3310    26.7840   -29.5950 
  100.7500     2.3320    70.2180     8.4090     6.2720     7.7770    26.6900   -30.4520 
  100.8750     2.3980    66.2740     9.2250     6.9150     9.4560    26.5400   -31.4550 
  101.0000     2.4380    61.7350     9.6830     7.4010    10.0120    26.4350   -32.5500 
  101.1250     2.4010    59.4550     9.5960     7.5310    10.1110    26.3570   -33.6590 
  101.2500     2.3220    60.1890     9.2170     7.4030     9.9810    26.2630   -34.6970 
  101.3750     2.2530    61.9590     8.8100     7.1810     9.9300    26.1410   -35.5520 
  101.5000     2.2160    62.3880     8.5710     7.0210    10.0610    26.0740   -36.1480 
  101.6250     2.2070    59.7060     8.6030     7.0260    10.4680    26.1000   -36.4450 
  101.7500     2.2040    55.0960     8.8200     7.1640    10.8510    26.2160   -36.5560 
  101.8750     2.2020    51.8980     9.1530     7.3910    11.0550    26.3820   -36.4920 
  102.0000     2.2050    51.2880     9.5060     7.6490    11.1590    26.5190   -36.2920 
  102.1250     2.2140    51.9150     9.7420     7.8500    11.1950    26.5350   -36.0040 
  102.2500     2.2190    52.5540     9.7890     7.9340    11.1270    26.5010   -35.6950 
  102.3750     2.2140    54.1060     9.6410     7.8810    10.7660    26.4630   -35.4090 
  102.5000     2.2040    57.1720     9.3660     7.7210    10.2170    26.4230   -35.1960 
  102.6250     2.2010    59.7810     9.0840     7.5210    10.1420    26.3980   -35.0700 
  102.7500     2.2040    60.7590     8.8810     7.3580    10.5610    26.4110   -34.8990 
  102.8750     2.2090    62.0120     8.7780     7.2650    10.9200    26.4250   -34.6770 
  103.0000     2.2110    63.4120     8.7620     7.2450    11.0540    26.4310   -34.4480 
  103.1250     2.2050    63.0610     8.8070     7.2830    11.0990    26.4750   -34.1420 
  103.2500     2.1950    61.7580     8.8610     7.3290    11.1090    26.5730   -33.6780 
  103.3750     2.1820    61.4840     8.8890     7.3480    10.9870    26.6760   -33.0390 
  103.5000     2.1700    61.4250     8.8540     7.3150    10.7940    26.6850   -32.2600 
  103.6250     2.1610    60.2910     8.6840     7.1890    10.4110    26.5000   -31.3530 
  103.7500     2.1610    59.7090     8.3830     6.9730     9.7590    26.2130   -30.4310 
  103.8750     2.1700    61.5880     7.9960     6.6900     8.9780    25.9260   -29.5540 
  104.0000     2.1850    65.2120     7.6080     6.3900     8.3100    25.6900   -28.7050 
  104.1250     2.2030    69.2120     7.3270     6.1410     7.6690    25.5930   -27.9470 
  104.2500     2.2180    71.9920     7.1820     5.9710     7.0740    25.5650   -27.3550 
  104.3750     2.2240    71.3000     7.1440     5.8760     7.0300    25.5600   -26.9080 
  104.5000     2.2180    66.5130     7.1500     5.8350     7.0390    25.5600   -26.5840 
  104.6250     2.2070    63.8490     7.1430     5.8200     7.1460    25.5840   -26.3930 
  104.7500     2.2000    65.0050     7.1210     5.8130     7.0030    25.6120   -26.2800 
  104.8750     2.2010    65.8680     7.1210     5.8180     6.8900    25.6240   -26.2410 
  105.0000     2.2050    64.6600     7.1890     5.8510     6.9300    25.6250   -26.2760 
  105.1250     2.2100    64.8880     7.3520     5.9410     7.2070    25.6190   -26.3610 
  105.2500     2.2140    66.3380     7.5630     6.0830     7.4080    25.6030   -26.4480 
  105.3750     2.2160    66.2440     7.7720     6.2590     7.5080    25.5800   -26.5540 
  105.5000     2.2150    63.7830     7.9320     6.4300     7.6620    25.5630   -26.6880 
  105.6250     2.2130    63.8300     7.9970     6.5380     7.7890    25.5370   -26.8720 
  105.7500     2.2140    66.9510     7.9830     6.5670     8.0210    25.4950   -27.0860 
  105.8750     2.2180    70.4930     7.9140     6.5260     8.2630    25.4540   -27.2960 
  106.0000     2.2220    72.1000     7.8200     6.4410     8.3380    25.4070   -27.5390 
  106.1250     2.2250    70.2450     7.7490     6.3530     7.9910    25.3350   -27.8740 
  106.2500     2.2220    66.5630     7.7510     6.3010     7.9540    25.2820   -28.2300 
  106.3750     2.2100    62.4150     7.8450     6.3030     8.0430    25.2610   -28.5730 
  106.5000     2.1920    58.4720     8.0120     6.3570     8.0790    25.2600   -28.9220 
  106.6250     2.1830    56.8880     8.1920     6.4430     8.1220    25.2610   -29.3310 
  106.7500     2.1850    57.9450     8.3110     6.5210     8.1610    25.2620   -29.8080 
  106.8750     2.1910    61.5340     8.3420     6.5640     8.1670    25.2620   -30.3170 
  107.0000     2.1960    64.5690     8.3060     6.5690     8.1400    25.2730   -30.7990 
  107.1250     2.1960    63.4730     8.2540     6.5540     8.1170    25.3410   -31.2800 
  107.2500     2.1920    60.7910     8.2220     6.5500     8.1530    25.4830   -31.7860 
  107.3750     2.1830    59.8880     8.2210     6.5760     8.4230    25.6400   -32.2410 
  107.5000     2.1700    61.3370     8.2590     6.6390     8.8330    25.7500   -32.5780 
  107.6250     2.1580    63.4300     8.3490     6.7390     9.0620    25.7920   -32.6960 
  107.7500     2.1500    63.9230     8.4610     6.8490     9.1050    25.7600   -32.5400 
  107.8750     2.1450    62.4560     8.5310     6.9330     9.1600    25.6540   -32.0860 
  108.0000     2.1370    60.9650     8.4690     6.9310     9.2240    25.5130   -31.3780 
  108.1250     2.1310    62.2530     8.1680     6.7590     9.0990    25.3530   -30.3320 
  108.2500     2.1310    64.6980     7.6810     6.4350     8.5770    25.1890   -29.0450 
  108.3750     2.1420    67.7290     7.1130     6.0170     7.5730    25.0610   -27.6530 
  108.5000     2.1620    71.6680     6.5980     5.5970     6.2760    24.9910   -26.2550 
  108.6250     2.1920    75.8500     6.2850     5.2870     5.6190    24.9680   -24.9030 
  108.7500     2.2210    76.0740     6.1800     5.1230     5.6340    24.9810   -23.6500 
  108.8750     2.2380    71.5530     6.2310     5.0910     5.8760    25.0320   -22.5200 
  109.0000     2.2390    68.5570     6.3330     5.1330     6.0930    25.1020   -21.4910 
  109.1250     2.2370    72.3970     6.3260     5.1480     6.6110    25.1340   -20.6060 
  109.2500     2.2420    78.4760     6.1360     5.0560     6.9310    25.1480   -19.9140 
  109.3750     2.2510    82.4240     5.7900     4.8420     6.8010    25.1710   -19.4010 
  109.5000     2.2600    84.2360     5.3850     4.5480     6.0140    25.2110   -18.9670 
  109.6250     2.2700    87.1620     5.0500     4.2550     5.3110    25.2580   -18.6750 
  109.7500     2.2860    90.2520     4.8400     4.0240     4.8560    25.3020   -18.5930 
  109.8750     2.3020    91.5470     4.7720     3.8830     4.6890    25.3480   -18.7170 
