~V
VERS. 2.00: Ver 2.00
~W
STRT.M 60.0000:
STOP.M 281.0000:
STEP.M 0.1250:
NULL. -999.2500:
UWI. F11154:
~C
DEPT.M :
DEN.GM/CC :
GR.API :
RML.OHMM :
RI. :
RXO.OHMM :
CALI.CM :
SP.MV :
~A
# ...
   71.2500     2.2440    54.7450    11.8800     9.7190    23.7760    24.7220   -31.1110 
   71.3750     2.3080    56.0810    11.9880     9.8800    28.2490    24.9110   -31.0860 
   71.5000     2.3280    59.0540    11.7200     9.7760    29.2230    24.8910   -31.0160 
   71.6250     2.2750    62.1940    11.1510     9.4110    19.8060    24.5300   -30.9230 
   71.7500     2.2070    63.6750    10.5580     8.9690    14.1120    24.2210   -30.8210 
   71.8750     2.1670    63.3320    10.1180     8.5800    12.5390    24.0550   -30.7000 
   72.0000     2.1550    62.2280     9.9110     8.3230    12.3720    23.9910   -30.5400 
   72.1250     2.1540    62.1780     9.9380     8.2330    12.4410    23.9940   -30.3070 
   72.2500     2.1520    62.3710    10.0640     8.2400    12.5140    24.0410   -30.0640 
   72.3750     2.1500    61.4150    10.1950     8.2850    12.6420    24.1040   -29.8350 
   72.5000     2.1500    59.8160    10.2790     8.3230    12.7370    24.1760   -29.6240 
   72.6250     2.1530    58.7650    10.2970     8.3260    12.7020    24.2540   -29.4630 
   72.7500     2.1530    58.7670    10.2760     8.3010    12.6180    24.3370   -29.3380 
   72.8750     2.1470    59.3880    10.2360     8.2580    12.5740    24.4180   -29.2580 
   73.0000     2.1360    59.9310    10.1940     8.2100    12.5130    24.4960   -29.2580 
   73.1250     2.1240    59.4380    10.1590     8.1680    12.5330    24.5850   -29.3960 
   73.2500     2.1150    58.5970    10.1240     8.1330    12.6170    24.6590   -29.6150 
   73.3750     2.1070    57.9480    10.0820     8.1010    12.7990    24.7080   -29.8990 
   73.5000     2.0980    58.3490    10.0310     8.0710    12.9600    24.7310   -30.2100 
   73.6250     2.0940    59.6650     9.9840     8.0510    13.0390    24.7760   -30.5060 
   73.7500     2.0980    59.7150     9.9630     8.0490    13.0220    24.7940   -30.7840 
   73.8750     2.1090    58.4660     9.9820     8.0720    12.8970    24.8050   -31.0070 
   74.0000     2.1170    58.3850    10.0370     8.1180    12.7580    24.8550   -31.1440 
   74.1250     2.1170    59.9350    10.1050     8.1680    12.5420    24.9670   -31.1430 
   74.2500     2.1150    59.5090    10.1440     8.1990    12.1940    25.1440   -31.0470 
   74.3750     2.1180    57.0760    10.1290     8.1930    11.9150    25.3040   -30.8500 
   74.5000     2.1290    56.4520    10.0560     8.1450    11.7520    25.3160   -30.5460 
   74.6250     2.1430    59.0190     9.9440     8.0640    11.6520    25.1440   -30.1630 
   74.7500     2.1540    60.9620     9.8380     7.9770    11.5980    24.9480   -29.7470 
   74.8750     2.1590    60.4290     9.7730     7.9080    11.5880    24.8390   -29.3710 
   75.0000     2.1550    58.4350     9.7620     7.8690    11.6240    24.9120   -29.0570 
   75.1250     2.1350    57.7200     9.8090     7.8720    11.6750    25.2300   -28.8260 
   75.2500     2.0990    58.1970     9.8830     7.9020    11.6220    25.6790   -28.6170 
   75.3750     2.0590    58.3560     9.9580     7.9480    11.4720    26.1800   -28.4270 
   75.5000     2.0290    56.7720    10.0160     7.9960    11.2950    26.7030   -28.2820 
   75.6250     2.0220    54.2310    10.0340     8.0300    11.1480    27.2060   -28.1580 
   75.7500     2.0330    53.2010    10.0120     8.0420    11.0810    27.6620   -28.0070 
   75.8750     2.0650    54.7260     9.9460     8.0250    11.1330    28.0290   -27.7600 
   76.0000     2.1200    57.5330     9.8380     7.9740    11.3330    27.9130   -27.4150 
   76.1250     2.1830    59.9640     9.6820     7.8840    11.5220    26.8860   -26.9920 
   76.2500     2.2140    61.6370     9.5030     7.7700    11.6340    25.5840   -26.5150 
   76.3750     2.2020    63.0230     9.3270     7.6490    11.6290    24.8150   -26.0140 
   76.5000     2.1720    63.7990     9.1920     7.5470    11.4570    24.5640   -25.5350 
   76.6250     2.1650    63.5550     9.1380     7.4980    11.3180    24.5550   -25.1610 
   76.7500     2.1770    63.3470     9.1650     7.5120    11.4100    24.5650   -24.9160 
   76.8750     2.1840    62.9920     9.2600     7.5890    11.7560    24.5400   -24.7710 
   77.0000     2.1700    61.6510     9.3970     7.7180    12.0630    24.4680   -24.6620 
   77.1250     2.1470    59.6140     9.5540     7.8800    12.1710    24.3720   -24.5160 
   77.2500     2.1270    58.6470     9.7040     8.0400    12.0900    24.2700   -24.3510 
   77.3750     2.1140    58.5190     9.8250     8.1690    11.8430    24.1590   -24.1180 
   77.5000     2.1120    58.2950     9.8860     8.2350    11.5560    24.0240   -23.7530 
   77.6250     2.1230    59.0370     9.8250     8.1860    11.2550    23.8520   -23.1470 
   77.7500     2.1430    61.1630     9.6250     8.0160    10.8100    23.7230   -22.3090 
   77.8750     2.1700    64.2400     9.2870     7.7310    10.0760    23.7020   -21.3020 
   78.0000     2.2040    67.7370     8.8440     7.3630     9.0660    23.7790   -20.2010 
   78.1250     2.2380    70.9550     8.3600     6.9690     8.2170    23.9070   -19.1330 
   78.2500     2.2600    73.0250     7.9260     6.6230     7.9250    24.0770   -18.1560 
   78.3750     2.2670    73.4820     7.6340     6.3960     8.0660    24.2020   -17.2660 
   78.5000     2.2670    73.4580     7.6190     6.3710     8.2740    24.1860   -16.4410 
   78.6250     2.2680    72.9410     8.1760     6.7360     8.2420    24.1140   -15.6890 
   78.7500     2.2770    71.2210     9.4400     7.5860     8.4750    24.0870   -14.9940 
   78.8750     2.3090    68.2880    11.4520     9.0010     9.6200    24.1020   -14.3280 
   79.0000     2.3760    65.2250    13.9530    10.8800    12.7270    24.1420   -13.6700 
   79.1250     2.4690    63.9060    16.1530    12.7610    16.9440    24.2070   -13.0000 
   79.2500     2.5490    64.7760    17.1540    13.9350    21.1060    24.2420   -12.3150 
   79.3750     2.5840    67.5880    16.3890    13.8220    23.6130    24.2490   -11.6890 
   79.5000     2.5610    72.4960    13.9770    12.2910    20.1700    24.2460   -11.1740 
   79.6250     2.5080    79.9220    10.8760     9.9310    12.3870    24.2530   -10.8200 
   79.7500     2.4430    88.3260     8.2970     7.7900     7.1220    24.2860   -10.6460 
   79.8750     2.3800    94.4590     6.6150     6.2430     5.1970    24.3310   -10.7010 
   80.0000     2.3550    96.1750     5.7760     5.3150     4.5970    24.4020   -10.9970 
   80.1250     2.3600    94.7290     5.6690     4.9850     4.5020    24.4800   -11.5080 
   80.2500     2.3760    93.5630     6.0000     5.0500     4.7340    24.5380   -12.1470 
   80.3750     2.3880    92.2400     6.6450     5.4150     5.4840    24.5320   -12.9010 
   80.5000     2.3880    88.7520     7.4910     5.9900     6.6110    24.4090   -13.7980 
   80.6250     2.3700    83.5260     8.4080     6.6810     8.2140    24.2470   -14.8390 
   80.7500     2.3340    79.4640     9.2280     7.3570     9.6080    24.1250   -15.9250 
   80.8750     2.2800    76.5220     9.8420     7.9310    10.0110    24.0230   -17.0070 
   81.0000     2.2240    73.1440    10.2140     8.3560    10.0870    23.9230   -18.0460 
   81.1250     2.1880    69.0220    10.3760     8.6280    10.4250    23.8420   -19.0060 
   81.2500     2.1700    64.7170    10.4610     8.8210    11.1270    23.7960   -19.8440 
   81.3750     2.1600    61.4060    10.5320     8.9750    11.9740    23.7970   -20.5070 
   81.5000     2.1510    60.6150    10.6030     9.1000    13.1580    23.8520   -20.9450 
   81.6250     2.1480    62.0990    10.6490     9.1840    14.4850    23.9700   -21.1130 
   81.7500     2.1480    63.5270    10.6660     9.2300    15.5520    24.1290   -21.0980 
   81.8750     2.1480    63.7320    10.6970     9.2630    15.6910    24.3170   -20.9040 
   82.0000     2.1410    62.2220    10.8070     9.3270    14.0020    24.5360   -20.5730 
   82.1250     2.1240    58.6030    11.0860     9.4750    12.6690    24.7720   -20.1530 
   82.2500     2.1080    55.5750    11.5040     9.6930    12.3880    24.9990   -19.6940 
   82.3750     2.1070    55.2300    11.9520     9.9100    12.5980    25.1910   -19.1980 
