~V
VERS. 2.00: Ver 2.00
~W
STRT.M 45.0000:
STOP.M 264.0000:
STEP.M 0.1250:
NULL. -999.2500:
UWI. F11189:
~C
DEPT.M :
SP.MV :
GR.API :
RI. :
RML.OHMM :
RXO.OHMM :
DEN.GM/CC :
~A
# ...
  225.2500    -3.9470    66.6040    26.3310    26.2180    23.9670     2.1440 
  225.3750    -3.8620    63.8870    25.1140    24.8910    23.7920     2.1150 
  225.5000    -3.7860    62.7280    24.4000    24.1310    23.2110     2.1110 
  225.6250    -3.7210    65.3260    23.9340    23.6230    22.7780     2.1090 
  225.7500    -3.6650    67.6440    23.6930    23.3500    22.6910     2.1020 
  225.8750    -3.6190    67.8800    23.6870    23.3300    22.7160     2.0990 
  226.0000    -3.5810    66.8510    23.8590    23.5000    23.0140     2.1090 
  226.1250    -3.5480    66.1840    24.1780    23.8280    23.6410     2.1260 
  226.2500    -3.5140    66.2090    24.5890    24.2460    24.3580     2.1380 
  226.3750    -3.4740    65.9990    24.9960    24.6550    24.7000     2.1490 
  226.5000    -3.4260    65.9190    25.2270    24.8560    24.7820     2.1680 
  226.6250    -3.3660    65.2710    25.1020    24.7120    26.0290     2.1980 
  226.7500    -3.2900    64.2600    24.7800    24.3980    28.1250     2.2220 
  226.8750    -3.1890    63.7250    24.5830    24.2540    27.7750     2.2270 
  227.0000    -3.0590    64.8850    24.7770    24.5610    26.3020     2.2080 
  227.1250    -2.9050    66.0360    25.7070    25.6290    28.1950     2.1750 
  227.2500    -2.7390    64.0200    27.5330    27.6650    30.9270     2.1450 
  227.3750    -2.5740    59.8880    29.8280    30.0450    31.4310     2.1320 
  227.5000    -2.4170    59.0450    31.6250    31.7570    32.4320     2.1300 
  227.6250    -2.2680    60.9800    32.0280    31.8910    35.5250     2.1290 
  227.7500    -2.1190    62.8880    30.8440    30.3560    35.9980     2.1300 
  227.8750    -1.9660    65.3820    28.7320    28.0550    31.6910     2.1370 
  228.0000    -1.8090    68.0080    26.7120    26.0160    28.3730     2.1470 
  228.1250    -1.6540    67.8510    25.2350    24.6090    27.1270     2.1550 
  228.2500    -1.5110    64.7320    24.3970    23.8710    26.2080     2.1580 
  228.3750    -1.3850    63.0450    23.9520    23.5060    29.2200     2.1550 
  228.5000    -1.2800    64.0190    23.4490    23.0700    34.3790     2.1510 
  228.6250    -1.1970    65.1360    22.7850    22.4750    33.9370     2.1550 
  228.7500    -1.1350    65.6390    22.1780    21.9340    29.5100     2.1680 
  228.8750    -1.0930    65.7200    21.9060    21.7620    26.6770     2.1800 
  229.0000    -1.0730    65.1200    22.2190    22.2130    26.2600     2.1790 
  229.1250    -1.0790    65.5890    23.2810    23.4680    27.9410     2.1650 
  229.2500    -1.1150    67.9820    24.8860    25.2570    29.2150     2.1450 
  229.3750    -1.1830    69.1970    26.4450    26.9190    28.6580     2.1330 
  229.5000    -1.2750    66.7760    27.6070    28.1180    28.0040     2.1300 
  229.6250    -1.3780    63.7990    28.1370    28.6500    27.9410     2.1320 
  229.7500    -1.4740    62.5910    28.4890    29.0570    28.3070     2.1290 
  229.8750    -1.5480    61.5920    28.9500    29.6200    29.0410     2.1220 
  230.0000    -1.5980    59.9800    29.3920    30.1850    30.5510     2.1220 
  230.1250    -1.6260    60.3710    29.6180    30.5320    33.7670     2.1290 
  230.2500    -1.6360    61.0670    29.5350    30.5330    34.9130     2.1350 
  230.3750    -1.6250    60.9620    29.0410    30.1080    32.1960     2.1360 
  230.5000    -1.5900    62.4820    28.3280    29.4700    30.3020     2.1370 
  230.6250    -1.5200    64.8640    27.5540    28.7740    29.8040     2.1380 
  230.7500    -1.4150    65.1680    26.9010    28.1970    31.4440     2.1320 
  230.8750    -1.2740    64.5750    26.2990    27.5610    31.0910     2.1150 
  231.0000    -1.1050    64.6950    25.6120    26.7510    22.4410     2.0990 
  231.1250    -0.9130    64.0140    24.9820    25.9650    17.1650     2.0930 
  231.2500    -0.7050    61.1560    24.7040    25.5430    21.8780     2.1030 
  231.3750    -0.4790    60.2920    25.4070    26.1580    26.3390     2.1190 
  231.5000    -0.2320    62.7200    27.3950    28.2270    29.7180     2.1370 
  231.6250     0.0510    64.8600    30.4740    31.6090    42.9180     2.1520 
  231.7500     0.3800    64.3630    33.2450    34.3560    59.1910     2.1640 
  231.8750     0.7620    63.8080    33.6040    34.4770    63.9190     2.1890 
  232.0000     1.1930    64.4090    31.1700    31.4940    57.4070     2.2400 
  232.1250     1.6650    64.9320    26.7240    26.4500    27.8350     2.2730 
  232.2500     2.1640    66.1940    21.7430    21.3190    19.0830     2.2480 
  232.3750     2.6800    70.7020    18.3980    17.9920    16.6350     2.1950 
  232.5000     3.2020    73.8070    16.2780    16.0140    15.4480     2.1800 
  232.6250     3.7270    73.4440    15.8990    15.8530    21.8580     2.2030 
  232.7500     4.2540    72.6200    17.4910    17.6220    48.7730     2.2130 
  232.8750     4.7940    71.6550    21.4970    22.1530    75.6880     2.2130 
  233.0000     5.3580    68.6680    28.1380    29.8370    82.1600     2.2740 
  233.1250     5.9520    64.8070    36.8600    39.9930    94.7480     2.4480 
  233.2500     6.5600    63.7730    40.3370    43.0340   113.8460     2.6440 
  233.3750     7.1450    65.5270    34.1510    35.9910   146.2520     2.7340 
  233.5000     7.6630    67.5940    23.5290    24.0110   184.7120     2.7020 
  233.6250     8.0660    69.4350    10.6760    10.3080   143.9330     2.5870 
  233.7500     8.3400    71.1650     4.6830     4.6090    51.9690     2.4380 
  233.8750     8.4640    72.3930     3.0550     3.0200     8.3830     2.3170 
  234.0000     8.4570    71.6640     2.4690     2.4910     4.4820     2.2730 
  234.1250     8.3220    69.5040     2.4450     2.5690     4.8230     2.2830 
  234.2500     8.0970    69.4580     2.6730     2.8830     4.7260     2.2950 
  234.3750     7.8100    72.2120     3.0100     3.2640     4.5860     2.2980 
  234.5000     7.4950    77.4230     3.2920     3.5300     4.6390     2.3030 
  234.6250     7.1720    85.8040     3.4290     3.6160     4.8980     2.3090 
  234.7500     6.8510    96.1550     3.4830     3.6190     5.0760     2.3140 
  234.8750     6.5390   105.3870     3.4640     3.5660     5.1970     2.3170 
  235.0000     6.2450   111.5080     3.4300     3.5070     5.3620     2.3220 
  235.1250     5.9770   114.2040     3.4010     3.4670     5.5230     2.3310 
  235.2500     5.7420   114.6960     3.3830     3.4550     5.5350     2.3380 
  235.3750     5.5420   115.2260     3.3690     3.4710     5.3640     2.3400 
  235.5000     5.3740   117.1980     3.3570     3.5130     5.3110     2.3430 
  235.6250     5.2360   121.5490     3.3610     3.6000     5.3660     2.3460 
  235.7500     5.1240   126.3860     3.3860     3.7040     5.3680     2.3420 
  235.8750     5.0450   125.7910     3.4280     3.8110     5.4080     2.3380 
  236.0000     5.0010   119.2930     3.4650     3.8880     5.5200     2.3410 
  236.1250     4.9980   111.5160     3.4630     3.8830     5.7370     2.3440 
  236.2500     5.0250   107.3570     3.4200     3.8170     5.7810     2.3410 
  236.3750     5.0690   107.2390     3.3610     3.7160     5.4660     2.3350 
  236.5000     5.1160   110.6230     3.3150     3.6290     5.1510     2.3280 
  236.6250     5.1540   116.7480     3.3400     3.6380     5.0520     2.3150 
  236.7500     5.1830   121.7310     3.5020     3.8280     5.2830     2.3040 
  236.8750     5.2070   123.7970     3.8010     4.1980     5.6580     2.3030 
  237.0000     5.2260   123.0430     4.1920     4.6820     5.8360     2.3140 
  237.1250     5.2370   119.6960     4.5360     5.1030     6.5610     2.3280 
  237.2500     5.2310   115.8800     4.7280     5.3300     7.7940     2.3400 
  237.3750     5.1970   112.7850     4.6500     5.2200     7.9550     2.3460 
  237.5000     5.1290   109.8080     4.3730     4.8750     6.9310     2.3400 
  237.6250     5.0220   107.5550     3.9660     4.3780     5.8090     2.3210 
  237.7500     4.8730   107.9100     3.6180     3.9650     5.2280     2.2970 
  237.8750     4.6770   111.4430     3.5560     3.9150     5.0810     2.2800 
  238.0000     4.4330   113.0510     3.9120     4.3920     4.9880     2.2790 
