~V
VERS. 2.00: Ver 2.00
~W
STRT.M 55.0000:
STOP.M 211.0000:
STEP.M 0.1250:
NULL. -999.2500:
UWI. F11125:
~C
DEPT.M :
DEN.GM/CC :
GR.API :
RML.OHMM :
RI. :
RXO.OHMM :
CALI.CM :
SP.MV :
~A
# ...
  178.7500     2.3540    84.7540    16.9130    13.5820    12.3740    24.4170   -16.0340 
  178.8750     2.3510    83.9680    19.1010    14.6050    14.8450    24.4570   -16.2610 
  179.0000     2.3420    81.3000    22.7420    16.7390    19.6420    24.4820   -16.5100 
  179.1250     2.3280    76.5330    28.0680    20.2340    24.3090    24.5570   -16.7910 
  179.2500     2.3140    74.2490    34.7700    24.8660    27.1080    24.6930   -17.1080 
  179.3750     2.3000    74.4760    42.7720    30.5520    29.6920    24.8670   -17.4440 
  179.5000     2.2820    73.0410    52.0610    37.2660    39.3690    25.0070   -17.7860 
  179.6250     2.2600    68.2330    62.9760    45.3210    57.8520    25.0240   -18.1780 
  179.7500     2.2390    65.9190    75.3930    54.6390    71.3120    25.0040   -18.5610 
  179.8750     2.2230    65.9190    89.3050    65.1430    75.2960    25.0240   -18.9210 
  180.0000     2.2120    66.5800   104.6230    76.6250    77.4730    25.0630   -19.3540 
  180.1250     2.2040    66.1810   121.4600    89.1100    87.2320    25.0460   -19.7630 
  180.2500     2.2000    64.4490   139.2780   102.4180   117.3130    24.9740   -20.1480 
  180.3750     2.2000    61.8910   156.9480   116.0350   143.5660    24.8920   -20.6100 
  180.5000     2.2010    59.4380   172.1560   128.5350   162.6340    24.8510   -21.1120 
  180.6250     2.2030    58.7970   180.8660   137.0210   165.9330    24.8010   -21.5560 
  180.7500     2.2050    58.4740   183.2840   140.9280   149.1170    24.7330   -22.0430 
  180.8750     2.2060    58.2130   181.9960   141.4750   133.7780    24.7060   -22.5710 
  181.0000     2.2030    58.3130   180.7840   141.2620   124.9190    24.7470   -23.0350 
  181.1250     2.1960    58.5870   183.2750   143.4430   122.4600    24.8150   -23.5550 
  181.2500     2.1880    58.9380   189.8550   149.0230   127.6330    24.8370   -24.0870 
  181.3750     2.1850    57.7230   199.7210   157.7860   139.5170    24.8110   -24.5380 
  181.5000     2.1920    56.1080   210.8520   168.3850   159.4120    24.7700   -24.9570 
  181.6250     2.2030    57.1730   219.0660   177.7400   184.8360    24.7420   -25.3950 
  181.7500     2.2110    59.4330   220.5950   182.4170   195.5230    24.7210   -25.7450 
  181.8750     2.2130    59.7030   213.8090   180.3430   180.5410    24.6880   -26.0440 
  182.0000     2.2120    56.8250   200.7590   172.1750   163.6130    24.6640   -26.3430 
  182.1250     2.2100    54.9340   186.4540   161.2610   150.9930    24.6650   -26.4860 
  182.2500     2.2080    56.9600   175.2200   151.9490   131.9610    24.6590   -26.5720 
  182.3750     2.2070    61.3900   168.0560   145.9200   119.9340    24.6440   -26.6660 
  182.5000     2.2040    64.5170   163.8850   142.9100   127.3870    24.6170   -26.6720 
  182.6250     2.2010    63.6430   160.3720   141.2760   154.3360    24.6020   -26.5300 
  182.7500     2.1980    60.8110   155.5130   138.9580   159.3850    24.5920   -26.3700 
  182.8750     2.1980    56.5830   149.1190   135.3390   137.6230    24.5860   -26.1640 
  183.0000     2.1990    52.4510   142.3090   130.9070   108.2680    24.5830   -25.8480 
  183.1250     2.2010    53.5370   137.1840   127.1260    92.8370    24.5800   -25.4610 
  183.2500     2.2020    56.9160   134.8040   125.2160    95.5920    24.5570   -25.0210 
  183.3750     2.2040    58.5210   135.3190   125.6610   106.9460    24.5080   -24.5130 
  183.5000     2.2100    58.5630   138.0730   128.1890   112.7450    24.4370   -23.9870 
  183.6250     2.2190    61.1120   141.9670   132.0230   116.3090    24.4560   -23.4740 
  183.7500     2.2270    64.5950   145.7060   135.9290   120.6130    24.5580   -22.8880 
  183.8750     2.2310    63.7860   148.8170   139.3240   125.5300    24.6580   -22.2470 
  184.0000     2.2310    60.6920   151.3900   142.0740   131.9430    24.6870   -21.6670 
  184.1250     2.2300    59.8790   153.9760   144.4370   132.2570    24.6570   -21.1380 
  184.2500     2.2290    60.3520   157.1770   146.9410   127.1540    24.6170   -20.5960 
  184.3750     2.2280    60.3730   161.4330   149.9940   124.0170    24.6030   -20.0590 
  184.5000     2.2240    59.7690   167.2070   154.1040   129.5230    24.5960   -19.5430 
  184.6250     2.2160    61.1030   175.3990   160.2370   147.1760    24.5790   -19.1280 
  184.7500     2.2100    61.8410   186.0290   168.5650   171.3380    24.5340   -18.8080 
  184.8750     2.2070    61.0740   199.2760   179.2860   177.5040    24.4700   -18.4830 
  185.0000     2.2040    59.8300   215.3980   192.6520   165.0650    24.4270   -18.1340 
  185.1250     2.1960    59.4770   235.1210   209.2910   179.1280    24.4720   -17.8630 
  185.2500     2.1820    59.9720   257.7250   228.3210   221.9070    24.4520   -17.6450 
  185.3750     2.1720    59.8370   282.7490   249.0020   249.5630    24.3510   -17.4180 
  185.5000     2.1730    57.6640   309.9420   271.0070   250.3080    24.2800   -17.1510 
  185.6250     2.1950    53.8180   340.9340   296.1880   237.6980    24.3630   -16.7950 
  185.7500     2.2410    51.1850   378.1720   327.9080   206.8300    24.4000   -16.3940 
  185.8750     2.3190    51.5470   422.3020   369.2920   168.8910    24.3230   -16.0290 
  186.0000     2.4310    52.4840   459.8420   414.7530   166.9760    24.2150   -15.6800 
  186.1250     2.5550    51.6900   438.4440   428.4870   258.3830    24.1560   -15.2970 
  186.2500     2.6400    50.9120   350.9790   380.8410   415.2530    24.1100   -14.9110 
  186.3750     2.6690    52.0040   247.4270   288.3280   480.8150    24.0670   -14.5390 
  186.5000     2.6620    54.0230   169.0730   196.4910   314.2080    24.0140   -14.1850 
  186.6250     2.6420    55.2990   122.7950   135.1420   125.6560    23.9670   -13.8820 
  186.7500     2.6190    57.0500    92.0180    96.3640    57.5110    23.9950   -13.6350 
  186.8750     2.6000    59.6990    68.7170    70.4070    46.6310    24.0580   -13.4150 
  187.0000     2.5910    60.6670    49.2460    50.3590    73.3960    24.0810   -13.2260 
  187.1250     2.5770    57.4390    33.9910    34.7940    70.2150    24.0560   -13.0520 
  187.2500     2.5350    51.7330    22.9660    23.5690    36.5010    24.0560   -12.8970 
  187.3750     2.4680    47.9810    15.8410    16.3440    17.4190    24.0990   -12.7870 
  187.5000     2.4050    48.9720    11.7080    12.0530    10.9800    24.1480   -12.7380 
  187.6250     2.3730    52.1480     9.8310     9.8720     9.4190    24.1600   -12.7360 
  187.7500     2.3670    52.1840     9.1050     8.7970     8.9860    24.1540   -12.7720 
  187.8750     2.3730    48.4380     9.0930     8.4900     8.9510    24.1640   -12.8250 
  188.0000     2.3800    45.2930     9.5100     8.7210     9.0650    24.1750   -12.8910 
  188.1250     2.3860    45.9430    10.1530     9.3180     9.7790    24.1820   -12.9930 
  188.2500     2.3950    46.1750    10.7780     9.9960    11.6790    24.1830   -13.1100 
  188.3750     2.4070    44.4660    11.2130    10.5460    14.5390    24.1840   -13.2320 
  188.5000     2.4170    44.3730    11.3420    10.8000    15.3950    24.1900   -13.3540 
  188.6250     2.4170    47.4000    11.1430    10.6540    13.1740    24.2060   -13.4750 
  188.7500     2.4130    49.6210    10.8030    10.2820    11.8820    24.2260   -13.5860 
  188.8750     2.4040    50.5640    10.4480     9.8400    11.4550    24.2560   -13.6790 
  189.0000     2.3910    51.7560    10.1440     9.4440    11.2010    24.3240   -13.7270 
  189.1250     2.3770    51.3960     9.9050     9.1540    10.6080    24.4520   -13.7130 
  189.2500     2.3670    48.7730     9.6900     8.9270     9.9460    24.5300   -13.6690 
  189.3750     2.3630    48.2490     9.4810     8.7170     9.5820    24.5390   -13.5920 
  189.5000     2.3620    51.6640     9.2780     8.4950     9.3840    24.5200   -13.4460 
  189.6250     2.3650    54.1200     9.1010     8.2570     9.2690    24.4890   -13.2100 
  189.7500     2.3730    52.4110     8.9540     8.0240     8.8980    24.4340   -12.9460 
  189.8750     2.3850    49.5520     8.8440     7.8250     8.2750    24.3550   -12.7270 
