~V
VERS. 2.00: Ver 2.00
~W
STRT.M 55.0000:
STOP.M 240.0000:
STEP.M 0.1250:
NULL. -999.2500:
UWI. F11138:
~C
DEPT.M :
SP.MV :
DEN.GM/CC :
GR.API :
RML.OHMM :
RI. :
RXO.OHMM :
CALI.CM :
~A
# ...
  212.5000   -12.4150     2.2410    77.1370     8.5250     8.0460     7.2300    23.3820 
  212.6250   -12.1800     2.2390    74.8930     8.3890     7.8460     7.0880    23.0390 
  212.7500   -11.9870     2.2550    73.2520     8.3260     7.8010     7.2310    22.3930 
  212.8750   -11.8000     2.2790    69.6260     8.2550     7.8090     7.3010    22.0650 
  213.0000   -11.5660     2.3070    63.4470     8.1560     7.8090     7.1780    22.3800 
  213.1250   -11.2700     2.3390    59.2190     8.0440     7.7650     7.0360    23.0400 
  213.2500   -11.0050     2.3700    59.7900     7.9430     7.6810     6.9670    23.3960 
  213.3750   -10.8440     2.3940    62.8800     7.8620     7.5690     6.9340    23.4820 
  213.5000   -10.8220     2.4060    65.5490     7.8080     7.4530     6.8900    23.4760 
  213.6250   -10.8610     2.4100    67.6170     7.7960     7.3610     6.8000    23.4670 
  213.7500   -10.8370     2.4090    69.4870     7.8300     7.3100     6.7100    23.4840 
  213.8750   -10.7070     2.4030    70.0710     7.9090     7.3060     6.7050    23.5160 
  214.0000   -10.5590     2.3930    69.0320     8.0100     7.3370     6.9060    23.5520 
  214.1250   -10.4390     2.3820    67.8460     8.0800     7.3700     7.1250    23.5530 
  214.2500   -10.2810     2.3710    68.6300     8.0810     7.3690     7.2310    23.5390 
  214.3750   -10.1010     2.3600    70.7590     8.0020     7.3110     7.2070    23.5480 
  214.5000    -9.8820     2.3490    73.0410     7.8660     7.1930     7.0320    23.5860 
  214.6250    -9.6080     2.3450    74.1650     7.7160     7.0420     6.9500    23.6270 
  214.7500    -9.3720     2.3480    73.3710     7.5990     6.9120     6.8860    23.6440 
  214.8750    -9.2270     2.3560    71.9940     7.5470     6.8440     6.8900    23.6630 
  215.0000    -9.1610     2.3620    70.7660     7.5880     6.8660     7.0170    23.6860 
  215.1250    -9.1980     2.3540    69.7330     7.7630     6.9980     7.1600    23.6780 
  215.2500    -9.2900     2.3350    68.4230     8.0400     7.1980     7.2310    23.6470 
  215.3750    -9.3580     2.3100    67.7650     8.3660     7.4230     7.4040    23.6320 
  215.5000    -9.3930     2.2850    67.9550     8.6600     7.6200     7.6530    23.6670 
  215.6250    -9.3640     2.2650    67.1570     8.8080     7.7220     7.8030    23.6860 
  215.7500    -9.2440     2.2530    65.4320     8.7880     7.7110     7.9110    23.7010 
  215.8750    -9.0410     2.2520    64.1320     8.6170     7.5870     7.7930    23.7150 
  216.0000    -8.8010     2.2650    63.8780     8.3500     7.3750     7.4890    23.7400 
  216.1250    -8.5200     2.2900    63.6060     8.0540     7.1100     7.2550    23.7990 
  216.2500    -8.2670     2.3160    63.8240     7.7890     6.8510     7.0450    23.8610 
  216.3750    -8.0690     2.3360    64.9910     7.5880     6.6370     6.7630    23.8640 
  216.5000    -7.9220     2.3520    65.2710     7.4700     6.4980     6.5780    23.8640 
  216.6250    -7.9150     2.3700    62.5650     7.4630     6.4630     6.5360    23.8290 
  216.7500    -8.0440     2.3860    59.5100     7.5490     6.5140     6.6780    23.8770 
  216.8750    -8.2660     2.3960    58.7700     7.7120     6.6330     6.8920    23.9920 
  217.0000    -8.4840     2.3960    59.6140     7.9140     6.7890     7.1320    24.0670 
  217.1250    -8.6440     2.3880    59.7520     8.0920     6.9340     7.4200    24.0780 
  217.2500    -8.7130     2.3800    58.5220     8.1960     7.0240     7.5970    24.0880 
  217.3750    -8.6900     2.3790    58.1100     8.1950     7.0310     7.7190    24.1210 
  217.5000    -8.5570     2.3850    61.3370     8.0880     6.9510     7.7240    24.1620 
  217.6250    -8.3240     2.3940    65.9800     7.9060     6.8070     7.4820    24.1790 
  217.7500    -8.0780     2.3980    66.2250     7.7320     6.6620     7.2830    24.1910 
  217.8750    -7.8690     2.3980    63.1410     7.6340     6.5650     7.1740    24.1440 
  218.0000    -7.7090     2.3970    62.3140     7.6560     6.5430     7.1250    24.0600 
  218.1250    -7.6320     2.3960    65.6210     7.8210     6.6060     7.3010    24.0440 
  218.2500    -7.6420     2.3890    69.3650     8.0530     6.7080     7.4900    24.0480 
  218.3750    -7.7240     2.3780    72.9930     8.2620     6.8020     7.5810    24.0600 
  218.5000    -7.8610     2.3680    78.9850     8.3640     6.8420     7.6550    24.0690 
  218.6250    -7.9530     2.3680    88.2240     8.2920     6.7900     7.4690    24.0660 
  218.7500    -7.9500     2.3730    98.0390     8.1020     6.6670     7.2730    24.0230 
  218.8750    -7.8600     2.3780   105.2880     7.8720     6.5120     6.9970    23.9600 
  219.0000    -7.7390     2.3800   107.9120     7.6840     6.3700     6.7800    23.8700 
  219.1250    -7.6420     2.3810   106.7080     7.6100     6.2930     6.6770    23.7430 
  219.2500    -7.5930     2.3760   104.1750     7.6360     6.2840     6.6630    23.6840 
  219.3750    -7.5530     2.3660   101.5290     7.7300     6.3300     6.7320    23.7380 
  219.5000    -7.5070     2.3540    99.7460     7.8460     6.4020     6.9310    23.8850 
  219.6250    -7.5090     2.3470   101.0660     7.9230     6.4630     7.2600    23.9910 
  219.7500    -7.5650     2.3430   104.0280     7.9330     6.4930     7.4150    24.0380 
  219.8750    -7.6770     2.3390   107.2340     7.8850     6.4950     7.4150    24.0510 
  220.0000    -7.8370     2.3360   111.7040     7.8260     6.4900     7.3510    24.0460 
  220.1250    -7.9850     2.3360   116.3920     7.8390     6.5180     7.2730    24.0350 
  220.2500    -8.0630     2.3390   116.2710     7.9500     6.5990     7.3140    24.0340 
  220.3750    -8.0900     2.3410   111.0010     8.1330     6.7280     7.5130    24.0610 
  220.5000    -8.0570     2.3390   105.4020     8.3130     6.8720     7.7870    24.0560 
  220.6250    -7.8950     2.3310   102.9850     8.3760     6.9610     7.8680    24.0340 
  220.7500    -7.6450     2.3210   100.1790     8.2780     6.9420     7.6570    24.0150 
  220.8750    -7.3260     2.3140    96.1600     8.0270     6.7910     7.3890    24.0210 
  221.0000    -6.9400     2.3120    93.8470     7.6710     6.5290     7.0480    24.0150 
  221.1250    -6.5340     2.3170    96.5240     7.2860     6.2100     6.5880    23.9760 
  221.2500    -6.1610     2.3210   102.0100     6.9470     5.9050     6.1540    23.8740 
  221.3750    -5.7890     2.3190   104.8360     6.6960     5.6500     5.7330    23.7780 
  221.5000    -5.4200     2.3110   103.2240     6.5540     5.4630     5.4750    23.7530 
  221.6250    -5.1120     2.3000   102.3790     6.5380     5.3590     5.4690    23.7840 
  221.7500    -4.8310     2.2940   103.5210     6.6010     5.3250     5.5580    23.7990 
  221.8750    -4.6010     2.2940   104.5290     6.7040     5.3550     5.6000    23.7870 
  222.0000    -4.4430     2.2970   103.9520     6.8000     5.4360     5.5900    23.7680 
  222.1250    -4.3790     2.3010   103.2680     6.8600     5.5420     5.6800    23.7440 
  222.2500    -4.3850     2.3050   102.3490     6.8920     5.6380     5.8560    23.7290 
  222.3750    -4.4740     2.3090   100.5920     6.9150     5.7040     6.0380    23.7420 
  222.5000    -4.6330     2.3090    99.8030     6.9420     5.7290     6.1590    23.7690 
  222.6250    -4.8350     2.3030    99.3140     6.9660     5.7110     6.1280    23.7790 
  222.7500    -5.1120     2.2950    97.7930     6.9700     5.6730     6.0370    23.7740 
  222.8750    -5.4380     2.2920    96.6040     6.9420     5.6290     5.9730    23.7830 
  223.0000    -5.7740     2.2980    97.0510     6.8830     5.5930     5.9630    23.7940 
  223.1250    -6.0350     2.3050   100.8250     6.8000     5.5760     5.8970    23.7840 
  223.2500    -6.1740     2.3030   105.1730     6.7220     5.5750     5.8320    23.8120 
  223.3750    -6.2350     2.2880   107.1840     6.6750     5.5840     5.8240    23.8560 
  223.5000    -6.3050     2.2690   106.4190     6.6730     5.5980     5.9070    23.8550 
  223.6250    -6.4270     2.2530   105.3880     6.7240     5.6180     5.9210    23.7940 
