~V
VERS. 2.00: Ver 2.00
~W
STRT.M 56.0000:
STOP.M 252.0000:
STEP.M 0.1250:
NULL. -999.2500:
UWI. F11142:
~C
DEPT.M :
SP.MV :
DEN.GM/CC :
GR.API :
RML.OHMM :
RI. :
RXO.OHMM :
CALI.CM :
~A
# ...
  157.2500    -8.1890     2.2520    88.8930    13.3810    12.4750    12.7240    23.5690 
  157.3750    -8.3740     2.2630    86.0220    14.0920    13.2440    14.1950    23.4420 
  157.5000    -8.5430     2.2640    82.5590    14.5930    13.8950    15.1700    23.4220 
  157.6250    -8.6670     2.2590    81.8620    14.7690    14.2550    15.1820    23.4380 
  157.7500    -8.6900     2.2580    82.3110    14.5850    14.2320    14.5420    23.4660 
  157.8750    -8.6120     2.2640    82.4870    14.0610    13.8080    13.8480    23.4850 
  158.0000    -8.3890     2.2720    83.7670    13.2000    12.9620    13.1330    23.4990 
  158.1250    -8.0810     2.2740    86.2280    12.1320    11.8470    12.2330    23.5440 
  158.2500    -7.7180     2.2730    88.4520    10.9870    10.6040    11.1670    23.6250 
  158.3750    -7.2880     2.2730    89.2700     9.9680     9.4260    10.0190    23.7180 
  158.5000    -6.8180     2.2710    90.7210     9.4300     8.6040     8.7910    23.8060 
  158.6250    -6.3810     2.2650    93.5010     9.5590     8.2880     8.0700    23.7830 
  158.7500    -6.0410     2.2590    96.7970    10.4720     8.5980     8.5200    23.7600 
  158.8750    -5.7800     2.2530    98.8700    12.1590     9.5970    10.2010    23.8420 
  159.0000    -5.6530     2.2410    95.8120    14.5290    11.3650    12.7460    23.9470 
  159.1250    -5.6300     2.2260    89.6770    17.0840    13.5740    15.6260    24.0320 
  159.2500    -5.6850     2.2170    84.0490    19.2960    15.8050    18.3250    24.1010 
  159.3750    -5.7740     2.2210    80.8960    20.5870    17.4820    19.9640    24.1340 
  159.5000    -5.8620     2.2290    78.8100    20.3020    17.8250    20.1150    24.2630 
  159.6250    -5.9630     2.2360    76.6900    18.7830    16.8950    19.2510    24.3580 
  159.7500    -6.0550     2.2450    74.7770    16.6710    15.1670    17.4350    24.4030 
  159.8750    -6.1460     2.2580    72.8630    14.8150    13.3950    14.4320    24.4380 
  160.0000    -6.2760     2.2700    73.6430    14.0630    12.3360    11.5140    24.3290 
  160.1250    -6.4210     2.2700    77.5090    14.4050    12.1220    10.9720    24.1770 
  160.2500    -6.5430     2.2520    81.1480    15.5280    12.6400    12.7310    24.0960 
  160.3750    -6.7200     2.2200    81.5230    16.8640    13.5730    15.5800    24.0980 
  160.5000    -6.9470     2.2000    79.3340    17.6060    14.3790    17.8420    24.1910 
  160.6250    -7.1990     2.2030    78.1990    17.3460    14.5690    18.3160    24.3250 
  160.7500    -7.4230     2.2220    79.1420    16.0980    13.9590    17.1580    24.4610 
  160.8750    -7.6050     2.2420    82.4610    14.3110    12.7590    14.6420    24.5180 
  161.0000    -7.6980     2.2480    86.2710    12.6800    11.4810    11.9520    24.4540 
  161.1250    -7.7240     2.2440    88.9170    11.5690    10.5170    10.4780    24.3050 
  161.2500    -7.7040     2.2360    90.9390    10.9830     9.9490    10.4400    24.1880 
  161.3750    -7.6050     2.2290    92.4220    10.7890     9.7320    10.7310    24.1960 
  161.5000    -7.4460     2.2260    92.4490    10.8930     9.8340    10.6400    24.2550 
  161.6250    -7.2270     2.2270    92.2950    11.1800    10.1580    10.4190    24.2390 
  161.7500    -6.9790     2.2290    91.8680    11.6250    10.6840    10.2980    24.1480 
  161.8750    -6.7200     2.2310    90.9780    12.1710    11.3760    10.4530    24.0690 
  162.0000    -6.4250     2.2300    89.2180    12.6360    12.0920    11.2280    24.0350 
  162.1250    -6.1130     2.2280    86.3670    12.7640    12.5510    12.0790    24.0930 
  162.2500    -5.8140     2.2290    82.4300    12.3340    12.4610    12.5520    24.2300 
  162.3750    -5.5600     2.2350    79.2370    11.2720    11.6400    12.1300    24.3890 
  162.5000    -5.3790     2.2460    80.1880     9.7080    10.1140    10.2860    24.4710 
  162.6250    -5.2980     2.2590    83.9080     8.1140     8.4100     7.7030    24.5080 
  162.7500    -5.3410     2.2710    87.2310     6.8140     6.9180     5.5180    24.4640 
  162.8750    -5.4990     2.2760    90.0210     5.9640     5.8430     4.4930    24.2700 
  163.0000    -5.7650     2.2660    93.6670     5.6270     5.2800     4.3670    23.9900 
  163.1250    -6.1160     2.2510    96.8130     5.6600     5.0890     4.5530    23.7180 
  163.2500    -6.5350     2.2460    97.6390     6.0350     5.2180     4.8820    23.5910 
  163.3750    -6.9820     2.2500    96.8720     6.7960     5.6670     5.3530    23.5490 
  163.5000    -7.4580     2.2490    96.4860     8.1810     6.6070     6.1790    23.5000 
  163.6250    -7.9440     2.2390    95.6530    10.3120     8.1660     7.6410    23.4200 
  163.7500    -8.4150     2.2260    93.1140    13.3370    10.5440    10.4630    23.2820 
  163.8750    -8.8680     2.2170    88.3930    17.2080    13.8390    15.0330    23.2210 
  164.0000    -9.3580     2.2110    82.9520    21.5260    17.9100    20.9000    23.2690 
  164.1250    -9.8630     2.2110    79.4620    25.4110    21.9490    26.7050    23.4620 
  164.2500   -10.3910     2.2260    79.2800    28.1490    25.1230    28.9300    23.7430 
  164.3750   -10.9620     2.2560    81.8340    29.4500    26.8160    26.6310    24.1620 
  164.5000   -11.5570     2.2870    85.3090    29.7400    27.0000    23.0050    24.5650 
  164.6250   -12.1460     2.3050    88.1590    30.4280    26.9880    19.5120    24.5660 
  164.7500   -12.7120     2.3080    89.0220    32.6720    27.9650    16.9190    24.1900 
  164.8750   -13.2690     2.3020    88.0350    37.7220    30.9280    18.8000    23.7910 
  165.0000   -13.8430     2.2890    86.6490    46.7030    37.2830    28.2280    23.4200 
  165.1250   -14.4650     2.2690    84.2590    59.7120    47.2660    44.3180    23.1340 
  165.2500   -15.1340     2.2420    80.8230    76.8390    61.0310    66.3980    23.0870 
  165.3750   -15.8260     2.2120    77.8630    95.6060    77.8910    92.2050    23.3030 
  165.5000   -16.5740     2.1890    75.9240   114.3510    96.0530   117.0540    23.8560 
  165.6250   -17.3920     2.1770    73.9580   130.6880   112.7980   134.5940    24.4940 
  165.7500   -18.2920     2.1750    72.3270   142.9520   126.3700   149.2540    24.9510 
  165.8750   -19.1530     2.1770    71.7240   150.9280   136.1500   158.5370    25.1340 
  166.0000   -19.8910     2.1840    71.2280   155.7030   142.5140   149.4180    25.1720 
  166.1250   -20.5350     2.1920    70.4090   159.6080   147.4190   138.3420    25.1860 
  166.2500   -21.1060     2.1990    70.3340   163.4500   151.7620   136.8400    25.1900 
  166.3750   -21.6060     2.2010    71.2950   167.3250   155.9230   143.4430    25.1910 
  166.5000   -22.0520     2.1970    72.5570   170.7760   159.7370   156.2540    25.1910 
  166.6250   -22.4000     2.1950    73.1120   173.2100   162.7050   162.2760    25.1870 
  166.7500   -22.6330     2.1950    72.3550   174.3500   164.4430   161.6740    25.1780 
  166.8750   -22.8700     2.1970    71.3440   174.7140   165.2800   157.7050    25.1600 
  167.0000   -23.1460     2.1950    72.1920   175.8400   166.5950   158.3240    25.1750 
  167.1250   -23.4590     2.1910    73.7010   178.8780   169.6630   158.4340    25.1900 
  167.2500   -23.7620     2.1860    73.5120   183.9410   174.7680   163.0420    25.2020 
  167.3750   -24.0540     2.1810    71.0460   190.0490   181.0850   173.8770    25.1880 
  167.5000   -24.2920     2.1740    68.3480   195.0880   186.6450   189.2510    25.1800 
  167.6250   -24.5180     2.1710    67.0800   197.4770   189.8100   198.5830    25.2120 
  167.7500   -24.7120     2.1750    67.3610   196.8720   190.0810   191.3490    25.2440 
  167.8750   -24.8660     2.1830    69.6970   194.4000   188.3320   175.7630    25.2650 
  168.0000   -25.0140     2.1910    72.6240   192.6170   186.8480   167.2430    25.2660 
  168.1250   -25.0880     2.1950    73.9080   193.4570   187.6940   165.9700    25.2780 
  168.2500   -25.1170     2.1980    73.9550   197.1920   191.4300   167.1760    25.2980 
  168.3750   -25.1830     2.1970    75.1950   202.6050   197.1770   171.6510    25.3140 
