~V
VERS. 2.00: Ver 2.00
~W
STRT.M 50.0000:
STOP.M 206.0000:
STEP.M 0.1250:
NULL. -999.2500:
UWI. F11107:
~C
DEPT.M :
DEN.GM/CC :
GR.API :
RML.OHMM :
RI. :
RXO.OHMM :
CALI.CM :
SP.MV :
~A
# ...
  151.2500     2.2240    64.2820   173.9550   157.4020   203.6260    27.6280   -22.9970 
  151.3750     2.2190    62.4200   188.7080   171.2440   232.6200    27.6270   -23.4410 
  151.5000     2.2180    64.3720   200.6900   182.5060   234.2460    27.6660   -23.9040 
  151.6250     2.2210    67.9070   209.1050   190.3830   222.0520    27.7710   -24.3830 
  151.7500     2.2230    68.2110   215.2910   196.1510   214.3760    27.8570   -24.8370 
  151.8750     2.2250    67.3670   220.2710   200.8830   198.0390    27.8650   -25.2100 
  152.0000     2.2260    68.2960   224.5190   205.2340   195.6710    27.8130   -25.4480 
  152.1250     2.2270    69.3010   227.2010   208.7650   216.8820    27.7230   -25.5740 
  152.2500     2.2260    67.8450   227.1830   210.4200   246.3910    27.7290   -25.6980 
  152.3750     2.2250    64.6200   223.4600   209.1000   254.3150    27.8210   -25.7940 
  152.5000     2.2230    61.7010   215.8690   204.2840   233.3880    27.8910   -25.7160 
  152.6250     2.2230    62.1840   205.0190   195.9890   212.4210    27.9080   -25.4930 
  152.7500     2.2280    65.1110   193.2890   186.1590   205.7590    27.8360   -25.2580 
  152.8750     2.2370    68.9860   182.4750   176.4250   189.2860    27.7250   -24.9910 
  153.0000     2.2470    70.3210   174.0000   168.2600   173.0530    27.6170   -24.6850 
  153.1250     2.2520    67.0590   169.2040   163.1300   163.0870    27.5500   -24.4160 
  153.2500     2.2520    63.6540   167.5780   160.8510   160.3020    27.5050   -24.2120 
  153.3750     2.2460    63.6180   168.6540   161.1180   159.7070    27.4430   -24.0160 
  153.5000     2.2370    66.9180   171.8110   163.4090   173.8180    27.4310   -23.8420 
  153.6250     2.2280    69.4350   176.7310   167.4220   183.0180    27.4590   -23.7360 
  153.7500     2.2190    69.7110   182.9410   172.6580   172.6140    27.4780   -23.6440 
  153.8750     2.2100    68.6920   190.4440   179.1160   179.9720    27.5250   -23.5020 
  154.0000     2.2000    67.2840   199.0570   186.6970   201.6360    27.5460   -23.4150 
  154.1250     2.1920    66.5320   207.7960   194.7210   213.8750    27.4850   -23.4170 
  154.2500     2.1880    65.7750   214.5770   201.4440   218.1560    27.3680   -23.3020 
  154.3750     2.1890    64.5180   217.0300   204.7770   219.7390    27.2480   -23.0510 
  154.5000     2.1970    63.5810   213.2330   202.8190   208.3380    27.1770   -22.8600 
  154.6250     2.2120    65.0890   201.7250   193.7760   191.8960    27.1250   -22.7390 
  154.7500     2.2310    68.4440   185.2600   179.6590   173.4760    27.0970   -22.4750 
  154.8750     2.2480    71.0080   166.2400   162.3920   161.0010    27.2220   -22.2430 
  155.0000     2.2540    71.2360   147.0410   144.1380   143.0570    27.5480   -22.0790 
  155.1250     2.2450    70.1580   130.0740   127.2530   130.3910    27.6430   -21.7760 
  155.2500     2.2300    69.8660   116.2790   113.0440   114.3020    27.5180   -21.4710 
  155.3750     2.2200    70.6370   106.0600   102.1320    94.6220    27.4060   -21.3490 
  155.5000     2.2200    72.4120    99.4030    94.6360    78.3170    27.2070   -21.3640 
  155.6250     2.2270    75.3820    96.6260    90.9070    71.8170    26.8980   -21.4300 
  155.7500     2.2320    76.4370    96.9310    90.1570    72.4430    26.7290   -21.5990 
  155.8750     2.2270    75.6960   100.1260    92.1980    68.7260    26.7940   -21.7640 
  156.0000     2.2140    76.2270   105.9760    96.8320    62.6080    26.8880   -21.8410 
  156.1250     2.1970    77.3770   114.3650   104.0250    71.5340    26.9060   -21.8830 
  156.2500     2.1810    74.8670   124.0230   112.6240    99.7930    26.8060   -21.8470 
  156.3750     2.1730    68.9760   133.6010   121.4090   139.4360    26.6640   -21.6910 
  156.5000     2.1740    66.0700   141.2150   128.6510   148.4170    26.4870   -21.3340 
  156.6250     2.1800    68.1140   143.8350   131.5490   125.1170    26.3700   -20.7480 
  156.7500     2.1860    70.3610   140.8340   129.3170   116.9420    26.2890   -20.1500 
  156.8750     2.1910    70.2590   132.8030   122.2520   127.2190    26.2400   -19.5470 
  157.0000     2.1980    68.9850   121.8340   112.0640   135.5600    26.2030   -18.9110 
  157.1250     2.2150    67.4760   110.8400   101.3270   108.0270    26.2050   -18.3580 
  157.2500     2.2400    66.1450   101.9040    92.1220    86.4250    26.1690   -17.9430 
  157.3750     2.2670    66.8340    95.4080    85.0130    72.5260    26.0220   -17.5240 
  157.5000     2.2890    70.4920    89.1760    79.5980    73.5760    25.8530   -17.0680 
  157.6250     2.3050    74.8000    80.6930    74.9720    81.7910    25.7100   -16.7780 
  157.7500     2.3170    78.0060    71.7730    70.2950    83.9260    25.6640   -16.5730 
  157.8750     2.3250    80.3740    65.3180    65.7120    70.0350    25.6680   -16.3410 
  158.0000     2.3160    81.3370    62.4040    62.0810    48.2500    25.6510   -16.1090 
  158.1250     2.2780    77.7520    62.8820    61.2200    34.6330    25.7090   -15.9230 
  158.2500     2.2180    72.4830    66.7790    64.0680    41.2740    26.0280   -15.7490 
  158.3750     2.1570    69.9810    74.6550    71.2820    65.1410    26.4580   -15.5940 
  158.5000     2.1180    70.3780    85.6190    82.4770    88.9170    26.5470   -15.5480 
  158.6250     2.1210    69.4890    96.2940    94.9290   103.4040    26.0580   -15.5130 
  158.7500     2.1520    68.0320   101.2790   102.9180   121.8480    25.4290   -15.3860 
  158.8750     2.1940    69.5690    96.5840   101.5120   131.4460    25.1020   -15.2780 
  159.0000     2.2320    73.4690    82.0990    89.1850   123.8090    25.0650   -15.2180 
  159.1250     2.2620    77.1740    62.1940    69.1140    92.0120    25.1620   -15.1110 
  159.2500     2.2910    81.8080    43.9510    49.3300    55.6340    25.2020   -14.9310 
  159.3750     2.3220    87.4280    30.3070    33.9060    31.9860    25.1910   -14.7420 
  159.5000     2.3540    91.7740    21.4740    23.7450    19.1650    25.1360   -14.5470 
  159.6250     2.3820    93.6540    16.7240    18.2340    15.0350    24.9790   -14.3230 
  159.7500     2.4010    95.4750    14.1100    15.1220    13.4580    24.8190   -14.0920 
  159.8750     2.4120    97.5610    12.8190    13.4670    13.3960    24.7250   -13.9080 
  160.0000     2.4180    98.6450    12.3680    12.7360    13.1480    24.7220   -13.7840 
  160.1250     2.4220    98.5100    12.5820    12.7390    13.0510    24.6970   -13.6590 
  160.2500     2.4240    98.0870    13.2200    13.2150    12.8660    24.6540   -13.5890 
  160.3750     2.4210    96.2880    14.1440    14.0390    13.2380    24.6370   -13.5920 
  160.5000     2.4130    92.7730    15.1330    15.0190    15.7690    24.6010   -13.5700 
  160.6250     2.4010    91.4790    15.7850    15.7770    20.0830    24.4800   -13.5460 
  160.7500     2.3890    94.2640    15.8360    15.9830    19.9650    24.2740   -13.6650 
  160.8750     2.3810    98.2770    15.2320    15.5060    16.9760    24.0190   -13.8850 
  161.0000     2.3780   100.3040    14.2080    14.5050    15.1930    23.7740   -14.0710 
  161.1250     2.3780    99.7300    13.3050    13.4320    13.0140    23.6270   -14.2580 
  161.2500     2.3790   100.7520    13.0350    12.8000    11.0800    23.7460   -14.4550 
  161.3750     2.3810   103.0980    13.6680    12.9100    11.1540    24.1460   -14.6290 
  161.5000     2.3870   101.5700    15.1810    13.8640    13.9880    24.5790   -14.8090 
  161.6250     2.4000    92.7130    17.1800    15.5290    19.6060    24.7690   -14.9820 
  161.7500     2.4180    85.5100    18.7780    17.1570    25.3760    24.7130   -15.0780 
  161.8750     2.4370    84.6900    19.2540    17.9910    29.2190    24.5180   -15.0820 
  162.0000     2.4530    87.6900    18.2900    17.5340    26.6120    24.3500   -15.0350 
  162.1250     2.4600    95.8350    16.1110    15.7790    17.9320    24.4180   -14.9800 
  162.2500     2.4520   106.5330    13.7400    13.6410    12.9390    24.5980   -14.9710 
  162.3750     2.4300   112.1810    11.8010    11.7460    10.2730    24.6890   -15.0120 
