~V
VERS. 2.00: Ver 2.00
~W
STRT.M 50.0000:
STOP.M 221.0000:
STEP.M 0.1250:
NULL. -999.2500:
UWI. F11120:
~C
DEPT.M :
DEN.GM/CC :
GR.API :
RML.OHMM :
RI. :
RXO.OHMM :
CALI.CM :
SP.MV :
~A
# ...
  173.7500     2.2390    61.6710    59.7830    45.8850    43.3080    28.1500   -33.0840 
  173.8750     2.2560    65.4040    62.3170    50.1060    53.4360    28.1370   -33.3690 
  174.0000     2.2720    68.7820    60.1970    51.0320    70.8190    28.1290   -33.6670 
  174.1250     2.2760    66.9410    52.4080    46.7420    67.7610    28.1250   -33.9830 
  174.2500     2.2760    64.7250    42.4310    39.5060    43.5650    28.1210   -34.3060 
  174.3750     2.2880    67.1000    33.1470    31.9000    22.1370    28.1180   -34.6260 
  174.5000     2.3160    72.2060    26.1070    25.6750    12.6720    28.1200   -34.9400 
  174.6250     2.3410    74.7220    21.7530    21.5360    10.9120    28.1330   -35.2360 
  174.7500     2.3470    75.4920    19.0270    18.7820    11.0880    28.1500   -35.4930 
  174.8750     2.3410    75.2490    17.3370    16.9830    10.3940    28.1410   -35.6940 
  175.0000     2.3390    74.5120    16.3080    15.8450     8.6580    28.1070   -35.8240 
  175.1250     2.3460    77.5240    16.0220    15.3770     7.4940    28.0820   -35.8650 
  175.2500     2.3520    84.6120    16.7910    15.6760     6.8810    28.0890   -35.8540 
  175.3750     2.3490    88.1600    19.2900    17.1360     7.2300    28.1330   -35.8170 
  175.5000     2.3320    83.0880    24.4570    20.4560     9.1580    28.2000   -35.7760 
  175.6250     2.2930    72.0620    29.1080    27.7130    15.4960    28.2360   -35.7580 
  175.7500     2.2430    62.9880    42.7710    40.7760    30.1960    28.2590   -35.7770 
  175.8750     2.1940    57.7420    65.0960    62.1190    56.5770    28.2880   -35.8410 
  176.0000     2.1600    55.4630    97.2310    92.8400    77.4070    28.3290   -35.9490 
  176.1250     2.1460    54.4530   135.7450   129.6600    74.5440    28.3720   -36.0950 
  176.2500     2.1450    54.0410   169.7430   162.1630    63.9640    28.3910   -36.2490 
  176.3750     2.1490    53.4390   192.5930   184.0090    58.8740    28.3960   -36.3880 
  176.5000     2.1520    52.7360   205.2970   196.1540    79.0690    28.3960   -36.5050 
  176.6250     2.1510    53.5210   213.7900   204.2740   100.7400    28.3950   -36.5990 
  176.7500     2.1460    55.1270   223.5470   213.6020   106.3760    28.3950   -36.6780 
  176.8750     2.1390    55.0100   235.5060   225.0340   103.1850    28.3860   -36.7500 
  177.0000     2.1370    52.5130   248.3700   237.3330   106.8450    28.3540   -36.8180 
  177.1250     2.1400    51.5830   259.1610   247.6490   109.9160    28.2950   -36.8850 
  177.2500     2.1440    53.1120   265.8370   254.0320   112.8820    28.2590   -36.9510 
  177.3750     2.1470    54.6470   267.3550   255.4830   109.6430    28.2480   -37.0070 
  177.5000     2.1490    54.0880   263.5940   251.8870   120.9700    28.2470   -37.0390 
  177.6250     2.1540    53.3100   255.2790   243.9380   149.8050    28.2520   -37.0360 
  177.7500     2.1570    53.4680   245.8100   234.8850   185.8760    28.2660   -37.0040 
  177.8750     2.1570    53.6670   237.9260   227.3480   208.6930    28.2890   -36.9420 
  178.0000     2.1540    55.1390   233.8580   223.4590   211.0410    28.3100   -36.8530 
  178.1250     2.1500    57.9110   236.0100   225.5160   208.8050    28.2930   -36.7430 
  178.2500     2.1490    58.6250   243.7350   232.9020   251.0310    28.2420   -36.6300 
  178.3750     2.1530    56.8150   256.0520   244.6770   287.2450    28.1930   -36.5340 
  178.5000     2.1630    55.3790   271.1700   259.1300   297.0910    28.1720   -36.4750 
  178.6250     2.1760    55.3280   286.1950   273.4940   312.3920    28.1730   -36.4640 
  178.7500     2.1810    53.0510   297.7710   284.5610   286.4250    28.1780   -36.4890 
  178.8750     2.1690    49.5810   303.8740   290.3960   236.4940    28.2070   -36.5420 
  179.0000     2.1410    47.7430   304.3330   290.8350   193.1630    28.2480   -36.6180 
  179.1250     2.1100    48.7000   299.1980   285.9260   242.7020    28.1190   -36.7200 
  179.2500     2.0910    51.1440   289.4460   276.6030   249.4780    27.6120   -36.8450 
  179.3750     2.0900    54.0380   275.5560   263.3230   255.8750    26.8800   -36.9910 
  179.5000     2.0990    56.0060   259.6560   248.1230   296.0990    26.4410   -37.1630 
  179.6250     2.1030    56.2270   244.6340   233.7610   277.1410    26.4050   -37.3690 
  179.7500     2.0960    55.3630   230.2950   220.0520   212.0420    26.3400   -37.6060 
  179.8750     2.0880    54.5790   213.7760   204.2600   180.6340    26.1210   -37.8800 
  180.0000     2.0910    55.7640   192.2920   183.7210   177.3840    25.7860   -38.2010 
  180.1250     2.1050    60.0310   166.1110   158.6910   155.3600    25.5390   -38.5890 
  180.2500     2.1150    63.8190   141.0970   134.7770   109.2010    25.7880   -39.0480 
  180.3750     2.1010    64.4960   122.0570   116.5750    79.3110    26.6880   -39.5820 
  180.5000     2.0610    62.5250   111.6100   106.5870    80.6660    27.7790   -40.1810 
  180.6250     2.0230    61.0160   111.9000   106.8640    92.7970    28.4500   -40.8310 
  180.7500     2.0080    59.0890   120.9740   115.5390   111.4520    28.6890   -41.5020 
  180.8750     2.0150    56.2520   137.4290   131.2710   137.3410    28.7390   -42.1730 
  181.0000     2.0270    53.2140   157.5310   150.4880   171.9620    28.8120   -42.8260 
  181.1250     2.0190    51.2110   173.1080   165.3800   205.5490    28.9620   -43.4380 
  181.2500     1.9820    49.9400   178.4230   170.4620   204.7810    29.1140   -44.0040 
  181.3750     1.9300    49.9970   174.0030   166.2360   173.9040    29.0890   -44.5270 
  181.5000     1.9020    51.6560   165.6300   158.2310    97.1210    28.6360   -45.0110 
  181.6250     1.9380    53.4320   161.4460   154.2310    51.7180    27.4370   -45.4590 
  181.7500     2.0120    54.8510   165.6840   158.2830    36.9700    26.4250   -45.8840 
  181.8750     2.0720    56.8570   179.9140   171.8870    47.2100    25.9160   -46.2910 
  182.0000     2.0800    60.5300   203.9220   194.8390    67.6120    25.7310   -46.6880 
  182.1250     2.0650    64.5520   236.5220   226.0060    86.8750    25.6650   -47.0830 
  182.2500     2.0670    65.1350   271.7170   259.6530    95.7750    25.6870   -47.4760 
  182.3750     2.0840    61.4650   304.2710   290.7750    95.7760    25.8390   -47.8620 
  182.5000     2.1010    57.0110   330.1770   315.5420   110.1460    26.1520   -48.2350 
  182.6250     2.1060    56.1820   346.7830   331.4180   147.3340    26.5390   -48.5870 
  182.7500     2.0980    57.3770   356.2530   340.4710   255.6890    26.9690   -48.9190 
  182.8750     2.0770    58.4250   359.5550   343.6280   367.7950    27.3760   -49.2380 
  183.0000     2.0540    58.6690   357.4420   341.6080   381.6650    27.6010   -49.5520 
  183.1250     2.0400    58.5540   350.1730   334.6590   326.6400    27.5540   -49.8590 
  183.2500     2.0390    59.8950   339.8960   324.8330   296.4130    27.4010   -50.1510 
  183.3750     2.0380    62.8030   328.0520   313.5100   280.3000    27.2700   -50.4100 
  183.5000     2.0300    64.6470   316.1190   302.1030   271.2260    27.1750   -50.6230 
  183.6250     2.0150    61.6450   305.7830   292.2210   263.8510    27.0620   -50.7760 
  183.7500     1.9960    57.6000   297.5450   284.3450   256.9300    26.9140   -50.8910 
  183.8750     1.9800    57.1240   291.3050   278.3800   241.1540    26.6910   -50.9750 
  184.0000     1.9850    60.6250   286.5970   273.8780   206.5420    26.2240   -51.0260 
  184.1250     2.0330    62.9630   282.8640   270.3100   193.3500    25.4600   -51.0300 
  184.2500     2.0960    60.8580   279.4980   267.0920   210.6460    25.0570   -50.9880 
  184.3750     2.1300    57.8930   276.6800   264.3970   204.1690    25.2600   -50.9040 
  184.5000     2.1170    57.5040   275.0750   262.8630   188.7300    25.6960   -50.7810 
  184.6250     2.0830    58.0660   275.8840   263.6370   197.1540    25.8100   -50.6110 
  184.7500     2.0580    58.4270   279.3710   266.9700   192.5780    25.7240   -50.4000 
  184.8750     2.0470    58.6370   285.5930   272.9190   189.6530    25.6010   -50.1480 
