~V
VERS. 2.00: Ver 2.00
~W
STRT.M 53.0000:
STOP.M 252.0000:
STEP.M 0.1250:
NULL. -999.2500:
UWI. F11141:
~C
DEPT.M :
SP.MV :
DEN.GM/CC :
GR.API :
RML.OHMM :
RI. :
RXO.OHMM :
CALI.CM :
~A
# ...
  176.7500   -32.2940     2.1950    63.9240   126.3870   118.2490   101.2270    23.4080 
  176.8750   -32.4250     2.1850    63.1350   127.1490   119.0470    91.2680    23.4580 
  177.0000   -32.4340     2.1770    60.6140   126.0250   118.1870    82.3100    23.7200 
  177.1250   -32.2920     2.1740    58.6670   123.0530   115.5800    81.9640    24.0930 
  177.2500   -32.1840     2.1760    60.3050   119.6790   112.4330    84.6720    24.3940 
  177.3750   -32.1260     2.1810    65.0150   117.2140   109.8890    81.4790    24.5360 
  177.5000   -32.0980     2.1880    68.7520   116.7470   108.9780    78.6370    24.5860 
  177.6250   -32.0390     2.1950    67.3390   119.3120   110.7360    85.5740    24.6340 
  177.7500   -31.9730     2.2000    63.7780   124.3770   114.7800    96.0540    24.6550 
  177.8750   -31.9630     2.2020    61.4270   131.2900   120.5310   106.2410    24.6130 
  178.0000   -31.9950     2.1990    61.2940   138.9340   126.9100   111.7290    24.5640 
  178.1250   -32.0530     2.1970    62.6790   145.7320   132.2830   115.0150    24.5060 
  178.2500   -32.0830     2.1990    64.2220   151.0330   135.9240   115.1100    24.3750 
  178.3750   -32.0860     2.2040    65.4820   155.2730   138.1680   117.3130    24.0820 
  178.5000   -32.1590     2.2090    65.9280   159.6960   140.1280   120.2550    23.8090 
  178.6250   -32.3700     2.2090    65.9090   166.5320   143.7380   111.1940    23.8800 
  178.7500   -32.5410     2.2040    64.6130   177.1670   150.3430   113.4490    24.2100 
  178.8750   -32.6840     2.1990    61.4220   192.5330   160.8530   135.7520    24.3980 
  179.0000   -32.8730     2.1970    59.1570   202.7020   175.5610   179.0950    24.4040 
  179.1250   -33.1020     2.1970    62.1540   226.7940   194.7030   198.6250    24.4060 
  179.2500   -33.3340     2.1950    64.8860   253.3750   216.4500   204.5560    24.4600 
  179.3750   -33.5750     2.1890    64.3280   279.9730   238.8540   216.2610    24.4800 
  179.5000   -33.7460     2.1810    62.7250   302.9160   258.9950   233.6800    24.4490 
  179.6250   -33.7510     2.1710    62.8610   314.7700   271.1130   246.5560    24.4090 
  179.7500   -33.7580     2.1660    62.9110   310.6840   271.1200   252.2820    24.3540 
  179.8750   -33.7110     2.1670    62.8300   288.4260   256.4790   250.0720    24.3210 
  180.0000   -33.4410     2.1760    64.5260   252.0430   229.0840   246.4920    24.3110 
  180.1250   -33.0200     2.1920    67.8740   210.6860   195.0170   200.5750    24.2840 
  180.2500   -32.6350     2.2090    69.5180   173.7170   162.7470   152.5590    24.3200 
  180.3750   -32.2100     2.2220    68.3150   144.7880   136.3210   123.2190    24.3900 
  180.5000   -31.6410     2.2270    65.3130   124.6820   117.2650   100.8070    24.4600 
  180.6250   -31.1160     2.2230    63.9140   113.8050   106.4870    88.1880    24.5000 
  180.7500   -30.6820     2.2170    64.6860   109.3210   101.6120    80.0390    24.4360 
  180.8750   -30.1850     2.2130    67.7110   109.7780   101.3380    77.8090    24.3020 
  181.0000   -29.6630     2.2140    71.4490   113.5740   104.2100    78.6370    24.1240 
  181.1250   -29.2620     2.2200    72.2720   118.9630   108.6360    80.4810    23.9350 
  181.2500   -28.8820     2.2260    69.3700   124.0390   112.8180    80.4780    23.7820 
  181.3750   -28.4190     2.2240    67.5780   128.0640   116.0130    83.8960    23.7560 
  181.5000   -27.9720     2.2080    69.2640   131.0780   118.1830    95.9070    23.9680 
  181.6250   -27.7080     2.1810    68.6970   133.5920   119.7250   111.1370    24.4800 
  181.7500   -27.4750     2.1540    64.0660   135.9660   121.0840   127.7360    25.0580 
  181.8750   -27.2550     2.1400    60.8100   137.7510   122.0930   152.0320    25.4830 
  182.0000   -27.1180     2.1440    62.2050   138.1100   122.3200   154.8590    25.6680 
  182.1250   -27.0640     2.1650    64.5430   136.1470   121.4020   138.6580    25.6160 
  182.2500   -27.1090     2.1870    64.2820   132.5060   119.8550   136.4710    25.5760 
  182.3750   -27.2540     2.2010    63.2960   128.1120   118.2980   127.6080    25.6140 
  182.5000   -27.4600     2.2020    63.9880   124.0960   117.3940   121.4860    25.7290 
  182.6250   -27.6670     2.1920    64.7910   121.4110   117.6630   130.1390    25.8580 
  182.7500   -27.8290     2.1820    63.8120   119.6380   118.5220   134.4360    25.9440 
  182.8750   -27.9080     2.1770    62.1710   117.9540   119.0860   126.8290    25.9090 
  183.0000   -27.9720     2.1800    61.5550   115.4540   118.4280   115.4480    25.7530 
  183.1250   -28.0680     2.1940    62.5280   110.6250   115.0550   107.7260    25.4920 
  183.2500   -28.0060     2.2090    64.4440   101.9620   107.4720    98.9660    25.1960 
  183.3750   -27.8840     2.2220    66.8810    88.1140    93.8910    85.8350    24.9570 
  183.5000   -27.8140     2.2330    69.1840    69.7730    74.6170    75.3070    24.8600 
  183.6250   -27.6270     2.2470    71.0080    50.6980    53.9980    60.1300    24.7960 
  183.7500   -27.3310     2.2660    73.3140    35.1910    37.4800    39.8130    24.6630 
  183.8750   -27.1040     2.2840    77.3840    24.8680    26.7170    18.7850    24.5570 
  184.0000   -27.0320     2.2940    84.9680    19.6390    21.0810    10.3300    24.4020 
  184.1250   -27.0170     2.2880    91.9190    19.6310    20.0530     9.4630    24.2790 
  184.2500   -27.0660     2.2720    92.1040    24.0270    22.7450    13.6740    24.0320 
  184.3750   -27.2110     2.2550    86.5940    33.2640    29.9480    26.7740    23.9100 
  184.5000   -27.4540     2.2440    80.6040    47.6090    42.6890    45.6620    23.8430 
  184.6250   -27.7680     2.2420    76.5670    66.1690    61.0070    58.3670    23.8180 
  184.7500   -28.1100     2.2420    70.8270    83.7970    79.3260    60.9730    23.8360 
  184.8750   -28.5290     2.2400    64.3240    95.7500    92.1010    65.9680    23.9540 
  185.0000   -28.9730     2.2320    61.6150   100.7450    97.5000    73.9550    24.1430 
  185.1250   -29.3670     2.2180    63.8720   101.5810    97.8190    80.0920    24.2890 
  185.2500   -29.6970     2.2030    67.0810   102.6000    97.3420    84.8450    24.4040 
  185.3750   -29.9850     2.1940    68.4040   105.2630    97.5980    93.1080    24.4990 
  185.5000   -30.2250     2.1940    67.1260   109.9320    99.0730   104.4080    24.5490 
  185.6250   -30.3940     2.2040    65.3360   116.5350   101.8250   110.2040    24.5600 
  185.7500   -30.5820     2.2180    65.2240   123.8660   105.1640   113.3230    24.5620 
  185.8750   -30.7650     2.2300    65.6390   130.9550   108.6020   118.5870    24.5590 
  186.0000   -30.8290     2.2330    65.1240   137.2010   111.9020   121.2100    24.5600 
  186.1250   -30.7450     2.2220    64.7860   142.7730   115.3360   122.3960    24.5770 
  186.2500   -30.7280     2.1980    66.8820   148.3530   119.2500   121.1990    24.5810 
  186.3750   -30.6880     2.1670    68.9110   153.0070   122.9320   123.4650    24.5660 
  186.5000   -30.4320     2.1390    67.1440   153.2600   123.8690   132.2030    24.5540 
  186.6250   -30.1160     2.1270    62.7660   143.4090   117.6930   143.7340    24.5700 
  186.7500   -29.8340     2.1350    60.3510   125.9380   105.3980   148.2960    24.6040 
  186.8750   -29.4460     2.1590    60.6770   106.6700    90.7280   130.1560    24.6400 
  187.0000   -28.9490     2.1890    61.9110    91.3410    78.1430    93.2140    24.6540 
  187.1250   -28.5220     2.2100    62.5390    84.4940    71.7400    64.3230    24.5840 
  187.2500   -28.1550     2.2160    65.1750    85.6180    71.7660    66.0610    24.5390 
  187.3750   -27.8120     2.2080    68.8930    94.0370    77.9580    90.1870    24.5300 
  187.5000   -27.5880     2.1960    70.1270   107.9360    89.0200   112.8880    24.5220 
  187.6250   -27.5130     2.1900    68.0460   122.1080   101.1430   111.7430    24.5270 
  187.7500   -27.4810     2.1940    66.4810   127.6380   107.3010   101.9610    24.5340 
  187.8750   -27.4990     2.2070    65.7740   119.2120   102.7020   104.8360    24.5050 
