~V
VERS. 2.00: Ver 2.00
~W
STRT.M 54.0000:
STOP.M 273.0000:
STEP.M 0.1250:
NULL. -999.2500:
UWI. F11158:
~C
DEPT.M :
SP.MV :
DEN.GM/CC :
GR.API :
RML.OHMM :
RI. :
RXO.OHMM :
CALI.CM :
~A
# ...
  211.5000   -12.9500     2.2510    77.1100     8.4250     6.9930     8.0650    23.5100 
  211.6250   -12.8650     2.2600    77.4400     8.6320     7.2190     7.7940    23.5610 
  211.7500   -12.8490     2.2660    75.8910     8.9090     7.4500     7.4010    23.6050 
  211.8750   -12.8800     2.2690    73.8950     9.4810     7.8560     7.7170    23.6290 
  212.0000   -12.9220     2.2760    74.1570    10.4320     8.5310     9.1990    23.6420 
  212.1250   -12.9430     2.2870    76.8590    11.6820     9.4800    11.4570    23.6790 
  212.2500   -12.9310     2.2910    77.5950    12.9930    10.5870    13.1200    23.7600 
  212.3750   -12.8810     2.2830    75.0100    14.0750    11.6170    13.9770    23.8530 
  212.5000   -12.7890     2.2700    71.4800    14.7920    12.4070    14.2710    23.9230 
  212.6250   -12.6710     2.2640    68.7340    15.1970    12.9220    14.1520    23.9680 
  212.7500   -12.5170     2.2710    66.7820    15.4820    13.2650    14.0620    23.9960 
  212.8750   -12.3250     2.2830    66.6800    15.8360    13.6070    14.1630    24.0060 
  213.0000   -12.1170     2.2930    69.0620    16.2900    14.0150    14.6610    24.0080 
  213.1250   -11.9280     2.2970    72.0470    16.7770    14.4790    15.4200    24.0180 
  213.2500   -11.7730     2.2950    71.8660    17.1990    14.9440    15.7200    24.0420 
  213.3750   -11.6590     2.2870    68.9000    17.5240    15.3740    15.8200    24.0700 
  213.5000   -11.5920     2.2790    66.0550    17.7940    15.7870    16.3770    24.0800 
  213.6250   -11.5600     2.2750    66.0380    18.0740    16.2330    17.0150    24.0640 
  213.7500   -11.5760     2.2760    69.1490    18.3940    16.7470    17.3460    24.0190 
  213.8750   -11.6320     2.2750    71.9620    18.7090    17.2830    18.0040    23.9900 
  214.0000   -11.7130     2.2690    72.7260    18.9720    17.7760    19.2220    24.0190 
  214.1250   -11.8110     2.2630    71.4160    19.1900    18.1960    19.9560    23.9890 
  214.2500   -11.9140     2.2620    70.9040    19.3990    18.5450    19.2400    23.6650 
  214.3750   -11.9990     2.2640    72.5390    19.5740    18.8030    17.6220    23.1110 
  214.5000   -12.0630     2.2660    74.4380    19.5610    18.8460    17.1780    22.8260 
  214.6250   -12.1080     2.2700    75.2660    19.0930    18.4450    18.0750    23.1360 
  214.7500   -12.1430     2.2840    75.5090    17.8820    17.3390    18.3940    23.5770 
  214.8750   -12.1900     2.3020    76.0610    16.0390    15.6270    16.1270    23.7000 
  215.0000   -12.2560     2.3210    75.2070    13.9020    13.6170    12.6550    23.6950 
  215.1250   -12.3400     2.3380    73.4450    12.0260    11.8070    10.2480    23.7110 
  215.2500   -12.4350     2.3490    72.7140    11.0530    10.7250     9.3690    23.6880 
  215.3750   -12.5460     2.3490    73.2340    11.3270    10.6220     9.0080    23.6410 
  215.5000   -12.6870     2.3390    72.3560    13.1640    11.7630    10.0060    23.6030 
  215.6250   -12.8650     2.3210    68.6770    17.2130    14.5560    14.8780    23.6540 
  215.7500   -13.0410     2.2970    63.6910    24.4980    19.5820    26.3240    23.9640 
  215.8750   -13.1670     2.2670    58.9590    32.0950    26.4920    39.5240    24.4440 
  216.0000   -13.2370     2.2320    56.5090    39.1690    33.9110    44.6850    24.8710 
  216.1250   -13.2610     2.2020    57.1480    42.7920    38.8270    40.0740    25.1070 
  216.2500   -13.2620     2.1830    59.7230    40.7730    38.3170    36.0800    25.2390 
  216.3750   -13.2640     2.1720    62.1930    35.3450    33.9650    33.1020    25.3860 
  216.5000   -13.2570     2.1710    62.9620    29.1690    28.3570    26.6800    25.4740 
  216.6250   -13.2220     2.1860    61.6130    24.0290    23.3770    18.5970    25.3670 
  216.7500   -13.1780     2.2130    60.0400    20.7640    19.9430    14.3070    25.0740 
  216.8750   -13.1470     2.2380    60.7170    19.2470    18.0100    13.4500    24.7610 
  217.0000   -13.1490     2.2470    62.1170    19.3870    17.5200    14.0550    24.4950 
  217.1250   -13.1750     2.2420    61.7470    21.0900    18.4480    15.7030    24.2780 
  217.2500   -13.1960     2.2280    61.6450    24.2590    20.8610    19.6720    24.1490 
  217.3750   -13.1950     2.2130    62.9870    28.3240    24.4040    25.3610    24.1390 
  217.5000   -13.1830     2.2020    63.5910    32.7240    28.6860    30.4850    24.2430 
  217.6250   -13.1770     2.1970    62.2540    36.7460    33.0600    34.2350    24.4280 
  217.7500   -13.1840     2.1950    60.9990    39.7020    36.7380    38.7930    24.5900 
  217.8750   -13.2180     2.1960    61.1880    41.5540    39.3700    42.0300    24.6850 
  218.0000   -13.2830     2.2000    61.5230    42.5720    41.0140    42.2500    24.7190 
  218.1250   -13.3800     2.2050    61.2760    43.1920    41.9830    40.3130    24.7090 
  218.2500   -13.5220     2.2120    60.6320    43.7360    42.5960    38.5490    24.6750 
  218.3750   -13.6860     2.2200    58.7810    44.1260    42.9620    37.3470    24.6030 
  218.5000   -13.8540     2.2280    57.4050    43.8040    42.7190    36.8470    24.5640 
  218.6250   -14.0220     2.2380    58.7800    41.8400    41.0580    36.0400    24.5520 
  218.7500   -14.1970     2.2500    62.3040    37.4460    37.1350    35.8790    24.5350 
  218.8750   -14.3940     2.2640    64.2580    31.5510    31.6620    36.5070    24.4660 
  219.0000   -14.6110     2.2820    64.0910    25.6530    26.0210    34.1950    24.3150 
  219.1250   -14.8410     2.3020    64.6180    21.2450    21.6040    26.0450    24.1230 
  219.2500   -15.0820     2.3140    66.4780    19.3590    19.3150    17.5440    23.9980 
  219.3750   -15.3410     2.3100    68.0710    19.9520    19.1090    13.3310    23.9950 
  219.5000   -15.6230     2.2870    68.7000    23.0900    21.1590    14.1370    24.0910 
  219.6250   -15.9140     2.2470    68.4690    28.8800    25.8960    20.0220    24.2770 
  219.7500   -16.2010     2.1990    67.8370    37.2910    33.8430    30.2650    24.5650 
  219.8750   -16.4570     2.1620    66.0490    47.0460    44.0200    36.9780    24.7920 
  220.0000   -16.6800     2.1520    64.1870    56.7760    54.8410    40.7650    24.8910 
  220.1250   -16.8750     2.1740    63.1480    65.7290    64.9810    47.4970    24.8500 
  220.2500   -17.0550     2.2140    61.5050    74.6260    74.8900    57.7670    24.7320 
  220.3750   -17.2190     2.2480    59.0900    83.9460    85.3490    71.1580    24.6840 
  220.5000   -17.3460     2.2740    57.2770    90.4810    93.3890    84.1800    24.6590 
  220.6250   -17.4350     2.3090    56.3800    86.6050    91.0640    98.1530    24.4740 
  220.7500   -17.4880     2.3730    55.4240    67.6250    72.4220   116.4020    24.1070 
  220.8750   -17.5460     2.4590    55.4630    44.7370    48.3330   103.9230    23.9310 
  221.0000   -17.6350     2.5310    57.4240    27.0460    29.0980    53.9830    23.8720 
  221.1250   -17.7890     2.5450    58.0880    16.4390    17.4940    19.6400    23.8520 
  221.2500   -18.0170     2.5020    54.3900    11.2820    11.8590     8.9480    23.8530 
  221.3750   -18.3240     2.4590    49.4400     8.7920     8.9960     6.8090    23.8380 
  221.5000   -18.7030     2.4350    47.0310     7.8330     7.6590     6.4630    23.7780 
  221.6250   -19.1530     2.4240    47.5730     7.7200     7.2150     6.2920    23.6980 
  221.7500   -19.6630     2.4070    48.8220     8.0040     7.2930     6.1100    23.6890 
  221.8750   -20.2360     2.3770    49.8660     8.3080     7.5180     6.0950    23.7820 
  222.0000   -20.8600     2.3400    50.3540     8.4620     7.6970     6.0760    23.8950 
  222.1250   -21.4840     2.3090    48.5280     8.4120     7.7340     6.0030    23.9650 
  222.2500   -22.0480     2.2950    46.1640     8.2250     7.6430     5.9860    24.0510 
  222.3750   -22.5200     2.3010    47.5120     8.0750     7.5470     6.2060    24.1770 
  222.5000   -22.9400     2.3210    52.1430     8.1180     7.5670     6.2180    24.1400 
  222.6250   -23.3430     2.3500    54.6240     8.4420     7.8010     6.1200    24.0450 
