~V
VERS. 2.00: Ver 2.00
~W
STRT.M 50.0000:
STOP.M 201.0000:
STEP.M 0.1250:
NULL. -999.2500:
UWI. F11102:
~C
DEPT.M :
GR.API :
RML.OHMM :
RI. :
RXO.OHMM :
CALI.CM :
SP.MV :
DEN.GM/CC :
~A
# ...
  106.2500    66.0080     8.3340     7.3600     8.5600    23.1380   -17.5700     2.1400 
  106.3750    67.5350     8.4550     7.5040     8.6420    23.1290   -17.9400     2.1460 
  106.5000    68.8520     8.5110     7.5790     8.6330    23.1460   -18.2210     2.1470 
  106.6250    66.9650     8.5520     7.6060     8.6270    23.2640   -18.4120     2.1440 
  106.7500    65.0820     8.6200     7.6280     8.7030    23.3240   -18.5240     2.1400 
  106.8750    67.5340     8.7070     7.6590     8.9170    23.3880   -18.5990     2.1400 
  107.0000    75.5170     8.7800     7.6920     9.2230    23.2850   -18.6010     2.1430 
  107.1250    82.4980     8.7840     7.6940     9.5090    23.1640   -18.5500     2.1490 
  107.2500    81.2440     8.7090     7.6460     9.8140    23.0820   -18.4530     2.1530 
  107.3750    74.5980     8.5740     7.5480     9.9740    23.1040   -18.3230     2.1540 
  107.5000    68.6520     8.4180     7.4200     9.9320    23.1180   -18.1570     2.1520 
  107.6250    65.4110     8.2890     7.3000     9.7350    23.1300   -17.9490     2.1480 
  107.7500    63.0880     8.2050     7.2150     9.5560    23.1850   -17.7070     2.1460 
  107.8750    61.6890     8.1690     7.1740     9.5320    23.3340   -17.4230     2.1440 
  108.0000    63.0030     8.1710     7.1740     9.6530    23.5620   -17.1030     2.1420 
  108.1250    66.4460     8.2070     7.2130     9.6560    23.7970   -16.7120     2.1410 
  108.2500    68.5980     8.2810     7.2880     9.5330    23.9890   -16.2530     2.1400 
  108.3750    68.2630     8.4120     7.4150     9.4380    24.0600   -15.7210     2.1440 
  108.5000    66.8400     8.5920     7.5970     9.4360    23.9940   -15.0850     2.1550 
  108.6250    66.8570     8.7390     7.7820     9.3920    23.9440   -14.3300     2.1750 
  108.7500    66.6560     8.7240     7.8580     9.4030    24.1440   -13.4650     2.2000 
  108.8750    67.0600     8.4440     7.7200     9.5770    24.4590   -12.4770     2.2260 
  109.0000    71.0650     7.8810     7.3240     9.6490    24.8140   -11.4060     2.2450 
  109.1250    78.7250     7.1310     6.7100     8.7890    25.2770   -10.3100     2.2560 
  109.2500    83.5810     6.4110     6.0590     7.7500    25.6440    -9.2160     2.2600 
  109.3750    83.0930     5.8520     5.4960     7.1930    25.9000    -8.1640     2.2590 
  109.5000    81.4640     5.5080     5.0930     7.1370    25.9740    -7.2090     2.2570 
  109.6250    82.3690     5.3990     4.8950     7.0680    26.0410    -6.3880     2.2530 
  109.7500    83.9750     5.4330     4.8440     6.4730    26.0990    -5.7240     2.2490 
  109.8750    83.5110     5.5470     4.8950     5.9570    26.1700    -5.2240     2.2440 
  110.0000    81.9480     5.6860     4.9980     6.0960    26.2420    -4.8730     2.2380 
  110.1250    81.1000     5.7880     5.0990     6.4500    26.1330    -4.6630     2.2320 
  110.2500    79.1320     5.8230     5.1610     6.5490    26.0680    -4.5470     2.2290 
  110.3750    75.4040     5.7880     5.1710     6.6240    26.0010    -4.5050     2.2300 
  110.5000    74.1000     5.7280     5.1510     6.5840    25.9700    -4.5330     2.2320 
  110.6250    78.0450     5.7400     5.1680     6.4360    25.9390    -4.6590     2.2350 
  110.7500    80.5120     5.8910     5.2840     6.2450    25.8450    -4.8360     2.2360 
  110.8750    77.7650     6.1980     5.5300     6.2270    25.7190    -5.0680     2.2350 
  111.0000    73.3220     6.6090     5.8820     6.6280    25.5150    -5.3220     2.2350 
  111.1250    70.7530     6.9730     6.2370     7.7760    25.1940    -5.5360     2.2360 
  111.2500    68.6090     7.1350     6.4490     8.6940    24.7620    -5.6860     2.2400 
  111.3750    66.5940     7.0140     6.4250     8.7000    24.6220    -5.7580     2.2470 
  111.5000    68.1110     6.6350     6.1580     7.5820    24.7950    -5.7630     2.2540 
  111.6250    74.2410     6.1150     5.7220     6.3200    25.1520    -5.6770     2.2610 
  111.7500    78.9370     5.6110     5.2620     5.8880    25.5230    -5.5290     2.2680 
  111.8750    81.7890     5.1900     4.8460     5.8410    25.8210    -5.3500     2.2750 
  112.0000    86.4690     4.8910     4.5130     5.7510    26.1440    -5.1730     2.2840 
  112.1250    92.6550     4.7970     4.3360     5.5090    26.2160    -5.0960     2.2970 
  112.2500    94.2950     4.9430     4.3530     5.0790    26.2480    -5.1560     2.3160 
  112.3750    90.2060     5.3560     4.6010     4.9580    26.2140    -5.3940     2.3390 
  112.5000    85.2490     6.0110     5.0730     5.3490    26.1920    -5.7910     2.3630 
  112.6250    79.0540     6.7800     5.7080     7.0680    26.1280    -6.3690     2.3800 
  112.7500    70.2750     7.3850     6.2960     9.5320    25.9550    -7.0800     2.3810 
  112.8750    64.1080     7.6100     6.6450     9.8920    25.7010    -7.8830     2.3610 
  113.0000    63.4400     7.4250     6.6660     8.5450    25.4650    -8.7350     2.3270 
  113.1250    65.4190     7.0290     6.4340     7.3240    25.3450    -9.5810     2.2870 
  113.2500    67.4310     6.7360     6.1970     7.0210    25.2940   -10.3930     2.2530 
  113.3750    69.2150     6.6810     6.0990     7.0140    25.1410   -11.1270     2.2270 
  113.5000    68.9790     6.8660     6.1910     7.2950    24.8140   -11.7520     2.2090 
  113.6250    64.7540     7.1840     6.4420     8.2020    24.5530   -12.2150     2.1980 
  113.7500    60.4960     7.4540     6.7110     8.6790    24.4820   -12.5190     2.1920 
  113.8750    58.7960     7.5790     6.9060     8.6890    24.4810   -12.6720     2.1910 
  114.0000    58.9420     7.5380     6.9800     8.5340    24.5440   -12.6940     2.1930 
  114.1250    60.1420     7.3990     6.9380     8.4780    24.6100   -12.5690     2.2000 
  114.2500    60.0680     7.3530     6.9050     8.5560    24.6330   -12.2740     2.2100 
  114.3750    58.9840     7.5870     7.0340     8.6770    24.7060   -11.8090     2.2260 
  114.5000    59.0270     8.2120     7.4610     8.7360    24.9000   -11.1820     2.2490 
  114.6250    59.5020     9.1890     8.2610     9.2560    25.0300   -10.3860     2.2860 
  114.7500    57.8140    10.0960     9.1570    11.4580    25.1380    -9.4650     2.3340 
  114.8750    55.2480    10.4170     9.7140    16.9210    25.2360    -8.4430     2.3860 
  115.0000    57.3450     9.7500     9.4860    24.8220    25.3960    -7.4000     2.4280 
  115.1250    65.5580     8.3810     8.3180    19.0220    25.7430    -6.4160     2.4380 
  115.2500    71.6630     7.3080     6.8610     9.8140    26.1200    -5.5750     2.4180 
  115.3750    73.2490     5.8720     5.5880     5.4320    26.1400    -4.9090     2.3780 
  115.5000    73.0870     5.0580     4.7200     4.3860    26.1320    -4.4290     2.3370 
  115.6250    72.9470     4.8350     4.3390     4.7100    26.1770    -4.1200     2.3070 
  115.7500    70.7040     4.9260     4.2780     4.8660    26.3270    -3.9750     2.2870 
  115.8750    67.3320     5.1520     4.4080     4.8620    26.4410    -3.9860     2.2730 
  116.0000    67.2140     5.3570     4.5950     4.9350    26.3840    -4.0640     2.2630 
  116.1250    70.0930     5.4390     4.7320     5.6200    26.0680    -4.1270     2.2570 
  116.2500    71.9890     5.4760     4.8320     6.0160    26.0840    -4.1420     2.2590 
  116.3750    71.2590     5.6310     4.9890     6.0390    26.3090    -4.0830     2.2730 
  116.5000    68.8560     6.1100     5.3460     6.3390    26.5300    -3.9380     2.3030 
  116.6250    66.6500     7.2330     6.1470     6.9590    26.5230    -3.7360     2.3510 
  116.7500    64.3750     9.0190     7.4780     8.6000    26.5630    -3.5030     2.4070 
  116.8750    61.7110    11.3000     9.3260    12.7340    26.5910    -3.2600     2.4600 
  117.0000    57.7610    13.4940    11.3510    19.1390    26.5960    -3.0370     2.4950 
  117.1250    52.7810    14.3020    12.4950    23.1240    26.5870    -2.8950     2.4930 
  117.2500    50.4840    13.2360    12.0610    19.8170    26.5520    -2.8020     2.4590 
  117.3750    55.5550    10.8510    10.3200    13.8380    26.5340    -2.7690     2.4040 
