~V
VERS. 2.00: Ver 2.00
~W
STRT.M 62.0000:
STOP.M 217.0000:
STEP.M 0.1250:
NULL. -999.2500:
UWI. F11126:
~C
DEPT.M :
DEN.GM/CC :
SP.MV :
GR.API :
RML.OHMM :
RI. :
RXO.OHMM :
CALI.CM :
~A
# ...
  129.5000     2.5080    -7.7000    48.8010    19.2970    17.8210    17.3270    25.2690 
  129.6250     2.5020    -7.8670    48.6330    19.6340    18.2870    17.7290    25.2420 
  129.7500     2.5060    -8.0240    48.4700    19.7870    18.5540    17.8100    25.2250 
  129.8750     2.5160    -8.1450    47.7850    19.8240    18.6670    17.5230    25.2280 
  130.0000     2.5250    -8.2310    47.9160    19.8140    18.6970    17.4150    25.2490 
  130.1250     2.5290    -8.3530    49.2710    19.8020    18.7180    17.3380    25.2740 
  130.2500     2.5320    -8.5940    49.8620    19.7540    18.7280    17.0530    25.2840 
  130.3750     2.5370    -8.9760    48.6060    19.5790    18.6530    16.6440    25.2850 
  130.5000     2.5430    -9.4970    48.4610    19.0800    18.3070    16.5360    25.2880 
  130.6250     2.5430    -9.9990    50.9540    18.1960    17.6030    16.3760    25.2890 
  130.7500     2.5370   -10.3690    55.1130    16.9550    16.5380    16.1060    25.2920 
  130.8750     2.5270   -10.5150    58.8270    15.5230    15.2430    15.4040    25.3020 
  131.0000     2.5170   -10.4620    60.8030    14.2250    13.9950    14.2110    25.3260 
  131.1250     2.5140   -10.3270    62.3660    13.3400    13.0530    13.1920    25.3440 
  131.2500     2.5180    -9.9260    64.2270    12.9960    12.5460    12.5050    25.3580 
  131.3750     2.5300    -9.2530    65.3840    13.1790    12.4940    12.0760    25.3860 
  131.5000     2.5480    -8.3640    63.5240    13.7860    12.8730    12.7740    25.4370 
  131.6250     2.5680    -7.4530    60.0330    14.5330    13.4690    14.0640    25.4860 
  131.7500     2.5800    -6.6660    57.2900    15.2380    14.1320    15.0110    25.5220 
  131.8750     2.5790    -6.1110    55.0570    15.7950    14.7350    15.2130    25.5720 
  132.0000     2.5690    -5.8280    54.0530    16.1570    15.1790    14.7880    25.6050 
  132.1250     2.5650    -5.6020    54.9190    16.3960    15.4780    14.4410    25.6900 
  132.2500     2.5680    -5.5640    55.9340    16.5550    15.6650    14.4780    25.8410 
  132.3750     2.5690    -5.6910    55.4830    16.6440    15.7740    14.5860    26.0770 
  132.5000     2.5610    -5.9250    55.5010    16.6270    15.8010    14.7580    26.3850 
  132.6250     2.5430    -6.2080    58.4840    16.5050    15.7380    14.6000    26.6790 
  132.7500     2.5140    -6.5130    63.2720    16.3130    15.5710    14.2160    26.8540 
  132.8750     2.4730    -6.8160    68.2990    16.1170    15.3180    14.1800    26.8760 
  133.0000     2.4330    -7.0420    73.1530    15.9990    15.0340    13.9690    26.7510 
  133.1250     2.4060    -7.2620    76.6730    15.9850    14.8000    13.5360    26.6040 
  133.2500     2.3950    -7.4500    78.1850    16.0820    14.6730    13.3820    26.4570 
  133.3750     2.3990    -7.5980    78.0990    16.2860    14.6840    13.6110    26.3740 
  133.5000     2.4120    -7.7070    77.8770    16.6280    14.8580    14.2300    26.4300 
  133.6250     2.4230    -7.8250    78.8680    17.1190    15.1750    14.7010    26.5310 
  133.7500     2.4300    -7.9880    80.5040    17.8000    15.6510    14.9460    26.5880 
  133.8750     2.4310    -8.1980    82.1030    18.7180    16.3220    15.3030    26.5760 
  134.0000     2.4240    -8.3600    85.0160    19.9860    17.2800    15.7230    26.5390 
  134.1250     2.4130    -8.5090    87.9830    21.5920    18.5290    16.9670    26.4910 
  134.2500     2.4070    -8.6130    88.6960    23.4980    20.0590    18.7970    26.4750 
  134.3750     2.4160    -8.6990    87.2640    25.5400    21.7770    20.9640    26.4040 
  134.5000     2.4400    -8.7910    85.7580    27.2850    23.3940    22.7210    26.5400 
  134.6250     2.4650    -8.8590    83.3610    28.2120    24.4650    24.1840    26.7250 
  134.7500     2.4730    -8.8440    80.6670    27.8360    24.5260    24.9920    26.8470 
  134.8750     2.4560    -8.7740    81.8740    25.9280    23.2680    25.2450    26.9170 
  135.0000     2.4110    -8.7360    86.7120    22.5990    20.6320    24.7220    26.9640 
  135.1250     2.3590    -8.7100    87.5400    18.8770    17.4650    21.6380    26.9620 
  135.2500     2.3160    -8.7300    84.1080    15.5430    14.4650    16.3340    26.8640 
  135.3750     2.2890    -8.7810    81.7670    13.0780    12.1060    11.6210    26.7340 
  135.5000     2.2760    -8.8470    83.1050    11.7410    10.6830     9.7920    26.6750 
  135.6250     2.2710    -8.9190    83.8020    11.2160     9.9930     9.3780    26.6730 
  135.7500     2.2680    -8.9770    83.0010    11.2920     9.8860     9.5760    26.6660 
  135.8750     2.2590    -8.9840    81.7900    11.7470    10.1770    10.0700    26.6280 
  136.0000     2.2470    -8.9580    80.5360    12.3300    10.6560    10.6600    26.5760 
  136.1250     2.2450    -8.9050    78.3350    12.7750    11.0630    11.3850    26.5670 
  136.2500     2.2580    -8.8150    75.9930    12.9360    11.2430    11.5860    26.6020 
  136.3750     2.2780    -8.6680    74.4720    12.7570    11.1200    11.3060    26.6560 
  136.5000     2.2900    -8.4650    74.5400    12.2530    10.6640    10.8400    26.7120 
  136.6250     2.2890    -8.2500    76.8450    11.5570    10.0240    10.2210    26.7260 
  136.7500     2.2780    -8.0630    80.8190    10.7850     9.3360     9.5690    26.7080 
  136.8750     2.2630    -7.9120    84.8840    10.0170     8.7350     8.8770    26.6960 
  137.0000     2.2490    -7.7770    86.8370     9.3460     8.3280     8.2740    26.7080 
  137.1250     2.2380    -7.6380    85.1620     8.7870     8.0720     8.0130    26.7330 
  137.2500     2.2300    -7.5090    80.9710     8.6010     7.8900     8.1960    26.7390 
  137.3750     2.2300    -7.3940    78.0030     8.3840     7.6950     8.5230    26.7270 
  137.5000     2.2440    -7.2990    78.6150     8.1180     7.4300     8.5460    26.6950 
  137.6250     2.2670    -7.2000    79.9120     7.8500     7.1320     7.9610    26.6680 
  137.7500     2.2850    -7.1050    79.8130     7.6270     6.8640     7.1460    26.6450 
  137.8750     2.2950    -7.0170    78.9550     7.4730     6.6750     6.6290    26.6530 
  138.0000     2.3070    -6.9700    79.4390     7.3690     6.5840     6.7920    26.7010 
  138.1250     2.3190    -6.9570    80.9950     7.2590     6.5390     7.2400    26.7220 
  138.2500     2.3160    -7.0030    82.9440     7.1160     6.4930     7.3220    26.7080 
  138.3750     2.2970    -7.0860    84.2170     6.9580     6.4150     6.7670    26.6900 
  138.5000     2.2830    -7.1820    82.1940     6.8500     6.3050     6.0930    26.6840 
  138.6250     2.2820    -7.3030    78.5990     6.8080     6.1880     5.9050    26.6870 
  138.7500     2.2900    -7.4470    77.0130     6.7960     6.0780     6.1080    26.6990 
  138.8750     2.2990    -7.6240    78.3710     6.7430     5.9650     6.3690    26.7270 
  139.0000     2.3070    -7.7600    79.5090     6.5750     5.8160     6.3560    26.7510 
  139.1250     2.3120    -7.8600    77.7890     6.3200     5.6110     6.0890    26.7800 
  139.2500     2.3150    -7.8900    75.9970     6.0330     5.3560     5.8020    26.8040 
  139.3750     2.3140    -7.8940    76.6510     5.7660     5.0740     5.4990    26.8080 
  139.5000     2.3100    -7.8830    79.1500     5.5350     4.8070     5.1590    26.7820 
  139.6250     2.3050    -7.8270    81.8170     5.3150     4.5780     4.8670    26.7640 
  139.7500     2.3020    -7.7440    84.2260     5.0960     4.3930     4.6530    26.8030 
  139.8750     2.3020    -7.6510    85.9060     4.8910     4.2500     4.5050    26.8460 
  140.0000     2.3010    -7.6040    86.3960     4.7510     4.1510     4.4230    26.8470 
  140.1250     2.2980    -7.5910    86.0090     4.7020     4.0930     4.3580    26.8420 
  140.2500     2.2950    -7.6230    85.9740     4.7480     4.0780     4.3060    26.8550 
  140.3750     2.2940    -7.6580    86.4100     4.8680     4.1070     4.2790    26.8390 
  140.5000     2.2930    -7.6280    86.7810     5.0220     4.1770     4.3340    26.7580 
  140.6250     2.2870    -7.5280    86.9500     5.1550     4.2550     4.4590    26.6770 
