~V
VERS. 2.00: Ver 2.00
~W
STRT.M 45.0000:
STOP.M 268.0000:
STEP.M 0.1250:
NULL. -999.2500:
UWI. F11184:
~C
DEPT.M :
SP.MV :
GR.API :
RI. :
RML.OHMM :
RXO.OHMM :
DEN.GM/CC :
~A
# ...
  135.1250   -22.2590    55.9270     6.1730     6.6820     6.5630     2.1170 
  135.2500   -22.1510    55.6930     6.1170     6.6220     6.6450     2.1110 
  135.3750   -21.9900    55.9180     6.1590     6.6670     6.6320     2.1050 
  135.5000   -21.7990    56.1310     6.2540     6.7660     6.5490     2.1030 
  135.6250   -21.6120    56.9930     6.3410     6.8580     6.4750     2.1020 
  135.7500   -21.4620    58.2010     6.3750     6.8940     6.2660     2.1010 
  135.8750   -21.3690    57.4100     6.3360     6.8530     5.9720     2.0970 
  136.0000   -21.3250    55.1750     6.2290     6.7410     6.0550     2.0920 
  136.1250   -21.3180    54.8680     6.0920     6.5970     6.3610     2.0880 
  136.2500   -21.3280    55.6900     5.9480     6.4450     6.4170     2.0860 
  136.3750   -21.3440    55.2590     5.8620     6.3560     6.3890     2.0830 
  136.5000   -21.3650    55.0310     5.8500     6.3420     6.5490     2.0740 
  136.6250   -21.3950    56.7860     5.8840     6.3790     6.5430     2.0730 
  136.7500   -21.4340    57.8300     5.9300     6.4260     6.2390     2.0850 
  136.8750   -21.4780    55.4360     5.9650     6.4630     6.1610     2.0980 
  137.0000   -21.5200    51.4890     5.9910     6.4900     6.4000     2.1000 
  137.1250   -21.5570    50.0620     6.0070     6.5070     6.6900     2.0930 
  137.2500   -21.5920    51.3470     6.0100     6.5100     6.8740     2.0870 
  137.3750   -21.6390    55.1930     5.9690     6.4680     6.9450     2.0830 
  137.5000   -21.7080    58.7810     5.8540     6.3470     6.8820     2.0820 
  137.6250   -21.8030    60.4830     5.5150     5.9910     6.6800     2.0890 
  137.7500   -21.9120    61.8940     5.0690     5.5220     6.5250     2.1040 
  137.8750   -22.0130    64.9770     4.6140     5.0450     6.1330     2.1310 
  138.0000   -22.0850    68.3010     4.3070     4.7220     5.3150     2.1670 
  138.1250   -22.1050    68.7240     4.2670     4.6800     4.9360     2.1840 
  138.2500   -22.0750    68.0510     4.4100     4.8310     5.7500     2.1730 
  138.3750   -21.9950    67.6080     4.7360     5.1730     6.8340     2.1530 
  138.5000   -21.8830    65.8580     5.1470     5.6050     6.9660     2.1440 
  138.6250   -21.7550    62.1820     5.4880     5.9620     6.7260     2.1330 
  138.7500   -21.6300    60.5080     5.7130     6.1990     6.7410     2.1110 
  138.8750   -21.5240    61.6670     5.7570     6.2440     6.6990     2.0970 
  139.0000   -21.4430    62.7020     5.6000     6.0800     6.4940     2.0970 
  139.1250   -21.3870    61.6730     5.2250     5.6860     6.1510     2.1080 
  139.2500   -21.3420    61.2400     4.5810     5.0100     5.9760     2.1310 
  139.3750   -21.2870    63.3040     3.8840     4.2780     5.6840     2.1680 
  139.5000   -21.2040    66.7560     3.3060     3.6710     4.5990     2.2020 
  139.6250   -21.0790    70.8900     2.9390     3.2860     3.5250     2.2190 
  139.7500   -20.9190    75.0910     2.8010     3.1410     3.5410     2.2230 
  139.8750   -20.7340    79.2110     2.7860     3.1250     4.0340     2.2210 
  140.0000   -20.5420    82.5010     2.8660     3.2090     3.9820     2.2210 
  140.1250   -20.3540    83.7150     2.9580     3.3060     3.7780     2.2170 
  140.2500   -20.1790    82.2620     3.0210     3.3720     3.8780     2.2030 
  140.3750   -20.0200    79.3000     3.0250     3.3770     3.8260     2.1970 
  140.5000   -19.8780    76.8820     2.9650     3.3130     3.5640     2.2120 
  140.6250   -19.7620    75.3950     2.8480     3.1900     3.4260     2.2310 
  140.7500   -19.6840    74.8640     2.6940     3.0280     3.4080     2.2370 
  140.8750   -19.6640    77.1490     2.5010     2.8260     3.3300     2.2390 
  141.0000   -19.7150    81.6120     2.3340     2.6510     3.2020     2.2490 
  141.1250   -19.8570    84.1240     2.2370     2.5490     3.1950     2.2620 
  141.2500   -20.0880    83.8960     2.2340     2.5460     3.1210     2.2720 
  141.3750   -20.4050    83.3480     2.4830     2.8070     3.1200     2.2760 
  141.5000   -20.7810    81.8600     3.1110     3.4660     3.6600     2.2910 
  141.6250   -21.1820    77.8150     4.4180     4.8380     6.8010     2.3600 
  141.7500   -21.5740    70.8150     6.2280     6.7400    15.9940     2.4730 
  141.8750   -21.9330    63.1350     7.8010     8.3910    27.2640     2.5570 
  142.0000   -22.2520    57.4130     8.3920     9.0110    27.5550     2.5350 
  142.1250   -22.5270    56.5480     7.7170     8.3030    16.0950     2.3990 
  142.2500   -22.7590    58.9440     6.5190     7.0450     7.5040     2.2360 
  142.3750   -22.9340    58.9550     5.4870     5.9610     6.0880     2.1260 
  142.5000   -23.0500    55.7870     5.0570     5.5100     6.5080     2.0880 
  142.6250   -23.1020    54.2090     5.0290     5.4810     6.7560     2.0930 
  142.7500   -23.1050    55.3450     5.1760     5.6350     6.7990     2.1110 
  142.8750   -23.0700    57.6090     5.3680     5.8360     6.7710     2.1250 
  143.0000   -23.0180    58.6690     5.4980     5.9730     6.8400     2.1250 
  143.1250   -22.9640    59.5700     5.5790     6.0580     7.0160     2.1190 
  143.2500   -22.9220    60.3300     5.6320     6.1140     7.0170     2.1220 
  143.3750   -22.9050    60.8070     5.6640     6.1470     6.8820     2.1260 
  143.5000   -22.9120    61.1470     5.6780     6.1620     6.8100     2.1300 
  143.6250   -22.9370    61.3380     5.6790     6.1630     6.7050     2.1420 
  143.7500   -22.9630    61.1200     5.6860     6.1710     6.6450     2.1580 
  143.8750   -22.9630    61.7590     5.7110     6.1970     6.8050     2.1660 
  144.0000   -22.9140    63.0660     5.7480     6.2350     6.9490     2.1650 
  144.1250   -22.7870    64.5620     5.7780     6.2670     6.8610     2.1540 
  144.2500   -22.5740    64.7070     5.7830     6.2720     6.6840     2.1460 
  144.3750   -22.2660    63.6610     5.6800     6.1640     6.6030     2.1390 
  144.5000   -21.8800    62.7080     5.3040     5.7690     6.4970     2.1470 
  144.6250   -21.4330    61.2610     4.6650     5.0990     6.2300     2.1940 
  144.7500   -20.9680    61.9150     3.9180     4.3140     5.6450     2.2260 
  144.8750   -20.5410    66.6780     3.3170     3.6820     4.4620     2.2210 
  145.0000   -20.2070    73.5250     3.0300     3.3820     3.4750     2.1900 
  145.1250   -20.0160    76.3270     3.1380     3.4950     3.9060     2.1680 
  145.2500   -19.9560    73.8140     3.7110     4.0960     5.2880     2.1970 
  145.3750   -19.9920    68.7050     4.8260     5.2670     6.3340     2.3060 
  145.5000   -20.0470    63.6120     6.0110     6.5110     7.7880     2.4390 
  145.6250   -20.0540    58.7250     6.6370     7.1690    14.8330     2.4890 
  145.7500   -19.9780    57.4690     6.6590     7.1920    26.8840     2.4210 
  145.8750   -19.8090    61.5150     5.8000     6.2900    27.9530     2.3110 
  146.0000   -19.5700    67.2630     4.7880     5.2270    14.9750     2.2520 
  146.1250   -19.2790    71.9530     3.8930     4.2880     5.5930     2.2530 
  146.2500   -18.9640    76.6480     3.1260     3.4820     4.0700     2.2630 
  146.3750   -18.6540    82.4310     2.7070     3.0430     3.7330     2.2610 
  146.5000   -18.3910    88.6900     2.4330     2.7550     3.2910     2.2530 
  146.6250   -18.2290    92.3430     2.2460     2.5590     3.1790     2.2530 
  146.7500   -18.2060    91.6790     2.1990     2.5090     3.1660     2.2750 
  146.8750   -18.3560    87.1710     2.4590     2.7820     2.9420     2.3470 
  147.0000   -18.6600    82.7350     3.1460     3.5030     3.7390     2.4590 
  147.1250   -19.0920    80.7080     4.5070     4.9320    11.2330     2.5600 
  147.2500   -19.5900    78.6220     6.2840     6.7980    22.5810     2.5840 
  147.3750   -20.1100    74.4910     7.6280     8.2090    25.5540     2.5020 
  147.5000   -20.6150    71.4710     7.8870     8.4820    21.0040     2.3570 
  147.6250   -21.0890    73.4480     7.0120     7.5630    14.5210     2.2120 
  147.7500   -21.5230    77.3200     5.6120     6.0920     8.2670     2.1210 
  147.8750   -21.9010    77.5180     4.6550     5.0870     5.6370     2.0930 
