~V
VERS. 2.00: Ver 2.00
~W
STRT.M 50.0000:
STOP.M 240.0000:
STEP.M 0.1250:
NULL. -999.2500:
UWI. F11117:
~C
DEPT.M :
DEN.GM/CC :
GR.API :
RML.OHMM :
RI. :
RXO.OHMM :
CALI.CM :
SP.MV :
~A
# ...
  207.5000     2.2920    67.0340    27.1810    26.2340    26.5480    23.5870    -8.4190 
  207.6250     2.2350    63.6210    26.2950    25.1700    23.0220    24.5700    -8.1240 
  207.7500     2.2100    58.4150    25.4050    24.1450    21.3630    24.8360    -7.8530 
  207.8750     2.2300    55.5300    23.6820    22.5220    20.9190    24.6760    -7.6230 
  208.0000     2.2830    56.0260    20.5050    19.7470    23.8340    24.2650    -7.4940 
  208.1250     2.3430    57.5810    16.1950    16.0110    29.8750    23.6620    -7.4080 
  208.2500     2.3840    59.9410    12.6940    12.4790    23.4380    23.3510    -7.3310 
  208.3750     2.4040    65.4670    10.3150     9.8240    12.7240    23.2560    -7.2590 
  208.5000     2.4120    73.1950     8.6220     8.2110     7.6890    22.8130    -7.1560 
  208.6250     2.4090    76.4340     7.9570     7.5780     8.9700    22.6580    -7.0010 
  208.7500     2.3890    74.2390     7.8530     7.4790    10.5070    23.4920    -6.8400 
  208.8750     2.3470    69.4240     8.0230     7.6410     9.2530    24.0880    -6.6240 
  209.0000     2.2900    66.2650     8.1730     7.7840     7.4720    24.6750    -6.3960 
  209.1250     2.2410    67.2810     8.0290     7.6470     6.4940    25.0660    -6.2000 
  209.2500     2.2140    70.2050     7.6340     7.2700     6.0450    25.0190    -5.9550 
  209.3750     2.2130    71.2870     7.1240     6.7850     5.6680    24.5740    -5.7190 
  209.5000     2.2320    70.6260     6.6150     6.3000     5.0950    24.5700    -5.5500 
  209.6250     2.2590    74.7320     6.1760     5.8820     4.6370    24.2300    -5.4200 
  209.7500     2.2850    84.2900     5.8290     5.5510     4.4620    24.0690    -5.3410 
  209.8750     2.3070    94.2620     5.5990     5.3320     4.4740    23.8120    -5.3730 
  210.0000     2.3250   100.6920     5.4940     5.2330     4.5440    23.6060    -5.3950 
  210.1250     2.3400   101.6810     5.5080     5.2450     4.7350    23.5800    -5.3740 
  210.2500     2.3510   100.4380     5.5320     5.3090     4.9230    23.6480    -5.4300 
  210.3750     2.3580   100.3280     5.6260     5.3830     5.1080    23.7390    -5.4990 
  210.5000     2.3610   103.1470     5.7560     5.4380     5.2880    23.8170    -5.5320 
  210.6250     2.3590   104.6690     5.8030     5.4600     5.3320    23.8310    -5.5940 
  210.7500     2.3570   101.5740     5.7950     5.4600     5.3540    23.8500    -5.6530 
  210.8750     2.3570    97.3450     5.7600     5.4510     5.4240    23.8270    -5.6660 
  211.0000     2.3600    94.9330     5.7220     5.4380     5.5840    23.7360    -5.7310 
  211.1250     2.3670    97.3880     5.7010     5.4150     5.9590    23.6460    -5.8580 
  211.2500     2.3730   101.9300     5.6950     5.3830     6.2080    23.6110    -5.9550 
  211.3750     2.3760   104.0880     5.6970     5.3400     6.0250    23.5460    -6.0790 
  211.5000     2.3760   103.1570     5.7040     5.2890     5.7760    23.6820    -6.2590 
  211.6250     2.3700   103.0620     5.7210     5.2380     5.6040    23.7560    -6.4170 
  211.7500     2.3530   104.7220     5.7490     5.1980     5.5610    23.9370    -6.5960 
  211.8750     2.3250   104.8820     5.7850     5.1780     5.4950    24.4820    -6.7890 
  212.0000     2.2920   103.2490     5.8280     5.1830     5.3680    24.9580    -6.9460 
  212.1250     2.2680   102.4820     5.8900     5.2160     5.3180    24.7970    -7.1080 
  212.2500     2.2640   103.1460     5.9740     5.2700     5.3430    23.9910    -7.2920 
  212.3750     2.2820   104.8180     6.0780     5.3370     5.3830    23.1280    -7.4670 
  212.5000     2.3110   105.8140     6.1850     5.4120     5.4110    22.6530    -7.6440 
  212.6250     2.3390   105.9210     6.2660     5.4840     5.4000    22.5230    -7.7780 
  212.7500     2.3530   107.7450     6.3020     5.5330     5.3850    22.4220    -7.8290 
  212.8750     2.3550   109.0800     6.2850     5.5410     5.3630    22.2870    -7.8120 
  213.0000     2.3470   105.5040     6.2230     5.5000     5.4630    22.1740    -7.6840 
  213.1250     2.3360   100.4110     6.1240     5.4100     5.6860    22.0990    -7.4380 
  213.2500     2.3260   100.4030     5.9980     5.2890     5.8340    22.2720    -7.1640 
  213.3750     2.3170   102.5250     5.8430     5.1460     5.6890    22.3070    -6.8440 
  213.5000     2.3090   100.9200     5.6580     4.9860     5.5190    22.0140    -6.4540 
  213.6250     2.3010    97.4970     5.4470     4.8180     5.3900    21.9450    -6.1060 
  213.7500     2.2940    96.9220     5.2330     4.6560     5.2160    21.9320    -5.7750 
  213.8750     2.2920   100.9420     5.0450     4.5200     4.8980    21.8690    -5.4680 
  214.0000     2.2960   105.7620     4.9070     4.4260     4.3760    22.4090    -5.2860 
  214.1250     2.3050   104.1310     4.8520     4.3910     4.1610    23.1150    -5.2090 
  214.2500     2.3150    98.4690     4.8700     4.3970     4.2970    23.8190    -5.1070 
  214.3750     2.3230    96.1890     4.9380     4.4290     4.4930    24.1100    -5.0200 
  214.5000     2.3240    98.4830     5.0200     4.4690     4.5530    24.3150    -4.9470 
  214.6250     2.3160    97.2870     5.0790     4.4940     4.3630    24.5070    -4.8210 
  214.7500     2.3020    94.7210     5.1000     4.4930     4.3100    25.8850    -4.7170 
  214.8750     2.2860    93.4760     5.0790     4.4590     4.3160    27.1170    -4.6630 
  215.0000     2.2780    90.5800     5.0130     4.3950     4.3160    27.0630    -4.5900 
  215.1250     2.2890    84.8830     4.9130     4.3170     4.3440    26.9100    -4.5250 
  215.2500     2.3100    81.8460     4.8200     4.2530     4.2810    26.7250    -4.5310 
  215.3750     2.3240    82.1830     4.7760     4.2270     4.1660    26.2460    -4.5500 
  215.5000     2.3080    80.2520     4.8130     4.2540     4.2150    25.5530    -4.6240 
  215.6250     2.2510    72.7940     4.9340     4.3360     4.3860    24.7710    -4.7980 
  215.7500     2.1840    66.6300     5.0930     4.4460     4.4250    25.7550    -4.9850 
  215.8750     2.1310    65.9940     5.2590     4.5660     4.3820    26.7230    -5.1720 
  216.0000     2.1040    68.0830     5.4210     4.6800     4.4090    26.0260    -5.3590 
  216.1250     2.1050    66.4040     5.5720     4.7810     4.5230    25.2290    -5.5330 
  216.2500     2.1180    63.0790     5.7060     4.8730     4.5710    25.0760    -5.7240 
  216.3750     2.1360    62.9620     5.8260     4.9650     4.5570    26.0230    -5.9250 
  216.5000     2.1580    66.2000     5.9460     5.0660     4.6260    26.6120    -6.0950 
  216.6250     2.1950    69.0310     6.0790     5.1880     4.8970    26.0600    -6.2330 
  216.7500     2.2450    70.6530     6.2280     5.3310     5.1950    24.9530    -6.3500 
  216.8750     2.3000    70.9810     6.3780     5.4890     5.2800    24.4390    -6.4480 
  217.0000     2.3500    68.5490     6.5120     5.6460     5.2740    24.1880    -6.5500 
  217.1250     2.3840    63.0800     6.6220     5.7820     5.1360    24.0140    -6.6270 
  217.2500     2.4000    58.5060     6.7150     5.8900     5.0510    23.9980    -6.6430 
  217.3750     2.4000    57.9630     6.7970     5.9660     5.1120    24.1230    -6.6270 
  217.5000     2.3880    61.0360     6.8640     6.0060     5.1620    24.1290    -6.6080 
  217.6250     2.3710    63.0440     6.9060     5.9980     5.2720    24.2920    -6.6040 
  217.7500     2.3520    62.0100     6.9140     5.9470     5.3470    24.4280    -6.5970 
  217.8750     2.3270    59.5200     6.8820     5.8660     5.5290    24.7380    -6.5950 
  218.0000     2.2950    56.5860     6.8200     5.7730     5.8200    25.1530    -6.6170 
  218.1250     2.2530    53.8720     6.7500     5.6920     6.1620    25.5990    -6.6600 
  218.2500     2.2100    54.3200     6.7010     5.6410     6.3270    25.8220    -6.7190 
  218.3750     2.1690    58.2840     6.6980     5.6320     6.5310    25.9740    -6.8050 
  218.5000     2.1370    61.1100     6.7480     5.6740     6.6710    24.8690    -6.9130 
  218.6250     2.1200    60.7080     6.8530     5.7750     7.3240    24.5570    -7.0270 
