~V
VERS. 2.00: Ver 2.00
~W
STRT.M 40.0000:
STOP.M 206.0000:
STEP.M 0.1250:
NULL. -999.2500:
UWI. F11104:
~C
DEPT.M :
GR.API :
RML.OHMM :
RI. :
RXO.OHMM :
CALI.CM :
SP.MV :
DEN.GM/CC :
~A
# ...
  186.2500    70.2450    10.8140     8.6970    12.3890    23.8500     0.7130     2.5600 
  186.3750    69.9000    11.4080     9.2140    16.9530    23.7820     0.9400     2.5230 
  186.5000    73.3820    11.0540     9.0860    17.3710    23.7610     1.1080     2.4770 
  186.6250    79.4220     9.8910     8.3010    12.2340    23.7680     1.1990     2.4450 
  186.7500    87.0680     8.6120     7.3260     9.0140    23.7740     1.2370     2.4320 
  186.8750    92.0450     7.5990     6.4700     7.1550    23.7740     1.2350     2.4300 
  187.0000    91.8150     6.9980     5.8930     6.5290    23.7740     1.2130     2.4250 
  187.1250    87.5790     6.8350     5.6770     6.3800    23.7670     1.1700     2.4140 
  187.2500    85.2390     6.9510     5.7210     6.2860    23.7720     1.1310     2.4080 
  187.3750    85.4690     7.2720     5.9550     6.2180    23.8320     1.1160     2.4140 
  187.5000    85.7700     7.7030     6.2890     6.3360    23.9580     1.1310     2.4360 
  187.6250    83.4520     8.0870     6.6120     6.7780    24.0770     1.1710     2.4450 
  187.7500    80.8250     8.3040     6.8320     7.5730    24.1310     1.2260     2.4180 
  187.8750    80.5250     8.3200     6.9060     8.4340    24.1660     1.3000     2.3560 
  188.0000    81.6790     8.1680     6.8400     9.1370    24.2840     1.4150     2.2830 
  188.1250    80.8040     7.9510     6.6920     7.9010    24.5450     1.5980     2.2310 
  188.2500    77.7950     7.8020     6.5600     7.1250    24.7740     1.8120     2.2150 
  188.3750    74.9860     7.7820     6.5010     6.9110    24.7340     2.0380     2.2360 
  188.5000    74.1340     7.9040     6.5400     6.9440    24.4110     2.2830     2.2780 
  188.6250    75.4380     8.1460     6.6880     7.2470    24.1060     2.5220     2.3170 
  188.7500    78.4600     8.4180     6.8980     7.6550    24.0320     2.7150     2.3470 
  188.8750    81.9300     8.6630     7.1330     8.0560    24.0940     2.8550     2.3730 
  189.0000    84.3270     8.8460     7.3650     8.7720    24.1420     2.9320     2.4000 
  189.1250    83.9560     8.9620     7.5580     9.8080    24.1510     2.9420     2.4220 
  189.2500    82.4010     9.0400     7.6850    10.4870    24.1570     2.9460     2.4360 
  189.3750    79.7090     9.0830     7.7190    10.6940    24.1430     2.9610     2.4310 
  189.5000    76.4030     9.0750     7.6440    10.3010    24.0880     2.9560     2.3970 
  189.6250    74.7960     8.9490     7.4490    10.2360    24.0260     2.9560     2.3380 
  189.7500    74.4780     8.6790     7.1740     9.6000    24.0150     2.9600     2.2780 
  189.8750    73.2900     8.2540     6.8460     7.6150    24.0460     2.9450     2.2340 
  190.0000    70.6480     7.7210     6.4920     5.8730    24.0740     2.9300     2.2130 
  190.1250    68.3590     7.1930     6.1400     5.1110    24.0740     2.9250     2.2110 
  190.2500    67.6210     6.7850     5.8340     4.6470    24.0700     2.9010     2.2170 
  190.3750    67.2430     6.5460     5.6190     4.6740    24.0780     2.8580     2.2250 
  190.5000    66.7920     6.4850     5.5320     4.8130    24.1410     2.8030     2.2380 
  190.6250    66.4360     6.6200     5.6080     5.3400    24.2370     2.7280     2.2600 
  190.7500    67.5540     6.9050     5.8000     6.2520    24.2390     2.6150     2.2840 
  190.8750    71.6010     7.2800     6.0660     6.6760    24.1250     2.4890     2.3070 
  191.0000    76.4090     7.6300     6.3470     6.4110    24.0100     2.3440     2.3330 
  191.1250    77.5600     7.7720     6.5670     7.1540    23.9770     2.2050     2.3700 
  191.2500    73.5040     7.6780     6.6780     8.5370    23.9140     2.1090     2.4020 
  191.3750    69.4590     7.4120     6.6520     8.1220    23.7680     2.0590     2.4070 
  191.5000    68.5060     7.1010     6.4990     6.5910    23.6130     2.0590     2.3770 
  191.6250    68.5010     6.8700     6.2560     5.4220    23.5740     2.0930     2.3230 
  191.7500    67.3940     6.7340     6.0080     5.3780    23.6850     2.1290     2.2750 
  191.8750    65.6180     6.6750     5.8100     5.4900    23.8900     2.1480     2.2530 
  192.0000    65.5890     6.6770     5.6990     5.5540    24.0480     2.1680     2.2700 
  192.1250    66.4520     6.7350     5.6990     5.7110    24.0340     2.1690     2.3150 
  192.2500    65.1810     6.8230     5.7740     6.3940    23.9770     2.1600     2.3540 
  192.3750    62.8840     6.9210     5.8890     6.6420    23.9840     2.1610     2.3700 
  192.5000    63.1960     7.0230     6.0120     6.4320    24.0360     2.1660     2.3590 
  192.6250    65.6640     7.1200     6.1160     6.3540    24.1080     2.1570     2.3160 
  192.7500    64.8640     7.1980     6.1860     6.4670    24.2340     2.1570     2.2520 
  192.8750    62.4360     7.2480     6.2180     6.7540    24.4100     2.1510     2.1780 
  193.0000    64.0580     7.2840     6.2210     6.7670    24.5080     2.1000     2.1100 
  193.1250    66.8770     7.3360     6.2190     6.3350    24.3900     2.0030     2.0700 
  193.2500    65.3110     7.4190     6.2440     6.2250    24.2020     1.8630     2.0710 
  193.3750    62.4620     7.5310     6.3050     6.3120    24.1220     1.7000     2.1120 
  193.5000    61.5530     7.6590     6.3880     6.3410    24.2100     1.5260     2.1790 
  193.6250    61.0920     7.8050     6.4740     5.9950    24.3680     1.3700     2.2470 
  193.7500    60.5780     7.9880     6.5710     5.8640    24.4600     1.2440     2.2960 
  193.8750    62.2820     8.2400     6.7210     6.0150    24.4480     1.1640     2.3120 
  194.0000    65.0400     8.5740     6.9600     6.5790    24.3630     1.1530     2.2870 
  194.1250    64.3260     8.9750     7.3030     8.6160    24.2940     1.1790     2.2320 
  194.2500    62.4160     9.3670     7.6760    12.4580    24.2800     1.2230     2.1830 
  194.3750    63.1820     9.6600     7.9930    14.6890    24.2860     1.2500     2.1640 
  194.5000    65.6320     9.7720     8.1700    12.9990    24.2910     1.2830     2.1820 
  194.6250    67.0030     9.6590     8.1520     9.3010    24.3720     1.3120     2.2160 
  194.7500    66.0810     9.4430     8.0140     7.8230    24.4930     1.3060     2.2480 
  194.8750    64.8220     9.2210     7.8230     7.7880    24.4840     1.2750     2.2700 
  195.0000    64.8220     9.0540     7.6360     8.3680    24.2690     1.2410     2.2820 
  195.1250    64.8220     8.9680     7.4930     8.5540    24.0170     1.2310     2.3020 
  195.2500    64.8220     8.9430     7.3980     8.0370    23.9110     1.2280     2.3350 
  195.3750    64.8220     8.9570     7.3530     7.3480    23.9070     1.2320     2.3700 
  195.5000    64.8220     8.9810     7.3600     7.0590    23.9140     1.2490     2.3910 
  195.6250    64.8220     8.9940     7.4130     7.4300    23.9150     1.2910     2.3920 
  195.7500    64.8220     8.9780     7.4730     7.6640    23.9140     1.4050     2.3780 
  195.8750    64.8220     8.9160     7.5070     7.2340    23.9120     1.5450     2.3590 
  196.0000    64.8220     8.7930     7.4920     6.6160    23.9000     1.6820     2.3450 
  196.1250    64.8220     8.5840     7.3980     6.6750    23.8860     1.7880     2.3370 
  196.2500    64.8220     8.3000     7.2280     7.2220    23.8850     1.8550     2.3320 
  196.3750    64.8220     7.9520     6.9860     7.2830    23.8980     1.8710     2.3210 
  196.5000    64.8220     7.5800     6.6990     6.7270    23.9090     1.8340     2.3050 
  196.6250    64.8220     7.2440     6.4210     6.6510    23.9110     1.7670     2.2910 
  196.7500    64.8220     6.9940     6.2110     6.5480    23.9120     1.6780     2.2880 
  196.8750    64.8220     6.8930     6.1170     6.0910    23.9140     1.5850     2.3010 
  197.0000    64.8220     6.9960     6.1640     5.3330    23.9170     1.5100     2.3260 
  197.1250    64.8220     7.3280     6.3500     5.5690    23.9210     1.4380     2.3550 
  197.2500    64.8220     7.7580     6.5910     6.3240    23.9230     1.3620     2.3760 
  197.3750    64.8220     8.1740     6.8160     7.4300    23.9230     1.2990     2.3750 
