~V
VERS. 2.00: Ver 2.00
~W
STRT.M 55.0000:
STOP.M 240.0000:
STEP.M 0.1250:
NULL. -999.2500:
UWI. F11138:
~C
DEPT.M :
SP.MV :
DEN.GM/CC :
GR.API :
RML.OHMM :
RI. :
RXO.OHMM :
CALI.CM :
~A
# ...
  100.0000   -22.1620     2.1090    82.0850    10.3390     9.1160    10.5690    22.1760 
  100.1250   -21.7380     2.1180    83.3740     9.8640     8.6670    10.2090    22.1100 
  100.2500   -21.3130     2.1210    81.0570     9.7350     8.4470    10.2110    22.0820 
  100.3750   -20.8340     2.1270    78.8460     9.8040     8.3870    10.4920    22.1030 
  100.5000   -20.2820     2.1400    78.8890     9.8760     8.3670    10.8980    22.1350 
  100.6250   -19.6230     2.1640    79.9150     9.7480     8.2450    10.8160    22.0840 
  100.7500   -18.9300     2.1940    80.2290     9.4010     7.9790    10.2300    22.0320 
  100.8750   -18.2600     2.2200    81.6140     8.9030     7.6000     9.1430    22.0380 
  101.0000   -17.5840     2.2360    85.2900     8.3780     7.1870     7.8500    22.1000 
  101.1250   -16.8940     2.2430    88.3230     7.9630     6.8440     7.4870    22.1660 
  101.2500   -16.2660     2.2480    90.1510     7.6980     6.6120     7.4990    22.1710 
  101.3750   -15.8020     2.2450    91.6490     7.5790     6.4970     7.4270    22.1050 
  101.5000   -15.5460     2.2320    91.8260     7.5890     6.4940     7.1950    22.0760 
  101.6250   -15.5070     2.2190    90.1260     7.7520     6.6190     7.4470    22.1730 
  101.7500   -15.5940     2.2150    88.0780     8.0570     6.8570     8.1290    22.3440 
  101.8750   -15.8100     2.2120    86.1470     8.4940     7.1970     8.3420    22.4950 
  102.0000   -16.2050     2.2000    83.6910     9.0100     7.6000     7.9760    22.5650 
  102.1250   -16.7160     2.1840    82.5150     9.4680     7.9720     8.1250    22.5350 
  102.2500   -17.1360     2.1810    83.2670     9.7300     8.2080     9.1770    22.4590 
  102.3750   -17.3490     2.1970    83.5660     9.7140     8.2420    10.1100    22.3760 
  102.5000   -17.3580     2.2220    83.8970     9.4240     8.0600    10.0820    22.4440 
  102.6250   -17.1950     2.2380    87.3260     8.9590     7.7140     9.0660    22.6040 
  102.7500   -16.9280     2.2380    91.4450     8.5210     7.3540     8.0670    22.7080 
  102.8750   -16.5790     2.2230    93.6890     8.2320     7.0760     7.5430    22.7460 
  103.0000   -16.1740     2.2030    93.0530     8.1420     6.9320     7.4190    22.7520 
  103.1250   -15.7960     2.1900    89.0360     8.2690     6.9600     7.5210    22.7200 
  103.2500   -15.5550     2.1920    83.5830     8.5630     7.1330     7.8280    22.5600 
  103.3750   -15.5110     2.2080    79.7440     9.0220     7.4520     8.2110    22.3100 
  103.5000   -15.6490     2.2280    79.8370     9.6360     7.9040     8.3830    22.1220 
  103.6250   -16.0140     2.2430    81.1060    10.3460     8.4520     8.1610    22.1440 
  103.7500   -16.5370     2.2470    80.5790    10.9960     8.9810     8.1880    22.2700 
  103.8750   -17.1710     2.2340    79.8850    11.4380     9.3880     8.6590    22.3050 
  104.0000   -17.8770     2.2030    80.8860    11.5620     9.5860     9.3610    22.1840 
  104.1250   -18.6420     2.1700    82.5580    11.3260     9.5140     9.8070    21.8480 
  104.2500   -19.4580     2.1490    81.8320    10.9390     9.2870    10.1560    21.5740 
  104.3750   -20.2970     2.1380    79.5930    10.5930     9.0240    10.5640    21.3620 
  104.5000   -21.1060     2.1330    79.0290    10.4420     8.8420    10.8730    21.2370 
  104.6250   -21.7830     2.1350    79.2980    10.5880     8.8410    10.9840    21.1760 
  104.7500   -22.2960     2.1450    78.0950    10.9270     8.9940    10.9410    21.1290 
  104.8750   -22.5980     2.1630    77.5320    11.3370     9.2360    10.8830    21.1120 
  105.0000   -22.6870     2.1830    80.2620    11.6760     9.4740    10.8730    21.1110 
  105.1250   -22.5780     2.1930    84.3600    11.7860     9.5950    10.8350    21.1080 
  105.2500   -22.3850     2.1910    86.6440    11.6500     9.5610    10.7260    21.1090 
  105.3750   -22.1500     2.1820    87.0470    11.3050     9.3830    10.5710    21.1400 
  105.5000   -21.8930     2.1780    86.3790    10.8540     9.1170    10.1680    21.1940 
  105.6250   -21.6490     2.1830    83.2580    10.4420     8.8500     9.5890    21.2260 
  105.7500   -21.4570     2.1890    79.2970    10.1680     8.6530     9.2420    21.1920 
  105.8750   -21.3200     2.1890    77.2400    10.0710     8.5590     9.3120    21.0870 
  106.0000   -21.2340     2.1820    76.7710    10.1430     8.5790     9.3600    20.9210 
  106.1250   -21.2220     2.1730    77.3080    10.3550     8.7130     9.0520    20.7620 
  106.2500   -21.2580     2.1640    77.4100    10.6140     8.9040     8.7260    20.5620 
  106.3750   -21.3000     2.1570    76.4350    10.8500     9.1020     8.6450    20.2530 
  106.5000   -21.3440     2.1540    74.7680    11.0060     9.2560     8.5280    19.8180 
  106.6250   -21.3410     2.1550    73.4040    11.0360     9.3140     8.3630    19.5110 
  106.7500   -21.2920     2.1560    73.2340    10.9850     9.2960     8.3400    19.5620 
  106.8750   -21.2520     2.1590    72.8520    10.9130     9.2350     8.5150    19.8570 
  107.0000   -21.2520     2.1650    73.3110    10.8760     9.1780     8.8560    20.2810 
  107.1250   -21.3380     2.1780    76.2160    10.8970     9.1520     9.5210    20.6260 
  107.2500   -21.4690     2.1900    79.5340    10.9060     9.1270    10.3950    20.7930 
  107.3750   -21.6280     2.1900    81.4510    10.8130     9.0490    11.3570    20.8770 
  107.5000   -21.8080     2.1750    81.9580    10.5630     8.8780    12.0120    20.9170 
  107.6250   -22.0760     2.1520    80.3360    10.1670     8.6060    11.1370    20.8190 
  107.7500   -22.4400     2.1340    76.6520     9.7680     8.3180     9.9790    20.5970 
  107.8750   -22.8760     2.1240    73.4240     9.4920     8.0990     9.1910    20.4080 
  108.0000   -23.3520     2.1160    72.8590     9.4170     8.0090     8.8330    20.3190 
  108.1250   -23.8040     2.1070    73.7550     9.5670     8.0810     9.0340    20.2340 
  108.2500   -24.2340     2.1010    72.5470     9.8120     8.2420     9.5130    20.0930 
  108.3750   -24.6690     2.1040    69.7440    10.0420     8.4180    10.0400    19.9750 
  108.5000   -25.0850     2.1130    68.3610    10.1690     8.5410    10.4020    19.9900 
  108.6250   -25.4230     2.1240    69.5240    10.1460     8.5630    10.6170    20.2800 
  108.7500   -25.6190     2.1350    71.1050    10.0510     8.5270    10.9020    20.6960 
  108.8750   -25.6610     2.1460    71.5850     9.9630     8.4860    11.1280    21.0250 
  109.0000   -25.5740     2.1540    71.3170     9.9480     8.4830    11.1060    21.1770 
  109.1250   -25.3680     2.1550    71.6750    10.0340     8.5430    10.9750    21.2360 
  109.2500   -25.0790     2.1490    72.3220    10.1650     8.6350    10.9520    21.2950 
  109.3750   -24.7410     2.1420    73.6680    10.2830     8.7190    11.2430    21.4190 
  109.5000   -24.3770     2.1460    75.0770    10.3360     8.7610    11.6880    21.5370 
  109.6250   -24.0360     2.1620    75.5610    10.2850     8.7280    12.4160    21.5680 
  109.7500   -23.7550     2.1740    76.5170    10.1530     8.6360    13.5160    21.4700 
  109.8750   -23.5340     2.1720    78.6050     9.9710     8.5050    13.7340    21.2500 
  110.0000   -23.3340     2.1610    81.0940     9.7750     8.3630    11.8520    20.9700 
  110.1250   -23.1550     2.1500    81.4530     9.6100     8.2380    10.7730    20.7220 
  110.2500   -23.0100     2.1450    80.4500     9.5000     8.1420    10.2870    20.5940 
  110.3750   -22.9200     2.1430    79.3590     9.4510     8.0770    10.1230    20.5570 
  110.5000   -22.8760     2.1440    78.0590     9.4510     8.0380    10.1130    20.6020 
  110.6250   -22.8940     2.1440    76.8670     9.4700     8.0140    10.1570    20.6630 
  110.7500   -22.9550     2.1460    76.1090     9.4660     7.9870    10.1980    20.7340 
  110.8750   -23.0030     2.1510    74.7200     9.4230     7.9470    10.3020    20.8080 
  111.0000   -23.0290     2.1530    72.8060     9.3460     7.8960    10.5280    20.8830 
  111.1250   -23.0480     2.1430    72.3980     9.2660     7.8470    10.5300    20.9580 
