~V
VERS. 2.00: Ver 2.00
~W
STRT.M 14.0000:
STOP.M 209.0000:
STEP.M 0.1250:
NULL. -999.2500:
UWI. F11100:
~C
DEPT.M :
GR.API :
RML.OHMM :
RI. :
RXO.OHMM :
CALI.CM :
SP.MV :
DEN.GM/CC :
~A
# ...
  160.2500    59.8030    38.7670    33.9710    43.7900    31.7900    -6.7240     2.1740 
  160.3750    62.8260    35.3620    31.0100    28.8890    31.7340    -6.7860     2.1900 
  160.5000    65.0130    34.5240    30.2810    25.5330    31.7190    -6.8250     2.2030 
  160.6250    65.0670    36.4020    31.9150    31.9160    31.7220    -6.8070     2.2060 
  160.7500    64.1300    40.0810    35.1140    48.4700    31.7250    -6.7520     2.1980 
  160.8750    62.4290    44.7630    39.1850    62.2680    31.7260    -6.6940     2.1870 
  161.0000    60.5580    49.3810    43.2010    63.9290    31.7240    -6.6320     2.1760 
  161.1250    59.3510    52.7070    46.0930    58.5150    31.7200    -6.5430     2.1670 
  161.2500    58.8280    54.7090    47.8340    54.6860    31.7080    -6.4270     2.1620 
  161.3750    58.1730    55.8760    48.8490    56.6920    31.6860    -6.3320     2.1590 
  161.5000    57.4540    56.7420    49.6010    62.5270    31.6630    -6.2670     2.1590 
  161.6250    57.9920    57.4650    50.2300    67.5800    31.6540    -6.2050     2.1610 
  161.7500    58.9610    57.9030    50.6110    71.0610    31.6540    -6.1240     2.1610 
  161.8750    59.5640    57.8750    50.5870    70.1630    31.6560    -6.0480     2.1580 
  162.0000    60.5390    57.3490    50.1300    66.8250    31.6580    -6.0080     2.1520 
  162.1250    60.7810    56.3240    49.2380    66.7720    31.6550    -6.0190     2.1480 
  162.2500    59.9370    54.8180    47.9290    71.3130    31.6520    -6.0540     2.1490 
  162.3750    60.2410    52.7940    46.1680    65.0910    31.6520    -6.0780     2.1570 
  162.5000    62.0680    50.4520    44.1320    58.5670    31.6540    -6.0670     2.1680 
  162.6250    61.9320    48.3270    42.2840    62.1290    31.6550    -6.0230     2.1760 
  162.7500    59.3200    46.9490    41.0860    61.7850    31.6510    -5.9670     2.1810 
  162.8750    57.1060    46.7280    40.8940    47.9510    31.6290    -5.9060     2.1850 
  163.0000    56.7070    47.8430    41.8640    40.9120    31.5720    -5.8290     2.1900 
  163.1250    57.7390    50.2400    43.9480    60.7020    31.4960    -5.7690     2.1910 
  163.2500    59.7700    53.1100    46.4440    77.0700    31.4460    -5.7300     2.1870 
  163.3750    61.7470    55.6170    48.6230    76.4110    31.4170    -5.7350     2.1810 
  163.5000    61.6370    56.6310    49.5050    74.5000    31.3770    -5.7960     2.1740 
  163.6250    59.0440    54.6240    47.7600    80.3000    31.3080    -5.8790     2.1760 
  163.7500    58.2960    50.2080    43.9200    72.0460    31.2990    -5.9560     2.1890 
  163.8750    59.7400    44.7220    39.1500    57.9360    31.3930    -6.0320     2.2110 
  164.0000    62.0680    39.6510    34.7400    42.4590    31.5340    -6.1220     2.2320 
  164.1250    65.3110    36.3760    31.8920    28.6020    31.6120    -6.2010     2.2390 
  164.2500    66.9100    35.0920    30.7760    23.4660    31.6040    -6.2320     2.2300 
  164.3750    64.3250    35.5740    31.1950    31.3920    31.5280    -6.2250     2.2090 
  164.5000    59.2760    36.9780    32.4160    47.3200    31.3990    -6.1950     2.1830 
  164.6250    59.3190    37.5950    32.9520    45.5020    31.2190    -6.1800     2.1620 
  164.7500    63.1730    36.1080    31.6590    46.6150    31.0250    -6.1730     2.1500 
  164.8750    66.4000    32.4780    28.5020    56.4260    30.8320    -6.1670     2.1550 
  165.0000    69.0140    27.9560    24.5700    45.2380    30.6550    -6.1110     2.1800 
  165.1250    73.0110    24.4090    21.4860    22.8370    30.4990    -6.1060     2.2150 
  165.2500    74.7790    22.6590    19.9650    14.8480    30.3650    -6.1360     2.2720 
  165.3750    71.3160    23.0050    20.2650    13.7250    30.2810    -6.1740     2.2700 
  165.5000    65.2300    25.7030    22.6110    17.2050    30.2500    -6.2020     2.2450 
  165.6250    61.6760    31.5480    27.6940    29.0940    30.2200    -6.2390     2.2120 
  165.7500    61.4500    40.0590    35.0950    56.3790    30.1510    -6.2970     2.1860 
  165.8750    62.7160    50.2810    43.9840    83.6620    30.0740    -6.3670     2.1710 
  166.0000    64.2890    60.2520    52.6540    91.7060    30.0190    -6.4180     2.1620 
  166.1250    63.8760    66.9710    58.4970    92.4840    29.9380    -6.4380     2.1540 
  166.2500    60.7100    69.4840    60.6820    96.8900    29.7900    -6.4660     2.1470 
  166.3750    58.1270    68.0190    59.4070   105.8100    29.6270    -6.5330     2.1480 
  166.5000    58.4550    63.7080    55.6600   110.7250    29.5060    -6.6540     2.1600 
  166.6250    60.5420    57.9560    50.6580   101.2100    29.3650    -6.8090     2.1840 
  166.7500    61.3380    52.3330    45.7680    78.5390    29.1280    -6.9550     2.2090 
  166.8750    60.7540    47.4960    41.5620    54.8900    28.8490    -7.1020     2.2280 
  167.0000    60.1160    43.5800    38.1570    40.0390    28.6230    -7.2630     2.2390 
  167.1250    60.5010    40.5650    35.5340    41.3920    28.4710    -7.4420     2.2460 
  167.2500    61.9520    38.2830    33.5500    42.8650    28.3050    -7.6070     2.2560 
  167.3750    62.9610    36.9120    32.3590    38.8370    28.0950    -7.7530     2.2710 
  167.5000    62.7550    36.7530    32.2200    31.8570    27.8820    -7.8790     2.2850 
  167.6250    64.0420    38.5190    33.7550    32.3100    27.7050    -8.0160     2.2910 
  167.7500    65.2340    42.2800    37.0260    46.1880    27.5470    -8.1800     2.2870 
  167.8750    63.8720    47.8950    41.9080    68.5500    27.3900    -8.3400     2.2720 
  168.0000    60.5680    54.4920    47.6450    88.9820    27.2560    -8.4780     2.2530 
  168.1250    59.4880    60.0600    52.4870    97.8290    27.1610    -8.6090     2.2370 
  168.2500    63.0750    63.0450    55.0830   101.0090    27.0440    -8.7520     2.2260 
  168.3750    66.6430    63.3370    55.3360    89.7940    26.8750    -8.9110     2.2230 
  168.5000    65.4140    62.2180    54.3640    68.7850    26.7080    -9.0560     2.2240 
  168.6250    59.5860    61.6840    53.8990    58.3150    26.5970    -9.1570     2.2280 
  168.7500    55.5300    62.8910    54.9490    62.4490    26.4770    -9.2090     2.2300 
  168.8750    56.4910    66.2080    57.8330    79.9860    26.2990    -9.2530     2.2260 
  169.0000    59.6180    71.5640    62.4910   103.6510    26.0960    -9.2990     2.2160 
  169.1250    60.9650    78.6080    68.6160   123.2340    25.9290    -9.3330     2.2040 
  169.2500    59.1920    85.9980    75.0420   171.2600    25.7990    -9.3410     2.1940 
  169.3750    56.1040    92.5770    80.7620   200.4040    25.7070    -9.3080     2.1890 
  169.5000    55.1210    97.4790    85.0250   196.6140    25.6230    -9.2460     2.1940 
  169.6250    56.1010   100.3190    87.4940   173.4040    25.3530    -9.1800     2.2100 
  169.7500    56.1310   102.2890    89.2080   151.5810    24.9310    -9.1150     2.2330 
  169.8750    55.7610   104.6760    91.2840   119.6200    24.6220    -9.0230     2.2490 
  170.0000    57.1100   108.6430    94.7330    96.2740    24.5600    -8.9200     2.2460 
  170.1250    59.5740   114.9900   100.2520    80.7400    24.5770    -8.8600     2.2200 
  170.2500    59.5300   122.6070   106.8760    90.2730    24.5030    -8.8290     2.1780 
  170.3750    56.9370   129.8030   113.1330    93.3720    24.4290    -8.8200     2.1390 
  170.5000    53.9590   134.2630   117.0110    87.2000    24.5070    -8.8040     2.1210 
  170.6250    50.9480   132.4100   115.4000    83.4550    24.7840    -8.7530     2.1230 
  170.7500    49.7720   123.8290   107.9380    83.0340    25.0980    -8.7130     2.1330 
  170.8750    51.4860   109.7520    95.6970    78.2350    25.2660    -8.7020     2.1390 
  171.0000    54.4800    93.3400    81.4260    62.6790    25.2480    -8.6960     2.1440 
  171.1250    56.3020    78.6130    68.6200    48.2740    25.1130    -8.6450     2.1530 
  171.2500    57.5110    71.1280    62.1110    42.2560    24.9940    -8.5690     2.1660 
  171.3750    60.9440    59.0910    51.6440    39.9570    24.7550    -8.4870     2.1760 
