~V
VERS. 2.00: Ver 2.00
~W
STRT.M 58.0000:
STOP.M 206.0000:
STEP.M 0.1250:
NULL. -999.2500:
UWI. F11128:
~C
DEPT.M :
GR.API :
RML.OHMM :
RI. :
RXO.OHMM :
CALI.CM :
SP.MV :
DEN.GM/CC :
~A
# ...
   69.2500    68.2690    12.1020     6.7560     9.4140    24.5070   -28.1150     2.1440 
   69.3750    66.9370    10.9920     6.7690     9.6730    24.4610   -28.0400     2.1460 
   69.5000    66.2140     9.9380     6.6780     9.5850    24.4790   -27.7830     2.1590 
   69.6250    70.1880     9.1060     6.4920     9.0430    24.5680   -27.3810     2.1790 
   69.7500    78.9020     8.4710     6.2430     8.1750    24.7200   -26.9140     2.2030 
   69.8750    89.3300     7.9890     5.9840     7.3610    24.8980   -26.4410     2.2240 
   70.0000    96.7410     7.7000     5.7930     7.1400    24.9940   -26.0440     2.2360 
   70.1250    98.9920     7.6080     5.7150     7.1500    25.0370   -25.8090     2.2390 
   70.2500    95.2510     7.7130     5.7730     7.2590    25.0620   -25.8490     2.2370 
   70.3750    87.2200     7.9730     5.9630     7.6290    25.0470   -26.2390     2.2320 
   70.5000    78.5250     8.3170     6.2530     8.3110    24.9580   -26.9610     2.2160 
   70.6250    71.7820     8.6400     6.5550     9.1210    24.8600   -27.9270     2.1880 
   70.7500    66.9250     8.8910     6.7970     9.6390    24.8050   -29.0570     2.1610 
   70.8750    64.3030     9.0530     6.9280     9.8520    24.7960   -30.2310     2.1410 
   71.0000    64.8760     9.1130     6.9090     9.8830    24.8160   -31.2750     2.1270 
   71.1250    67.0380     9.0970     6.7920     9.8360    24.8380   -32.0770     2.1170 
   71.2500    68.9290     9.0180     6.6260     9.7220    24.8850   -32.6280     2.1080 
   71.3750    69.4210     8.8890     6.4570     9.6050    24.9470   -32.9290     2.0940 
   71.5000    69.3680     8.7010     6.3220     9.6410    24.9610   -33.0460     2.0730 
   71.6250    70.0630     8.4370     6.2210     9.7620    24.9120   -33.0260     2.0610 
   71.7500    70.7600     8.1000     6.1490     9.8650    24.8570   -32.8140     2.0680 
   71.8750    71.0870     7.7440     6.0970     9.7590    24.8220   -32.4220     2.0850 
   72.0000    72.1640     7.4660     6.0690     9.1980    24.7900   -31.9900     2.0900 
   72.1250    73.9240     7.2960     6.0690     8.4270    24.7870   -31.6040     2.0700 
   72.2500    74.2010     7.2230     6.1040     7.6200    24.8990   -31.1820     2.0190 
   72.3750    70.6460     7.2160     6.1700     7.1630    25.1090   -30.6460     1.9530 
   72.5000    65.2700     7.2270     6.2450     7.9280    25.2400   -29.8860     1.9330 
   72.6250    62.9370     7.1920     6.2880     9.1530    25.3330   -28.8670     1.9820 
   72.7500    66.2180     7.0730     6.2590     9.8880    25.4070   -27.5730     2.0750 
   72.8750    73.6770     6.8590     6.1340     9.7070    25.4610   -26.0070     2.1620 
   73.0000    80.7580     6.5690     5.9080     8.7180    25.4900   -24.1380     2.2110 
   73.1250    85.8760     6.2740     5.6420     7.4570    25.4890   -22.1250     2.2460 
   73.2500    91.0370     6.0240     5.3860     6.3240    25.5040   -20.0720     2.2760 
   73.3750    96.5660     5.8370     5.1680     5.7430    25.5770   -18.0360     2.2950 
   73.5000    99.6510     5.6940     4.9940     5.7470    25.6080   -16.1140     2.2940 
   73.6250    99.8730     5.5370     4.8250     5.7940    25.6180   -14.4050     2.2850 
   73.7500    99.7200     5.3490     4.6440     5.6600    25.6210   -13.0300     2.2780 
   73.8750   101.6000     5.1650     4.4620     5.3520    25.6180   -12.0670     2.2790 
   74.0000   102.4560     5.1290     4.3630     5.0350    25.6080   -11.5310     2.2980 
   74.1250   100.1930     5.3740     4.4470     5.0350    25.6190   -11.2920     2.3330 
   74.2500    95.5280     5.9730     4.7890     6.0120    25.6590   -11.3410     2.3730 
   74.3750    90.3130     6.8820     5.4000     8.6770    25.6580   -11.7800     2.4020 
   74.5000    84.3960     7.9050     6.2000    12.3920    25.6070   -12.7540     2.4140 
   74.6250    77.1260     8.7130     6.9500    16.2930    25.5670   -14.1510     2.4240 
   74.7500    70.5570     9.0640     7.4370    18.4910    25.5550   -15.8510     2.4240 
   74.8750    66.9610     8.8800     7.5250    15.3090    25.5730   -17.6520     2.3820 
   75.0000    65.6050     8.3180     7.2240    11.0420    25.6690   -19.4750     2.2830 
   75.1250    64.4820     7.7880     6.8320     9.6070    25.8640   -21.2770     2.1870 
   75.2500    63.5580     7.5190     6.5520     9.5860    26.0740   -22.9600     2.1280 
   75.3750    63.9320     7.5600     6.4780    10.0630    26.1480   -24.3840     2.1020 
   75.5000    65.1910     7.8200     6.6030    10.9180    25.9720   -25.4290     2.0960 
   75.6250    66.4700     8.0730     6.7810    11.8380    25.6760   -26.1510     2.1090 
   75.7500    67.4980     8.1830     6.8970    12.5460    25.3740   -26.6070     2.1420 
   75.8750    68.4640     8.0850     6.8740    12.9620    25.1080   -26.9290     2.1860 
   76.0000    68.8940     7.7820     6.6750    12.0810    24.9360   -27.1000     2.2150 
   76.1250    69.2440     7.4100     6.3800    10.8290    24.8550   -27.0480     2.2140 
   76.2500    69.5030     7.0760     6.0730     9.5940    24.8450   -26.7810     2.1880 
   76.3750    70.0040     6.8570     5.8240     8.9020    24.8810   -26.3610     2.1590 
   76.5000    71.0890     6.7880     5.6830     8.7580    24.9620   -25.8390     2.1450 
   76.6250    72.1500     6.8010     5.6180     8.8820    25.0140   -25.2530     2.1410 
   76.7500    72.8250     6.8300     5.5900     9.0920    25.0320   -24.5900     2.1390 
   76.8750    74.0070     6.8110     5.5520     9.2530    25.0360   -23.7980     2.1360 
   77.0000    76.8700     6.7100     5.4650     9.0810    25.0400   -22.8460     2.1340 
   77.1250    80.4570     6.5650     5.3440     8.6090    25.0530   -21.9150     2.1330 
   77.2500    82.7120     6.4320     5.2170     8.0800    25.0740   -21.1670     2.1270 
   77.3750    83.0260     6.3600     5.1230     7.7510    25.0800   -20.6670     2.1160 
   77.5000    81.9700     6.3950     5.1030     7.7370    25.0560   -20.4330     2.1070 
   77.6250    79.9400     6.5140     5.1520     7.9530    25.0260   -20.3890     2.1010 
   77.7500    78.1530     6.6840     5.2590     8.3050    24.9780   -20.5050     2.0980 
   77.8750    76.9470     6.8720     5.4010     8.7110    24.9150   -20.8380     2.0940 
   78.0000    76.6020     7.0440     5.5540     9.0780    24.8400   -21.5840     2.0910 
   78.1250    76.4690     7.1860     5.6980     9.4740    24.7460   -22.6260     2.0890 
   78.2500    76.4210     7.2900     5.8170     9.9150    24.6240   -23.7510     2.0900 
   78.3750    76.6640     7.3490     5.9010    10.4390    24.5080   -24.7870     2.0930 
   78.5000    75.9370     7.3480     5.9300    10.7600    24.4100   -25.6530     2.0990 
   78.6250    74.0770     7.2920     5.9090    10.8460    24.3710   -26.4280     2.1060 
   78.7500    71.5170     7.1900     5.8410    10.7070    24.4440   -27.1490     2.1140 
   78.8750    68.5900     7.0630     5.7420    10.4130    24.5860   -27.7650     2.1230 
   79.0000    68.3550     6.9430     5.6400    10.1440    24.6470   -28.1270     2.1270 
   79.1250    70.2820     6.8680     5.5650    10.0010    24.5970   -28.2410     2.1260 
   79.2500    71.5700     6.8660     5.5440     9.9620    24.5120   -28.1450     2.1220 
   79.3750    69.7280     6.9790     5.5940     9.9700    24.5360   -27.8810     2.1210 
   79.5000    65.1060     7.2070     5.7360    10.0310    24.7060   -27.4140     2.1280 
   79.6250    62.7550     7.5120     5.9370    10.0250    24.9410   -26.6760     2.1370 
   79.7500    64.4030     7.8440     6.1550    10.0000    25.1750   -25.5710     2.1440 
   79.8750    68.4430     8.0090     6.3250     9.9150    25.3840   -24.1210     2.1490 
   80.0000    72.4510     7.9430     6.3530     9.5900    25.5270   -22.3670     2.1580 
   80.1250    77.0930     7.6570     6.2060     8.9970    25.5650   -20.4010     2.1740 
   80.2500    83.3210     7.1770     5.8850     8.1400    25.4480   -18.2670     2.1980 
   80.3750    88.8160     6.5770     5.4370     7.2010    25.2030   -15.9850     2.2270 
