~V
VERS. 2.00: Ver 2.00
~W
STRT.M 53.0000:
STOP.M 212.0000:
STEP.M 0.1250:
NULL. -999.2500:
UWI. F11124:
~C
DEPT.M :
SP.MV :
DEN.GM/CC :
GR.API :
RML.OHMM :
RI. :
RXO.OHMM :
CALI.CM :
~A
# ...
  109.2500   -20.0150     2.2220    66.8040     8.9190     7.2170     8.2450    26.6610 
  109.3750   -20.4540     2.2270    69.8420     9.6840     7.8240     8.8120    26.4040 
  109.5000   -20.9560     2.2330    71.2400    10.3880     8.4320     9.4800    26.1800 
  109.6250   -21.4660     2.2400    67.7070    10.9030     8.9220    10.0500    26.1330 
  109.7500   -21.9740     2.2490    63.7230    11.2820     9.2910    10.4740    26.2180 
  109.8750   -22.4950     2.2580    63.0430    11.6650     9.6170    10.9300    26.3710 
  110.0000   -23.0090     2.2650    63.5920    12.2280    10.0290    11.4550    26.5150 
  110.1250   -23.4890     2.2640    61.3090    13.1560    10.6970    12.2140    26.4750 
  110.2500   -23.9630     2.2490    59.7570    14.3750    11.6270    13.5050    26.1740 
  110.3750   -24.4320     2.2250    61.0940    15.7180    12.7400    15.4830    25.8220 
  110.5000   -24.8860     2.2070    63.7670    16.9350    13.8590    17.6170    25.6970 
  110.6250   -25.3500     2.2050    66.6140    17.7020    14.7070    18.7530    25.8120 
  110.7500   -25.8330     2.2120    65.8330    17.9650    15.1680    19.0550    25.9660 
  110.8750   -26.2930     2.2190    60.6010    17.7540    15.2210    19.0180    26.0290 
  111.0000   -26.7500     2.2200    57.4700    17.1360    14.9010    18.8190    25.9420 
  111.1250   -27.1830     2.2150    61.0370    16.0840    14.1760    18.2200    25.7310 
  111.2500   -27.5660     2.2170    64.1590    14.7130    13.1410    17.1080    25.6010 
  111.3750   -27.9020     2.2270    63.0390    13.1670    11.9010    15.5670    25.5530 
  111.5000   -28.1920     2.2380    61.6230    11.6720    10.6330    13.7640    25.5260 
  111.6250   -28.4190     2.2390    61.8640    10.5030     9.5600    12.1020    25.4910 
  111.7500   -28.5870     2.2350    61.4900     9.7010     8.7600    11.0360    25.4760 
  111.8750   -28.7100     2.2290    60.5810     9.2190     8.2290    10.5590    25.5080 
  112.0000   -28.7750     2.2190    60.0040     8.9480     7.9120    10.2980    25.5770 
  112.1250   -28.7870     2.2010    59.3120     8.7800     7.7400    10.0050    25.6270 
  112.2500   -28.7820     2.1820    58.5750     8.6210     7.6160     9.7210    25.6500 
  112.3750   -28.7490     2.1730    59.7820     8.4510     7.5000     9.5670    25.6760 
  112.5000   -28.6790     2.1750    63.6400     8.2880     7.3830     9.5880    25.7220 
  112.6250   -28.5910     2.1820    65.6490     8.1650     7.2830     9.6720    25.7810 
  112.7500   -28.4760     2.1840    64.8570     8.0810     7.2090     9.7280    25.8660 
  112.8750   -28.3420     2.1830    63.5050     8.0210     7.1540     9.7560    26.0020 
  113.0000   -28.1870     2.1830    62.4250     7.9660     7.1010     9.8050    26.1720 
  113.1250   -27.9850     2.1850    60.5740     7.9120     7.0360     9.8260    26.3060 
  113.2500   -27.7550     2.1840    58.8580     7.8670     6.9690     9.7260    26.3580 
  113.3750   -27.4930     2.1830    59.4310     7.8430     6.9110     9.5090    26.3730 
  113.5000   -27.2010     2.1830    61.3210     7.8380     6.8700     9.2750    26.3760 
  113.6250   -26.8600     2.1860    62.4960     7.8500     6.8460     9.2320    26.4000 
  113.7500   -26.4820     2.1870    63.0680     7.8710     6.8310     9.3870    26.4230 
  113.8750   -26.0540     2.1850    64.5220     7.9140     6.8290     9.6530    26.4440 
  114.0000   -25.5620     2.1860    67.3770     8.0090     6.8610     9.9100    26.4540 
  114.1250   -25.0420     2.1920    69.6380     8.2220     6.9780    10.2410    26.5200 
  114.2500   -24.5010     2.2030    69.0640     8.5560     7.1970    10.7460    26.5510 
  114.3750   -23.9280     2.2170    67.1270     8.9750     7.5040    11.5070    26.5630 
  114.5000   -23.3730     2.2310    66.5250     9.4050     7.8520    12.3350    26.5790 
  114.6250   -22.8820     2.2460    68.5330     9.7470     8.1640    12.8700    26.6940 
  114.7500   -22.4770     2.2650    69.9240     9.9740     8.4020    12.8790    26.8900 
  114.8750   -22.2090     2.2840    71.0090    10.1040     8.5620    12.3900    27.1150 
  115.0000   -22.1420     2.2990    74.2530    10.1830     8.6680    11.8530    27.2760 
  115.1250   -22.1700     2.3010    79.6970    10.2310     8.7400    11.8520    27.3230 
  115.2500   -22.3630     2.2890    80.9110    10.2170     8.7710    12.1490    27.2780 
  115.3750   -22.7390     2.2660    76.7840    10.0830     8.7200    12.0210    27.1250 
  115.5000   -23.2920     2.2330    71.8520     9.8030     8.5600    11.4400    26.8980 
  115.6250   -23.9380     2.2010    68.9920     9.4050     8.2910    10.7390    26.7340 
  115.7500   -24.5900     2.1760    66.1310     9.0080     7.9870    10.2980    26.7070 
  115.8750   -25.1920     2.1590    62.7250     8.7030     7.7220     9.8490    26.8090 
  116.0000   -25.7170     2.1450    61.9570     8.5280     7.5490     9.5300    27.0290 
  116.1250   -26.0780     2.1390    63.5380     8.4660     7.4870     9.4300    27.2550 
  116.2500   -26.2710     2.1460    64.0220     8.4280     7.4740     9.4770    27.3090 
  116.3750   -26.3220     2.1630    63.5760     8.3580     7.4610     9.6320    27.0920 
  116.5000   -26.2690     2.1770    63.6730     8.2300     7.4090     9.8110    26.8090 
  116.6250   -26.1140     2.1770    64.7250     8.0390     7.2990     9.8910    26.6930 
  116.7500   -25.9190     2.1720    66.4890     7.8270     7.1560     9.7520    26.6350 
  116.8750   -25.7380     2.1650    69.2380     7.6320     7.0100     9.4560    26.5230 
  117.0000   -25.5630     2.1620    69.7070     7.4910     6.8920     9.2310    26.3160 
  117.1250   -25.4190     2.1650    67.5240     7.4350     6.8320     9.1670    26.2170 
  117.2500   -25.3080     2.1740    67.7490     7.4490     6.8220     9.2050    26.1850 
  117.3750   -25.1840     2.1850    71.5310     7.5060     6.8450     9.2560    26.1820 
  117.5000   -25.0170     2.1920    73.7680     7.5740     6.8770     9.2640    26.1740 
  117.6250   -24.8370     2.1940    70.5050     7.6300     6.8940     9.2000    26.1610 
  117.7500   -24.6120     2.1960    66.2390     7.6720     6.8960     9.0450    26.1710 
  117.8750   -24.3090     2.1980    63.6900     7.7040     6.8870     8.8560    26.2520 
  118.0000   -23.9200     2.2010    64.2830     7.7270     6.8710     8.7640    26.3950 
  118.1250   -23.4050     2.2070    66.6820     7.7460     6.8500     8.8690    26.5360 
  118.2500   -22.7800     2.2200    68.1100     7.7960     6.8470     9.0020    26.6250 
  118.3750   -22.0770     2.2410    68.6500     7.9650     6.9160     8.9700    26.6610 
  118.5000   -21.3040     2.2720    70.3110     8.3980     7.1560     8.8240    26.6710 
  118.6250   -20.4470     2.3160    73.0520     9.3790     7.7760     9.2140    26.6710 
  118.7500   -19.5910     2.3750    73.7350    10.9700     8.8800    10.8820    26.6790 
  118.8750   -18.7560     2.4440    71.4870    13.1110    10.5330    14.2650    26.7120 
  119.0000   -17.9380     2.5030    67.2110    15.4540    12.6120    19.1190    26.7860 
  119.1250   -17.1890     2.5180    62.2560    17.1120    14.5520    23.7560    26.7850 
  119.2500   -16.5230     2.4800    61.4520    17.4070    15.5730    25.7060    26.5500 
  119.3750   -15.9350     2.4060    64.6640    16.2960    15.3390    23.6980    26.0050 
  119.5000   -15.3770     2.3320    67.0940    14.4210    14.1770    18.9640    25.3670 
  119.6250   -14.7910     2.2960    65.6910    12.6420    12.7480    14.9870    25.0600 
  119.7500   -14.1660     2.3000    66.8260    11.3400    11.5410    13.1900    25.0250 
  119.8750   -13.5050     2.3280    72.3530    10.4970    10.6560    12.4600    25.2000 
  120.0000   -12.8220     2.3600    77.9090     9.9760    10.0570    11.7310    25.5910 
  120.1250   -12.1140     2.3820    82.2780     9.6630     9.6850    10.4710    26.0970 
  120.2500   -11.4250     2.3990    83.7830     9.4480     9.4290     9.2770    26.4820 
  120.3750   -10.7680     2.4170    80.8070     9.3100     9.2550     8.6670    26.6350 
