~V
VERS. 2.00: Ver 2.00
~W
STRT.M 55.0000:
STOP.M 201.0000:
STEP.M 0.1250:
NULL. -999.2500:
UWI. F11111:
~C
DEPT.M :
GR.API :
RML.OHMM :
RI. :
RXO.OHMM :
CALI.CM :
SP.MV :
DEN.GM/CC :
~A
# ...
  122.5000    44.6670    21.2870    19.3410    16.3030    23.0560   -20.6160     2.4430 
  122.6250    41.4660    21.8520    19.8720    16.5010    23.1500   -20.6760     2.4270 
  122.7500    41.4090    22.3850    20.3900    16.7620    23.2410   -20.7410     2.4200 
  122.8750    46.2510    22.9170    20.8950    17.0370    23.4500   -20.8160     2.4220 
  123.0000    51.5090    23.4800    21.4030    18.2740    23.4050   -20.9080     2.4260 
  123.1250    51.1050    24.0240    21.8910    20.0630    23.2190   -21.0150     2.4210 
  123.2500    48.2390    24.4370    22.2700    21.5480    23.0630   -21.1370     2.4030 
  123.3750    47.2810    24.6550    22.4750    20.3100    22.8090   -21.2490     2.3800 
  123.5000    47.8190    24.7000    22.5160    18.8920    22.7270   -21.3100     2.3630 
  123.6250    48.1730    24.6620    22.4630    18.9670    23.0790   -21.3280     2.3640 
  123.7500    48.9770    24.6760    22.4410    19.6480    23.0870   -21.3430     2.3800 
  123.8750    50.5240    24.8310    22.5350    19.8910    22.8250   -21.3670     2.4030 
  124.0000    51.2670    25.1470    22.7810    20.7960    22.7450   -21.3890     2.4240 
  124.1250    49.4700    25.5770    23.1590    21.8100    22.7240   -21.3940     2.4370 
  124.2500    47.9140    26.0410    23.5870    22.8030    22.8490   -21.3670     2.4430 
  124.3750    48.2100    26.4960    24.0290    23.6150    22.9900   -21.3250     2.4410 
  124.5000    49.9510    26.9020    24.4540    23.8470    22.9450   -21.2960     2.4310 
  124.6250    50.4410    27.2150    24.8180    23.5100    23.1400   -21.2680     2.4140 
  124.7500    50.0780    27.4610    25.1290    23.3060    23.2170   -21.2380     2.3950 
  124.8750    51.2260    27.6560    25.3990    24.3570    23.4610   -21.2020     2.3840 
  125.0000    52.8780    27.7870    25.6180    24.6320    23.6320   -21.1490     2.3860 
  125.1250    52.1680    27.7600    25.7060    24.3160    23.5380   -21.0990     2.4070 
  125.2500    50.5980    27.4960    25.5910    23.4290    23.4840   -21.0440     2.4350 
  125.3750    49.7430    26.9230    25.2000    23.5360    23.3640   -20.9800     2.4580 
  125.5000    49.3080    26.0640    24.5300    24.5550    23.5520   -20.9160     2.4640 
  125.6250    48.6480    25.0520    23.6710    24.1640    23.5320   -20.8800     2.4490 
  125.7500    49.8680    24.0820    22.8060    22.2050    23.4470   -20.8690     2.4300 
  125.8750    53.0400    23.2180    22.0000    20.5230    23.4020   -20.8630     2.4210 
  126.0000    54.8700    22.4650    21.2680    18.8540    23.4070   -20.8540     2.4300 
  126.1250    52.0050    21.8230    20.6220    17.9780    23.2740   -20.8290     2.4520 
  126.2500    47.2200    21.2830    20.0680    17.6100    23.2530   -20.8160     2.4730 
  126.3750    44.6040    20.8950    19.6390    17.3250    23.1470   -20.8180     2.4830 
  126.5000    44.9960    20.7570    19.3960    17.4660    22.9970   -20.8220     2.4800 
  126.6250    44.0720    21.0550    19.4800    18.4110    22.8110   -20.7900     2.4700 
  126.7500    42.2530    21.7700    19.9040    19.3520    22.7180   -20.7330     2.4590 
  126.8750    43.5030    22.8360    20.6560    19.8410    22.6600   -20.6810     2.4520 
  127.0000    47.1640    24.0950    21.6470    20.2160    22.7250   -20.6320     2.4470 
  127.1250    47.3090    25.2880    22.7000    21.8470    23.0870   -20.5550     2.4440 
  127.2500    44.4430    26.1960    23.5950    24.4390    23.4930   -20.4630     2.4410 
  127.3750    43.4270    26.7310    24.2090    26.1470    23.6710   -20.3760     2.4380 
  127.5000    45.0440    26.9150    24.5140    26.4890    23.8960   -20.2830     2.4380 
  127.6250    44.9710    26.8260    24.5270    25.0670    23.8490   -20.2140     2.4420 
  127.7500    43.1160    26.6480    24.4020    24.1730    23.6100   -20.1570     2.4490 
  127.8750    41.2770    26.4870    24.2450    22.4090    23.4430   -20.1010     2.4570 
  128.0000    40.5360    26.3700    24.1140    20.5450    23.3670   -20.0560     2.4650 
  128.1250    42.2380    26.1600    23.9320    21.2210    23.3470   -20.0420     2.4710 
  128.2500    46.2450    25.6340    23.5190    21.3480    23.3210   -20.0490     2.4700 
  128.3750    50.3270    24.6040    22.7020    21.8310    23.2060   -20.0570     2.4580 
  128.5000    51.5580    23.0310    21.4160    21.3540    22.7390   -20.0550     2.4340 
  128.6250    51.3700    21.1020    19.7620    19.0240    22.7810   -20.0440     2.4050 
  128.7500    53.1540    19.3060    18.1370    15.8600    23.0050   -20.0330     2.3840 
  128.8750    56.3690    18.0130    16.8530    13.8410    23.3890   -20.0220     2.3820 
  129.0000    58.2110    17.4450    16.1320    12.9340    23.4480   -20.0230     2.3980 
  129.1250    56.2710    17.7670    16.1810    13.5950    22.7270   -20.0430     2.4260 
  129.2500    52.7640    18.6570    16.8180    15.7020    22.3930   -20.0690     2.4480 
  129.3750    49.4400    19.7570    17.7990    17.8360    22.4210   -20.1270     2.4560 
  129.5000    47.0520    20.6140    18.7350    20.1130    22.4060   -20.2300     2.4500 
  129.6250    45.0870    20.7050    19.0980    19.8500    22.5180   -20.3470     2.4330 
  129.7500    44.3760    20.0660    18.7830    19.1080    22.8660   -20.4640     2.4160 
  129.8750    47.2230    18.9660    17.9450    16.6210    23.2330   -20.6050     2.4010 
  130.0000    54.7140    17.7910    16.9040    14.0310    23.3820   -20.7660     2.3890 
  130.1250    62.5120    16.8910    15.9930    12.7050    23.6260   -20.9490     2.3790 
  130.2500    68.5300    16.3380    15.3480    12.2030    23.7180   -21.1410     2.3730 
  130.3750    74.1820    16.1140    14.9890    12.5410    23.9450   -21.3100     2.3740 
  130.5000    76.9810    16.1480    14.8750    13.1870    24.2470   -21.4550     2.3800 
  130.6250    71.4880    16.3370    14.9360    13.2650    24.4700   -21.6060     2.3860 
  130.7500    63.7570    16.5210    15.0350    13.3680    24.6810   -21.7530     2.3830 
  130.8750    63.5270    16.6130    15.1010    13.2770    25.1750   -21.8690     2.3620 
  131.0000    71.1720    16.5650    15.0920    12.9550    25.2170   -21.9540     2.3260 
  131.1250    74.8960    16.3620    14.9750    12.1610    24.2110   -22.0090     2.2860 
  131.2500    72.9450    16.0900    14.7720    11.4700    23.6040   -22.0450     2.2580 
  131.3750    71.8710    15.8290    14.5160    11.2100    23.2660   -22.0680     2.2530 
  131.5000    75.1760    15.6690    14.2740    11.5110    23.1100   -22.0810     2.2710 
  131.6250    78.0790    15.7150    14.1460    11.9450    23.0380   -22.0750     2.3040 
  131.7500    78.5380    15.9680    14.1810    12.1700    22.9410   -22.0500     2.3350 
  131.8750    78.0560    16.4160    14.3980    12.1230    22.7880   -22.0120     2.3540 
  132.0000    78.0050    17.0480    14.7860    12.1980    22.7570   -21.9830     2.3590 
  132.1250    78.5080    17.9110    15.3640    12.7310    22.6790   -21.9810     2.3560 
  132.2500    77.2350    18.9970    16.1110    13.3300    22.7420   -21.9940     2.3520 
  132.3750    72.6110    20.2810    17.0290    13.8810    22.8800   -22.0400     2.3560 
  132.5000    67.4880    21.6410    18.0640    14.6150    22.7070   -22.0980     2.3680 
  132.6250    67.2430    22.7730    19.0310    15.0920    22.6520   -22.1280     2.3850 
  132.7500    69.3580    23.4170    19.7020    15.8020    22.1320   -22.1460     2.3990 
  132.8750    70.5650    23.4490    19.9190    16.1070    22.0660   -22.1820     2.4020 
  133.0000    71.4840    22.9890    19.6900    15.1360    22.2110   -22.2070     2.3930 
  133.1250    71.3930    22.4640    19.2600    14.2560    22.1260   -22.1820     2.3770 
  133.2500    69.0700    22.4090    19.0660    13.6530    22.2930   -22.1180     2.3660 
  133.3750    66.9540    23.1590    19.4250    14.1030    22.6170   -22.0070     2.3690 
  133.5000    67.6900    24.8140    20.5130    16.2810    23.6380   -21.8820     2.3880 
  133.6250    71.4990    27.2470    22.3940    19.7510    24.3670   -21.7920     2.4130 
