~V
VERS. 2.00: Ver 2.00
~W
STRT.M 56.0000:
STOP.M 269.0000:
STEP.M 0.1250:
NULL. -999.2500:
UWI. F11148:
~C
DEPT.M :
GR.API :
RML.OHMM :
RI. :
RXO.OHMM :
SP.MV :
DEN.GM/CC :
CALI.CM :
~A
# ...
  146.0000    85.1560     5.7850     4.4600     4.9290    -6.9270     2.3290    23.0770 
  146.1250    89.0070     5.7690     4.4470     4.9450    -6.9500     2.3400    23.2520 
  146.2500    95.4660     5.7730     4.4400     4.9480    -6.9650     2.3440    23.5020 
  146.3750    98.4570     5.7960     4.4430     4.9710    -6.9890     2.3480    23.6500 
  146.5000    97.9400     5.8320     4.4560     5.0090    -7.0040     2.3510    23.7120 
  146.6250    96.5460     5.8700     4.4730     5.0360    -6.9910     2.3510    23.7120 
  146.7500    94.8150     5.9000     4.4860     5.0640    -6.9770     2.3480    23.6640 
  146.8750    92.6510     5.9250     4.4970     5.1220    -6.9790     2.3450    23.6220 
  147.0000    90.4110     5.9510     4.5100     5.1900    -7.0070     2.3440    23.5930 
  147.1250    87.8870     5.9900     4.5320     5.1530    -7.1000     2.3430    23.5390 
  147.2500    86.8380     6.0550     4.5700     5.0100    -7.2200     2.3400    23.4210 
  147.3750    88.3840     6.1430     4.6190     5.0330    -7.3470     2.3350    23.3350 
  147.5000    90.5800     6.2370     4.6720     5.2320    -7.4910     2.3340    23.2750 
  147.6250    92.2480     6.3120     4.7150     5.2350    -7.6480     2.3360    23.1680 
  147.7500    92.1580     6.3240     4.7240     5.1870    -7.7870     2.3350    22.9240 
  147.8750    90.8320     6.2660     4.6920     5.1880    -7.8920     2.3290    22.6690 
  148.0000    90.1540     6.1590     4.6280     5.2230    -7.9240     2.3230    22.4600 
  148.1250    91.5280     6.0650     4.5620     5.2830    -7.8910     2.3240    22.3700 
  148.2500    93.5700     6.0820     4.5540     5.1670    -7.8930     2.3310    22.3940 
  148.3750    93.0310     6.2200     4.6190     5.0820    -7.8360     2.3360    22.4760 
  148.5000    91.2110     6.4320     4.7410     5.2980    -7.6740     2.3370    22.5650 
  148.6250    92.2530     6.6180     4.8730     5.8520    -7.4690     2.3370    22.7020 
  148.7500    96.3670     6.6490     4.9410     6.4310    -7.2930     2.3320    23.0670 
  148.8750    98.8510     6.5270     4.9200     6.1620    -7.1170     2.3210    23.5760 
  149.0000    96.6300     6.3370     4.8410     5.5210    -6.9230     2.3060    23.9890 
  149.1250    93.7480     6.2000     4.7670     4.9640    -6.7050     2.2900    24.1690 
  149.2500    93.8740     6.2170     4.7620     4.9840    -6.5000     2.2810    24.1950 
  149.3750    92.7340     6.3320     4.8150     5.2740    -6.3500     2.2800    24.1950 
  149.5000    89.8800     6.4360     4.8760     5.6710    -6.2370     2.2880    24.1960 
  149.6250    88.8450     6.4020     4.8690     6.0460    -6.1730     2.3000    24.1970 
  149.7500    90.4870     6.1340     4.7170     6.0640    -6.1600     2.3100    24.1970 
  149.8750    90.8030     5.7300     4.4610     5.3230    -6.1750     2.3150    24.1990 
  150.0000    89.9160     5.3170     4.1750     4.6720    -6.2270     2.3140    24.1870 
  150.1250    88.7610     5.0100     3.9360     4.3650    -6.3000     2.3080    24.1470 
  150.2500    89.0120     4.9040     3.8240     4.2950    -6.3680     2.3080    24.0330 
  150.3750    91.5910     4.9730     3.8410     4.3290    -6.4490     2.3170    23.8690 
  150.5000    92.9860     5.1730     3.9740     4.3860    -6.5200     2.3340    23.7040 
  150.6250    90.8600     5.4290     4.1780     4.4600    -6.5370     2.3490    23.6140 
  150.7500    88.8460     5.6400     4.3830     4.5880    -6.5180     2.3500    23.7500 
  150.8750    90.1260     5.7390     4.5220     4.8500    -6.4930     2.3390    24.0610 
  151.0000    90.9220     5.7120     4.5640     5.1950    -6.4590     2.3230    24.3100 
  151.1250    87.0780     5.5860     4.5120     5.1910    -6.3950     2.3090    24.3980 
  151.2500    83.2640     5.4030     4.3860     4.8600    -6.2710     2.3000    24.3920 
  151.3750    86.0690     5.2020     4.2270     4.7060    -6.1260     2.2940    24.4090 
  151.5000    94.7120     4.9840     4.0530     4.6750    -6.0400     2.2890    24.4390 
  151.6250   102.5090     4.7560     3.8760     4.6380    -6.0160     2.2830    24.4610 
  151.7500   103.9990     4.5430     3.7170     4.5750    -5.9680     2.2800    24.3340 
  151.8750   102.2070     4.3820     3.5920     4.4240    -5.9390     2.2830    24.0670 
  152.0000    97.3720     4.2950     3.5170     4.2070    -5.9740     2.2940    23.6940 
  152.1250    90.9860     4.2850     3.4950     4.0780    -6.0880     2.3130    23.5760 
  152.2500    89.2400     4.3330     3.5240     3.9530    -6.2260     2.3340    23.6470 
  152.3750    92.2860     4.3980     3.5780     3.9450    -6.3500     2.3430    23.7440 
  152.5000    94.3930     4.4590     3.6390     3.9960    -6.4870     2.3360    23.8090 
  152.6250    92.8220     4.5090     3.6930     4.0090    -6.6360     2.3220    23.8270 
  152.7500    91.6210     4.5600     3.7340     4.0760    -6.8020     2.3210    23.7940 
  152.8750    90.3360     4.6250     3.7670     4.1290    -6.9650     2.3390    23.7280 
  153.0000    88.2620     4.7090     3.7950     4.1230    -7.1280     2.3660    23.7060 
  153.1250    87.7450     4.8050     3.8220     4.1630    -7.3060     2.3860    23.7000 
  153.2500    89.0880     4.8780     3.8370     4.2250    -7.5130     2.3900    23.6870 
  153.3750    89.7360     4.8760     3.8150     4.3000    -7.7300     2.3850    23.6630 
  153.5000    88.9090     4.7730     3.7410     4.3980    -7.9370     2.3760    23.6220 
  153.6250    88.1460     4.6090     3.6350     4.4970    -8.1470     2.3690    23.5800 
  153.7500    88.3570     4.5730     3.6050     4.5210    -8.3560     2.3650    23.5370 
  153.8750    87.8060     4.9040     3.7830     4.5070    -8.5520     2.3590    23.5010 
  154.0000    88.1300     5.8400     4.3130     4.5380    -8.7440     2.3490    23.4690 
  154.1250    89.4040     7.5540     5.3340     5.0070    -8.9150     2.3350    23.4880 
  154.2500    88.8610    10.1140     7.0250     6.8180    -9.0550     2.3230    23.5000 
  154.3750    85.3650    12.8560     9.0880    10.3300    -9.1710     2.3130    23.5270 
  154.5000    79.2840    14.7660    10.8450    14.4530    -9.2360     2.3040    23.5980 
  154.6250    74.9630    14.8580    11.4060    16.6530    -9.2620     2.2950    23.7630 
  154.7500    74.4050    13.0190    10.4350    14.3650    -9.3240     2.2890    23.9370 
  154.8750    77.3390    10.8530     9.0350    11.3330    -9.4290     2.2880    23.9360 
  155.0000    82.2580     9.3520     7.9170     8.9310    -9.5110     2.2940    23.7290 
  155.1250    84.5590     8.8870     7.3890     7.1110    -9.5660     2.3050    23.4920 
  155.2500    80.7960     9.5520     7.6170     6.6000    -9.6680     2.3160    23.3490 
  155.3750    76.1020    10.8660     8.4150     7.5750    -9.8220     2.3200    23.3030 
  155.5000    75.9400    12.3990     9.5860     9.6080    -9.9660     2.3160    23.2630 
  155.6250    79.2350    13.6680    10.8010    11.2300   -10.0830     2.3060    23.1790 
  155.7500    79.2970    14.2340    11.6320    11.6660   -10.1960     2.2970    23.0700 
  155.8750    76.9440    14.2970    12.0320    11.0630   -10.2900     2.2910    22.9270 
  156.0000    75.8460    14.1710    12.1620     9.9090   -10.3340     2.2890    22.7730 
  156.1250    75.8470    14.0380    12.1730     9.6030   -10.3510     2.2890    22.6880 
  156.2500    75.6780    13.7390    11.9830    10.3300   -10.3340     2.2880    22.7170 
  156.3750    74.7670    13.0490    11.4570    11.0850   -10.2740     2.2830    22.8200 
  156.5000    74.3130    11.9480    10.5860    11.8650   -10.1870     2.2770    22.9530 
  156.6250    76.0780    10.6770     9.5560    10.5730   -10.0870     2.2750    23.1230 
  156.7500    78.9760     9.6610     8.6810     8.1810    -9.9770     2.2770    23.2030 
  156.8750    81.0080     9.0920     8.1260     6.8240    -9.8700     2.2780    23.2350 
  157.0000    79.7610     8.9380     7.9080     6.8990    -9.7860     2.2780    23.2540 
  157.1250    78.3270     9.0250     7.9400     7.8810    -9.6830     2.2820    23.2890 
