~V
VERS. 2.00: Ver 2.00
~W
STRT.M 55.0000:
STOP.M 207.0000:
STEP.M 0.1250:
NULL. -999.2500:
UWI. F11112:
~C
DEPT.M :
SP.MV :
RML.OHMM :
RI. :
RXO.OHMM :
CALI.CM :
DEN.GM/CC :
GR.API :
~A
# ...
  156.2500   -12.9890    76.3040    68.5700    63.3230    29.6600     2.2100    66.9330 
  156.3750   -12.2380    74.4460    66.9160    59.4780    29.7460     2.2040    67.0460 
  156.5000   -11.1940    73.0580    65.4140    57.1580    29.8190     2.1970    67.5920 
  156.6250   -10.0890    72.7330    64.7170    57.1780    29.8470     2.1920    67.7850 
  156.7500    -9.0280    73.9460    65.3970    61.7580    29.8250     2.1940    67.6310 
  156.8750    -8.0250    76.3560    67.2790    65.2310    29.8000     2.2000    67.9060 
  157.0000    -7.1180    79.5730    70.1030    69.1060    29.7760     2.2030    68.2550 
  157.1250    -6.3220    82.9920    73.3800    73.4870    29.7990     2.2030    67.8550 
  157.2500    -5.8620    85.7240    76.3210    76.1860    29.8450     2.1990    67.1620 
  157.3750    -5.7660    87.3050    78.3390    77.4430    29.8940     2.1980    66.7660 
  157.5000    -5.9440    87.7160    79.2610    77.6820    29.9230     2.2010    66.4960 
  157.6250    -6.2600    87.4050    79.3640    75.2580    29.9570     2.2070    66.2660 
  157.7500    -6.7120    87.2060    79.3460    71.4000    30.0180     2.2120    66.1810 
  157.8750    -7.2810    87.7350    79.9080    69.0910    30.0980     2.2140    66.3080 
  158.0000    -8.0100    89.0400    81.2480    70.4120    30.1650     2.2110    65.7320 
  158.1250    -8.9070    90.6940    83.1010    75.5620    30.2140     2.2070    64.3220 
  158.2500    -9.8240    91.8360    84.7740    80.4630    30.2610     2.2050    63.6930 
  158.3750   -10.7160    91.8460    85.6140    81.6920    30.3110     2.2060    65.0330 
  158.5000   -11.6540    90.4640    85.2650    78.2260    30.3720     2.2040    67.0000 
  158.6250   -12.6290    87.8430    83.7120    70.8950    30.3970     2.1990    67.0240 
  158.7500   -13.5720    84.4840    81.2270    63.2040    30.3550     2.1940    65.0750 
  158.8750   -14.4410    81.2600    78.5850    59.3670    30.3370     2.1940    64.2540 
  159.0000   -15.2100    78.7610    76.3510    58.8530    30.4250     2.2000    65.9190 
  159.1250   -15.8810    77.4170    74.9770    60.7530    30.5560     2.2080    68.7250 
  159.2500   -16.3830    77.7910    75.0300    62.9830    30.6580     2.2140    69.3290 
  159.3750   -16.8510    79.8600    76.5740    65.7790    30.7340     2.2180    68.0430 
  159.5000   -17.3560    83.7700    79.8060    69.1960    30.7760     2.2190    67.1460 
  159.6250   -17.8510    89.5830    84.8500    73.4870    30.7660     2.2140    66.7970 
  159.7500   -18.2510    97.4750    91.9410    79.5630    30.7900     2.2010    65.2120 
  159.8750   -18.6380   106.7420   100.4380    89.7190    30.8560     2.1840    62.9860 
  160.0000   -18.9800   116.7330   109.7430   104.8340    30.9260     2.1700    61.6550 
  160.1250   -19.2970   126.5410   119.0010   121.7760    30.9640     2.1610    61.5470 
  160.2500   -19.6550   134.7560   126.8760   132.2970    31.0050     2.1510    62.0730 
  160.3750   -20.0190   140.6690   132.6100   133.8070    31.0760     2.1410    61.7750 
  160.5000   -20.4200   144.0700   135.8930   132.2430    31.1480     2.1340    60.4370 
  160.6250   -20.8210   145.5190   137.1060   131.4630    31.2190     2.1320    59.0980 
  160.7500   -21.2440   146.4170   137.3960   129.1460    31.3120     2.1280    58.9750 
  160.8750   -21.6630   148.6380   138.6170   125.2980    31.3950     2.1190    59.8370 
  161.0000   -22.1970   153.4750   142.1670   124.5830    31.4200     2.1080    61.9180 
  161.1250   -22.8100   161.5170   148.9000   130.2910    31.3830     2.1010    64.5800 
  161.2500   -23.4890   172.4590   159.0430   145.6310    31.2730     2.1010    66.3470 
  161.3750   -24.1640   183.5510   170.2640   166.4910    31.0790     2.1100    66.9430 
  161.5000   -24.7070   191.7050   179.7380   191.6260    30.8180     2.1240    66.9980 
  161.6250   -25.1770   193.9600   184.4210   218.5730    30.5980     2.1360    66.9980 
  161.7500   -25.6510   187.8340   181.2830   223.1030    30.5220     2.1440    66.1450 
  161.8750   -26.1320   176.4480   172.4130   210.4890    30.6140     2.1470    64.7150 
  162.0000   -26.5480   163.4170   160.8170   186.4910    30.8010     2.1440    64.1100 
  162.1250   -26.9340   152.1150   149.8550   154.6190    30.9910     2.1350    64.9740 
  162.2500   -27.2260   144.9200   142.3600   130.1430    31.0600     2.1220    64.5560 
  162.3750   -27.4270   140.8600   138.0230   121.3560    31.0220     2.1080    61.8360 
  162.5000   -27.5230   138.5440   135.6600   119.2780    30.9390     2.0950    58.6970 
  162.6250   -27.6040   136.5970   133.8520   117.8850    30.8130     2.0880    57.8900 
  162.7500   -27.7260   134.2650   131.6080   119.3930    30.6520     2.0940    58.8860 
  162.8750   -27.8900   132.0620   129.1810   114.2370    30.4920     2.1080    59.7670 
  163.0000   -28.0180   131.1820   127.6160   101.1480    30.3590     2.1190    60.6810 
  163.1250   -28.1270   132.9650   128.2630    91.8930    30.2170     2.1180    61.2730 
  163.2500   -28.3180   139.0380   132.8680   101.9430    30.0530     2.1060    60.7680 
  163.3750   -28.5820   148.9320   141.2050   118.8330    29.8910     2.0930    59.3260 
  163.5000   -28.9050   161.9220   152.6870   136.6250    29.7760     2.0860    58.4060 
  163.6250   -29.1820   176.5380   165.9350   158.0700    29.6940     2.0870    59.6970 
  163.7500   -29.2380   190.3040   178.5120   186.3490    29.6350     2.1030    61.9620 
  163.8750   -29.0200   201.0770   188.2180   212.1250    29.5870     2.1330    63.3770 
  164.0000   -28.7280   207.8750   194.0540   222.0370    29.5340     2.1690    62.6930 
  164.1250   -28.3630   211.0560   196.3620   208.1500    29.4650     2.2060    59.8350 
  164.2500   -27.9250   211.8420   196.3440   179.5180    29.3220     2.2400    56.8490 
  164.3750   -27.4470   212.2720   196.0380   155.3010    29.1260     2.2600    55.8420 
  164.5000   -26.9780   213.2530   196.4970   151.3760    28.9630     2.2470    56.4150 
  164.6250   -26.4940   214.6470   197.8880   169.7750    28.8430     2.2040    56.9500 
  164.7500   -26.0910   214.5170   198.8120   193.9160    28.6930     2.1670    56.7680 
  164.8750   -25.8280   210.4910   196.8490   193.5200    28.5160     2.1570    56.9820 
  165.0000   -25.6480   200.7890   189.8200   191.2250    28.3320     2.1660    57.5950 
  165.1250   -25.5040   185.5290   177.0120   205.9530    28.1740     2.1780    59.3970 
  165.2500   -25.3390   167.8850   160.3250   214.6770    28.0260     2.1850    62.4770 
  165.3750   -25.1560   153.2480   144.9950   198.4790    27.7950     2.1880    64.4790 
  165.5000   -24.9360   144.6260   134.5310   169.4910    27.4240     2.1880    64.8740 
  165.6250   -24.6970   142.6920   130.4160   153.8500    26.8980     2.1840    64.3630 
  165.7500   -24.4680   146.5160   132.6850   158.2800    26.2970     2.1740    64.6190 
  165.8750   -24.2180   151.7800   137.5570   167.7160    25.8160     2.1710    66.0910 
  166.0000   -23.8390   154.9120   141.7050   165.9840    25.4940     2.1840    68.3630 
  166.1250   -23.4390   154.4900   142.2630   159.3800    25.1840     2.2100    69.7630 
  166.2500   -23.0890   148.1640   137.2010   151.0300    24.7300     2.2400    68.1700 
  166.3750   -22.8160   139.7510   128.6700   135.5870    24.5410     2.2650    66.1170 
  166.5000   -22.6200   132.7320   119.0700   112.2460    24.8490     2.2810    66.5820 
  166.6250   -22.5710   122.5470   110.2000    85.2060    25.2870     2.2850    68.8880 
  166.7500   -22.6700   112.2410   102.3530    66.6660    25.4640     2.2790    69.7460 
  166.8750   -22.9060   101.4710    94.0960    60.3490    25.4500     2.2740    68.1990 
  167.0000   -23.2340    88.9760    84.1320    59.2150    25.3860     2.2740    65.7940 
  167.1250   -23.4670    74.5370    71.9110    55.5420    25.3000     2.2820    64.8710 
  167.2500   -23.6130    59.6740    58.3720    49.8890    25.2280     2.2970    66.2210 
  167.3750   -23.7530    47.1100    46.2150    40.1520    25.1680     2.3130    69.8110 
