~V
VERS. 2.00: Ver 2.00
~W
STRT.M 50.0000:
STOP.M 242.0000:
STEP.M 0.1250:
NULL. -999.2500:
UWI. F11136:
~C
DEPT.M :
GR.API :
RML.OHMM :
RI. :
RXO.OHMM :
CALI.CM :
SP.MV :
DEN.GM/CC :
~A
# ...
  162.5000    62.5950    20.3380    19.1860    23.3520    22.5540   -15.3470     2.2060 
  162.6250    62.1500    19.5330    18.4280    22.5380    22.6650   -15.4360     2.2070 
  162.7500    61.8770    18.3290    17.2910    21.4080    23.2250   -15.5620     2.2080 
  162.8750    61.4070    16.8110    15.8590    19.9330    23.6930   -15.7330     2.2080 
  163.0000    61.0660    15.2180    14.3570    17.3530    23.8740   -15.8860     2.2110 
  163.1250    63.2960    13.9660    13.1760    14.5550    23.8930   -16.0390     2.2170 
  163.2500    67.5680    13.3080    12.5550    12.9620    23.9110   -16.2680     2.2250 
  163.3750    69.6710    13.3680    12.6110    12.8800    23.9000   -16.5060     2.2330 
  163.5000    65.0310    14.1380    13.3380    14.3030    23.9850   -16.7290     2.2390 
  163.6250    57.7400    15.5580    14.6770    17.3260    24.2620   -16.9950     2.2380 
  163.7500    56.6720    17.2720    16.2940    21.8330    24.5050   -17.2390     2.2330 
  163.8750    60.9490    19.1140    18.0320    23.9740    24.5600   -17.4930     2.2270 
  164.0000    64.0400    21.2270    20.0260    22.9290    24.5450   -17.8110     2.2230 
  164.1250    61.0950    24.6320    23.2370    22.0810    24.5000   -18.1510     2.2210 
  164.2500    57.3610    30.7100    28.9720    25.6870    24.5190   -18.4800     2.2160 
  164.3750    57.4830    53.2650    38.9440    42.2490    24.6100   -18.8360     2.2060 
  164.5000    59.1110    77.2260    54.6740    81.8050    24.6050   -19.1730     2.1910 
  164.6250    57.0780   104.9230    76.7410   113.7840    24.5810   -19.5110     2.1730 
  164.7500    52.4240   133.1010    99.6260   104.1590    24.5300   -19.8760     2.1560 
  164.8750    50.6140   153.2950   116.6920    99.4730    24.5080   -20.2090     2.1430 
  165.0000    52.1180   161.8090   124.6470    96.9930    24.5020   -20.5050     2.1340 
  165.1250    53.3370   163.9050   126.4140    91.7420    24.5250   -20.8270     2.1300 
  165.2500    53.8420   167.6370   128.8550    84.6040    24.5690   -21.1310     2.1280 
  165.3750    54.7250   174.3900   134.2680    88.8390    24.5910   -21.4120     2.1280 
  165.5000    56.2040   181.8470   141.7020   100.6270    24.5880   -21.7210     2.1300 
  165.6250    57.4440   185.1990   147.6340   116.1830    24.5500   -21.9850     2.1330 
  165.7500    58.1720   182.5400   149.0050   119.7080    24.4900   -22.2400     2.1380 
  165.8750    59.8400   174.7140   144.8610   107.4020    24.4270   -22.5270     2.1450 
  166.0000    64.6560   164.6660   136.7990    89.9900    24.3470   -22.8210     2.1540 
  166.1250    69.2770   156.5170   128.5810    79.4820    24.3000   -23.0510     2.1660 
  166.2500    69.1710   152.4200   123.4980    82.1870    24.1410   -23.2970     2.1800 
  166.3750    64.9170   153.0390   122.7430    89.4790    24.0290   -23.5480     2.1960 
  166.5000    60.3430   158.2260   126.3880    88.5500    23.9960   -23.7560     2.2110 
  166.6250    59.9200   168.0430   134.3700    87.3610    23.9660   -23.9890     2.2240 
  166.7500    61.5340   180.6660   144.9260    98.8100    23.8010   -24.2140     2.2310 
  166.8750    62.5730   194.6260   157.0110   114.3190    23.6240   -24.3700     2.2310 
  167.0000    62.1880   208.5440   169.7830   124.4370    23.4950   -24.5020     2.2260 
  167.1250    62.0060   220.7150   182.3610   122.8810    23.8340   -24.6700     2.2210 
  167.2500    61.7320   230.0080   193.7050   125.1880    24.0860   -24.7770     2.2150 
  167.3750    59.9250   235.6430   202.7500   139.8890    24.2450   -24.8560     2.2090 
  167.5000    58.2530   236.9230   208.3540   163.4430    24.3130   -24.9360     2.2000 
  167.6250    57.9280   232.2360   208.5730   159.7610    24.2490   -24.9350     2.1900 
  167.7500    58.0930   223.3820   204.2700   143.2850    24.2560   -24.9120     2.1810 
  167.8750    59.7500   213.2540   197.2440   134.0170    24.3070   -24.9680     2.1760 
  168.0000    62.9040   205.0570   190.0750   125.9400    24.3980   -25.0410     2.1740 
  168.1250    63.9150   201.5070   185.6000   115.6720    24.5240   -25.0520     2.1740 
  168.2500    62.7670   202.2120   184.7920   110.8010    24.5840   -25.1240     2.1720 
  168.3750    61.3340   206.5400   187.8850   118.6060    24.5930   -25.2100     2.1700 
  168.5000    59.6510   213.5980   194.4140   129.4110    24.5880   -25.2740     2.1660 
  168.6250    57.8860   222.5610   203.6360   126.7630    24.5580   -25.4210     2.1630 
  168.7500    57.0220   231.7480   213.5530   125.7210    24.5690   -25.6290     2.1600 
  168.8750    56.4980   239.8900   222.5970   140.2180    24.5820   -25.7960     2.1560 
  169.0000    55.7960   246.7970   229.7280   159.6900    24.5310   -25.9410     2.1510 
  169.1250    56.8860   254.3900   235.3370   154.8930    24.5220   -26.1470     2.1480 
  169.2500    58.5280   265.7410   242.5090   140.8810    24.5190   -26.2890     2.1480 
  169.3750    58.0070   284.0030   255.1260   137.5480    24.5200   -26.4040     2.1510 
  169.5000    55.6560   312.1710   277.1710   147.3880    24.5250   -26.5460     2.1540 
  169.6250    52.8860   355.0690   313.6750   176.8630    24.5530   -26.6020     2.1530 
  169.7500    49.9980   411.0130   362.2070   222.7790    24.5830   -26.5410     2.1480 
  169.8750    47.6920   475.6230   418.1950   280.3600    24.5820   -26.4530     2.1380 
  170.0000    47.3870   538.9190   473.2570   298.6420    24.5150   -26.3160     2.1270 
  170.1250    47.5030   582.0310   513.0620   259.2110    24.4240   -26.0370     2.1180 
  170.2500    46.1290   591.0180   526.8520   233.5290    24.3210   -25.7760     2.1130 
  170.3750    45.4380   556.8100   505.7860   240.0440    24.2220   -25.4880     2.1120 
  170.5000    46.8750   485.5710   450.8360   297.0060    24.0790   -25.0900     2.1150 
  170.6250    49.4940   400.8340   376.9920   299.6150    23.8000   -24.6680     2.1220 
  170.7500    50.9060   328.0810   308.7170   255.4410    23.9410   -24.2820     2.1320 
  170.8750    50.5760   275.2010   256.6690   179.2390    24.2480   -23.8320     2.1420 
  171.0000    49.5800   242.0720   223.2820   126.5410    24.3700   -23.3760     2.1500 
  171.1250    49.8420   227.6080   208.5770   127.6160    24.3480   -23.0120     2.1500 
  171.2500    51.0960   225.0010   205.6130   143.1680    24.4040   -22.5500     2.1460 
  171.3750    52.2330   231.3090   210.7740   152.9860    24.3800   -22.0690     2.1390 
  171.5000    50.9950   243.7300   220.7630   148.8260    24.3670   -21.6810     2.1350 
  171.6250    48.0460   259.4130   232.6370   145.9040    24.3540   -21.3000     2.1340 
  171.7500    46.5600   275.2590   244.1720   151.1870    24.3150   -20.9000     2.1350 
  171.8750    47.8820   290.1770   255.0440   152.4520    24.2810   -20.5970     2.1380 
  172.0000    50.5600   303.7510   265.4090   147.6380    24.2290   -20.3210     2.1430 
  172.1250    52.1430   315.1220   274.7430   140.5150    23.9910   -19.9900     2.1490 
  172.2500    52.8240   324.4120   282.5000   146.5310    23.8580   -19.7780     2.1560 
  172.3750    54.2660   332.2180   288.5160   156.1650    23.9120   -19.6350     2.1620 
  172.5000    57.4630   339.2730   293.0300   156.9190    23.9970   -19.4680     2.1680 
  172.6250    60.5120   346.1620   296.3180   143.8210    23.9030   -19.3530     2.1760 
  172.7500    60.1360   352.9140   299.0410   127.1510    23.7180   -19.2850     2.1840 
  172.8750    57.3670   358.1730   300.8730   109.4510    23.4470   -19.1660     2.1900 
  173.0000    54.9990   358.6810   299.7570    97.1800    23.2670   -19.0350     2.1920 
  173.1250    53.5550   347.9280   290.5120    98.4680    23.4140   -18.9760     2.1830 
  173.2500    51.9010   325.1010   271.6680   116.2900    23.6980   -18.8900     2.1670 
  173.3750    49.5120   293.8480   245.4200   134.9740    24.1250   -18.7430     2.1490 
  173.5000    46.7220   262.0890   217.8720   137.7340    24.5790   -18.6280     2.1360 
  173.6250    45.7680   239.1970   197.4950   113.4180    24.7580   -18.5180     2.1360 
