~V
VERS. 2.00: Ver 2.00
~W
STRT.M 50.0000:
STOP.M 265.0000:
STEP.M 0.1250:
NULL. -999.2500:
UWI. F11185:
~C
DEPT.M :
SP.MV :
GR.API :
RI. :
RML.OHMM :
RXO.OHMM :
DEN.GM/CC :
~A
# ...
  140.1250  -111.5580    78.8680     3.1400     3.5650     3.4470     2.2780 
  140.2500  -111.5530    81.7980     3.2760     3.7070     3.5800     2.2690 
  140.3750  -111.6460    83.5810     3.3790     3.8140     3.5030     2.2710 
  140.5000  -111.7620    82.3690     3.4740     3.9130     3.3610     2.2770 
  140.6250  -111.8110    79.1270     3.5150     3.9550     3.4470     2.2710 
  140.7500  -111.8280    76.7290     3.4330     3.8700     3.6250     2.2590 
  140.8750  -111.8760    75.4280     3.2470     3.6770     3.6160     2.2560 
  141.0000  -111.9560    76.1090     3.0150     3.4360     3.4110     2.2670 
  141.1250  -112.0050    78.7550     2.7190     3.1280     3.1650     2.2860 
  141.2500  -112.0180    83.2660     2.5100     2.9100     2.9610     2.3010 
  141.3750  -112.0830    87.3510     2.5490     2.9510     2.8740     2.3120 
  141.5000  -112.2710    88.7390     2.9650     3.3830     3.6420     2.3440 
  141.6250  -112.5590    86.2920     3.9960     4.4560     6.9930     2.4270 
  141.7500  -112.8190    82.1030     5.6250     6.1500    12.4320     2.5230 
  141.8750  -113.0250    77.2160     7.3910     7.9870    15.8330     2.5350 
  142.0000  -113.2160    71.7780     8.4020     9.0380    14.3530     2.4280 
  142.1250  -113.4240    64.4220     8.4380     9.0750    10.2150     2.2760 
  142.2500  -113.6750    57.9900     7.7570     8.3680     7.3720     2.1720 
  142.3750  -113.8730    56.5620     7.2290     7.8180     6.5850     2.1520 
  142.5000  -113.7500    59.3200     7.1580     7.7440     7.9080     2.2020 
  142.6250  -113.1560    61.3680     7.3290     7.9220    12.8210     2.2940 
  142.7500  -112.1610    62.8840     7.4440     8.0420    17.3120     2.3560 
  142.8750  -111.1460    65.9570     7.2970     7.8890    15.1040     2.3310 
  143.0000  -110.6600    66.8710     7.0210     7.6020     9.5750     2.2530 
  143.1250  -110.6670    63.1880     6.6900     7.2580     6.6600     2.1890 
  143.2500  -110.8130    60.1240     6.4380     6.9950     6.1030     2.1630 
  143.3750  -110.9830    60.3350     6.3690     6.9230     6.1430     2.1590 
  143.5000  -111.1350    59.6290     6.4270     6.9840     6.1920     2.1550 
  143.6250  -111.2280    57.7010     6.4800     7.0390     6.1290     2.1500 
  143.7500  -111.2970    58.7730     6.4850     7.0440     5.9890     2.1490 
  143.8750  -111.3850    61.7710     6.4750     7.0340     5.8700     2.1560 
  144.0000  -111.5180    64.0220     6.4780     7.0370     5.8420     2.1700 
  144.1250  -111.7000    65.2620     6.4800     7.0390     5.8990     2.1880 
  144.2500  -111.8530    67.1300     6.4530     7.0110     6.0150     2.1960 
  144.3750  -111.8320    68.1210     6.3790     6.9350     6.0030     2.1820 
  144.5000  -111.6400    67.1730     6.2000     6.7480     5.5510     2.1600 
  144.6250  -111.3340    64.1300     5.7500     6.2800     4.8640     2.1480 
  144.7500  -110.9660    60.1740     5.0890     5.5930     4.5090     2.1470 
  144.8750  -110.5240    58.4280     4.3350     4.8090     4.3680     2.1630 
  145.0000  -110.0020    60.0460     3.6780     4.1250     3.9030     2.2000 
  145.1250  -109.4350    64.9580     3.2950     3.7270     3.2790     2.2410 
  145.2500  -108.8640    70.2650     3.1720     3.5990     3.0540     2.2590 
  145.3750  -108.3740    76.2050     3.2900     3.7220     3.2550     2.2440 
  145.5000  -108.1380    80.1140     3.5130     3.9540     3.5530     2.2150 
  145.6250  -108.1900    78.5490     3.7090     4.1570     3.7610     2.2040 
  145.7500  -108.3140    74.6230     3.7370     4.1870     3.7370     2.2200 
  145.8750  -108.3420    72.4410     3.5180     3.9590     3.5010     2.2460 
  146.0000  -108.1640    73.4450     3.1810     3.6080     3.3080     2.2590 
  146.1250  -107.7270    76.1750     2.8440     3.2570     3.1780     2.2590 
  146.2500  -107.1860    81.1710     2.6300     3.0360     2.9990     2.2640 
  146.3750  -106.8180    86.2500     2.6120     3.0170     2.9350     2.2770 
  146.5000  -106.7250    88.8660     2.7700     3.1810     3.1100     2.2840 
  146.6250  -106.9390    87.2210     3.0930     3.5170     3.5290     2.2680 
  146.7500  -107.4320    84.1750     3.5330     3.9750     4.0670     2.2350 
  146.8750  -108.1210    82.5290     4.0210     4.4820     4.3760     2.2050 
  147.0000  -108.9110    82.4170     4.4890     4.9690     4.4240     2.1840 
  147.1250  -109.7570    80.2560     4.8390     5.3330     4.5440     2.1680 
  147.2500  -110.5490    74.5580     5.0810     5.5850     4.7810     2.1600 
  147.3750  -111.2250    69.7730     5.2170     5.7260     5.0450     2.1620 
  147.5000  -111.7970    69.4360     5.2980     5.8100     5.3550     2.1570 
  147.6250  -112.2280    70.4210     5.3040     5.8160     5.6110     2.1410 
  147.7500  -112.5140    68.0940     5.2050     5.7130     5.6600     2.1300 
  147.8750  -112.7270    64.0030     5.0100     5.5100     5.5750     2.1340 
  148.0000  -112.8830    62.7870     4.7660     5.2570     5.4740     2.1460 
  148.1250  -112.9350    65.1420     4.5420     5.0240     5.1600     2.1630 
  148.2500  -112.8620    68.8730     4.3840     4.8600     4.7010     2.1740 
  148.3750  -112.7540    72.3920     4.3180     4.7910     4.4990     2.1680 
  148.5000  -112.6950    70.7500     4.3300     4.8030     4.5760     2.1460 
  148.6250  -112.8480    64.7670     4.3800     4.8560     4.7010     2.1300 
  148.7500  -113.1820    61.3200     4.4370     4.9140     4.7750     2.1300 
  148.8750  -113.5190    64.5980     4.4850     4.9640     4.7980     2.1340 
  149.0000  -113.7150    68.8640     4.5330     5.0150     4.8240     2.1340 
  149.1250  -113.7960    68.4050     4.6530     5.1390     4.9410     2.1300 
  149.2500  -113.8120    66.1360     4.8180     5.3110     5.1680     2.1320 
  149.3750  -113.6970    64.7160     4.9740     5.4730     5.4520     2.1370 
  149.5000  -113.4270    65.9580     5.0450     5.5460     5.6510     2.1410 
  149.6250  -113.0440    67.8400     5.0000     5.5000     5.6500     2.1480 
  149.7500  -112.5770    68.3150     4.8180     5.3110     5.5820     2.1740 
  149.8750  -112.0120    67.0550     4.4650     4.9430     5.5600     2.2280 
  150.0000  -111.3530    67.5200     4.0340     4.4950     5.4180     2.2870 
  150.1250  -110.6070    72.3190     3.5570     3.9990     4.8940     2.3090 
  150.2500  -109.8470    79.4790     3.1540     3.5800     4.1430     2.2940 
  150.3750  -109.1760    85.2870     2.8570     3.2710     3.5800     2.2700 
  150.5000  -108.6930    88.1210     2.6660     3.0720     3.3170     2.2580 
  150.6250  -108.3800    87.3960     2.5730     2.9760     3.2190     2.2570 
  150.7500  -108.1010    85.5700     2.5650     2.9680     3.1910     2.2600 
  150.8750  -107.8300    82.6700     2.5980     3.0020     3.2600     2.2650 
  151.0000  -107.6090    80.4880     2.6480     3.0540     3.3710     2.2650 
  151.1250  -107.4710    81.2440     2.6990     3.1070     3.4160     2.2620 
  151.2500  -107.3730    85.5510     2.7330     3.1430     3.4090     2.2600 
  151.3750  -107.3120    88.2260     2.7570     3.1670     3.3850     2.2650 
  151.5000  -107.2550    86.8720     2.7580     3.1680     3.3000     2.2750 
  151.6250  -107.2260    85.4180     2.7490     3.1590     3.1900     2.2780 
  151.7500  -107.2740    85.2440     2.7440     3.1540     3.1690     2.2660 
  151.8750  -107.3680    85.5610     2.7440     3.1530     3.2060     2.2470 
  152.0000  -107.4470    85.8080     2.7400     3.1490     3.2300     2.2330 
  152.1250  -107.5420    84.8610     2.7420     3.1520     3.2900     2.2270 
  152.2500  -107.6520    83.2570     2.7640     3.1750     3.3490     2.2250 
  152.3750  -107.7900    84.3650     2.8160     3.2290     3.3120     2.2250 
  152.5000  -107.9400    89.0540     2.9180     3.3340     3.2850     2.2200 
  152.6250  -108.0920    91.7690     3.0560     3.4780     3.3690     2.2020 
  152.7500  -108.2820    90.1020     3.2390     3.6690     3.5290     2.1840 
  152.8750  -108.6440    86.1400     3.4410     3.8780     3.7070     2.1780 
