~V
VERS. 2.00: Ver 2.00
~W
STRT.M 54.0000:
STOP.M 273.0000:
STEP.M 0.1250:
NULL. -999.2500:
UWI. F11158:
~C
DEPT.M :
SP.MV :
DEN.GM/CC :
GR.API :
RML.OHMM :
RI. :
RXO.OHMM :
CALI.CM :
~A
# ...
  200.2500   -29.6930     2.3640    58.9750    24.4040    23.3190    14.3590    23.4270 
  200.3750   -29.7920     2.3720    59.5810    25.3920    23.5160    15.9960    23.9420 
  200.5000   -29.9040     2.3930    58.6050    28.5930    25.6870    18.5550    24.3710 
  200.6250   -30.0370     2.4300    57.7340    33.0290    29.0760    23.0340    24.5190 
  200.7500   -30.1690     2.4910    56.1630    36.8150    31.9350    32.8730    24.3570 
  200.8750   -30.2480     2.5640    52.3640    37.6840    32.0100    46.0130    24.1120 
  201.0000   -30.2270     2.6250    48.4190    34.5530    28.5570    43.5450    23.8750 
  201.1250   -30.0620     2.6450    46.8390    28.4750    23.0920    26.6290    23.7460 
  201.2500   -29.7180     2.6200    48.4910    21.9620    17.9060    18.0660    23.7600 
  201.3750   -29.2460     2.5840    52.7620    16.5430    14.0350    12.4800    23.8050 
  201.5000   -28.7090     2.5560    57.9860    11.8150    11.4810     9.5370    23.8390 
  201.6250   -28.1680     2.5350    60.6210     9.7380     9.9760     8.0330    23.8450 
  201.7500   -27.6760     2.5150    59.6910     9.0510     9.2450     7.2960    23.7870 
  201.8750   -27.2660     2.4910    59.8450     8.7680     8.9160     6.9170    23.7400 
  202.0000   -26.9710     2.4630    61.5000     8.7010     8.8220     6.9250    23.7810 
  202.1250   -26.8230     2.4340    60.9410     8.7440     8.8570     7.1210    23.8270 
  202.2500   -26.8600     2.4150    56.8730     8.8310     8.9480     7.2480    23.8410 
  202.3750   -27.0750     2.4070    53.8080     8.9160     9.0460     7.0570    23.8520 
  202.5000   -27.4390     2.3990    53.1730     8.9810     9.1310     6.8580    23.8540 
  202.6250   -27.8960     2.3840    53.5010     9.0110     9.1810     7.2860    23.8530 
  202.7500   -28.4160     2.3570    53.6060     8.9910     9.1660     8.5930    23.8640 
  202.8750   -28.9830     2.3370    53.5770     8.9180     9.0730     9.3260    23.8590 
  203.0000   -29.6010     2.3360    54.2260     8.7920     8.8990     8.8500    23.7870 
  203.1250   -30.2730     2.3540    55.7120     8.6270     8.6610     7.7580    23.6480 
  203.2500   -30.9810     2.3760    57.0070     8.4480     8.3920     6.8800    23.5200 
  203.3750   -31.6740     2.3900    56.8470     8.2930     8.1400     6.2700    23.4200 
  203.5000   -32.3290     2.3950    56.2100     8.1860     7.9290     5.9300    23.3740 
  203.6250   -32.9440     2.3930    56.1410     8.1290     7.7670     5.8300    23.4370 
  203.7500   -33.5440     2.3810    56.5260     8.1150     7.6500     5.9140    23.5690 
  203.8750   -34.1290     2.3560    56.0530     8.1200     7.5590     5.9650    23.6510 
  204.0000   -34.6900     2.3220    53.4110     8.1350     7.4880     6.0480    23.7170 
  204.1250   -35.2460     2.2920    49.8220     8.1550     7.4320     6.3590    23.8140 
  204.2500   -35.7920     2.2800    48.5320     8.1760     7.3850     6.7020    23.9240 
  204.3750   -36.3340     2.2850    48.7090     8.1860     7.3410     6.4290    23.9740 
  204.5000   -36.8780     2.3010    49.1930     8.1670     7.2870     5.9910    23.9880 
  204.6250   -37.4330     2.3130    50.6830     8.1190     7.2150     5.9140    23.9980 
  204.7500   -37.9900     2.3210    52.8320     8.0800     7.1440     6.0890    23.9640 
  204.8750   -38.5330     2.3350    53.3010     8.1170     7.1120     6.2890    23.8830 
  205.0000   -39.0560     2.3590    55.7060     8.2750     7.1580     6.5320    23.8190 
  205.1250   -39.5110     2.3890    64.7920     8.5630     7.2960     6.6930    23.7620 
  205.2500   -39.8790     2.4140    76.4160     8.9290     7.5110     7.0830    23.7310 
  205.3750   -40.1390     2.4210    81.8600     9.2580     7.7300     7.9010    23.7420 
  205.5000   -40.2710     2.4020    82.9190     9.4610     7.8840     8.5530    23.8220 
  205.6250   -40.2670     2.3610    83.9740     9.5160     7.9430     8.5070    23.9620 
  205.7500   -40.0930     2.3200    84.6390     9.4970     7.9420     8.3190    24.2260 
  205.8750   -39.7260     2.2930    82.5720     9.5670     7.9870     8.0970    24.5220 
  206.0000   -39.1560     2.2880    79.1520     9.8720     8.1800     7.9980    24.7410 
  206.1250   -38.4150     2.3130    76.7670    10.5440     8.6230     8.3910    24.6560 
  206.2500   -37.5110     2.3710    76.9880    11.6790     9.4100     9.4760    24.2080 
  206.3750   -36.5080     2.4350    77.9620    13.1310    10.4850    10.5210    23.8150 
  206.5000   -35.4410     2.4800    79.5940    14.6360    11.6930    11.3800    23.6130 
  206.6250   -34.3270     2.4990    83.3670    15.7270    12.6930    12.8140    23.4160 
  206.7500   -33.2000     2.5030    88.3610    15.8300    12.9900    14.1100    23.0530 
  206.8750   -32.1580     2.4980    90.5830    14.8920    12.4440    14.3690    22.6350 
  207.0000   -31.2430     2.4790    89.8480    13.2340    11.2510    11.9770    22.2770 
  207.1250   -30.4740     2.4470    90.7380    11.4400     9.8550     8.6590    22.0320 
  207.2500   -29.8680     2.4190    92.0340    10.0870     8.7050     7.2380    21.9400 
  207.3750   -29.3850     2.4080    89.7130     9.3890     8.0090     7.2080    21.9750 
  207.5000   -28.9920     2.4110    86.8310     9.3830     7.8350     7.7670    22.1580 
  207.6250   -28.6660     2.4200    86.9200    10.0270     8.2050     8.1880    22.3250 
  207.7500   -28.3880     2.4370    87.6700    11.2300     9.1060     8.7350    22.3750 
  207.8750   -28.0800     2.4590    86.2140    12.6670    10.3260     9.9860    22.5360 
  208.0000   -27.6800     2.4750    84.4960    13.9600    11.5840    11.8220    22.8680 
  208.1250   -27.1230     2.4800    84.0760    14.5940    12.4280    13.1710    23.1510 
  208.2500   -26.3580     2.4750    82.9730    14.0530    12.3200    13.4020    23.1410 
  208.3750   -25.4320     2.4600    80.7720    12.4990    11.2650    12.2220    22.9840 
  208.5000   -24.3770     2.4220    78.2390    10.4030     9.6190    10.0500    22.8630 
  208.6250   -23.2420     2.3560    75.6720     8.3780     7.9090     7.5240    22.8950 
  208.7500   -22.1010     2.2890    72.5020     6.8970     6.5580     5.2710    23.0250 
  208.8750   -21.0220     2.2570    68.5040     5.9950     5.6520     4.2410    23.0820 
  209.0000   -20.0460     2.2640    63.5440     5.5820     5.1600     3.8820    23.1100 
  209.1250   -19.2330     2.2810    60.3210     5.5210     5.0030     3.7820    23.2670 
  209.2500   -18.6430     2.2700    62.9340     5.6750     5.0950     3.7900    23.7170 
  209.3750   -18.2600     2.2320    69.8630     5.8850     5.2880     3.8070    23.8760 
  209.5000   -18.0770     2.1990    75.7250     6.0730     5.4970     3.8310    23.4170 
  209.6250   -18.0360     2.1950    77.4660     6.2020     5.6680     3.9390    22.9640 
  209.7500   -18.0420     2.2210    76.9740     6.2660     5.7760     4.1550    23.0450 
  209.8750   -18.0390     2.2590    77.5620     6.2920     5.8330     4.3510    23.3260 
  210.0000   -18.0070     2.2980    78.8570     6.2910     5.8460     4.4940    23.4280 
  210.1250   -17.9090     2.3360    78.8610     6.2600     5.8090     4.5840    23.4800 
  210.2500   -17.6790     2.3610    76.7390     6.1750     5.7070     4.5620    23.4910 
  210.3750   -17.2980     2.3640    75.2860     6.0310     5.5430     4.5380    23.4170 
  210.5000   -16.7700     2.3480    76.2380     5.8500     5.3380     4.5630    23.2910 
  210.6250   -16.1480     2.3280    78.4220     5.6950     5.1440     4.6720    23.1380 
  210.7500   -15.5090     2.3120    80.2180     5.6660     5.0350     4.8200    23.0150 
  210.8750   -14.8900     2.2980    81.0830     5.8390     5.0700     4.9040    23.0460 
  211.0000   -14.3180     2.2830    79.5950     6.2490     5.2870     5.2370    23.1920 
  211.1250   -13.8110     2.2660    75.8580     6.8540     5.6820     6.0130    23.3470 
  211.2500   -13.4120     2.2500    73.8410     7.5230     6.1820     6.9870    23.4140 
  211.3750   -13.1280     2.2450    74.9850     8.0750     6.6480     7.7420    23.4750 
