~V
VERS. 2.00: Ver 2.00
~W
STRT.M 55.0000:
STOP.M 211.0000:
STEP.M 0.1250:
NULL. -999.2500:
UWI. F11125:
~C
DEPT.M :
DEN.GM/CC :
GR.API :
RML.OHMM :
RI. :
RXO.OHMM :
CALI.CM :
SP.MV :
~A
# ...
   77.5000     2.1660    66.1000     6.0790     5.1020     6.5720    25.1200   -22.8640 
   77.6250     2.1670    62.5800     6.2820     5.1910     6.4940    25.1030   -22.1790 
   77.7500     2.1790    62.0190     6.9570     5.6030     6.8980    25.1420   -21.4480 
   77.8750     2.1930    61.9840     8.2190     6.4650     8.6710    25.2410   -20.6390 
   78.0000     2.2200    61.2380    10.0400     7.8470    14.1470    25.2890   -19.6780 
   78.1250     2.2830    63.1030    12.0260     9.6630    29.6290    25.1660   -18.5760 
   78.2500     2.3670    68.5900    13.2670    11.2420    40.5200    24.9370   -17.3890 
   78.3750     2.4320    77.3960    12.9870    11.7590    29.1500    24.7160   -16.1970 
   78.5000     2.4430    87.2940    11.2090    10.8470    15.5960    24.5580   -15.0390 
   78.6250     2.4090    94.3150     8.8920     9.0270     8.1450    24.4510   -13.9980 
   78.7500     2.3720    98.1410     7.0480     7.3150     5.3430    24.3110   -13.1440 
   78.8750     2.3440    99.6050     5.9090     6.0630     3.9750    24.1400   -12.5320 
   79.0000     2.3240   101.0790     5.3520     5.2910     3.3760    23.9410   -12.2130 
   79.1250     2.3110   104.1220     5.1650     4.9030     3.2010    23.8480   -12.1670 
   79.2500     2.3010   106.9940     5.0590     4.6700     3.4120    23.8570   -12.2920 
   79.3750     2.2970   109.2650     4.9170     4.4860     3.8140    23.8810   -12.5090 
   79.5000     2.3010   110.3730     4.7590     4.3290     4.0250    23.8830   -12.7990 
   79.6250     2.3160   109.3410     4.8390     4.3320     3.5920    23.9170   -13.1240 
   79.7500     2.3390   106.9000     5.4700     4.6850     3.6220    23.9890   -13.5190 
   79.8750     2.3740   102.1120     6.9740     5.6260     4.5000    24.1150   -13.9790 
   80.0000     2.4260    93.2620     9.5720     7.4000     7.3540    24.2490   -14.5200 
   80.1250     2.4890    79.8370    13.3020    10.2720    16.5290    24.3620   -15.1780 
   80.2500     2.5320    67.4110    16.9730    13.5330    32.0310    24.3960   -15.9610 
   80.3750     2.5310    59.1180    18.7060    15.6670    39.0520    24.3330   -16.8720 
   80.5000     2.4780    56.0730    17.1740    15.2020    29.7560    24.1700   -17.9140 
   80.6250     2.3830    59.9950    13.4360    12.5170    17.6940    23.9470   -19.0510 
   80.7500     2.2840    66.5040    10.2000     9.8120    10.4420    23.7800   -20.1690 
   80.8750     2.2100    69.9900     8.2530     7.8710     7.7190    23.7120   -21.2550 
   81.0000     2.1730    68.9410     7.4370     6.7490     7.1290    23.7100   -22.2780 
   81.1250     2.1650    67.4770     7.4390     6.3510     7.5240    23.7560   -23.1920 
   81.2500     2.1640    67.6140     7.7820     6.3650     8.1840    23.8390   -23.9650 
   81.3750     2.1580    67.4610     8.2120     6.6110     8.6620    23.9030   -24.5930 
   81.5000     2.1450    64.8720     8.5330     6.9060     8.9140    23.8910   -25.0550 
   81.6250     2.1390    62.1270     8.6080     7.0740     8.7070    23.7750   -25.3840 
   81.7500     2.1450    60.4850     8.4980     7.0830     8.1970    23.6470   -25.5950 
   81.8750     2.1570    58.7870     8.2920     6.9720     7.9370    23.6400   -25.7090 
   82.0000     2.1600    58.3080     8.0810     6.8120     7.8800    23.7290   -25.7380 
   82.1250     2.1580    60.3680     7.9480     6.6730     7.8860    23.8580   -25.6840 
   82.2500     2.1590    63.2240     7.8980     6.5730     7.9710    24.0000   -25.5890 
   82.3750     2.1590    64.1860     7.9020     6.5030     7.9690    24.1610   -25.4850 
   82.5000     2.1590    62.2940     7.9080     6.4420     7.7300    24.3040   -25.3660 
   82.6250     2.1590    61.0100     7.8600     6.3710     7.4070    24.3170   -25.2290 
   82.7500     2.1620    61.3530     7.7490     6.2830     7.2660    24.1590   -25.1040 
   82.8750     2.1640    61.6360     7.5860     6.1790     7.3220    23.9240   -24.9880 
   83.0000     2.1610    59.8330     7.4000     6.0650     7.4320    23.7750   -24.8840 
   83.1250     2.1580    56.8940     7.2560     5.9650     7.5730    23.8620   -24.7850 
   83.2500     2.1570    56.2040     7.2080     5.9130     7.5780    24.1050   -24.6760 
   83.3750     2.1650    58.7030     7.2940     5.9380     7.3960    24.4280   -24.5450 
   83.5000     2.1890    62.4850     7.5190     6.0520     7.2630    24.7500   -24.4450 
   83.6250     2.2360    65.6100     7.8530     6.2470     7.5810    25.0530   -24.3540 
   83.7500     2.2860    65.2900     8.1840     6.4570     8.5130    25.2550   -24.3040 
   83.8750     2.3100    61.4480     8.4230     6.6230     9.0340    25.2280   -24.2680 
   84.0000     2.2940    57.3510     8.5200     6.7020     8.4600    24.9750   -24.2190 
   84.1250     2.2550    56.8690     8.4720     6.6800     8.1490    24.7190   -24.1610 
   84.2500     2.2190    59.6800     8.3730     6.6160     8.0850    24.5900   -24.1270 
   84.3750     2.1930    62.3360     8.2890     6.5550     8.1130    24.5630   -24.1210 
   84.5000     2.1770    63.1150     8.2540     6.5220     8.1680    24.5840   -24.0780 
   84.6250     2.1650    62.8940     8.2550     6.5010     8.1980    24.6100   -24.0510 
   84.7500     2.1550    61.2950     8.2460     6.4620     8.2450    24.6240   -24.0020 
   84.8750     2.1500    58.5970     8.2010     6.3960     8.2730    24.6240   -23.9620 
   85.0000     2.1540    56.6300     8.1320     6.3250     8.1100    24.6330   -23.9380 
   85.1250     2.1670    58.6290     8.1070     6.3050     7.8300    24.5990   -23.9260 
   85.2500     2.1830    61.8020     8.1940     6.3720     7.7750    24.4960   -23.8860 
   85.3750     2.1950    63.2570     8.4190     6.5360     8.1730    24.3260   -23.8140 
   85.5000     2.2040    64.0580     8.7370     6.7680     8.8590    24.1810   -23.7300 
   85.6250     2.2140    66.6950     9.0070     6.9900     9.3600    24.1460   -23.5920 
   85.7500     2.2200    68.8400     9.0760     7.1060     8.9530    24.1810   -23.4130 
   85.8750     2.2170    68.1250     8.8780     7.0620     8.2600    24.2650   -23.1930 
   86.0000     2.2040    64.5000     8.4750     6.8690     7.8100    24.3580   -22.9670 
   86.1250     2.1930    61.9940     8.0360     6.5990     7.4880    24.3390   -22.7250 
   86.2500     2.1870    63.7660     7.7330     6.3720     7.2090    24.2720   -22.4820 
   86.3750     2.1810    68.4500     7.6310     6.2540     7.2780    24.2440   -22.2030 
   86.5000     2.1730    71.5240     7.6960     6.2560     7.5470    24.3110   -21.8750 
   86.6250     2.1670    71.2290     7.8180     6.3300     7.6550    24.3990   -21.4050 
   86.7500     2.1710    72.1370     7.8490     6.3640     7.5610    24.4230   -20.8280 
   86.8750     2.1850    76.0500     7.7150     6.2830     7.4720    24.3390   -20.0910 
   87.0000     2.2070    81.2150     7.4110     6.0650     6.9710    24.2310   -19.1960 
   87.1250     2.2350    84.0640     7.0070     5.7430     5.9710    24.1970   -18.1670 
   87.2500     2.2590    86.7420     6.6400     5.4170     4.9910    24.2430   -17.0810 
   87.3750     2.2700    91.1890     6.3730     5.1440     4.6110    24.3610   -16.0310 
   87.5000     2.2690    93.7130     6.2230     4.9540     4.5320    24.4260   -15.0570 
   87.6250     2.2630    91.2590     6.1810     4.8630     4.4400    24.2820   -14.3130 
   87.7500     2.2610    90.6400     6.1980     4.8420     4.5790    23.9670   -13.7420 
   87.8750     2.2590    92.4750     6.2860     4.8890     5.1250    23.7000   -13.3870 
   88.0000     2.2600    91.9950     6.5400     5.0440     5.6410    23.5400   -13.2080 
   88.1250     2.2780    88.0100     7.2230     5.4520     6.1960    23.4840   -13.2380 
   88.2500     2.3170    85.9500     8.4730     6.2230     7.1520    23.4580   -13.3880 
   88.3750     2.3770    84.2770    10.3540     7.4680     9.2000    23.5310   -13.6380 
   88.5000     2.4510    79.5190    12.7140     9.1990    14.3440    23.7860   -14.0080 
   88.6250     2.5160    72.7180    14.9030    11.1340    24.9650    24.1770   -14.4640 
