~V
VERS. 2.00: Ver 2.00
~W
STRT.M 50.0000:
STOP.M 265.0000:
STEP.M 0.1250:
NULL. -999.2500:
UWI. F11185:
~C
DEPT.M :
SP.MV :
GR.API :
RI. :
RML.OHMM :
RXO.OHMM :
DEN.GM/CC :
~A
# ...
  191.6250  -113.8150    61.6950    43.2830    45.3140    44.5770     2.1960 
  191.7500  -114.1440    65.1590    43.7830    45.8340    42.8350     2.2070 
  191.8750  -114.5830    68.3320    47.2610    49.4520    47.9550     2.2090 
  192.0000  -115.0320    68.9890    53.7750    56.2260    64.0210     2.1910 
  192.1250  -115.4850    66.2240    62.6280    65.4330    87.9830     2.1680 
  192.2500  -115.8880    62.1150    70.4110    73.5280   106.8100     2.1580 
  192.3750  -116.2390    58.7260    72.7780    75.9900   107.7570     2.1610 
  192.5000  -116.4990    57.8890    70.4210    73.5370    92.6320     2.1730 
  192.6250  -116.6790    58.9300    64.0670    66.9300    73.4050     2.1860 
  192.7500  -116.8450    60.0800    59.0810    61.7440    60.2760     2.1960 
  192.8750  -117.0030    61.9960    58.1950    60.8230    54.9160     2.1950 
  193.0000  -117.2250    63.4240    60.8930    63.6290    61.5210     2.1860 
  193.1250  -117.5160    63.5920    66.6850    69.6530    84.1330     2.1800 
  193.2500  -117.8860    61.7330    73.8530    77.1070   104.2640     2.1750 
  193.3750  -118.2260    59.4010    79.3760    82.8510   105.2610     2.1790 
  193.5000  -118.4390    57.6140    81.2240    84.7730    95.1390     2.1910 
  193.6250  -118.6060    57.4520    79.4570    82.9350    83.8600     2.2040 
  193.7500  -118.8080    59.0450    75.9260    79.2630    76.6360     2.2050 
  193.8750  -119.0800    60.0490    72.7180    75.9270    74.9410     2.1990 
  194.0000  -119.3890    59.7770    70.7090    73.8370    77.2040     2.1970 
  194.1250  -119.6000    59.8720    69.0940    72.1580    80.8060     2.1970 
  194.2500  -119.7730    59.3520    67.5130    70.5130    79.6700     2.1920 
  194.3750  -119.9620    58.3310    66.0660    69.0090    74.0040     2.1840 
  194.5000  -120.1450    56.9730    65.0130    67.9140    69.6670     2.1780 
  194.6250  -120.2370    56.7210    65.0790    67.9820    66.6220     2.1750 
  194.7500  -120.2540    58.3610    66.3370    69.2900    65.9270     2.1730 
  194.8750  -120.3330    60.4030    68.8720    71.9270    74.8040     2.1700 
  195.0000  -120.5200    62.0240    72.8790    76.0950    90.4550     2.1690 
  195.1250  -120.7690    61.4060    79.5080    82.9890    99.7740     2.1770 
  195.2500  -120.9980    61.2840    88.9770    92.8360   102.5320     2.1880 
  195.3750  -121.1880    62.5810   100.0400   104.3410   110.8330     2.1890 
  195.5000  -121.3880    61.7490   110.3850   115.1010   124.2530     2.1750 
  195.6250  -121.5970    58.5860   117.5700   122.5730   132.3650     2.1650 
  195.7500  -121.7770    56.0340   122.1110   127.2960   129.3960     2.1680 
  195.8750  -121.8760    56.9290   125.1750   130.4820   120.2430     2.1700 
  196.0000  -121.8890    57.8410   127.5290   132.9300   119.2550     2.1550 
  196.1250  -121.8260    57.3330   129.8380   135.3310   126.9520     2.1320 
  196.2500  -121.7260    55.7790   131.5820   137.1450   129.1030     2.1190 
  196.3750  -121.5850    52.3910   130.4980   136.0180   122.9580     2.1180 
  196.5000  -121.4000    48.8590   126.1070   131.4510   115.7490     2.1180 
  196.6250  -121.2350    48.0590   119.2830   124.3540   108.2180     2.1150 
  196.7500  -121.1120    48.9940   113.5770   118.4200   100.5070     2.1120 
  196.8750  -121.0450    49.1000   112.3780   117.1730    95.2590     2.1030 
  197.0000  -121.0380    49.6880   115.5750   120.4980    92.9510     2.0970 
  197.1250  -120.9750    52.2200   121.9960   127.1750    95.9120     2.1040 
  197.2500  -120.8230    54.5840   128.3000   133.7320   102.3030     2.1240 
  197.3750  -120.6570    55.0360   132.0660   137.6490   107.4510     2.1460 
  197.5000  -120.5220    53.4380   130.9740   136.5130   111.3470     2.1580 
  197.6250  -120.3750    52.1480   124.6900   129.9780   112.0200     2.1580 
  197.7500  -120.2140    51.9590   116.2990   121.2510   106.7360     2.1540 
  197.8750  -120.0480    52.4940   107.6740   112.2810    97.1040     2.1550 
  198.0000  -119.9160    51.3560   101.3400   105.6930    88.8810     2.1660 
  198.1250  -119.8610    49.6720    96.8300   101.0040    85.9550     2.1810 
  198.2500  -119.8150    50.0340    93.6570    97.7030    86.7000     2.1930 
  198.3750  -119.6980    52.0900    92.0780    96.0610    90.0580     2.1940 
  198.5000  -119.4950    53.0250    90.9640    94.9030    93.8520     2.1860 
  198.6250  -119.2860    53.8500    86.9450    90.7230    92.5950     2.1750 
  198.7500  -119.1190    56.6580    79.6420    83.1280    86.5310     2.1660 
  198.8750  -118.9890    59.2940    69.9230    73.0200    77.9570     2.1690 
  199.0000  -118.8270    58.2730    59.8150    62.5080    62.2840     2.1800 
  199.1250  -118.6080    56.8430    53.0240    55.4450    44.0510     2.1890 
  199.2500  -118.3890    57.9910    48.8060    51.0580    37.5470     2.1880 
  199.3750  -118.2240    59.6310    47.2050    49.3940    41.7770     2.1820 
  199.5000  -118.0840    58.6970    46.7820    48.9540    46.3050     2.1800 
  199.6250  -117.8870    56.4740    46.8630    49.0370    46.7370     2.1830 
  199.7500  -117.6400    55.5430    46.8220    48.9950    45.1980     2.1880 
  199.8750  -117.4150    56.6930    46.4630    48.6210    42.2570     2.1950 
  200.0000  -117.2120    58.3250    46.3950    48.5510    39.3950     2.1960 
  200.1250  -117.0020    59.6510    47.3310    49.5240    40.1280     2.1870 
  200.2500  -116.7890    61.5550    48.7390    50.9880    44.1160     2.1750 
  200.3750  -116.6490    62.2630    49.9130    52.2090    49.0300     2.1760 
  200.5000  -116.6040    60.3860    50.1250    52.4300    52.2380     2.1870 
  200.6250  -116.6190    58.5200    48.2740    50.5050    50.9040     2.1970 
  200.7500  -116.6330    59.4550    45.3720    47.4870    45.7500     2.2020 
  200.8750  -116.5380    61.6130    42.1840    44.1710    40.1710     2.2030 
  201.0000  -116.3770    62.5700    39.5780    41.4610    36.7160     2.2030 
  201.1250  -116.2470    63.6710    37.8900    39.7060    35.5010     2.2050 
  201.2500  -116.1480    63.6410    36.7650    38.5360    35.5500     2.2030 
  201.3750  -116.0610    62.0170    36.4430    38.2010    36.2750     2.2000 
  201.5000  -115.9730    62.3740    36.5880    38.3520    37.1170     2.1990 
  201.6250  -115.8010    64.7900    36.9370    38.7140    37.4250     2.2010 
  201.7500  -115.5310    64.2990    37.3430    39.1370    36.9050     2.2020 
  201.8750  -115.1660    60.1660    37.5980    39.4020    35.9450     2.2050 
  202.0000  -114.7470    58.2550    37.8300    39.6430    35.7120     2.2080 
  202.1250  -114.2170    58.9810    38.1040    39.9280    36.8640     2.2050 
  202.2500  -113.6630    59.9890    38.3630    40.1980    37.6130     2.1970 
  202.3750  -113.1000    59.6180    38.6920    40.5400    37.2660     2.1920 
  202.5000  -112.4910    58.2820    38.9360    40.7940    37.7390     2.1910 
  202.6250  -111.8190    57.4800    39.5140    41.3950    38.8610     2.1940 
  202.7500  -111.1400    57.5310    41.3140    43.2660    38.6910     2.2000 
  202.8750  -110.5760    58.9540    44.8530    46.9470    39.0500     2.2010 
  203.0000  -110.1270    59.4390    50.1570    52.4630    44.0990     2.1880 
  203.1250  -109.7910    59.2150    55.5020    58.0220    52.9060     2.1670 
  203.2500  -109.5110    58.6820    58.8070    61.4590    59.3680     2.1560 
  203.3750  -109.2210    55.2090    58.1050    60.7300    59.7070     2.1700 
  203.5000  -108.8650    51.3630    54.2160    56.6850    53.8510     2.1940 
  203.6250  -108.4660    50.8100    48.3670    50.6010    44.4980     2.2150 
  203.7500  -108.0270    54.3900    42.6160    44.6210    38.7600     2.2230 
  203.8750  -107.5490    58.2510    37.8670    39.6810    38.9280     2.2190 
  204.0000  -107.0480    58.4920    34.3950    36.0710    38.0350     2.2160 
  204.1250  -106.5220    56.6720    32.2960    33.8880    31.9580     2.2240 
  204.2500  -105.9770    54.2430    31.8640    33.4390    25.6430     2.2510 
  204.3750  -105.4620    52.3710    33.1850    34.8120    25.7640     2.3150 
