~V
VERS. 2.00: Ver 2.00
~W
STRT.M 62.0000:
STOP.M 219.0000:
STEP.M 0.1250:
NULL. -999.2500:
UWI. F11127:
~C
DEPT.M :
SP.MV :
DEN.GM/CC :
GR.API :
RML.OHMM :
RI. :
RXO.OHMM :
CALI.CM :
~A
# ...
  197.0000   -15.0850     2.3910    45.0180     7.1300     6.1890     7.3460    23.8410 
  197.1250   -14.8010     2.3920    45.1490     6.9720     6.0230     7.3840    23.9200 
  197.2500   -14.4300     2.3760    45.7970     6.8110     5.8410     7.5080    24.0360 
  197.3750   -13.9770     2.3480    46.4250     6.6660     5.6720     7.3400    24.0970 
  197.5000   -13.4280     2.3220    46.0590     6.5540     5.5370     6.9100    24.1490 
  197.6250   -12.8200     2.3120    45.4250     6.4890     5.4490     6.4240    24.1860 
  197.7500   -12.2410     2.3160    46.1300     6.4760     5.4070     6.0810    24.1600 
  197.8750   -11.6580     2.3190    47.9950     6.4780     5.3850     5.9780    24.1930 
  198.0000   -11.1280     2.3150    49.8040     6.4620     5.3590     6.0260    24.2450 
  198.1250   -10.7020     2.3110    51.3840     6.4080     5.3140     6.1620    24.2520 
  198.2500   -10.3270     2.3150    53.8620     6.3190     5.2430     6.1630    24.1830 
  198.3750    -9.9430     2.3240    55.8580     6.2340     5.1670     6.0340    24.1440 
  198.5000    -9.6250     2.3320    56.7580     6.1900     5.1080     6.0160    24.0490 
  198.6250    -9.4360     2.3370    57.9020     6.2160     5.0920     6.1170    23.9020 
  198.7500    -9.2650     2.3370    60.3200     6.3320     5.1490     6.1740    23.8720 
  198.8750    -9.0820     2.3370    61.7150     6.5030     5.2660     6.2490    23.8230 
  199.0000    -8.9600     2.3390    60.6210     6.6860     5.4160     6.4740    23.7810 
  199.1250    -8.8810     2.3420    59.2230     6.8210     5.5530     6.8540    23.7990 
  199.2500    -8.8420     2.3400    59.9510     6.8280     5.5990     7.1710    23.9200 
  199.3750    -8.8560     2.3380    59.9260     6.6980     5.5260     7.3370    24.0640 
  199.5000    -8.8530     2.3420    57.2560     6.4540     5.3380     7.1990    24.1390 
  199.6250    -8.7370     2.3550    52.9290     6.1630     5.0830     6.6760    24.1040 
  199.7500    -8.5710     2.3580    50.3020     5.9270     4.8470     5.8920    24.0350 
  199.8750    -8.4960     2.3450    50.7970     5.8020     4.6980     5.2810    24.0480 
  200.0000    -8.4700     2.3270    52.5700     5.7940     4.6620     5.1170    24.0430 
  200.1250    -8.3800     2.3150    53.1200     5.8600     4.7190     5.3270    24.0010 
  200.2500    -8.2580     2.3100    51.3650     5.9310     4.8140     5.8170    24.0090 
  200.3750    -8.1850     2.3110    50.6430     5.9470     4.8740     6.2380    24.0110 
  200.5000    -8.1660     2.3120    52.5040     5.8930     4.8600     6.3420    24.0510 
  200.6250    -8.2000     2.3090    54.6090     5.7890     4.7720     6.0650    24.0610 
  200.7500    -8.2980     2.2990    54.0330     5.6880     4.6400     5.6300    23.9990 
  200.8750    -8.3130     2.2930    52.1240     5.6320     4.5200     5.2000    23.8860 
  201.0000    -8.2150     2.2940    51.3250     5.6310     4.4390     5.0250    23.8510 
  201.1250    -8.0780     2.2990    52.3910     5.6720     4.4070     4.9880    23.8670 
  201.2500    -7.9130     2.3010    53.5070     5.7320     4.4210     4.9780    23.8810 
  201.3750    -7.7150     2.3000    53.2570     5.7880     4.4600     5.0720    23.9710 
  201.5000    -7.5350     2.2980    52.3860     5.8370     4.5110     5.2640    24.1530 
  201.6250    -7.4340     2.3000    51.7890     5.8780     4.5680     5.4500    24.3900 
  201.7500    -7.3290     2.3080    52.2390     5.9030     4.6250     5.5910    24.2440 
  201.8750    -7.2570     2.3170    53.1180     5.9010     4.6760     5.7040    24.1390 
  202.0000    -7.1580     2.3200    53.3780     5.8660     4.7150     5.8250    24.1000 
  202.1250    -7.0980     2.3150    53.4200     5.8070     4.7350     5.9640    24.1020 
  202.2500    -7.0890     2.3000    53.9200     5.7390     4.7210     5.9640    24.0930 
  202.3750    -7.0800     2.2910    54.3730     5.6740     4.6720     5.8580    24.0750 
  202.5000    -7.0790     2.2970    54.3880     5.6100     4.5870     5.6920    24.0470 
  202.6250    -6.9730     2.3170    54.7740     5.5300     4.4730     5.4660    24.0610 
  202.7500    -6.8040     2.3350    56.5740     5.4150     4.3370     5.1650    24.0670 
  202.8750    -6.6590     2.3420    58.8740     5.2770     4.2000     4.8950    24.0310 
  203.0000    -6.6530     2.3410    61.2120     5.1370     4.0800     4.7830    23.9510 
  203.1250    -6.6620     2.3370    63.5100     5.0160     3.9910     4.6910    23.9250 
  203.2500    -6.6620     2.3330    64.9920     4.9380     3.9470     4.6110    23.9930 
  203.3750    -6.7320     2.3300    66.0980     4.9100     3.9390     4.5220    24.0300 
  203.5000    -6.8080     2.3250    66.6250     4.9260     3.9550     4.4810    24.0350 
  203.6250    -6.9150     2.3170    66.1400     4.9700     3.9780     4.4640    24.0390 
  203.7500    -7.1090     2.3100    63.9500     5.0160     3.9930     4.4190    24.0550 
  203.8750    -7.3430     2.3100    61.8680     5.0500     3.9970     4.4300    24.0660 
  204.0000    -7.5840     2.3110    60.9760     5.0740     3.9970     4.5310    24.0380 
  204.1250    -7.8060     2.3100    60.5440     5.0990     4.0010     4.7360    23.9730 
  204.2500    -8.0060     2.3070    59.1880     5.1260     4.0130     5.0590    23.9620 
  204.3750    -8.1300     2.3070    56.5690     5.1410     4.0250     5.2460    24.0230 
  204.5000    -8.1970     2.3150    54.9390     5.1360     4.0300     5.0890    24.0690 
  204.6250    -8.2280     2.3290    56.0190     5.1210     4.0280     4.8520    24.0340 
  204.7500    -8.1480     2.3360    58.8190     5.1270     4.0330     4.8540    23.9350 
  204.8750    -7.9770     2.3210    60.2280     5.1710     4.0580     5.1160    23.8700 
  205.0000    -7.7440     2.2810    59.5590     5.2540     4.1100     5.5110    23.9450 
  205.1250    -7.5410     2.2350    59.0460     5.3690     4.1900     6.0020    24.0460 
  205.2500    -7.3970     2.2080    59.8090     5.5050     4.2930     6.2030    24.0890 
  205.3750    -7.3000     2.2100    60.2250     5.6500     4.4040     6.0950    24.0870 
  205.5000    -7.2070     2.2370    59.5830     5.7990     4.5200     5.8660    24.1030 
  205.6250    -7.1590     2.2750    58.5290     5.9400     4.6400     5.9030    24.0990 
  205.7500    -7.1900     2.3100    58.1890     6.0620     4.7620     5.9610    24.0580 
  205.8750    -7.3000     2.3370    58.3920     6.1600     4.8800     5.9320    24.0590 
  206.0000    -7.4780     2.3530    59.5330     6.2360     4.9820     5.8580    24.0940 
  206.1250    -7.5930     2.3560    62.1410     6.2840     5.0560     5.8310    24.1210 
  206.2500    -7.5840     2.3490    64.6120     6.2910     5.0880     5.8600    24.0870 
  206.3750    -7.5740     2.3420    64.7390     6.2540     5.0790     6.0180    24.0210 
  206.5000    -7.6890     2.3340    63.5400     6.1670     5.0310     6.2090    23.9200 
  206.6250    -7.8160     2.3180    62.9750     6.0340     4.9440     6.3910    23.8860 
  206.7500    -7.8690     2.2970    62.5410     5.8680     4.8200     6.3790    23.9520 
  206.8750    -7.8800     2.2860    61.5730     5.7040     4.6810     5.9930    24.0280 
  207.0000    -7.8630     2.2930    61.0140     5.5740     4.5540     5.5560    24.0460 
  207.1250    -7.8740     2.3170    60.4730     5.5160     4.4760     5.2650    24.0390 
  207.2500    -7.9670     2.3460    59.7650     5.5850     4.5030     5.1600    24.1130 
  207.3750    -8.0570     2.3650    59.9310     5.7850     4.6510     5.3870    24.0740 
  207.5000    -8.0260     2.3710    61.1250     6.1090     4.9190     6.0110    24.0190 
  207.6250    -7.8580     2.3710    62.0090     6.5190     5.2770     6.8140    24.0410 
  207.7500    -7.7180     2.3690    62.7490     6.9270     5.6540     7.4470    24.0970 
  207.8750    -7.6170     2.3700    63.9340     7.2210     5.9510     7.8650    24.1310 
  208.0000    -7.5680     2.3730    64.3550     7.3220     6.0930     8.0490    24.1370 
  208.1250    -7.5990     2.3700    63.7400     7.2090     6.0440     7.9990    24.1190 
