~V
VERS. 2.00: Ver 2.00
~W
STRT.M 40.0000:
STOP.M 232.0000:
STEP.M 0.1250:
NULL. -999.2500:
UWI. F11121:
~C
DEPT.M :
SP.MV :
DEN.GM/CC :
GR.API :
RML.OHMM :
RI. :
RXO.OHMM :
CALI.CM :
~A
# ...
  197.5000    -5.8300     2.3870    94.0450     8.6380     7.2030     8.4260    24.7770 
  197.6250    -5.3240     2.3530    84.4770     7.8630     6.6930     6.7600    24.7960 
  197.7500    -4.7990     2.3220    71.9250     7.1570     6.1770     5.4110    24.8170 
  197.8750    -4.2790     2.2990    63.2790     6.6440     5.7620     4.9530    24.8150 
  198.0000    -3.7750     2.2940    60.6570     6.3500     5.4910     4.9990    24.7870 
  198.1250    -3.2740     2.3110    62.8750     6.2740     5.3810     5.0470    24.7690 
  198.2500    -2.7930     2.3430    67.9170     6.3230     5.3730     5.1450    24.7710 
  198.3750    -2.3560     2.3810    75.0370     6.4450     5.4300     5.4210    24.7750 
  198.5000    -1.9810     2.4120    81.4220     6.5960     5.5160     5.8180    24.7770 
  198.6250    -1.6720     2.4200    81.0830     6.7340     5.6040     5.9170    24.7700 
  198.7500    -1.4150     2.4050    77.1210     6.8270     5.6690     5.8780    24.7670 
  198.8750    -1.2030     2.3780    76.3590     6.8500     5.6930     5.8130    24.7340 
  199.0000    -1.0490     2.3520    80.6170     6.7950     5.6650     5.7880    24.5710 
  199.1250    -0.9840     2.3400    83.1160     6.6620     5.5780     5.6850    24.3040 
  199.2500    -0.9790     2.3400    80.9510     6.4910     5.4560     5.5150    24.1240 
  199.3750    -1.0580     2.3490    76.8240     6.3190     5.3240     5.3120    24.1210 
  199.5000    -1.2090     2.3570    70.4780     6.1950     5.2150     5.1870    24.2350 
  199.6250    -1.4610     2.3620    64.2280     6.1830     5.1750     5.1850    24.3570 
  199.7500    -1.7900     2.3650    65.2830     6.3010     5.2230     5.4520    24.4310 
  199.8750    -2.1820     2.3670    72.7630     6.5550     5.3730     5.9460    24.4890 
  200.0000    -2.6200     2.3680    79.3240     6.9270     5.6190     6.6660    24.6050 
  200.1250    -3.0600     2.3670    81.9780     7.3690     5.9370     7.4370    24.7760 
  200.2500    -3.5060     2.3680    85.7560     7.7800     6.2590     8.0550    24.8800 
  200.3750    -3.9150     2.3710    90.3050     8.0790     6.5220     8.3810    24.8970 
  200.5000    -4.2940     2.3750    91.2630     8.2130     6.6830     8.3690    24.8860 
  200.6250    -4.6030     2.3750    89.1740     8.1770     6.7150     8.0760    24.8900 
  200.7500    -4.8230     2.3700    87.6740     8.0960     6.6930     7.8880    24.8970 
  200.8750    -4.9280     2.3590    87.0570     8.1140     6.7070     8.1710    24.8990 
  201.0000    -4.9180     2.3470    84.4080     8.3840     6.8600     8.7880    24.8950 
  201.1250    -4.8340     2.3360    80.3810     9.0730     7.2810     9.5740    24.8900 
  201.2500    -4.7080     2.3260    78.7020    10.0870     7.9390    10.5710    24.8890 
  201.3750    -4.5730     2.3160    79.4480    11.2200     8.7280    12.1310    24.8890 
  201.5000    -4.4190     2.3060    79.1190    12.1130     9.4330    14.3770    24.8820 
  201.6250    -4.2620     2.2990    76.2010    12.2800     9.7150    15.6740    24.8590 
  201.7500    -4.1180     2.2990    74.6650    11.7860     9.5400    14.5580    24.7830 
  201.8750    -4.0000     2.3060    76.1790    10.9900     9.0910    12.2650    24.6410 
  202.0000    -3.9200     2.3190    79.3060    10.3850     8.6750    10.0450    24.4890 
  202.1250    -3.8610     2.3290    81.6720    10.5000     8.6600     9.6250    24.4160 
  202.2500    -3.7950     2.3370    82.1550    11.4120     9.1750    11.3780    24.4090 
  202.3750    -3.7260     2.3430    79.6390    13.0610    10.2520    15.5890    24.4130 
  202.5000    -3.6710     2.3460    75.4140    15.1870    11.7900    19.7060    24.4050 
  202.6250    -3.6480     2.3390    73.5440    17.2490    13.4890    20.3480    24.3940 
  202.7500    -3.6590     2.3180    75.4260    18.7270    14.9050    19.7460    24.3860 
  202.8750    -3.6930     2.2890    78.4400    19.4600    15.8100    19.9780    24.3830 
  203.0000    -3.7330     2.2630    79.1510    19.6400    16.2350    20.3790    24.3850 
  203.1250    -3.7550     2.2540    77.2820    19.6350    16.3840    20.3940    24.3840 
  203.2500    -3.7650     2.2570    74.4010    19.7390    16.5190    20.6150    24.3920 
  203.3750    -3.7740     2.2600    72.0930    20.0160    16.7310    21.1680    24.4270 
  203.5000    -3.7840     2.2530    71.5230    20.4450    17.0330    21.3090    24.4840 
  203.6250    -3.7820     2.2360    70.9550    21.0000    17.4220    21.0850    24.5280 
  203.7500    -3.7630     2.2190    70.1650    21.5900    17.8480    21.6100    24.5320 
  203.8750    -3.7300     2.2150    69.1290    22.0980    18.2400    22.6220    24.4950 
  204.0000    -3.6930     2.2230    68.9020    22.3950    18.5060    23.3350    24.4290 
  204.1250    -3.6790     2.2380    69.2890    22.4030    18.5780    24.0330    24.3540 
  204.2500    -3.6910     2.2460    71.0040    22.2980    18.5530    24.2510    24.3150 
  204.3750    -3.6940     2.2430    74.1500    22.3220    18.5860    23.0650    24.3310 
  204.5000    -3.6890     2.2320    75.2990    22.7500    18.8670    21.0970    24.4260 
  204.6250    -3.7150     2.2180    70.5270    23.8910    19.6400    22.6070    24.5970 
  204.7500    -3.7440     2.2070    63.6900    25.6670    20.8900    26.8850    24.7480 
  204.8750    -3.7690     2.1980    59.8800    27.9290    22.5490    29.9480    24.8200 
  205.0000    -3.7880     2.1910    60.3540    30.4200    24.4540    30.0520    24.8230 
  205.1250    -3.7970     2.1850    61.0770    32.7900    26.3460    30.2430    24.8170 
  205.2500    -3.8100     2.1810    60.2810    34.8010    28.0080    32.0180    24.8160 
  205.3750    -3.8360     2.1800    57.9130    36.3420    29.3360    34.9460    24.8140 
  205.5000    -3.8620     2.1830    56.1630    37.3380    30.2780    37.3640    24.8130 
  205.6250    -3.8370     2.1900    58.8080    37.6240    30.7130    38.0230    24.8100 
  205.7500    -3.7990     2.1970    62.7490    37.3490    30.7310    37.6400    24.8090 
  205.8750    -3.7790     2.1990    63.5670    36.7260    30.4610    36.4900    24.8100 
  206.0000    -3.7840     2.1970    61.8820    36.0700    30.1130    35.1510    24.8100 
  206.1250    -3.8090     2.1930    60.9640    35.7430    29.9500    34.2910    24.8090 
  206.2500    -3.8370     2.1920    59.7080    35.8080    30.0630    34.5440    24.8080 
  206.3750    -3.8690     2.1910    56.6880    36.0960    30.3740    35.1100    24.8090 
  206.5000    -3.8960     2.1890    55.2720    36.2140    30.6270    36.1450    24.8080 
  206.6250    -3.9220     2.1840    56.5990    35.5400    30.3570    36.9890    24.8100 
  206.7500    -3.9600     2.1790    57.7990    33.9540    29.3990    36.3920    24.8140 
  206.8750    -4.0130     2.1770    60.4410    31.6990    27.8650    33.5830    24.8150 
  207.0000    -4.0680     2.1800    63.9070    29.3150    26.1150    27.9300    24.8130 
  207.1250    -4.1140     2.1890    63.9070    27.4940    24.6540    22.5800    24.8140 
  207.2500    -4.1510     2.1980    61.1850    26.4910    23.7390    20.8690    24.8150 
  207.3750    -4.1790     2.2050    60.6790    26.3070    23.4280    22.7940    24.8170 
  207.5000    -4.2100     2.2060    62.7850    26.7560    23.6330    25.6400    24.8170 
  207.6250    -4.2560     2.2020    62.3800    27.5260    24.1750    26.9890    24.8130 
  207.7500    -4.2810     2.1940    58.5950    28.2210    24.7400    27.6460    24.8090 
  207.8750    -4.2640     2.1870    54.7950    28.7300    25.2050    28.0030    24.8060 
  208.0000    -4.2170     2.1870    54.8290    29.2070    25.6410    28.4830    24.8070 
  208.1250    -4.1400     2.1950    59.3240    30.1040    26.3490    29.5550    24.8090 
  208.2500    -4.0410     2.2060    63.1690    31.7500    27.5890    30.0540    24.8110 
  208.3750    -3.9150     2.2120    63.2320    34.3510    29.5370    31.6530    24.8120 
  208.5000    -3.7730     2.2070    59.7430    37.9200    32.2370    36.7070    24.8120 
  208.6250    -3.6330     2.1920    56.9090    42.1880    35.5670    42.2800    24.8120 
