~V
VERS. 2.00: Ver 2.00
~W
STRT.M 50.0000:
STOP.M 243.0000:
STEP.M 0.1250:
NULL. -999.2500:
UWI. F11115:
~C
DEPT.M :
DEN.GM/CC :
GR.API :
RML.OHMM :
RI. :
RXO.OHMM :
CALI.CM :
SP.MV :
~A
# ...
   83.7500     2.1920    68.5870    10.0130     7.5500    10.4750    26.8440   -33.9010 
   83.8750     2.1820    70.3350    10.0030     7.4370    10.3440    26.8370   -34.3210 
   84.0000     2.1720    70.2430    10.0070     7.4080    10.4210    26.8350   -34.6320 
   84.1250     2.1610    69.2580     9.9710     7.3890    10.4290    26.8380   -34.8150 
   84.2500     2.1510    68.4120     9.9090     7.3600    10.3370    26.8400   -34.9340 
   84.3750     2.1460    66.8530     9.8370     7.3300    10.2020    26.8390   -35.0280 
   84.5000     2.1430    65.7540     9.7800     7.3070    10.0290    26.8420   -35.0910 
   84.6250     2.1420    67.1580     9.7630     7.2950     9.9930    26.8480   -35.1120 
   84.7500     2.1400    68.7170     9.7740     7.2880    10.0930    26.8560   -35.1430 
   84.8750     2.1390    69.0280     9.7820     7.2730    10.2250    26.8690   -35.2010 
   85.0000     2.1370    68.7550     9.7440     7.2260    10.3730    26.8850   -35.2690 
   85.1250     2.1340    67.3710     9.6040     7.1150    10.4790    26.8940   -35.2880 
   85.2500     2.1320    65.4040     9.3750     6.9450    10.3160    26.8970   -35.2660 
   85.3750     2.1320    66.6050     9.1050     6.7390     9.9050    26.8950   -35.2300 
   85.5000     2.1340    71.9700     8.8680     6.5410     9.3450    26.8900   -35.1950 
   85.6250     2.1350    75.6360     8.7690     6.4160     8.9410    26.8850   -35.1830 
   85.7500     2.1340    73.8640     8.8190     6.3810     8.9030    26.8840   -35.2150 
   85.8750     2.1300    69.5180     8.9880     6.4300     9.2370    26.8870   -35.3120 
   86.0000     2.1270    67.8570     9.2090     6.5330     9.5730    26.8950   -35.4750 
   86.1250     2.1270    68.9330     9.3930     6.6460     9.7690    26.8940   -35.7040 
   86.2500     2.1290    69.3850     9.4980     6.7330     9.8200    26.8520   -35.9760 
   86.3750     2.1320    69.4940     9.5330     6.7910     9.7570    26.7630   -36.2680 
   86.5000     2.1320    70.1680     9.5450     6.8290     9.7620    26.6700   -36.5640 
   86.6250     2.1280    71.0010     9.5870     6.8610     9.8320    26.6320   -36.8070 
   86.7500     2.1240    71.0240     9.6700     6.8900    10.0110    26.6320   -36.9810 
   86.8750     2.1250    69.2940     9.7680     6.9100    10.3310    26.6360   -37.1090 
   87.0000     2.1300    65.3740     9.8280     6.9060    10.5840    26.6370   -37.2210 
   87.1250     2.1360    62.3550     9.7920     6.8670    10.6650    26.6590   -37.2970 
   87.2500     2.1420    62.5420     9.6940     6.8110    10.6580    26.7310   -37.3180 
   87.3750     2.1500    63.8110     9.6190     6.7770    10.7890    26.8700   -37.3000 
   87.5000     2.1650    62.8860     9.6790     6.8110    10.9440    27.0420   -37.2630 
   87.6250     2.1850    60.2880     9.9840     6.9680    11.1110    27.1550   -37.2190 
   87.7500     2.1860    58.8400    10.4680     7.2220    11.8470    27.1910   -37.1470 
   87.8750     2.1510    58.0880    11.0030     7.5190    14.8990    27.3430   -37.0370 
   88.0000     2.0830    58.0350    11.4110     7.7750    22.4480    27.7710   -36.9190 
   88.1250     2.0050    58.9860    11.4700     7.8750    28.9040    27.9760   -36.8520 
   88.2500     1.9520    59.7130    11.2070     7.8040    20.7740    27.4630   -36.8240 
   88.3750     1.9440    61.0300    10.7410     7.5970    13.6070    26.5190   -36.8000 
   88.5000     1.9830    63.1910    10.2470     7.3320    11.4070    25.8320   -36.7660 
   88.6250     2.0420    64.8040     9.9110     7.1020    11.3530    25.7100   -36.7260 
   88.7500     2.0850    65.0080     9.7740     6.9550    11.3610    25.7220   -36.6680 
   88.8750     2.1090    64.4990     9.8050     6.8910    11.2720    25.7240   -36.5640 
   89.0000     2.1240    63.5420     9.9210     6.8800    11.1440    25.7280   -36.3920 
   89.1250     2.1360    61.7000    10.0250     6.8870    11.0490    25.7340   -36.1540 
   89.2500     2.1460    61.8870    10.0650     6.8920    11.0380    25.7370   -35.8890 
   89.3750     2.1510    64.0830    10.0350     6.8910    11.0050    25.7340   -35.5960 
   89.5000     2.1540    65.0040     9.9600     6.8840    10.9040    25.7280   -35.2560 
   89.6250     2.1560    63.9200     9.8750     6.8700    10.7800    25.7250   -34.8910 
   89.7500     2.1590    63.5450     9.8040     6.8500    10.7530    25.7250   -34.5150 
   89.8750     2.1630    63.9740     9.7440     6.8260    10.6260    25.7260   -34.1130 
   90.0000     2.1650    64.0890     9.6830     6.8020    10.3090    25.7290   -33.6720 
   90.1250     2.1640    65.4610     9.5980     6.7780    10.2490    25.7330   -33.1980 
   90.2500     2.1600    68.5320     9.4870     6.7490    10.1490    25.7360   -32.7150 
   90.3750     2.1560    69.7160     9.3590     6.7060     9.9290    25.7350   -32.2230 
   90.5000     2.1530    67.5310     9.2200     6.6380     9.5330    25.7300   -31.7010 
   90.6250     2.1530    65.8320     9.0390     6.5140     9.1940    25.7280   -31.1030 
   90.7500     2.1540    67.5500     8.7800     6.3290     8.9460    25.7310   -30.4620 
   90.8750     2.1560    71.4840     8.4330     6.0910     8.6160    25.7340   -29.8230 
   91.0000     2.1600    74.5640     8.0410     5.8380     8.1980    25.7370   -29.1820 
   91.1250     2.1710    77.4960     7.7400     5.6550     7.3940    25.7350   -28.5130 
   91.2500     2.1840    80.3770     7.6760     5.6090     7.3020    25.7310   -27.8620 
   91.3750     2.1930    79.5380     7.9260     5.7380     7.8320    25.7250   -27.2980 
   91.5000     2.1910    74.3310     8.4440     6.0260     8.5010    25.7220   -26.8540 
   91.6250     2.1770    70.0370     9.0160     6.3700     9.2860    25.7240   -26.5110 
   91.7500     2.1620    69.7880     9.3060     6.5840    10.2260    25.7410   -26.2030 
   91.8750     2.1560    70.4940     9.1000     6.5270    10.2300    25.7970   -25.8870 
   92.0000     2.1660    72.1160     8.4230     6.1790     8.8800    25.9010   -25.5160 
   92.1250     2.1950    78.2530     7.5600     5.6530     6.7700    26.0370   -25.0350 
   92.2500     2.2320    83.1680     6.8620     5.1610     5.6940    26.1670   -24.4430 
   92.3750     2.2640    82.2810     6.4570     4.8140     5.1250    26.2760   -23.7880 
   92.5000     2.2830    79.4430     6.3410     4.6470     4.9150    26.3570   -23.1600 
   92.6250     2.2840    79.8140     6.4440     4.6510     5.1710    26.4040   -22.6620 
   92.7500     2.2780    79.2540     6.5970     4.7300     5.4900    26.4330   -22.3230 
   92.8750     2.2760    78.2420     6.7110     4.8240     5.6610    26.4570   -22.1630 
   93.0000     2.2810    80.0520     6.7570     4.8980     5.6960    26.4710   -22.1830 
   93.1250     2.2860    80.9490     6.7760     4.9580     5.7160    26.4730   -22.3380 
   93.2500     2.2830    77.3140     6.8460     5.0370     5.8120    26.4700   -22.5430 
   93.3750     2.2690    73.6010     7.0120     5.1570     5.8470    26.4710   -22.7930 
   93.5000     2.2470    72.4590     7.2830     5.3280     6.0850    26.4740   -23.1070 
   93.6250     2.2250    70.3680     7.6440     5.5530     6.6510    26.4760   -23.5160 
   93.7500     2.2090    68.1820     8.0280     5.8030     7.2200    26.4760   -24.0050 
   93.8750     2.1970    68.4370     8.3810     6.0460     7.5220    26.4720   -24.5610 
   94.0000     2.1860    68.8560     8.6550     6.2450     7.8770    26.4900   -25.1560 
   94.1250     2.1760    68.3770     8.7830     6.3560     8.5540    26.5540   -25.7470 
   94.2500     2.1690    69.4030     8.7720     6.3790     8.9210    26.6290   -26.2620 
   94.3750     2.1680    69.5240     8.6510     6.3220     8.7550    26.6740   -26.6350 
   94.5000     2.1700    65.6710     8.4660     6.2050     8.3740    26.6810   -26.8780 
   94.6250     2.1740    62.2840     8.2630     6.0490     8.1690    26.6800   -27.0430 
   94.7500     2.1770    64.5440     8.0660     5.8900     8.0740    26.6750   -27.1670 
   94.8750     2.1790    68.8700     7.8990     5.7610     7.9160    26.6610   -27.2460 
