~V
VERS. 2.00: Ver 2.00
~W
STRT.M 63.0000:
STOP.M 246.0000:
STEP.M 0.1250:
NULL. -999.2500:
UWI. F11137:
~C
DEPT.M :
DEN.GM/CC :
GR.API :
RML.OHMM :
RI. :
RXO.OHMM :
CALI.CM :
SP.MV :
~A
# ...
  164.2500     2.2820    74.4650    21.7550    22.5520    20.9240    25.3640    -6.8820 
  164.3750     2.3010    71.9790    20.2650    21.0700    20.4280    25.3310    -6.6910 
  164.5000     2.3090    74.0360    19.1140    19.8910    20.9860    25.3490    -6.4640 
  164.6250     2.3020    78.8230    18.2520    18.9750    19.9650    25.4140    -6.2820 
  164.7500     2.2880    79.6600    17.5340    18.1670    17.7750    25.4890    -6.2260 
  164.8750     2.2790    76.7250    16.9690    17.4520    16.6750    25.5230    -6.2290 
  165.0000     2.2800    74.9180    16.6590    16.9160    16.3520    25.4840    -6.2380 
  165.1250     2.2880    75.9800    16.8510    16.8010    15.8870    25.4020    -6.2430 
  165.2500     2.2950    78.1190    17.5890    17.2330    16.1620    25.3340    -6.3110 
  165.3750     2.2970    79.2060    18.8260    18.2830    17.1910    25.2860    -6.4670 
  165.5000     2.2960    78.7100    20.3350    19.8310    18.4150    25.2080    -6.7630 
  165.6250     2.2930    78.1080    21.7030    21.4530    20.7310    25.0250    -7.1550 
  165.7500     2.2900    79.0590    22.6810    22.6030    23.8340    24.7950    -7.5500 
  165.8750     2.2870    82.6490    23.3870    23.1470    26.6970    24.5670    -7.9360 
  166.0000     2.2840    85.8150    24.3370    23.4780    24.6730    24.3650    -8.3680 
  166.1250     2.2800    83.4640    26.5900    24.6060    19.9410    24.1510    -8.8690 
  166.2500     2.2730    77.2160    30.6280    27.3990    18.0180    23.8330    -9.4030 
  166.3750     2.2640    70.5380    37.5860    32.5540    23.0670    23.5720    -9.9830 
  166.5000     2.2530    65.7980    48.1660    40.2760    35.4850    23.6560   -10.5650 
  166.6250     2.2400    64.0580    60.4600    49.7370    53.7220    24.2950   -11.0950 
  166.7500     2.2280    65.1640    70.2020    58.2500    69.0460    25.1830   -11.5480 
  166.8750     2.2190    67.2140    75.7800    63.9320    80.3540    25.9160   -11.9650 
  167.0000     2.2140    67.2880    78.5800    66.8690    87.2470    26.3290   -12.3350 
  167.1250     2.2120    67.7330    81.2800    69.1740    80.3700    26.5810   -12.6360 
  167.2500     2.2150    69.3310    85.5810    73.1070    77.7880    26.6770   -12.9090 
  167.3750     2.2210    69.0450    91.8820    79.3100    86.5500    26.6390   -13.1690 
  167.5000     2.2280    65.5810    99.3640    87.2120   103.5880    26.5460   -13.3610 
  167.6250     2.2350    61.4380   105.9060    95.1110   110.7530    26.5690   -13.4970 
  167.7500     2.2390    59.0250   109.2350   100.7170   115.0760    26.6420   -13.6390 
  167.8750     2.2430    58.9670   107.6740   101.9690   115.7690    26.7070   -13.8490 
  168.0000     2.2500    61.3830   100.7950    97.6520   115.2210    26.6840   -14.1910 
  168.1250     2.2640    63.6880    89.4940    87.8670    92.4220    26.5890   -14.6650 
  168.2500     2.2800    64.4900    77.1390    76.0650    71.3540    26.5200   -15.0760 
  168.3750     2.2950    65.7130    65.9750    64.6750    58.6090    26.5100   -15.3580 
  168.5000     2.3060    67.9060    57.4360    55.3870    44.8400    26.5080   -15.5700 
  168.6250     2.3180    68.5540    52.7670    49.6290    38.2410    26.4500   -15.8170 
  168.7500     2.3350    68.1290    51.6440    47.1390    36.8290    26.3300   -16.0370 
  168.8750     2.3550    68.6470    54.2250    48.0170    37.3070    26.2300   -16.2290 
  169.0000     2.3700    70.3240    60.7400    52.6490    37.7850    26.2740   -16.3820 
  169.1250     2.3660    71.3230    71.9610    62.4720    43.9990    26.5580   -16.4690 
  169.2500     2.3430    71.2450    86.4860    76.7950    56.6390    26.9010   -16.5680 
  169.3750     2.3080    69.6200   102.1940    93.9640    67.7320    27.2460   -16.7360 
  169.5000     2.2700    67.2560   115.5420   110.1430    77.9040    27.5330   -16.9370 
  169.6250     2.2430    65.6520   121.5020   118.6180   117.0420    27.7450   -17.1630 
  169.7500     2.2310    65.4820   120.0590   117.8870   126.8060    27.8930   -17.4290 
  169.8750     2.2340    67.9160   113.6850   110.5760    99.5400    27.9650   -17.6900 
  170.0000     2.2470    70.6570   106.2630   101.4600    79.5860    28.0020   -17.8960 
  170.1250     2.2620    69.7630   101.5210    94.8320    74.8230    28.0270   -18.0770 
  170.2500     2.2700    66.8960   100.2780    91.6970    75.6130    28.0310   -18.2990 
  170.3750     2.2720    66.1810   102.2760    91.8800    79.0350    28.0050   -18.5200 
  170.5000     2.2690    66.8100   106.8020    94.7080    76.9190    27.9150   -18.7320 
  170.6250     2.2630    62.9370   113.2090    99.5330    75.9430    27.9780   -18.8830 
  170.7500     2.2570    58.2140   120.4330   105.3040    83.9510    28.1780   -19.0040 
  170.8750     2.2520    56.8130   127.9280   111.5970    96.9750    28.3630   -19.0190 
  171.0000     2.2480    59.3420   135.2320   118.0630   112.6510    28.4040   -18.9270 
  171.1250     2.2470    63.7500   141.8180   124.1970   107.3840    28.2360   -18.8430 
  171.2500     2.2470    66.0220   147.5990   129.7060    96.7000    27.9540   -18.8780 
  171.3750     2.2460    65.2800   152.7030   134.6340    97.6760    27.7260   -19.0100 
  171.5000     2.2430    62.8520   157.3470   139.2670   104.7550    27.6010   -19.1230 
  171.6250     2.2380    62.4470   161.2530   143.5960   112.7860    27.5710   -19.1730 
  171.7500     2.2310    62.9810   163.5760   146.8820   117.6230    27.5380   -19.2110 
  171.8750     2.2240    63.1640   163.0690   147.7980   126.6890    27.3800   -19.2260 
  172.0000     2.2210    63.5110   158.8790   145.1200   134.1810    26.9360   -19.2930 
  172.1250     2.2230    64.3760   150.9000   138.2030   123.8920    26.2800   -19.3010 
  172.2500     2.2300    64.9220   141.5040   129.2900    98.3540    25.8390   -19.1560 
  172.3750     2.2420    64.2780   132.7510   120.4530    81.5350    25.6890   -18.8600 
  172.5000     2.2540    63.3050   126.4220   113.4210    80.5210    25.6530   -18.4940 
  172.6250     2.2640    63.3170   124.6800   110.1430    83.0100    25.5860   -18.0300 
  172.7500     2.2700    64.2410   128.1450   111.3450    89.3520    25.4140   -17.4780 
  172.8750     2.2730    65.6880   138.0000   118.2160    89.4340    25.2280   -16.9530 
  173.0000     2.2740    65.7280   155.5250   132.1770    82.8120    25.0090   -16.4250 
  173.1250     2.2670    63.7690   182.5350   156.3510    68.2760    24.7730   -15.8940 
  173.2500     2.2510    60.9340   213.8610   188.1490    57.0030    24.6260   -15.3410 
  173.3750     2.2310    58.7340   239.6190   219.7090    53.7500    24.6840   -14.8120 
  173.5000     2.2120    57.5060   246.8090   236.4220    70.7890    25.0160   -14.3190 
  173.6250     2.2040    57.9860   223.9550   220.7470   130.5630    25.5690   -13.9190 
  173.7500     2.2100    59.5800   182.9690   182.3150   169.3590    25.9860   -13.5560 
  173.8750     2.2280    60.7560   138.0760   137.2140   128.9820    26.0350   -13.1980 
  174.0000     2.2560    60.5920   100.4770    98.7640    82.7940    25.9060   -12.7810 
  174.1250     2.2880    62.4380    76.1860    73.7240    90.1780    25.8360   -12.3320 
  174.2500     2.3150    67.9750    62.0640    58.7000    83.2620    25.7940   -11.8870 
  174.3750     2.3270    74.2970    56.0670    51.5950    57.0190    25.7540   -11.4920 
  174.5000     2.3230    76.9120    56.4790    51.0960    41.7680    25.6720   -11.1880 
  174.6250     2.3060    73.8260    61.9630    56.9320    58.4210    25.5580   -11.0280 
  174.7500     2.2860    69.0430    68.6670    66.0820    82.8760    25.5130   -10.8610 
  174.8750     2.2730    66.4350    72.8110    74.5950    97.5750    25.5120   -10.6630 
  175.0000     2.2660    68.0870    71.1050    76.9610    92.1140    25.4590   -10.4680 
  175.1250     2.2660    72.6760    62.0970    68.6490    77.5380    25.2920   -10.2910 
  175.2500     2.2720    76.8970    50.1200    55.3290    57.8010    25.0960   -10.1500 
  175.3750     2.2860    79.8620    38.8570    42.5810    36.5970    24.7350   -10.0010 
