~V
VERS. 2.00: Ver 2.00
~W
STRT.M 55.0000:
STOP.M 211.0000:
STEP.M 0.1250:
NULL. -999.2500:
UWI. F11125:
~C
DEPT.M :
DEN.GM/CC :
GR.API :
RML.OHMM :
RI. :
RXO.OHMM :
CALI.CM :
SP.MV :
~A
# ...
  133.7500     2.4600    71.5010    17.4760    15.2670    14.4930    24.1590    -6.8270 
  133.8750     2.4700    77.0370    17.8400    15.5490    15.5220    24.1250    -6.8710 
  134.0000     2.4650    79.6790    17.9130    15.6030    17.4970    24.1740    -6.8850 
  134.1250     2.4510    77.6180    17.6850    15.3810    18.4750    24.2710    -6.9210 
  134.2500     2.4350    74.8410    17.3520    15.0260    17.2040    24.4000    -6.9670 
  134.3750     2.4210    73.5990    17.0830    14.6820    15.4930    24.5490    -7.0080 
  134.5000     2.4150    73.2050    17.0010    14.4690    15.0010    24.6610    -7.0860 
  134.6250     2.4180    73.2940    17.2090    14.4900    15.3290    24.6740    -7.1370 
  134.7500     2.4230    74.6920    17.6620    14.7300    15.4130    24.6470    -7.1990 
  134.8750     2.4220    75.9200    18.2890    15.1460    15.4910    24.5900    -7.2520 
  135.0000     2.4110    74.4180    18.9640    15.6400    15.9030    24.5960    -7.3300 
  135.1250     2.3850    71.7460    19.5150    16.0730    16.5000    24.6380    -7.3880 
  135.2500     2.3580    71.4660    19.8940    16.3750    17.4310    24.6380    -7.4490 
  135.3750     2.3420    74.2580    20.1610    16.5660    18.6420    24.6120    -7.5200 
  135.5000     2.3360    76.1870    20.4510    16.7310    17.4560    24.6240    -7.5680 
  135.6250     2.3160    75.0580    20.9790    17.0290    17.2740    24.7420    -7.6280 
  135.7500     2.2850    76.1140    21.8380    17.5600    18.1540    24.7560    -7.6930 
  135.8750     2.2760    81.0260    23.0090    18.3540    20.3630    24.4350    -7.7680 
  136.0000     2.3060    85.1740    24.2890    19.3090    23.0220    23.8710    -7.8550 
  136.1250     2.3580    85.6710    25.2510    20.1240    23.4100    23.4310    -7.9330 
  136.2500     2.3930    83.7100    25.6450    20.5400    22.8390    23.2830    -8.0200 
  136.3750     2.4040    79.5140    25.5260    20.5220    21.9730    23.3180    -8.0660 
  136.5000     2.4050    74.0590    25.2700    20.2890    21.0200    23.4490    -8.0810 
  136.6250     2.4010    72.8860    25.4790    20.2650    20.1810    23.6020    -8.0810 
  136.7500     2.3880    76.6480    26.3640    20.6990    21.0460    23.8530    -8.0720 
  136.8750     2.3660    80.2170    27.8010    21.6040    23.4850    24.2760    -8.0350 
  137.0000     2.3430    80.7140    29.4100    22.7760    25.1700    24.6800    -7.9770 
  137.1250     2.3300    78.7820    30.5740    23.7970    26.2170    24.8240    -7.8930 
  137.2500     2.3270    76.5100    30.9510    24.3130    27.5310    24.8690    -7.8000 
  137.3750     2.3320    75.1930    30.5250    24.2130    27.3110    24.8720    -7.7120 
  137.5000     2.3480    74.3640    29.5990    23.6580    25.9580    24.7770    -7.6540 
  137.6250     2.3750    72.9760    28.6050    22.9610    25.5250    24.6020    -7.6000 
  137.7500     2.3940    69.7330    27.8130    22.3770    25.6490    24.4950    -7.5590 
  137.8750     2.4000    66.2570    27.2410    21.9540    24.5440    24.3310    -7.5590 
  138.0000     2.3990    67.6320    26.7530    21.6280    24.0350    24.0360    -7.5930 
  138.1250     2.3950    73.9530    25.9610    21.1560    23.5130    23.8220    -7.6510 
  138.2500     2.3890    78.0660    24.4340    20.1750    23.0340    23.6750    -7.7270 
  138.3750     2.3880    78.3130    21.8680    18.3790    21.5150    23.5510    -7.8030 
  138.5000     2.3890    78.4830    18.3640    15.7680    18.6400    23.5750    -7.8860 
  138.6250     2.3800    81.2270    14.5690    12.7810    13.9890    23.7800    -7.9600 
  138.7500     2.3600    83.0940    11.3210    10.0930     9.5330    23.8910    -8.0570 
  138.8750     2.3350    82.8470     8.0470     8.0240     6.8010    23.7810    -8.1480 
  139.0000     2.3170    80.9060     6.4560     6.6360     5.8650    23.5950    -8.2210 
  139.1250     2.3120    79.5370     5.9160     5.9160     5.8100    23.4940    -8.3020 
  139.2500     2.3110    79.6040     5.7490     5.6080     5.9790    23.4640    -8.3620 
  139.3750     2.3100    80.3140     5.7960     5.5740     6.0900    23.4620    -8.4300 
  139.5000     2.3070    79.9300     5.9280     5.6840     6.1180    23.4640    -8.4530 
  139.6250     2.3060    79.3770     6.0310     5.8230     6.0870    23.4620    -8.4370 
  139.7500     2.3050    81.9410     6.0570     5.9140     6.0630    23.4610    -8.3590 
  139.8750     2.3050    85.6990     6.0020     5.9350     6.0840    23.4590    -8.2210 
  140.0000     2.3070    85.1450     5.8800     5.8820     6.1120    23.4580    -8.0320 
  140.1250     2.3120    80.3170     5.7070     5.7550     6.1210    23.4580    -7.8310 
  140.2500     2.3170    80.0490     5.5270     5.5930     6.0280    23.4580    -7.6050 
  140.3750     2.3200    82.5810     5.3730     5.4260     5.7580    23.4560    -7.3560 
  140.5000     2.3170    81.7560     5.2650     5.2760     5.4590    23.4480    -7.1230 
  140.6250     2.3080    78.9340     5.2090     5.1640     5.5300    23.5040    -6.8940 
  140.7500     2.2940    80.4020     5.1830     5.0880     5.6870    23.7370    -6.7050 
  140.8750     2.2750    83.9730     5.1890     5.0460     5.6610    24.1670    -6.5570 
  141.0000     2.2540    84.5370     5.2360     5.0390     5.5840    24.6340    -6.4940 
  141.1250     2.2430    83.0200     5.3510     5.0810     5.5190    24.8460    -6.4650 
  141.2500     2.2480    81.9130     5.5240     5.1770     5.6860    24.8700    -6.4970 
  141.3750     2.2600    81.3960     5.7420     5.3380     6.0500    24.7990    -6.5800 
  141.5000     2.2690    82.4790     5.9980     5.5610     6.3660    24.7110    -6.7080 
  141.6250     2.2680    83.9250     6.3010     5.8310     6.6340    24.6860    -6.9050 
  141.7500     2.2590    83.0690     6.6380     6.1070     7.0330    24.7400    -7.1530 
  141.8750     2.2450    78.7010     6.9810     6.3570     7.3800    24.7570    -7.4520 
  142.0000     2.2310    74.9230     7.2740     6.5570     7.5640    24.5980    -7.7210 
  142.1250     2.2290    78.4160     7.4350     6.6690     7.6740    24.2420    -8.0170 
  142.2500     2.2380    84.9340     7.4560     6.6840     7.9090    23.8930    -8.3070 
  142.3750     2.2530    87.9020     7.3800     6.6080     8.0990    23.6740    -8.5920 
  142.5000     2.2660    87.6250     7.2940     6.4810     8.1190    23.5980    -8.8560 
  142.6250     2.2760    89.0330     7.3530     6.4120     7.9680    23.6000    -9.1290 
  142.7500     2.2850    90.2540     7.6650     6.5120     7.8230    23.6120    -9.3600 
  142.8750     2.2930    87.6320     8.3000     6.8640     7.9680    23.6090    -9.5720 
  143.0000     2.3010    82.0720     9.2530     7.5010     9.0160    23.5900    -9.7840 
  143.1250     2.3120    76.9690    10.4240     8.3890    11.2030    23.5640    -9.9530 
  143.2500     2.3190    74.6040    11.5330     9.3190    13.3470    23.5390   -10.1070 
  143.3750     2.3190    75.2520    12.3540    10.1020    13.9470    23.5290   -10.2390 
  143.5000     2.3120    76.9240    12.7790    10.6060    13.3180    23.5310   -10.3390 
  143.6250     2.3080    77.2910    12.8510    10.8010    12.7560    23.5510   -10.3930 
  143.7500     2.3060    76.4420    12.8190    10.8630    12.8520    23.5980   -10.4130 
  143.8750     2.3070    74.6550    12.8070    10.9030    13.2540    23.6650   -10.4000 
  144.0000     2.3070    70.9400    12.8430    10.9670    13.7270    23.7310   -10.3520 
  144.1250     2.3020    68.5410    12.8730    11.0270    13.4840    23.7580   -10.3190 
  144.2500     2.2950    70.9660    12.8280    11.0320    13.3780    23.7530   -10.2840 
  144.3750     2.2930    76.4350    12.6930    10.9610    13.1360    23.7150   -10.2810 
  144.5000     2.2940    79.8630    12.5080    10.8380    12.9390    23.6790   -10.2840 
  144.6250     2.2920    77.1580    12.3560    10.7250    12.8490    23.6520   -10.3030 
  144.7500     2.2900    72.8430    12.2910    10.6800    12.8350    23.6360   -10.3270 
  144.8750     2.2920    71.0800    12.3130    10.7270    12.9680    23.6370   -10.3700 
