~V
VERS. 2.00: Ver 2.00
~W
STRT.M 50.0000:
STOP.M 243.0000:
STEP.M 0.1250:
NULL. -999.2500:
UWI. F11115:
~C
DEPT.M :
DEN.GM/CC :
GR.API :
RML.OHMM :
RI. :
RXO.OHMM :
CALI.CM :
SP.MV :
~A
   50.0000     2.0690    39.4980    22.4040     0.8180     1.4290    25.6210    78.0870 
   50.1250     2.0690    40.6780    22.2400     0.8340     0.9540    25.6220    78.1780 
   50.2500     2.0690    40.3490    21.5990     0.8370     0.9880    25.6220    78.2310 
   50.3750     2.0690    40.2720    20.7510     0.8290     1.5140    25.6230    78.2730 
   50.5000     2.0700    41.1180    19.9640     0.8130     2.2010    25.6270    78.3060 
   50.6250     2.0750    41.6180    19.4350     0.7970     1.4180    25.6310    78.2740 
   50.7500     2.0820    42.0210    19.1200     0.7830     0.7390    25.6330    78.2160 
   50.8750     2.0910    42.2760    18.9940     0.7730     0.6490    25.6310    78.1180 
   51.0000     2.1010    41.8930    19.0790     0.7660     1.0510    25.6250    77.9420 
   51.1250     2.1080    40.9160    19.3650     0.7610     2.2520    25.6220    77.7040 
   51.2500     2.1130    39.5290    19.8490     0.7580     4.4030    25.6220    77.4600 
   51.3750     2.1180    37.6840    20.6130     0.7620     3.7250    25.6230    77.2190 
   51.5000     2.1270    34.7870    21.7020     0.7730     1.8460    25.6250    76.9620 
   51.6250     2.1420    31.7430    23.1000     0.7920     1.2250    25.6240    76.6800 
   51.7500     2.1590    32.1360    24.3550     0.8100     1.0110    25.6220    76.3960 
   51.8750     2.1760    34.2380    25.2440     0.8210     0.8350    25.6180    76.1170 
   52.0000     2.1890    35.9910    25.7870     0.8240     0.8560    25.6160    75.8450 
   52.1250     2.1960    36.9870    25.8260     0.8220     1.2480    25.6170    75.5780 
   52.2500     2.1990    37.4320    25.3480     0.8200     1.2150    25.6210    75.3200 
   52.3750     2.2000    37.6640    24.4680     0.8210     1.0550    25.6250    75.0920 
   52.5000     2.1990    37.8070    23.5800     0.8240     1.0700    25.6260    74.9110 
   52.6250     2.1920    38.9430    23.2460     0.8300     1.6890    25.6230    74.7450 
   52.7500     2.1820    38.0450    23.5240     0.8360     2.3710    25.6200    74.5840 
   52.8750     2.1730    34.4290    24.2680     0.8390     1.8700    25.6200    74.4440 
   53.0000     2.1680    33.0470    25.0740     0.8380     0.9550    25.6220    74.3380 
   53.1250     2.1710    36.4420    25.3910     0.8340     0.4770    25.6240    74.2460 
   53.2500     2.1830    40.3030    25.1350     0.8320     0.3530    25.6250    74.1790 
   53.3750     2.1970    41.7050    24.3470     0.8350     0.4480    25.6260    74.1590 
   53.5000     2.2100    41.6290    23.3690     0.8420     0.6350    25.6260    74.1640 
   53.6250     2.2130    40.4480    22.2380     0.8510     1.4410    25.6240    74.1700 
   53.7500     2.2090    37.4770    20.4420     0.8550     0.9760    25.6200    74.1710 
   53.8750     2.2020    34.1780    18.0800     0.8500     0.5260    25.6170    74.1640 
   54.0000     2.1950    33.8230    15.8390     0.8350     0.4670    25.6180    74.1480 
   54.1250     2.1850    36.3360    14.5570     0.8140     0.7090    25.6200    74.0980 
   54.2500     2.1640    37.8950    14.4630     0.7950     1.0000    25.6240    74.0070 
   54.3750     2.1320    38.5620    15.5200     0.7830     0.8580    25.6260    73.8810 
   54.5000     2.0920    41.5600    17.2680     0.7810     0.2940    25.6270    73.7470 
   54.6250     2.0570    46.3890    18.8510     0.7870     0.1300    25.6300    73.6010 
   54.7500     2.0340    50.0510    19.7020     0.7960     0.1550    25.6330    73.3850 
   54.8750     2.0260    52.7620    19.3340     0.8030     0.2330    25.6310    73.0890 
   55.0000     2.0280    55.2420    17.2610     0.8050     0.3690    25.6240    72.7600 
   55.1250     2.0360    54.6740    14.2070     0.8020     0.4510    25.6190    72.4430 
   55.2500     2.0440    52.5840    11.7750     0.7990     0.3280    25.6190    72.1130 
   55.3750     2.0540    52.6640    10.5480     0.7990     0.2890    25.6230    71.7620 
   55.5000     2.0640    55.1390    10.5060     0.8030     0.3490    25.6270    71.4060 
   55.6250     2.0700    55.1440    11.2710     0.8060     0.4760    25.6280    71.1040 
   55.7500     2.0670    51.4450    11.9560     0.8050     0.7130    25.6260    70.8680 
   55.8750     2.0560    47.7770    12.0550     0.7990     0.8950    25.6210    70.6780 
   56.0000     2.0420    47.0970    11.5240     0.7920     1.0140    25.6170    70.5060 
   56.1250     2.0370    49.3270    10.6370     0.7860     0.5540    25.6170    70.3560 
   56.2500     2.0430    49.2110     9.7850     0.7830     0.6090    25.6170    70.2420 
   56.3750     2.0510    45.4740     9.1830     0.7840     1.0490    25.6180    70.1500 
   56.5000     2.0500    41.1140     8.9110     0.7880     2.2250    25.6190    70.0620 
   56.6250     2.0310    40.0810     8.9410     0.7920     1.9580    25.6240    69.9730 
   56.7500     2.0020    41.3260     9.0170     0.7950     1.1980    25.6280    69.8690 
   56.8750     1.9740    42.4700     8.9850     0.7980     0.7930    25.6280    69.7290 
   57.0000     1.9580    42.7520     8.9010     0.8050     0.4540    25.6240    69.5150 
   57.1250     1.9670    42.4280     8.9390     0.8130     0.4970    25.6230    69.1910 
   57.2500     1.9960    42.8720     9.0960     0.8190     0.6330    25.6220    68.8130 
   57.3750     2.0410    44.2400     9.2110     0.8180     0.5720    25.6220    68.4030 
   57.5000     2.0900    44.6620     9.1250     0.8130     0.4020    25.6260    67.9570 
   57.6250     2.1280    43.0800     8.7460     0.8070     0.4330    25.6320    67.4620 
   57.7500     2.1510    40.6620     8.2180     0.8060     0.4860    25.6340    66.9590 
   57.8750     2.1570    38.5000     7.7350     0.8100     0.6810    25.6300    66.4580 
   58.0000     2.1500    37.8300     7.3900     0.8140     0.9640    25.6220    65.9220 
   58.1250     2.1380    40.7360     7.1680     0.8090     0.8880    25.6160    65.2860 
   58.2500     2.1330    44.7930     7.0890     0.7990     0.6190    25.6140    64.5400 
   58.3750     2.1420    46.4180     7.0710     0.7900     0.4800    25.6140    63.6860 
   58.5000     2.1640    45.8560     6.7620     0.7880     0.6930    25.6160    62.7290 
   58.6250     2.1880    45.2580     5.8100     0.8010     1.1210    25.6210    61.5960 
   58.7500     2.1980    43.9670     4.7170     0.8220     2.2020    25.6280    60.2710 
   58.8750     2.1870    41.7660     3.9290     0.8410     4.9850    25.6330    58.7390 
   59.0000     2.1630    41.0500     3.5380     0.8520     5.4940    25.6330    56.9950 
   59.1250     2.1400    43.1700     3.3450     0.8440     3.0790    25.6270    54.9390 
   59.2500     2.1310    44.5490     2.8900     0.8180     2.8780    25.6220    52.5580 
   59.3750     2.1450    44.6580     2.0380     0.7690     3.5750    25.6210    49.8120 
   59.5000     2.1930    44.5590     1.1750     0.6760     4.6140    25.6240    46.6290 
   59.6250     2.3320    43.1100     0.6590     0.5110     7.0130    25.6270    42.8470 
   59.7500     2.5680    40.0980     0.3650     0.3230     7.3390    25.6300    38.4370 
   59.8750     2.7880    37.4460     0.1880     0.1680     4.9560    25.6320    33.2430 
   60.0000     2.8480    36.5820     0.0850     0.0740     3.3570    25.6320    27.1020 
   60.1250     2.7330    37.9510     0.0580     0.0500     2.3440    25.6080    19.8030 
   60.2500     2.5450    41.7220     0.1140     0.1000     2.7260    25.6510    11.6980 
   60.3750     2.3460    47.5700     0.3010     0.2700     3.7800    25.9330     3.1990 
   60.5000     2.1770    53.4520     0.7100     0.6450     5.9870    26.4060    -5.1800 
   60.6250     2.0810    59.1930     1.5530     1.4030     7.1710    26.6420   -12.7730 
   60.7500     2.0530    64.0620     2.7580     2.5190     8.0700    26.5030   -19.2650 
   60.8750     2.0660    65.7090     3.7170     3.8000     9.0700    26.2480   -24.4210 
   61.0000     2.0870    64.4410     3.7160     4.9310     9.9550    26.1380   -28.1940 
   61.1250     2.1050    64.4300     3.0700     5.6940    10.0760    26.1470   -30.6090 
