~V
VERS. 2.00: Ver 2.00
~W
STRT.M 50.0000:
STOP.M 248.0000:
STEP.M 0.1250:
NULL. -999.2500:
UWI. F11129:
~C
DEPT.M :
SP.MV :
DEN.GM/CC :
GR.API :
RML.OHMM :
RI. :
RXO.OHMM :
CALI.CM :
~A
# ...
  151.2500   -21.0500     2.2510    74.2810    12.6270     9.8400    12.2770    22.4180 
  151.3750   -21.1820     2.2780    72.7790    14.5180    10.7950    15.1900    22.4270 
  151.5000   -21.3090     2.3050    69.5340    17.5310    12.7130    24.0350    22.7110 
  151.6250   -21.4110     2.3120    66.0710    21.3380    15.5160    38.1850    23.1520 
  151.7500   -21.5120     2.2900    63.1740    25.1590    18.7940    47.3800    23.5680 
  151.8750   -21.6510     2.2540    62.9980    28.0660    21.8300    44.9160    23.8060 
  152.0000   -21.8140     2.2250    66.5370    29.8210    24.1250    38.7780    23.8900 
  152.1250   -21.9470     2.2080    70.7470    30.9200    25.7710    35.3410    23.9150 
  152.2500   -22.0360     2.2010    71.5760    32.0830    27.2290    34.1680    23.9380 
  152.3750   -22.1140     2.2050    69.2910    33.6110    28.8610    34.3490    23.9770 
  152.5000   -22.2080     2.2140    67.2340    35.0800    30.5300    35.4330    24.0340 
  152.6250   -22.2810     2.2230    65.5100    35.6130    31.6120    37.1040    24.0950 
  152.7500   -22.3110     2.2240    62.3170    34.1230    31.1230    38.4830    24.1370 
  152.8750   -22.3050     2.2200    59.2120    30.2860    28.5150    38.4940    24.1350 
  153.0000   -22.2890     2.2230    60.3950    25.1630    24.4130    36.0730    24.0630 
  153.1250   -22.2830     2.2400    66.8150    20.0340    19.8710    29.2910    23.9310 
  153.2500   -22.2640     2.2620    74.4640    15.9590    15.9640    20.2510    23.8120 
  153.3750   -22.2150     2.2730    77.8750    13.3090    13.2150    14.1680    23.7660 
  153.5000   -22.1700     2.2700    76.6130    11.7810    11.4920    11.9330    23.7480 
  153.6250   -22.1740     2.2610    74.2740    11.0610    10.5730    11.1630    23.7330 
  153.7500   -22.2270     2.2570    74.3610    10.8280    10.2190    10.7170    23.6870 
  153.8750   -22.3090     2.2570    76.2780    10.7750    10.1590    10.7320    23.5980 
  154.0000   -22.4060     2.2540    76.6410    10.6920    10.1430    10.7720    23.5020 
  154.1250   -22.5070     2.2470    75.6700    10.5700    10.1040    10.3600    23.4310 
  154.2500   -22.6490     2.2370    75.3890    10.5440    10.1080     9.6600    23.3660 
  154.3750   -22.8610     2.2310    77.0350    10.7740    10.2820     9.5020    23.2730 
  154.5000   -23.0800     2.2340    80.9320    11.3150    10.7020    10.2180    23.1560 
  154.6250   -23.2440     2.2470    85.6550    12.1300    11.3640    11.4160    23.0190 
  154.7500   -23.3510     2.2570    86.9770    13.0260    12.1320    12.4710    22.8940 
  154.8750   -23.4360     2.2610    81.8950    13.6540    12.7090    13.3550    22.8280 
  155.0000   -23.5160     2.2600    74.3570    13.7050    12.7880    14.2290    22.8410 
  155.1250   -23.5810     2.2600    68.9960    13.1310    12.2760    14.7110    22.9450 
  155.2500   -23.6080     2.2640    68.7360    12.2790    11.4110    14.2710    23.0640 
  155.3750   -23.6010     2.2720    73.0920    11.7530    10.6770    12.8720    23.1680 
  155.5000   -23.6180     2.2790    77.7260    12.1020    10.5390    11.5840    23.2720 
  155.6250   -23.6850     2.2820    79.2970    13.7220    11.3550    12.1310    23.3900 
  155.7500   -23.7700     2.2760    77.2510    17.0600    13.5940    16.8350    23.5440 
  155.8750   -23.8280     2.2600    72.6780    22.3890    17.6570    27.2300    23.7330 
  156.0000   -23.8760     2.2370    67.9510    29.2480    23.3600    39.3340    23.9200 
  156.1250   -23.9660     2.2110    65.7630    36.3600    29.8290    46.4010    24.0340 
  156.2500   -24.0870     2.1910    65.6460    41.2160    35.0380    47.2940    24.0320 
  156.3750   -24.1680     2.1800    64.4890    42.0100    37.1530    45.5990    23.9720 
  156.5000   -24.1960     2.1710    62.3040    39.6730    36.3250    44.8160    23.9550 
  156.6250   -24.2180     2.1620    60.9400    35.9900    33.7480    42.6730    23.9840 
  156.7500   -24.2760     2.1590    60.6520    32.3760    30.6950    36.4220    23.9810 
  156.8750   -24.3630     2.1700    61.7310    29.4240    27.9150    29.0880    23.9390 
  157.0000   -24.4280     2.1960    65.1700    27.1020    25.5910    25.9320    23.9040 
  157.1250   -24.4500     2.2260    68.7200    25.2830    23.6950    26.6930    23.8980 
  157.2500   -24.4640     2.2480    68.4120    23.8420    22.1780    26.6660    23.8860 
  157.3750   -24.5280     2.2610    64.3950    22.6490    20.9590    22.8250    23.8360 
  157.5000   -24.6440     2.2680    60.3900    21.5590    19.9080    19.1450    23.7560 
  157.6250   -24.7650     2.2730    59.1800    20.4790    18.9260    18.8130    23.6630 
  157.7500   -24.8270     2.2770    61.4810    19.3280    17.9230    21.4230    23.5800 
  157.8750   -24.8430     2.2790    65.8160    18.0720    16.8420    23.2070    23.5370 
  158.0000   -24.8900     2.2790    69.9470    16.7860    15.7120    21.5640    23.5260 
  158.1250   -24.9660     2.2760    72.4810    15.6390    14.6480    17.9230    23.4690 
  158.2500   -25.0210     2.2710    72.1670    14.8810    13.8480    15.0670    23.3120 
  158.3750   -25.0190     2.2670    69.4040    14.7060    13.4980    14.2020    23.1670 
  158.5000   -24.9800     2.2630    67.1890    15.1170    13.6550    14.0560    23.1860 
  158.6250   -24.9370     2.2570    67.4410    16.0330    14.2990    14.2200    23.3160 
  158.7500   -24.9250     2.2540    69.4540    17.1880    15.2550    15.2510    23.4330 
  158.8750   -24.9140     2.2540    71.6340    18.1040    16.1330    16.6820    23.4660 
  159.0000   -24.8740     2.2550    73.0110    18.2850    16.4570    17.4980    23.3670 
  159.1250   -24.8320     2.2550    74.6190    17.5210    15.9620    17.9790    23.1590 
  159.2500   -24.8290     2.2600    77.5240    16.0020    14.7310    18.2380    22.9930 
  159.3750   -24.8540     2.2740    79.9840    14.2480    13.1720    17.0490    22.9800 
  159.5000   -24.8420     2.2900    78.9350    12.7750    11.7530    14.2110    23.0560 
  159.6250   -24.7730     2.3000    75.5150    11.8220    10.7120    11.6410    23.1390 
  159.7500   -24.6800     2.3020    73.8530    11.5110    10.1880    11.1500    23.1870 
  159.8750   -24.6120     2.2980    74.6110    11.8650    10.2230    12.2780    23.1200 
  160.0000   -24.5800     2.2880    75.0250    12.7850    10.7540    13.2420    22.9570 
  160.1250   -24.5570     2.2710    74.0590    14.1820    11.7360    14.3780    22.8240 
  160.2500   -24.5140     2.2520    71.7710    15.8250    13.0300    15.9930    22.7910 
  160.3750   -24.4550     2.2470    68.8220    17.2630    14.3140    16.3500    22.7730 
  160.5000   -24.4150     2.2650    66.0630    17.9450    15.1070    15.7970    22.6460 
  160.6250   -24.4240     2.3000    64.6280    17.4920    15.0110    15.7770    22.4490 
  160.7500   -24.4870     2.3270    65.4120    15.9430    13.9230    15.7850    22.3130 
  160.8750   -24.5800     2.3240    68.6690    13.9020    12.2550    14.2040    22.3000 
  161.0000   -24.6400     2.2990    72.9210    12.1430    10.6650    11.8140    22.3390 
  161.1250   -24.6440     2.2740    75.8020    11.0290     9.4990    10.2490    22.3310 
  161.2500   -24.6420     2.2650    77.0890    10.6650     8.8950    10.3330    22.3240 
  161.3750   -24.6940     2.2690    77.8130    10.9430     8.8250    11.5010    22.4370 
  161.5000   -24.8110     2.2780    78.2310    11.5780     9.1160    12.9020    22.6800 
  161.6250   -24.9430     2.2830    77.5190    12.3320     9.6080    13.1520    22.8920 
  161.7500   -25.0310     2.2800    76.1360    13.0120    10.1310    11.9920    22.8750 
  161.8750   -25.0770     2.2690    75.2740    13.5510    10.5790    11.3320    22.6780 
  162.0000   -25.1490     2.2580    74.6290    13.9890    10.9410    12.0220    22.5220 
  162.1250   -25.2680     2.2540    74.6670    14.3180    11.2260    12.9200    22.4720 
  162.2500   -25.3730     2.2570    75.9570    14.3990    11.3690    13.5050    22.4950 
  162.3750   -25.3930     2.2660    77.4270    14.0480    11.2480    13.6200    22.5480 
