~V
VERS. 2.00: Ver 2.00
~W
STRT.M 51.0000:
STOP.M 277.0000:
STEP.M 0.1250:
NULL. -999.2500:
UWI. F11147:
~C
DEPT.M :
DEN.GM/CC :
GR.API :
RML.OHMM :
RI. :
RXO.OHMM :
CALI.CM :
SP.MV :
~A
# ...
  264.7500     2.5080    64.6140    11.0240    10.3960    11.2350    23.7170   -13.4700 
  264.8750     2.5240    64.6140    11.0530    10.3780    11.1510    23.6740   -13.5670 
  265.0000     2.5340    64.6140    11.0560    10.3410    11.2230    23.6570   -13.6350 
  265.1250     2.5370    64.6140    11.0290    10.2980    11.3920    23.6520   -13.6860 
  265.2500     2.5340    64.6140    10.9820    10.2630    11.5200    23.6510   -13.7210 
  265.3750     2.5190    64.6140    10.9360    10.2480    11.6420    23.6400   -13.7180 
  265.5000     2.4920    64.6140    10.9120    10.2600    12.0940    23.6120   -13.6960 
  265.6250     2.4620    64.6140    10.9350    10.2980    13.6290    23.5750   -13.6700 
  265.7500     2.4450    64.6140    11.0340    10.3560    16.9150    23.5410   -13.6350 
  265.8750     2.4510    64.6140    11.2390    10.4300    20.3980    23.5540   -13.5760 
  266.0000     2.4700    64.6140    11.5210    10.5220    20.6990    23.5870   -13.5250 
  266.1250     2.4900    64.6140    11.8450    10.6480    17.9340    23.5970   -13.4980 
  266.2500     2.5060    64.6140    12.1810    10.8290    14.9950    23.5940   -13.4770 
  266.3750     2.5200    64.6140    12.5250    11.1110    13.1020    23.6040   -13.4510 
  266.5000     2.5300    64.6140    12.8940    11.5010    12.4680    23.6250   -13.4770 
  266.6250     2.5330    64.6140    13.2990    12.0000    12.8650    23.6480   -13.5070 
  266.7500     2.5350    64.6140    13.6980    12.5630    14.2190    23.6460   -13.5620 
  266.8750     2.5400    64.6140    13.9310    13.0370    16.2380    23.6210   -13.6170 
  267.0000     2.5470    64.6140    13.8540    13.2360    17.7720    23.6100   -13.6440 
  267.1250     2.5520    64.6140    13.4100    13.0480    17.8530    23.6310   -13.6760 
  267.2500     2.5520    64.6140    12.6760    12.4900    15.8180    23.6540   -13.7330 
  267.3750     2.5450    64.6140    11.8440    11.7010    13.3030    23.6650   -13.8020 
  267.5000     2.5310    64.6140    11.1270    10.9450    11.1990    23.6980   -13.8400 
  267.6250     2.5120    64.6140    10.6110    10.3600     9.8530    23.7800   -13.8600 
  267.7500     2.4920    64.6140    10.2840     9.9850     8.7470    23.8610   -13.8430 
  267.8750     2.4810    64.6140    10.1290     9.7980     8.0130    23.8710   -13.8140 
  268.0000     2.4800    64.6140    10.1040     9.6990     7.6550    23.8720   -13.7600 
  268.1250     2.4840    64.6140    10.1870     9.6300     7.8550    23.9060   -13.6980 
  268.2500     2.4870    64.6140    10.3320     9.5570     8.2100    23.9430   -13.6230 
  268.3750     2.4910    64.6140    10.4960     9.4860     8.3020    23.8740   -13.5150 
  268.5000     2.5040    64.6140    10.6400     9.4350     8.2190    23.7840   -13.3970 
  268.6250     2.5190    64.6140    10.7360     9.4060     8.0910    23.7590   -13.2570 
  268.7500     2.5260    64.6140    10.7600     9.3970     7.9880    23.8260   -13.1160 
  268.8750     2.5210    64.6140    10.7280     9.4050     8.1470    23.9020   -13.0020 
  269.0000     2.5150    64.6140    10.6910     9.4190     8.4310    23.8240   -12.9270 
  269.1250     2.5140    64.6140    10.6760     9.4280     8.7010    23.6340   -12.8660 
  269.2500     2.5150    64.6140    10.6950     9.4260     8.8390    23.5210   -12.8110 
  269.3750     2.5140    64.6140    10.7420     9.4170     9.1090    23.5080   -12.8190 
  269.5000     2.5100    64.6140    10.7910     9.4000     9.2990    23.5080   -12.8690 
  269.6250     2.5070    64.6140    10.8280     9.3740     9.4200    23.5030   -12.9560 
  269.7500     2.5050    64.6140    10.8540     9.3360     9.3290    23.4930   -13.0610 
  269.8750     2.5080    64.6140    10.8830     9.2930     9.0770    23.4780   -13.1670 
  270.0000     2.5100    64.6140    10.9130     9.2610     8.5430    23.4840   -13.2720 
  270.1250     2.5070    64.6140    10.9200     9.2470     8.1910    23.4880   -13.3860 
  270.2500     2.5020    64.6140    10.8920     9.2550     7.9940    23.4820   -13.4830 
  270.3750     2.5000    64.6140    10.8610     9.2690     7.7970    23.4410   -13.5310 
  270.5000     2.4990    64.6140    10.8610     9.2690     7.5840    23.3860   -13.5470 
  270.6250     2.4940    64.6140    10.8610     9.2690     7.5060    23.3620   -13.5440 
  270.7500     2.4880    64.6140    10.8610     9.2690     7.4510    23.3570   -13.6110 
  270.8750     2.4860    64.6140    10.8610     9.2690     7.5900    23.3560   -13.7360 
  271.0000     2.4890    64.6140    10.8610     9.2690     7.7280    23.3550   -13.8400 
  271.1250     2.4960    64.6140    10.8610     9.2690     7.9870    23.3550   -13.9430 
  271.2500     2.5030    64.6140    10.8610     9.2690     8.3300    23.3520   -14.0260 
  271.3750     2.5130    64.6140    10.8610     9.2690     8.8090    23.3150   -14.1340 
  271.5000     2.5260    64.6140    10.8610     9.2690     9.4680    23.2490   -14.2520 
  271.6250     2.5370    64.6140    10.8610     9.2690     9.7850    23.2200   -14.3870 
  271.7500     2.5450    64.6140    10.8610     9.2690     9.8580    23.2690   -14.4160 
  271.8750     2.5480    64.6140    10.8610     9.2690     9.9390    23.3290   -14.4160 
  272.0000     2.5470    64.6140    10.8610     9.2690    10.0250    23.3460   -14.4160 
  272.1250     2.5410    64.6140    10.8610     9.2690    10.0050    23.3270  -999.2500 
  272.2500     2.5300    64.6140    10.8610     9.2690    10.0320    23.2910  -999.2500 
  272.3750     2.5160    64.6140    10.8610     9.2690    10.1440    23.2410  -999.2500 
  272.5000     2.4950    64.6140    10.8610     9.2690    10.4100    23.0880  -999.2500 
  272.6250     2.4660    64.6140    10.8610     9.2690    10.8690    22.6840  -999.2500 
  272.7500     2.4460    64.6140    10.8610     9.2690    11.0230    22.1640  -999.2500 
  272.8750     2.4330    64.6140    10.8610     9.2690    10.2380    21.8670  -999.2500 
  273.0000     2.4080    64.6140    10.8610     9.2690     8.6480    21.2140  -999.2500 
  273.1250     2.3370    64.6140    10.8610     9.2690     6.7460    19.5700  -999.2500 
  273.2500     2.2120    64.6140    10.8610     9.2690     5.5280    17.3420  -999.2500 
  273.3750     2.0580    64.6140    10.8610     9.2690     5.1900    16.3510  -999.2500 
  273.5000     1.9310    64.6140    10.8610     9.2690     5.1430    16.1020  -999.2500 
  273.6250     1.8670    64.6140    10.8610     9.2690     5.1420    16.1020  -999.2500 
  273.7500     1.8470    64.6140    10.8610     9.2690     5.1410    16.1020  -999.2500 
  273.8750     1.8450    64.6140    10.8610     9.2690     5.1410    16.1020  -999.2500 
  274.0000     1.8450    64.6140    10.8610     9.2690     5.1380    16.1020  -999.2500 
  274.1250     1.8420    64.6140    10.8610     9.2690     5.1380    16.1020  -999.2500 
  274.2500     1.8400    64.6140    10.8610     9.2690     5.1370    16.1020  -999.2500 
  274.3750     1.8380    64.6140    10.8610     9.2690     5.1370    16.1020  -999.2500 
  274.5000     1.8380    64.6140    10.8610     9.2690     5.1370    16.1020  -999.2500 
  274.6250     1.8380    64.6140    10.8610     9.2690     5.1380    16.1010  -999.2500 
  274.7500     1.8380    64.6140    10.8610     9.2690     5.1380    16.0960  -999.2500 
  274.8750     1.8370    64.6140    10.8610     9.2690     5.1360    16.0890  -999.2500 
  275.0000     1.8380    64.6140    10.8610     9.2690     5.1350    16.0840  -999.2500 
  275.1250     1.8380    64.6140    10.8610     9.2690     5.1360    16.0830  -999.2500 
  275.2500     1.8390  -999.2500  -999.2500  -999.2500  -999.2500  -999.2500  -999.2500 
  275.3750     1.8410  -999.2500  -999.2500  -999.2500  -999.2500  -999.2500  -999.2500 
  275.5000     1.8420  -999.2500  -999.2500  -999.2500  -999.2500  -999.2500  -999.2500 
  275.6250     1.8430  -999.2500  -999.2500  -999.2500  -999.2500  -999.2500  -999.2500 
  275.7500     1.8430  -999.2500  -999.2500  -999.2500  -999.2500  -999.2500  -999.2500 
  275.8750     1.8430  -999.2500  -999.2500  -999.2500  -999.2500  -999.2500  -999.2500 
