~V
VERS. 2.00: Ver 2.00
~W
STRT.M 50.0000:
STOP.M 243.0000:
STEP.M 0.1250:
NULL. -999.2500:
UWI. F11115:
~C
DEPT.M :
DEN.GM/CC :
GR.API :
RML.OHMM :
RI. :
RXO.OHMM :
CALI.CM :
SP.MV :
~A
# ...
  128.7500     2.2360    79.3910     5.4920     4.8070     5.5320    26.2900   -25.2410 
  128.8750     2.2090    73.2310     6.6570     5.5890     6.3840    26.2950   -25.2910 
  129.0000     2.1810    68.2030     8.5200     6.8190     8.6860    26.3020   -25.3810 
  129.1250     2.1740    66.1320    10.7670     8.3400    14.2140    26.3060   -25.5010 
  129.2500     2.1910    65.7070    12.4200     9.5680    19.8700    26.2950   -25.6170 
  129.3750     2.2200    66.1390    12.6270     9.9520    20.2420    26.2560   -25.7380 
  129.5000     2.2400    67.4080    11.3240     9.3600    15.1510    26.1930   -25.8800 
  129.6250     2.2340    71.1830     9.3640     8.1870    10.5200    26.1460   -26.0230 
  129.7500     2.2120    77.3310     7.7470     7.0760     8.0270    26.1320   -26.1420 
  129.8750     2.1890    81.8330     6.7280     6.2680     8.1310    26.1350   -26.2280 
  130.0000     2.1820    81.2900     6.2580     5.8290     8.7650    26.1380   -26.2790 
  130.1250     2.2100    77.0290     6.3190     5.8170     8.7340    26.1470   -26.2580 
  130.2500     2.2750    74.7030     6.8490     6.1730     8.0210    26.1360   -26.1320 
  130.3750     2.3720    75.4870     7.9050     6.9050     8.3200    26.0930   -25.8860 
  130.5000     2.4720    77.1050     9.4350     7.9790    10.3880    26.0590   -25.5420 
  130.6250     2.5170    77.7180    11.0750     9.2040    13.7850    26.0850   -25.1480 
  130.7500     2.4970    76.8180    12.0890    10.1020    16.4200    26.1300   -24.7470 
  130.8750     2.4350    74.5050    11.8820    10.2150    17.8230    26.1480   -24.3450 
  131.0000     2.3670    72.7220    10.4390     9.4110    18.0380    26.1440   -23.9810 
  131.1250     2.3210    74.9310     8.4610     8.0310    11.8050    26.1430   -23.7350 
  131.2500     2.3020    83.1010     6.8160     6.7110     7.5040    26.1440   -23.6000 
  131.3750     2.2980    92.9030     5.7420     5.6990     5.8710    26.1530   -23.5220 
  131.5000     2.2950    97.7720     5.1720     5.0270     5.3210    26.1690   -23.4620 
  131.6250     2.2850    95.7870     4.9790     4.6660     5.1430    26.1930   -23.4450 
  131.7500     2.2800    93.9060     4.9640     4.4910     5.0770    26.2190   -23.4580 
  131.8750     2.2950    94.0820     5.0920     4.4810     5.1250    26.2490   -23.4750 
  132.0000     2.3370    93.5690     5.4320     4.6690     5.2580    26.2780   -23.4730 
  132.1250     2.4070    90.8570     6.1920     5.1930     5.7770    26.2930   -23.4270 
  132.2500     2.4770    87.0650     7.4480     6.0940     7.3370    26.2970   -23.3360 
  132.3750     2.5250    80.4060     9.2100     7.4020    10.7240    26.3210   -23.2030 
  132.5000     2.5410    70.7580    11.3100     9.0370    16.7730    26.3860   -23.0280 
  132.6250     2.5340    61.7980    13.3050    10.7220    18.5340    26.4650   -22.8180 
  132.7500     2.5300    57.2690    14.7690    12.0810    17.5020    26.5210   -22.6220 
  132.8750     2.5380    55.9650    15.6200    12.9560    16.4450    26.5550   -22.4830 
  133.0000     2.5580    55.0190    16.1240    13.4560    17.3190    26.5840   -22.3870 
  133.1250     2.5790    52.6340    16.6890    13.8340    19.0420    26.3600   -22.3410 
  133.2500     2.5870    50.4640    17.4340    14.2520    19.5180    26.4990   -22.3510 
  133.3750     2.5760    50.3150    18.1350    14.6310    19.5250    26.6510   -22.3810 
  133.5000     2.5490    51.2210    18.4160    14.7810    20.5310    26.6870   -22.3950 
  133.6250     2.5180    51.1540    17.9170    14.4970    20.5220    26.6280   -22.3820 
  133.7500     2.4980    51.5260    16.9600    13.9380    18.4940    26.5310   -22.3630 
  133.8750     2.4980    55.3590    16.0550    13.3680    15.3110    26.3910   -22.3420 
  134.0000     2.5150    61.0560    15.7220    13.0800    13.6770    26.2690   -22.3140 
  134.1250     2.5350    61.0580    16.4410    13.3780    14.3110    26.2500   -22.2790 
  134.2500     2.5400    56.0590    18.0410    14.2370    16.2100    26.3080   -22.2380 
  134.3750     2.5270    52.9000    20.1630    15.5170    19.8410    26.3780   -22.2210 
  134.5000     2.5060    54.7600    22.1510    16.8770    24.4160    26.4050   -22.2310 
  134.6250     2.4920    57.6350    23.0160    17.7090    24.9990    26.4010   -22.2390 
  134.7500     2.4900    59.1130    22.5850    17.7740    22.3080    26.3970   -22.2550 
  134.8750     2.4960    59.4410    21.2500    17.1990    20.1470    26.4070   -22.3110 
  135.0000     2.4980    58.7390    19.7080    16.3500    18.2140    26.4470   -22.4260 
  135.1250     2.4880    56.6070    18.6350    15.6270    16.9400    26.4960   -22.5640 
  135.2500     2.4730    54.8120    18.1790    15.2010    17.0620    26.5060   -22.7010 
  135.3750     2.4640    53.9310    18.2820    15.1030    17.4570    26.4480   -22.8540 
  135.5000     2.4670    52.6420    18.8080    15.3140    17.7520    26.3070   -23.0210 
  135.6250     2.4790    50.6210    19.6150    15.8090    18.1500    26.1300   -23.1620 
  135.7500     2.4860    48.4670    20.4650    16.4250    19.6140    26.0500   -23.2570 
  135.8750     2.4830    47.4480    21.1910    17.0230    22.0810    26.1220   -23.3120 
  136.0000     2.4740    48.6590    21.6970    17.4950    24.3950    26.2790   -23.3420 
  136.1250     2.4730    50.9420    21.9650    17.7840    23.7580    26.3690   -23.3590 
  136.2500     2.4820    53.3910    22.1210    17.9650    22.0980    26.3450   -23.3580 
  136.3750     2.4940    55.4440    22.2550    18.0990    21.0460    26.2370   -23.3210 
  136.5000     2.4990    56.4290    22.3830    18.2070    22.1080    26.1040   -23.2680 
  136.6250     2.4910    56.7830    22.3490    18.2120    23.3650    26.0700   -23.2230 
  136.7500     2.4750    56.8870    22.0010    18.0240    23.2260    26.1360   -23.1630 
  136.8750     2.4590    58.1780    21.3180    17.6100    21.1050    26.2260   -23.0620 
  137.0000     2.4440    60.3860    20.4360    17.0420    20.3310    26.2730   -22.9370 
  137.1250     2.4340    60.8810    19.6180    16.4900    19.3740    26.2690   -22.8310 
  137.2500     2.4340    58.9600    19.0920    16.1260    18.9330    26.2790   -22.7540 
  137.3750     2.4450    56.2450    18.9810    16.0400    19.1380    26.2390   -22.6820 
  137.5000     2.4670    55.2150    19.2790    16.2230    20.1770    26.0200   -22.5890 
  137.6250     2.4900    55.5380    19.8550    16.5830    20.4650    25.5590   -22.4870 
  137.7500     2.5050    52.5520    20.3950    16.9260    20.6130    25.1970   -22.3930 
  137.8750     2.5090    46.9520    20.6360    17.1080    21.4730    25.2740   -22.2940 
  138.0000     2.5050    43.7710    20.3790    17.0150    21.6440    26.3470   -22.1710 
  138.1250     2.4990    46.3450    19.6000    16.5880    20.1200    26.3190   -22.0360 
  138.2500     2.4930    49.5230    18.6880    16.0130    18.4590    26.2880   -21.9380 
  138.3750     2.4850    49.9710    17.9300    15.4530    17.6960    26.2570   -21.9050 
  138.5000     2.4770    49.8700    17.4700    15.0230    17.2360    26.2240   -21.9200 
  138.6250     2.4700    52.6720    17.3360    14.7950    16.8190    26.1760   -21.9660 
  138.7500     2.4700    56.7370    17.3370    14.6980    17.2550    26.1170   -22.0380 
  138.8750     2.4770    59.6740    17.2950    14.6340    18.2810    26.0570   -22.1480 
  139.0000     2.4870    60.9300    17.0810    14.5070    17.4260    25.9940   -22.2800 
  139.1250     2.4940    60.0900    16.6720    14.2560    15.9660    25.9330   -22.3880 
  139.2500     2.4940    57.9250    16.2220    13.9330    15.4110    25.8920   -22.4600 
  139.3750     2.4920    55.9250    15.8680    13.6220    15.1270    25.8780   -22.4900 
  139.5000     2.4920    56.1040    15.6890    13.4000    14.6680    25.8780   -22.4890 
  139.6250     2.4930    57.6370    15.7080    13.3250    14.0050    25.8740   -22.4440 
  139.7500     2.4940    58.8690    15.8360    13.3630    14.5640    25.8710   -22.3750 
  139.8750     2.4900    58.8460    16.0270    13.4870    16.8210    25.8710   -22.2950 
