~V
VERS. 2.00: Ver 2.00
~W
STRT.M 52.0000:
STOP.M 240.0000:
STEP.M 0.1250:
NULL. -999.2500:
UWI. F11139:
~C
DEPT.M :
GR.API :
RML.OHMM :
RI. :
RXO.OHMM :
CALI.CM :
SP.MV :
DEN.GM/CC :
~A
# ...
  108.2500    72.1890     7.8110     6.5550    11.8800    25.7870   -18.0480     2.1610 
  108.3750    69.8330     7.8680     6.6370    11.7400    25.9110   -19.1070     2.1360 
  108.5000    70.2070     7.8440     6.6290    11.0650    25.9510   -19.9160     2.1240 
  108.6250    71.3460     7.7920     6.5740    10.6240    25.8650   -20.4180     2.1270 
  108.7500    72.8940     7.7680     6.5320    10.6510    25.7510   -20.6300     2.1330 
  108.8750    73.7930     7.7970     6.5350    11.0320    25.7830   -20.6040     2.1280 
  109.0000    73.6110     7.8930     6.5950    11.4410    26.0290   -20.4590     2.1030 
  109.1250    72.8940     8.0730     6.7260    11.6230    26.3240   -20.2700     2.0750 
  109.2500    72.4510     8.3290     6.9220    11.8290    26.4550   -20.0710     2.0610 
  109.3750    72.4830     8.6510     7.1830    11.8370    26.5110   -19.8360     2.0600 
  109.5000    71.5340     9.0090     7.4970    11.6630    26.5730   -19.5560     2.0600 
  109.6250    70.0340     9.3400     7.8250    11.4760    26.5130   -19.1850     2.0620 
  109.7500    68.1510     9.5700     8.1060    11.4410    26.2540   -18.7440     2.0770 
  109.8750    65.8940     9.6470     8.2830    11.5720    25.8710   -18.2300     2.1080 
  110.0000    64.7860     9.5430     8.3150    11.5780    25.5610   -17.6210     2.1390 
  110.1250    67.1020     9.2420     8.1630    11.3160    25.3740   -16.8730     2.1540 
  110.2500    70.4530     8.8170     7.8690    10.7930    25.2740   -15.9940     2.1540 
  110.3750    71.6220     8.3170     7.4720    10.0210    25.2400   -14.9960     2.1530 
  110.5000    70.5080     7.8050     7.0240     9.1750    25.2900   -13.8610     2.1550 
  110.6250    71.9100     7.3730     6.6000     8.5420    25.4000   -12.6100     2.1680 
  110.7500    77.2380     7.0730     6.2640     8.0000    25.4850   -11.3590     2.1960 
  110.8750    83.6340     6.9160     6.0470     7.2260    25.4410   -10.0800     2.2380 
  111.0000    88.2840     6.8600     5.9360     6.9370    25.2260    -8.7520     2.2830 
  111.1250    89.3460     6.8090     5.8730     7.1800    24.8790    -7.4170     2.3260 
  111.2500    88.8010     6.6770     5.7730     7.4520    24.6170    -6.1650     2.3630 
  111.3750    89.3410     6.4470     5.5950     7.1380    24.6950    -5.0770     2.3830 
  111.5000    92.2440     6.1710     5.3560     6.2390    25.0740    -4.1990     2.3790 
  111.6250    97.0100     5.9700     5.1450     5.5180    25.4900    -3.5870     2.3520 
  111.7500   100.4180     5.9030     5.0360     5.2920    25.7330    -3.0730     2.3170 
  111.8750   100.4750     5.9540     5.0490     5.6380    25.7730    -2.6090     2.2800 
  112.0000    97.8600     6.0490     5.1430     6.2170    25.7030    -2.1910     2.2500 
  112.1250    96.1420     6.0790     5.2350     6.5600    25.6390    -1.8540     2.2370 
  112.2500    97.3000     5.9980     5.2480     6.3380    25.6430    -1.6200     2.2450 
  112.3750   100.5510     5.8250     5.1670     5.7250    25.7020    -1.4560     2.2690 
  112.5000   104.4200     5.6210     5.0220     5.3090    25.7340    -1.2760     2.2950 
  112.6250   107.1600     5.4550     4.8750     5.2730    25.7040    -0.9740     2.3100 
  112.7500   107.5530     5.3480     4.7670     5.3050    25.6540    -0.6040     2.3200 
  112.8750   106.6670     5.2820     4.7020     5.2550    25.6310    -0.2350     2.3310 
  113.0000   106.7850     5.2340     4.6620     5.1100    25.6340     0.0730     2.3390 
  113.1250   108.9960     5.1860     4.6240     4.9460    25.6810     0.2880     2.3300 
  113.2500   110.5800     5.1410     4.5770     4.9050    25.7500     0.4360     2.3130 
  113.3750   110.0290     5.1140     4.5300     4.9240    25.8090     0.5620     2.2980 
  113.5000   108.3810     5.1160     4.4960     4.9410    25.8090     0.6650     2.2870 
  113.6250   107.2190     5.1640     4.4960     4.9470    25.7120     0.6410     2.2820 
  113.7500   106.2010     5.2520     4.5360     5.0100    25.5350     0.4700     2.2890 
  113.8750   105.6950     5.3680     4.6110     5.1310    25.3170     0.1800     2.3050 
  114.0000   106.4450     5.4930     4.7060     5.2840    25.0620    -0.1650     2.3180 
  114.1250   104.8870     5.6090     4.8010     5.4680    24.6880    -0.5690     2.3110 
  114.2500   100.1660     5.7280     4.8910     5.6730    24.2150    -0.9800     2.2880 
  114.3750    97.1690     5.8970     5.0030     5.8200    23.8630    -1.4540     2.2660 
  114.5000    98.2260     6.1890     5.1920     5.9150    23.9070    -2.0570     2.2610 
  114.6250    98.5850     6.7070     5.5620     6.2320    24.3960    -2.6700     2.2650 
  114.7500    95.1330     7.4240     6.1270     7.0020    25.0090    -3.2290     2.2640 
  114.8750    89.8830     8.2530     6.8530     8.1330    25.5230    -3.8190     2.2720 
  115.0000    85.3450     9.0350     7.6300     9.2520    25.6700    -4.5650     2.3100 
  115.1250    83.5960     9.5190     8.2460    10.0880    25.4780    -5.5130     2.3580 
  115.2500    83.7890     9.6510     8.5450    10.3070    25.2420    -6.5950     2.3560 
  115.3750    84.0000     9.4330     8.4710    10.3870    25.0420    -7.7540     2.2910 
  115.5000    83.4560     9.0420     8.1090    10.5830    25.0040    -8.9230     2.2100 
  115.6250    84.0510     8.7140     7.6390    10.4570    25.1770   -10.2260     2.1610 
  115.7500    85.9900     8.3700     7.2440     9.7830    25.3430   -11.6240     2.1450 
  115.8750    87.3180     8.1500     6.9860     9.0650    25.4010   -12.9990     2.1460 
  116.0000    87.1570     8.0670     6.8630     9.1630    25.4130   -14.1540     2.1520 
  116.1250    85.8810     8.0750     6.8570     9.7180    25.4350   -15.0120     2.1510 
  116.2500    84.0020     8.1280     6.9130     9.9680    25.4510   -15.7410     2.1450 
  116.3750    82.0440     8.2130     7.0130     9.8500    25.4500   -16.4250     2.1380 
  116.5000    80.1100     8.3270     7.1450     9.7230    25.4260   -17.0100     2.1280 
  116.6250    78.7670     8.4710     7.3050    10.0290    25.3630   -17.3080     2.1070 
  116.7500    77.0070     8.6190     7.4700    10.4890    25.2240   -17.2670     2.0750 
  116.8750    74.4490     8.7350     7.6110    10.7160    24.9400   -17.0010     2.0480 
  117.0000    73.1790     8.7830     7.6940    10.6860    24.4400   -16.6750     2.0480 
  117.1250    75.5710     8.7340     7.6760    10.5970    23.8370   -16.4020     2.0840 
  117.2500    80.2580     8.6360     7.5840    10.5380    23.4750   -16.0520     2.1280 
  117.3750    83.9010     8.5650     7.4710    10.4750    23.4660   -15.5110     2.1560 
  117.5000    85.0930     8.6290     7.4310    10.5050    23.6510   -14.7640     2.1650 
  117.6250    84.7240     8.9900     7.6160    10.6910    23.6700   -13.8760     2.1730 
  117.7500    84.5650     9.6520     8.0780    11.2120    23.7130   -12.9090     2.1890 
  117.8750    84.5400    10.5460     8.8060    12.5650    23.8650   -11.8180     2.2040 
  118.0000    82.5110    11.5000     9.6960    14.6540    24.2110   -10.5710     2.2100 
  118.1250    78.3350    12.2550    10.5400    16.7360    24.7070    -9.1030     2.2100 
  118.2500    74.7960    12.7110    11.1680    17.8470    25.0840    -7.5130     2.2200 
  118.3750    73.0530    12.9470    11.5600    16.2910    25.1090    -5.9280     2.2450 
  118.5000    71.3580    13.1990    11.8640    12.6170    24.7980    -4.4370     2.2800 
  118.6250    68.6240    13.7520    12.3440    11.6360    24.3180    -3.1770     2.3270 
  118.7500    66.7090    14.5170    13.0360    13.2520    23.9560    -2.2060     2.3800 
  118.8750    65.8330    15.1740    13.7380    15.9750    23.8870    -1.5520     2.4170 
  119.0000    64.6560    15.3110    14.1050    18.2640    24.1020    -1.1470     2.4160 
  119.1250    63.7440    14.5380    13.6890    18.1260    24.4610    -0.9740     2.3790 
  119.2500    65.0350    13.2150    12.6300    15.3980    24.6900    -0.8850     2.3390 
  119.3750    68.9640    11.9700    11.3950    11.8150    24.6840    -0.7870     2.3130 
