~V
VERS. 2.00: Ver 2.00
~W
STRT.M 50.0000:
STOP.M 248.0000:
STEP.M 0.1250:
NULL. -999.2500:
UWI. F11129:
~C
DEPT.M :
SP.MV :
DEN.GM/CC :
GR.API :
RML.OHMM :
RI. :
RXO.OHMM :
CALI.CM :
~A
# ...
  241.2500   -13.8210     2.4840    64.3140    12.0570    10.8260    14.0490    24.0000 
  241.3750   -13.8120     2.4750    64.3140    12.1780    10.8530    12.9680    23.9590 
  241.5000   -13.8050     2.4620    64.3140    12.2400    10.8600    12.0440    23.8610 
  241.6250   -13.7930     2.4490    64.3140    12.2830    10.8570    11.2610    23.7530 
  241.7500   -13.7730     2.4440    64.3140    12.3220    10.8540    10.7800    23.7370 
  241.8750   -13.7500     2.4520    64.3140    12.3500    10.8530    10.8630    23.8150 
  242.0000   -13.7090     2.4630    64.3140    12.3600    10.8550    11.1310    23.8730 
  242.1250   -13.6650     2.4640    64.3140    12.3560    10.8560    11.0340    23.8660 
  242.2500   -13.6340     2.4550    64.3140    12.3500    10.8560    11.0260    23.8170 
  242.3750   -13.6300     2.4470    64.3140    12.3500    10.8560    11.7680    23.8030 
  242.5000   -13.6320     2.4490    64.3140    12.3500    10.8560    13.1640    23.8960 
  242.6250   -13.6240     2.4590    64.3140    12.3500    10.8560    14.8080    24.0300 
  242.7500   -13.6340     2.4710    64.3140    12.3500    10.8560    16.5080    24.0750 
  242.8750   -13.6680     2.4780    64.3140    12.3500    10.8560    18.3960    24.0410 
  243.0000   -13.6990     2.4790    64.3140    12.3500    10.8560    20.8220    24.0360 
  243.1250   -13.7100     2.4730    64.3140    12.3500    10.8560    23.2070    24.0880 
  243.2500   -13.7210     2.4600    64.3140    12.3500    10.8560    23.4170    24.1550 
  243.3750   -13.7190     2.4480    64.3140    12.3500    10.8560    21.8380    24.2020 
  243.5000   -13.6930     2.4480    64.3140    12.3500    10.8560    21.1240    24.2120 
  243.6250   -13.6730     2.4610    64.3140    12.3500    10.8560    21.1580    24.1660 
  243.7500   -13.6470     2.4820    64.3140    12.3500    10.8560    22.3570    24.0800 
  243.8750   -13.6500     2.5050    64.3140    12.3500    10.8560    23.6880    23.9940 
  244.0000   -13.7550     2.5260    64.3140    12.3500    10.8560    23.8170    23.9070 
  244.1250   -13.9230     2.5440    64.3140    12.3500    10.8560    25.4660    23.8160 
  244.2500   -14.0850     2.5550    64.3140    12.3500    10.8560    27.6060    23.7530 
  244.3750   -14.2420     2.5550    64.3140    12.3500    10.8560    27.3360    23.7510 
  244.5000   -14.4070     2.5460    64.3140    12.3500    10.8560    25.4510    23.7770 
  244.6250   -14.5660     2.5340    64.3140    12.3500    10.8560    23.4120    23.7780 
  244.7500   -14.7150     2.5290    64.3140    12.3500    10.8560    21.5340    23.7790 
  244.8750   -14.8020     2.5300    64.3140    12.3500    10.8560    19.6310    23.8080 
  245.0000   -14.8120     2.5320    64.3140    12.3500    10.8560    18.5600    23.8390 
  245.1250   -14.8180     2.5290    64.3140    12.3500    10.8560    18.3600    23.8400 
  245.2500  -999.2500     2.5170    64.3140    12.3500    10.8560    18.1530    23.8310 
  245.3750  -999.2500     2.4910    64.3140    12.3500    10.8560    16.9900    23.7720 
  245.5000  -999.2500     2.4420    64.3140    12.3500    10.8560    15.2180    23.6320 
  245.6250  -999.2500     2.3690    64.3140    12.3500    10.8560    13.1870    23.4030 
  245.7500  -999.2500     2.2750    64.3140    12.3500    10.8560    11.7970    23.0460 
  245.8750  -999.2500     2.1700    64.3140    12.3500    10.8560    10.9750    22.5400 
  246.0000  -999.2500     2.0830    64.3140    12.3500    10.8560    10.6120    22.0260 
  246.1250  -999.2500     2.0360    64.3140    12.3500    10.8560    10.5330    21.7150 
  246.2500  -999.2500     2.0190    64.3140    12.3500    10.8560    10.5080    21.6140 
  246.3750  -999.2500     2.0170    64.3140    12.3500    10.8560    10.5100    21.5990 
  246.5000  -999.2500     2.0180    64.3140    12.3500    10.8560    10.5090    21.5970 
  246.6250  -999.2500     2.0180    64.3140    12.3500    10.8560    10.5060    21.5940 
  246.7500  -999.2500     2.0180    64.3140    12.3500    10.8560    10.5040    21.5900 
  246.8750  -999.2500     2.0160    64.3140    12.3500    10.8560    10.5030    21.5860 
  247.0000  -999.2500     2.0130    64.3140    12.3500    10.8560    10.5030    21.5830 
  247.1250  -999.2500     2.0110  -999.2500  -999.2500  -999.2500  -999.2500  -999.2500 
  247.2500  -999.2500     2.0100  -999.2500  -999.2500  -999.2500  -999.2500  -999.2500 
  247.3750  -999.2500     2.0090  -999.2500  -999.2500  -999.2500  -999.2500  -999.2500 
  247.5000  -999.2500     2.0090  -999.2500  -999.2500  -999.2500  -999.2500  -999.2500 
  247.6250  -999.2500     2.0090  -999.2500  -999.2500  -999.2500  -999.2500  -999.2500 
  247.7500  -999.2500     2.0090  -999.2500  -999.2500  -999.2500  -999.2500  -999.2500 
  247.8750  -999.2500     2.0100  -999.2500  -999.2500  -999.2500  -999.2500  -999.2500 
  248.0000  -999.2500     2.0120  -999.2500  -999.2500  -999.2500  -999.2500  -999.2500 
