~V
VERS. 2.00: Ver 2.00
~W
STRT.M 54.0000:
STOP.M 273.0000:
STEP.M 0.1250:
NULL. -999.2500:
UWI. F11158:
~C
DEPT.M :
SP.MV :
DEN.GM/CC :
GR.API :
RML.OHMM :
RI. :
RXO.OHMM :
CALI.CM :
~A
# ...
  132.7500   -11.5840     2.4560    49.9520    13.1790    13.1780    10.7780    29.6770 
  132.8750   -11.8040     2.4740    53.3320    12.8630    12.8040    10.5540    29.2660 
  133.0000   -12.0240     2.4960    53.9760    12.7410    12.5420    10.4690    29.0960 
  133.1250   -12.2480     2.5150    52.5280    12.9190    12.5110    10.4070    29.2750 
  133.2500   -12.4920     2.5240    51.3300    13.4960    12.8280    10.4750    29.6670 
  133.3750   -12.7370     2.5190    51.4780    14.4630    13.5030    11.1880    30.0800 
  133.5000   -12.9800     2.5000    53.0840    15.8330    14.5510    12.6370    30.4970 
  133.6250   -13.2180     2.4700    55.8430    17.5420    15.9700    14.9130    30.8830 
  133.7500   -13.4560     2.4350    58.5390    19.2940    17.7450    17.0600    31.2240 
  133.8750   -13.6950     2.4020    59.9210    20.9420    19.7510    19.9870    31.3690 
  134.0000   -13.9230     2.3760    60.9670    23.1770    21.8750    23.2300    31.2800 
  134.1250   -14.1240     2.3590    64.5820    25.2620    23.9450    26.3810    31.0170 
  134.2500   -14.2880     2.3560    69.7820    26.9140    25.6940    27.5430    30.6370 
  134.3750   -14.4550     2.3730    71.2120    27.9750    26.9260    26.7350    30.1870 
  134.5000   -14.6400     2.4080    69.4380    28.3980    27.5560    24.9810    29.7200 
  134.6250   -14.8300     2.4480    68.4690    28.2790    27.6430    23.7760    29.2590 
  134.7500   -15.0130     2.4720    69.5760    27.7970    27.3300    23.9360    28.9670 
  134.8750   -15.1840     2.4780    70.3390    27.1700    26.8320    23.6960    28.9980 
  135.0000   -15.3750     2.4800    70.6400    26.4530    26.2160    24.3420    29.2770 
  135.1250   -15.5870     2.4910    71.2140    25.6330    25.4890    26.1950    29.5650 
  135.2500   -15.7990     2.4930    71.2550    24.6990    24.6490    27.5290    29.8700 
  135.3750   -15.9960     2.4630    71.0040    23.7300    23.7610    24.9100    30.3390 
  135.5000   -16.1580     2.4070    71.5000    22.8230    22.9060    21.4500    30.8870 
  135.6250   -16.2950     2.3610    71.7230    22.0810    22.1750    19.3100    31.1900 
  135.7500   -16.4180     2.3440    69.8680    21.5740    21.6440    19.4060    30.9820 
  135.8750   -16.5150     2.3490    66.6220    21.2410    21.2850    19.5850    30.4510 
  136.0000   -16.5700     2.3570    65.4370    20.9910    21.0250    19.3590    29.8870 
  136.1250   -16.5850     2.3660    68.5350    20.7440    20.7810    18.8250    29.3950 
  136.2500   -16.5660     2.3830    72.8740    20.4770    20.5100    18.9070    28.9920 
  136.3750   -16.5260     2.4090    75.6270    20.2420    20.2490    19.6450    28.7070 
  136.5000   -16.4900     2.4380    76.0300    20.1080    20.0600    19.6580    28.5250 
  136.6250   -16.4570     2.4590    74.8610    20.1160    19.9960    19.2900    28.4690 
  136.7500   -16.4100     2.4630    72.8630    20.2430    20.0530    19.4120    28.6520 
  136.8750   -16.3530     2.4460    70.6210    20.3520    20.1140    20.4300    29.0200 
  137.0000   -16.2740     2.4130    68.6620    20.2950    20.0400    20.6290    29.2330 
  137.1250   -16.1820     2.3840    67.1660    19.9430    19.6970    20.0450    29.2290 
  137.2500   -16.1210     2.3710    66.7670    19.2370    19.0120    18.6070    29.0540 
  137.3750   -16.1110     2.3700    66.9990    18.3420    18.1200    17.1440    28.8020 
  137.5000   -16.1240     2.3750    67.2190    17.4450    17.1890    15.9090    28.7180 
  137.6250   -16.1350     2.3790    67.3170    16.7200    16.3850    15.5570    28.9410 
  137.7500   -16.1290     2.3860    65.8660    16.2680    15.8180    15.8940    29.3720 
  137.8750   -16.1050     2.3940    64.0990    16.0180    15.4570    15.6070    29.8030 
  138.0000   -16.0700     2.3970    64.4950    15.8750    15.2330    14.0010    30.1260 
  138.1250   -16.0390     2.3920    67.1040    15.7400    15.0580    12.0380    30.2010 
  138.2500   -16.0080     2.3850    68.3840    15.5720    14.8680    12.2810    29.9540 
  138.3750   -15.9520     2.3900    68.3480    15.4130    14.6730    14.0470    29.6860 
  138.5000   -15.8720     2.4070    69.3670    15.3150    14.5200    15.2960    29.5360 
  138.6250   -15.7780     2.4230    72.7070    15.3010    14.4420    15.0490    29.5420 
  138.7500   -15.6630     2.4250    76.5530    15.3340    14.4260    15.0260    29.6780 
  138.8750   -15.5330     2.4160    77.9910    15.2950    14.3780    15.7580    29.8340 
  139.0000   -15.3990     2.4040    76.2450    15.0730    14.1960    16.7940    29.9180 
  139.1250   -15.2400     2.3900    72.7560    14.5990    13.8070    16.6040    29.8720 
  139.2500   -15.0250     2.3680    70.5970    13.8750    13.1930    15.2190    29.7150 
  139.3750   -14.7780     2.3370    70.0980    13.0450    12.4610    13.5540    29.5160 
  139.5000   -14.5390     2.2990    68.7620    12.2220    11.7020    12.0980    29.4480 
  139.6250   -14.3230     2.2600    67.5930    11.4670    10.9770    10.9820    29.3560 
  139.7500   -14.1400     2.2320    69.8150    10.7590    10.2840     9.7140    28.6660 
  139.8750   -13.9660     2.2330    74.3360    10.0120     9.5650     8.4430    27.2520 
  140.0000   -13.7800     2.2700    77.3420     9.1830     8.7850     7.7660    25.6240 
  140.1250   -13.5980     2.3200    78.4900     8.2960     7.9540     7.4820    24.4760 
  140.2500   -13.4660     2.3510    79.7950     7.4510     7.1490     6.8000    23.9090 
  140.3750   -13.3990     2.3530    81.7300     6.7590     6.4560     5.9120    23.5460 
  140.5000   -13.3520     2.3400    82.2510     6.2730     5.9240     5.2920    23.2200 
  140.6250   -13.2980     2.3270    79.9870     5.9920     5.5660     5.0500    22.8650 
  140.7500   -13.2370     2.3230    77.6410     5.8690     5.3650     5.0690    22.5470 
  140.8750   -13.1840     2.3260    78.7390     5.8090     5.2490     5.0430    22.3440 
  141.0000   -13.1580     2.3340    84.0560     5.7580     5.1690     4.9150    22.2310 
  141.1250   -13.1700     2.3420    89.4090     5.6960     5.1020     4.6810    22.1630 
  141.2500   -13.1970     2.3460    88.2730     5.6430     5.0470     4.6130    22.1250 
  141.3750   -13.2210     2.3410    83.4350     5.6250     5.0200     4.6830    22.0950 
  141.5000   -13.2520     2.3250    81.7720     5.6570     5.0350     4.7930    22.0780 
  141.6250   -13.2960     2.3040    85.8520     5.7400     5.0950     4.9030    22.0730 
  141.7500   -13.3380     2.2910    90.8150     5.8580     5.1870     4.9830    22.0870 
  141.8750   -13.3550     2.2890    93.3330     5.9730     5.2740     5.1220    22.1200 
  142.0000   -13.3430     2.2950    96.1030     6.0400     5.3200     5.3190    22.1600 
  142.1250   -13.3020     2.3030   100.1060     6.0220     5.2890     5.4600    22.1920 
  142.2500   -13.2210     2.3140   101.7940     5.8940     5.1610     5.3120    22.2280 
  142.3750   -13.0890     2.3250    99.2210     5.6950     4.9670     4.9930    22.2980 
  142.5000   -12.9210     2.3330    95.0370     5.4730     4.7480     4.6560    22.3860 
  142.6250   -12.7220     2.3370    93.0950     5.2850     4.5500     4.4090    22.4340 
  142.7500   -12.5010     2.3380    93.8050     5.1750     4.4150     4.2710    22.4430 
  142.8750   -12.3050     2.3380    93.6180     5.1400     4.3450     4.2030    22.4420 
  143.0000   -12.1340     2.3380    92.8600     5.1640     4.3340     4.2380    22.4460 
  143.1250   -11.9770     2.3410    93.5290     5.2150     4.3620     4.3130    22.4610 
  143.2500   -11.8510     2.3440    93.7720     5.2620     4.4050     4.3320    22.4730 
  143.3750   -11.7540     2.3480    92.2380     5.2920     4.4400     4.3170    22.4620 
  143.5000   -11.6790     2.3520    89.5480     5.3130     4.4630     4.3130    22.4410 
  143.6250   -11.6060     2.3540    87.5970     5.3420     4.4780     4.3290    22.4180 
  143.7500   -11.5470     2.3560    86.3660     5.3930     4.4970     4.3600    22.3670 
  143.8750   -11.5270     2.3570    84.4850     5.4560     4.5210     4.4000    22.2600 
