~V
VERS. 2.00: Ver 2.00
~W
STRT.M 47.0000:
STOP.M 248.0000:
STEP.M 0.1250:
NULL. -999.2500:
UWI. F11134:
~C
DEPT.M :
GR.API :
RML.OHMM :
RI. :
RXO.OHMM :
CALI.CM :
SP.MV :
DEN.GM/CC :
~A
# ...
  159.5000    72.1650    10.8290    10.8160     9.2090    24.7620   -17.6170     2.3980 
  159.6250    75.3760    10.6340    10.6530     9.1010    24.7780   -17.7910     2.3990 
  159.7500    77.2580    10.5620    10.6210     9.0680    24.8330   -17.9880     2.3980 
  159.8750    76.5630    10.6070    10.6960     9.4150    24.8800   -18.2020     2.4020 
  160.0000    73.8550    10.7660    10.8650    10.0570    24.8760   -18.4100     2.4090 
  160.1250    71.3870    11.0510    11.1350    10.6010    24.8240   -18.6340     2.4160 
  160.2500    70.7870    11.5000    11.5380    11.2870    24.7650   -18.9030     2.4220 
  160.3750    71.0670    12.2170    12.1680    12.3270    24.7610   -19.2150     2.4250 
  160.5000    70.1270    13.3160    13.1240    14.2990    24.8370   -19.5650     2.4200 
  160.6250    69.0610    14.9240    14.5200    17.1610    24.9580   -19.9610     2.4050 
  160.7500    70.5970    17.2080    16.5000    20.1860    25.0590   -20.4070     2.3830 
  160.8750    73.2980    20.4730    19.3460    24.0670    25.1250   -20.8840     2.3610 
  161.0000    73.3050    24.9430    23.2850    30.1260    25.1730   -21.3640     2.3430 
  161.1250    69.3580    30.8100    28.5540    38.4880    25.2160   -21.8570     2.3260 
  161.2500    63.6420    38.2710    35.4310    48.8220    25.2600   -22.3800     2.3090 
  161.3750    58.4360    47.4660    44.2030    60.5640    25.3010   -22.9050     2.2870 
  161.5000    54.7340    57.8790    54.4540    77.6150    25.3330   -23.3800     2.2600 
  161.6250    53.7270    68.4600    65.1350    96.9170    25.3340   -23.7960     2.2360 
  161.7500    55.4330    78.0490    74.9790   107.5520    25.2840   -24.1860     2.2200 
  161.8750    57.4130    85.5420    82.6840   104.8200    25.2130   -24.5750     2.2140 
  162.0000    57.3740    90.9420    88.0760    95.6930    25.1720   -24.9340     2.2110 
  162.1250    55.7380    94.9920    91.8630    89.3610    25.1780   -25.2270     2.2050 
  162.2500    54.8710    98.3660    94.8130    85.4150    25.2210   -25.4650     2.1990 
  162.3750    55.3000   101.5160    97.5200    79.6120    25.2640   -25.6850     2.1980 
  162.5000    55.7570   104.7070   100.3310    76.9010    25.2770   -25.8760     2.2030 
  162.6250    56.3630   108.2240   103.5170    80.5160    25.2560   -26.0240     2.2110 
  162.7500    57.6820   112.5170   107.4780    87.5690    25.2230   -26.1340     2.2190 
  162.8750    58.0840   118.2490   112.8830    97.2800    25.2120   -26.2190     2.2240 
  163.0000    55.6960   125.4340   119.8150   112.9520    25.2180   -26.2840     2.2240 
  163.1250    51.2420   133.2140   127.4730   133.4910    25.2220   -26.3340     2.2230 
  163.2500    48.4330   140.3260   134.5880   151.9900    25.2250   -26.3720     2.2210 
  163.3750    50.0390   145.6510   139.9860   158.0790    25.2260   -26.3950     2.2190 
  163.5000    53.6770   149.6000   143.9640   153.5520    25.2250   -26.4100     2.2140 
  163.6250    55.3130   153.9610   148.1780   146.3260    25.2230   -26.4200     2.2090 
  163.7500    54.5600   160.9720   154.8330   142.1950    25.2240   -26.4000     2.2100 
  163.8750    54.4850   172.9740   166.3360   163.8330    25.2260   -26.3440     2.2140 
  164.0000    55.1570   189.8460   182.5980   199.0890    25.2260   -26.3000     2.2150 
  164.1250    54.0570   208.8480   200.9200   225.5580    25.2220   -26.2650     2.2100 
  164.2500    50.8680   225.5440   217.2000   237.1320    25.2090   -26.1960     2.2050 
  164.3750    48.5560   233.1290   225.5840   240.6810    25.1770   -26.0960     2.2030 
  164.5000    48.4620   227.2350   222.3140   225.3430    25.1310   -26.0160     2.2060 
  164.6250    49.7710   208.3440   207.1620   188.7390    25.0530   -25.9660     2.2130 
  164.7500    52.0850   181.6190   183.4560   165.0230    24.9170   -25.9140     2.2230 
  164.8750    54.1810   155.4270   157.8630   154.7620    24.7470   -25.8490     2.2300 
  165.0000    54.7840   135.8940   136.8440   128.2170    24.6260   -25.7770     2.2330 
  165.1250    54.8010   125.2990   124.0470    92.6670    24.5920   -25.7010     2.2320 
  165.2500    55.3540   123.8460   120.6450    75.3950    24.6220   -25.6050     2.2280 
  165.3750    54.9160   130.9670   126.4560    97.9690    24.6740   -25.4960     2.2190 
  165.5000    53.0730   143.1350   137.8490   135.0420    24.7120   -25.3750     2.2100 
  165.6250    51.9350   154.2770   148.8540   147.8190    24.7370   -25.2290     2.2050 
  165.7500    52.3310   157.8150   153.3110   138.3780    24.7770   -25.0590     2.2100 
  165.8750    52.2790   150.0270   147.1100   127.6640    24.8380   -24.8610     2.2200 
  166.0000    51.8860   135.8000   133.7980   123.5490    24.8970   -24.6600     2.2290 
  166.1250    52.5930   122.6270   120.2560   109.6230    24.9490   -24.4650     2.2350 
  166.2500    53.9460   114.5340   111.0070    89.0590    25.0220   -24.2710     2.2390 
  166.3750    54.5590   113.0520   108.2070    88.9510    25.1120   -24.0880     2.2370 
  166.5000    54.1580   117.0780   110.9910   118.3180    25.1820   -23.9330     2.2280 
  166.6250    52.6900   124.4580   117.2410   155.6880    25.2160   -23.8010     2.2120 
  166.7500    50.4560   132.8280   124.7240   172.2280    25.2300   -23.6830     2.1950 
  166.8750    50.1010   139.0030   130.5960   162.7120    25.2500   -23.5800     2.1850 
  167.0000    52.2470   141.0260   133.0190   146.6430    25.2730   -23.4680     2.1860 
  167.1250    53.4580   139.1110   131.9840   137.9620    25.2860   -23.3650     2.1940 
  167.2500    51.8430   134.6490   128.5940   133.4380    25.2900   -23.3100     2.2040 
  167.3750    50.2910   128.7750   123.8650   123.1930    25.2900   -23.2410     2.2140 
  167.5000    51.0140   121.7540   118.0730   109.2020    25.2900   -23.1040     2.2250 
  167.6250    52.9660   113.2900   110.9020   100.5320    25.2900   -22.9520     2.2360 
  167.7500    55.2050   103.2160   102.0560    99.5290    25.2910   -22.8500     2.2450 
  167.8750    58.2560    92.1430    91.9050    95.0050    25.2900   -22.8000     2.2500 
  168.0000    61.4570    81.5530    81.8230    77.6070    25.2780   -22.7410     2.2540 
  168.1250    64.0780    72.8720    73.3000    56.8560    25.2450   -22.6520     2.2610 
  168.2500    66.1590    66.8750    67.2130    46.4600    25.2090   -22.5880     2.2730 
  168.3750    66.1300    63.9200    64.0310    46.0270    25.1860   -22.5870     2.2830 
  168.5000    63.8800    63.3790    63.2480    48.7260    25.1920   -22.6260     2.2870 
  168.6250    61.9840    64.1610    63.8760    52.6590    25.2250   -22.6740     2.2830 
  168.7500    62.1240    65.3340    64.9940    56.1250    25.2540   -22.7370     2.2770 
  168.8750    62.2000    66.3750    65.9550    61.5610    25.2740   -22.8320     2.2730 
  169.0000    60.3560    67.6070    66.8960    66.7140    25.2850   -22.9530     2.2700 
  169.1250    58.5530    70.0200    68.6550    62.9090    25.2910   -23.0920     2.2680 
  169.2500    58.5060    74.7840    72.3550    55.1110    25.3040   -23.2390     2.2680 
  169.3750    58.9460    83.1230    79.3100    60.0960    25.3290   -23.3910     2.2660 
  169.5000    57.9750    94.8290    89.5160    78.5150    25.3570   -23.5500     2.2560 
  169.6250    55.4410   108.2580   101.5240   100.8270    25.3900   -23.6870     2.2400 
  169.7500    52.3650   120.8680   112.9700   121.1760    25.4540   -23.7650     2.2230 
  169.8750    49.2910   129.2880   120.7020   136.2550    25.5540   -23.8130     2.2080 
  170.0000    47.3840   132.3010   123.4650   136.6120    25.6270   -23.8780     2.1950 
  170.1250    48.3970   131.0850   122.1480   121.9340    25.6200   -23.9390     2.1880 
  170.2500    51.5840   127.4380   118.2940   110.4110    25.5780   -23.9320     2.1860 
  170.3750    52.8750   122.8490   113.2910   111.9750    25.5350   -23.8730     2.1880 
  170.5000    50.9240   118.4140   108.2470   117.5580    25.5140   -23.8410     2.1940 
  170.6250    49.7360   115.0770   104.1060   111.2980    25.5170   -23.8560     2.2010 
