~V
VERS. 2.00: Ver 2.00
~W
STRT.M 53.0000:
STOP.M 252.0000:
STEP.M 0.1250:
NULL. -999.2500:
UWI. F11141:
~C
DEPT.M :
SP.MV :
DEN.GM/CC :
GR.API :
RML.OHMM :
RI. :
RXO.OHMM :
CALI.CM :
~A
# ...
  109.2500   -15.3850     2.1230    68.8640     9.4500     7.6420    10.2280    23.6460 
  109.3750   -15.0640     2.1130    66.3720     9.6410     7.7840     9.4930    23.8610 
  109.5000   -14.6000     2.1150    65.9820     9.8280     7.9440     8.1420    24.0740 
  109.6250   -14.4540     2.1260    69.5930     9.9010     8.0390     8.7800    24.1770 
  109.7500   -14.0790     2.1390    74.9970     9.8040     8.0080     9.9840    24.2590 
  109.8750   -13.7730     2.1510    80.8850     9.5240     7.8280    10.4570    24.3580 
  110.0000   -13.4780     2.1600    84.7980     9.1080     7.5250     9.2290    24.4430 
  110.1250   -13.1820     2.1660    83.2920     8.6550     7.1670     7.7480    24.4280 
  110.2500   -12.8690     2.1700    78.5050     8.2830     6.8460     6.9740    24.3550 
  110.3750   -12.5080     2.1740    74.7900     8.0530     6.6130     6.6190    24.1320 
  110.5000   -11.6500     2.1810    76.1290     7.9640     6.4790     6.5020    23.8060 
  110.6250   -11.0390     2.1900    80.6410     7.9590     6.4180     6.5570    23.6240 
  110.7500   -10.7330     2.1990    83.9440     7.9340     6.3640     6.6070    23.6830 
  110.8750   -10.7980     2.2050    83.6490     7.8480     6.2810     6.5640    23.7910 
  111.0000   -11.1350     2.2070    80.4890     7.7070     6.1630     6.3520    23.9980 
  111.1250   -11.6430     2.2060    81.0480     7.5720     6.0410     6.2340    24.0430 
  111.2500   -12.3060     2.2080    86.2250     7.5190     5.9660     6.2970    23.7920 
  111.3750   -13.1200     2.2110    89.7310     7.6120     5.9860     6.5010    23.5210 
  111.5000   -14.1050     2.2120    86.0310     7.8930     6.1380     6.9890    23.3840 
  111.6250   -15.2810     2.2010    78.8140     8.3990     6.4610     7.8100    23.3660 
  111.7500   -16.5400     2.1750    76.3840     9.0400     6.9070     9.1990    23.3800 
  111.8750   -17.8800     2.1400    76.2250     9.7090     7.4090    10.9510    23.4470 
  112.0000   -19.2910     2.1060    73.8420    10.2730     7.8780    12.0290    23.6490 
  112.1250   -20.5510     2.0850    69.8450    10.5720     8.1880    12.2050    24.0000 
  112.2500   -21.4970     2.0770    67.9940    10.6130     8.3150    11.8390    24.3930 
  112.3750   -22.1540     2.0770    68.2220    10.4590     8.2770    11.4060    24.5660 
  112.5000   -22.5680     2.0810    69.7310    10.2270     8.1420    11.0860    24.5940 
  112.6250   -22.6030     2.0880    71.6880    10.0560     7.9970    10.8990    24.6010 
  112.7500   -22.1790     2.0990    73.0320     9.9710     7.8890    10.6070    24.5770 
  112.8750   -21.3300     2.1160    75.0290     9.8920     7.7820    10.0030    24.3630 
  113.0000   -20.1670     2.1370    78.2680     9.6810     7.5930     9.2760    23.8330 
  113.1250   -19.2820     2.1610    80.1150     9.1830     7.2150     9.4040    23.3650 
  113.2500   -18.2470     2.1890    83.4530     8.4520     6.6780     8.8720    23.5410 
  113.3750   -17.2160     2.2220    92.3320     7.6280     6.0690     7.1690    24.2100 
  113.5000   -16.4610     2.2560   103.7310     6.8970     5.5050     5.3400    24.8400 
  113.6250   -15.8570     2.2850   109.0780     6.4500     5.1100     4.8220    24.9280 
  113.7500   -15.1810     2.3050   109.6700     6.3010     4.9090     4.8470    24.7830 
  113.8750   -14.5270     2.3110   109.6380     6.4160     4.8990     4.9890    24.6960 
  114.0000   -14.0600     2.3020   109.8610     6.6990     5.0400     5.1170    24.6860 
  114.1250   -13.7450     2.2810   107.3960     7.0220     5.2690     5.2190    24.6910 
  114.2500   -13.4490     2.2640   103.2940     7.2940     5.5080     5.4970    24.6640 
  114.3750   -13.1670     2.2690   101.2720     7.4940     5.7190     5.7880    24.6230 
  114.5000   -12.9050     2.2970   103.7360     7.6020     5.8730     5.8380    24.5970 
  114.6250   -12.6560     2.3320   108.4280     7.5620     5.9180     5.9550    24.5840 
  114.7500   -12.4130     2.3500   109.6590     7.3780     5.8480     6.7960    24.5830 
  114.8750   -12.1800     2.3450   106.7110     7.0840     5.6800     7.6500    24.6650 
  115.0000   -11.9460     2.3270   103.2790     6.7820     5.4760     6.0790    24.8220 
  115.1250   -11.8070     2.3070   104.5740     6.6310     5.3320     5.1480    24.9650 
  115.2500   -11.7860     2.2910   109.2030     6.6630     5.2880     4.8860    24.7970 
  115.3750   -11.7030     2.2750   111.9270     6.8160     5.3260     5.1110    24.6590 
  115.5000   -11.7540     2.2550   108.7460     6.9770     5.3940     5.1720    24.6530 
  115.6250   -11.8170     2.2420   101.2780     7.0090     5.4160     5.4110    24.7150 
  115.7500   -11.8010     2.2420    96.8320     6.8740     5.3480     5.4380    24.8120 
  115.8750   -11.7800     2.2580    97.4410     6.6140     5.1960     5.0510    24.9070 
  116.0000   -11.8350     2.2810   101.6150     6.3220     5.0040     4.6320    24.9460 
  116.1250   -11.9320     2.3040   105.9590     6.1020     4.8340     4.4520    24.7800 
  116.2500   -11.9250     2.3220   109.4140     5.9790     4.7210     4.4590    24.6120 
  116.3750   -11.7470     2.3320   112.7040     5.9550     4.6770     4.4410    24.5650 
  116.5000   -11.5450     2.3340   115.2680     6.0240     4.7080     4.4470    24.4830 
  116.6250   -11.4940     2.3300   115.6930     6.1790     4.8120     4.5230    24.4860 
  116.7500   -11.5250     2.3260   114.0800     6.3750     4.9550     4.5990    24.5360 
  116.8750   -11.5650     2.3280   111.7350     6.5740     5.1080     4.8240    24.5930 
  117.0000   -11.6320     2.3330   110.1500     6.7190     5.2350     5.2620    24.4250 
  117.1250   -11.8020     2.3360   109.6320     6.7350     5.2810     5.5770    24.2950 
  117.2500   -12.0230     2.3330   112.2680     6.6410     5.2440     5.2750    24.1630 
  117.3750   -12.2590     2.3250   116.3020     6.4940     5.1560     4.9450    24.0500 
  117.5000   -12.4570     2.3170   117.3410     6.3660     5.0630     4.7210    23.9640 
  117.6250   -12.6120     2.3160   113.8030     6.3040     5.0080     4.6060    23.9110 
  117.7500   -12.7360     2.3260   110.4590     6.2820     4.9870     4.6670    23.7930 
  117.8750   -12.8180     2.3430   111.1620     6.2620     4.9790     4.8260    23.5300 
  118.0000   -12.8060     2.3640   113.9970     6.2100     4.9590     4.7760    23.2000 
  118.1250   -12.6330     2.3800   113.6810     6.1230     4.9160     4.6530    22.8890 
  118.2500   -12.3340     2.3880   109.9040     6.0330     4.8670     4.5610    22.6430 
  118.3750   -11.8840     2.3860   106.5050     5.9600     4.8290     4.4900    22.4930 
  118.5000   -11.2880     2.3780   107.2980     5.9150     4.8100     4.4930    22.5730 
  118.6250   -10.6260     2.3660   113.0320     5.9010     4.8070     4.4800    22.9550 
  118.7500   -10.0400     2.3510   118.4630     5.9020     4.8080     4.5080    23.4630 
  118.8750    -9.5140     2.3360   118.7810     5.9000     4.8040     4.5160    23.8610 
  119.0000    -8.9940     2.3220   114.5940     5.8820     4.7890     4.4880    24.0430 
  119.1250    -8.5550     2.3150   115.1860     5.8440     4.7640     4.4930    24.0460 
  119.2500    -8.3080     2.3160   119.2830     5.8010     4.7360     4.5160    23.9950 
  119.3750    -8.2860     2.3230   118.9690     5.7600     4.7090     4.5450    23.9770 
  119.5000    -8.3910     2.3310   113.0680     5.7130     4.6820     4.5410    24.0070 
  119.6250    -8.5240     2.3290   107.3990     5.6520     4.6480     4.5430    24.1070 
  119.7500    -8.6480     2.3150   104.9270     5.6250     4.6360     4.5540    24.2160 
  119.8750    -8.8180     2.2990   105.4160     5.7430     4.7090     4.5740    24.3120 
  120.0000    -9.0700     2.2990   108.2820     6.1280     4.9520     4.6740    24.3470 
  120.1250    -9.3480     2.3310   107.7790     6.8710     5.4510     5.3380    24.3350 
  120.2500    -9.5490     2.3790    99.9960     7.7890     6.1250     7.4240    24.3470 
  120.3750    -9.7320     2.4140    90.1930     8.6130     6.8170    12.0020    24.3740 
