~V
VERS. 2.00: Ver 2.00
~W
STRT.M 50.0000:
STOP.M 264.0000:
STEP.M 0.1250:
NULL. -999.2500:
UWI. F11182:
~C
DEPT.M :
SP.MV :
GR.API :
RI. :
RML.OHMM :
RXO.OHMM :
DEN.GM/CC :
~A
# ...
   75.7500   -20.8350    72.2880     6.0470     7.0450     7.7830     2.2650 
   75.8750   -20.9500    68.4460     5.9800     6.9160     7.1860     2.1900 
   76.0000   -21.0130    64.9140     5.9070     6.7990     6.9310     2.1270 
   76.1250   -21.0830    61.9910     5.7940     6.6290     6.6460     2.0860 
   76.2500   -21.1200    63.1500     5.7390     6.5490     6.3680     2.0850 
   76.3750   -21.1680    67.0670     5.6880     6.4830     6.6860     2.0820 
   76.5000   -21.1910    69.7860     5.6900     6.4870     7.0270     2.0810 
   76.6250   -21.1910    73.2110     5.7260     6.5270     6.9070     2.0880 
   76.7500   -21.1560    74.0590     5.7650     6.5730     6.8410     2.0970 
   76.8750   -21.0330    74.0290     5.8420     6.6580     7.1030     2.1090 
   77.0000   -20.9060    74.0300     5.8970     6.7090     7.2030     2.1140 
   77.1250   -20.6640    74.5330     5.9410     6.7330     7.0220     2.1100 
   77.2500   -20.4820    74.5620     5.9430     6.7180     6.8600     2.1040 
   77.3750   -20.2060    71.7480     5.9010     6.6470     6.7160     2.0980 
   77.5000   -20.0300    68.9530     5.8480     6.5730     6.7700     2.0940 
   77.6250   -19.7830    67.3400     5.7510     6.4480     6.9530     2.0890 
   77.7500   -19.6250    67.5120     5.6780     6.3600     6.9330     2.0880 
   77.8750   -19.3840    66.9840     5.5850     6.2400     7.0950     2.0830 
   78.0000   -19.2140    66.6580     5.5530     6.2030     7.3120     2.0730 
   78.1250   -18.9470    66.3380     5.5920     6.2360     7.3230     2.0600 
   78.2500   -18.7680    66.3320     5.6780     6.3240     7.4250     2.0590 
   78.3750   -18.5210    64.1830     5.8460     6.4970     7.5260     2.0610 
   78.5000   -18.3860    61.9790     5.9630     6.6150     7.2950     2.0610 
   78.6250   -18.2530    59.3620     6.0850     6.7190     7.1010     2.0610 
   78.7500   -18.2200    58.7720     6.1050     6.7040     7.1750     2.0630 
   78.8750   -18.2580    60.6010     6.0080     6.5580     7.2860     2.0690 
   79.0000   -18.3390    61.9520     5.9110     6.4380     7.4330     2.0700 
   79.1250   -18.5460    61.6690     5.7350     6.2480     7.4300     2.0570 
   79.2500   -18.7480    61.1850     5.6230     6.1450     7.0850     2.0490 
   79.3750   -19.1610    61.7780     5.4720     6.0020     7.0540     2.0790 
   79.5000   -19.5080    64.9720     5.3500     5.8740     6.9190     2.1400 
   79.6250   -20.0920    71.6380     5.1360     5.6380     6.0030     2.2450 
   79.7500   -20.4780    75.6710     4.9910     5.4720     5.8210     2.2780 
   79.8750   -20.9710    80.6250     4.7900     5.2380     5.7920     2.2600 
   80.0000   -21.2100    84.0370     4.6930     5.1340     5.8350     2.2330 
   80.1250   -21.4240    89.2140     4.6070     5.0620     6.1750     2.2030 
   80.2500   -21.4830    90.0530     4.5650     5.0340     6.7420     2.1900 
   80.3750   -21.4830    86.4890     4.5180     5.0030     7.9420     2.1940 
   80.5000   -21.4390    86.0170     4.4950     4.9810     7.7130     2.2110 
   80.6250   -21.3230    90.0580     4.4590     4.9360     6.4560     2.2210 
   80.7500   -21.2210    91.6460     4.4540     4.9290     6.0560     2.2130 
   80.8750   -21.0500    87.4840     4.5120     4.9980     5.1740     2.2060 
   81.0000   -20.9360    84.2880     4.6130     5.1190     4.5480     2.2050 
   81.1250   -20.7840    85.9600     4.8510     5.4000     5.2020     2.1880 
   81.2500   -20.6980    88.6850     5.0530     5.6390     6.1840     2.1680 
   81.3750   -20.5840    88.7840     5.4160     6.0690     6.9620     2.1430 
   81.5000   -20.5080    85.2210     5.6640     6.3600     7.1640     2.1300 
   81.6250   -20.3740    77.0010     5.9870     6.7560     6.8360     2.1050 
   81.7500   -20.2680    72.4310     6.1500     6.9570     6.3350     2.0900 
   81.8750   -20.0920    68.8340     6.1690     6.9840     6.0550     2.0920 
   82.0000   -19.9800    68.2750     6.0760     6.8810     6.0750     2.1140 
   82.1250   -19.8510    68.3870     5.6990     6.4240     6.4270     2.1690 
   82.2500   -19.8060    70.6240     5.3610     6.0180     6.6540     2.2010 
   82.3750   -19.8000    78.5720     4.8930     5.4590     6.5070     2.2190 
   82.5000   -19.8260    84.1600     4.6490     5.1730     6.3080     2.2100 
   82.6250   -19.8770    89.4790     4.4650     4.9620     6.0380     2.1950 
   82.7500   -19.8990    89.7210     4.4380     4.9440     6.0260     2.1900 
   82.8750   -19.8930    86.3850     4.5210     5.0350     6.2780     2.1750 
   83.0000   -19.8620    83.7890     4.6140     5.1250     6.4130     2.1580 
   83.1250   -19.7950    81.3740     4.7720     5.2600     6.4630     2.1400 
   83.2500   -19.7520    80.6130     4.8660     5.3340     7.5590     2.1390 
   83.3750   -19.7200    81.0670     4.9610     5.3910     9.3640     2.1440 
   83.5000   -19.7350    82.2170     4.9570     5.3600     8.2770     2.1450 
   83.6250   -19.8200    80.6430     4.7900     5.1300     6.2810     2.1490 
   83.7500   -19.9140    79.8180     4.5650     4.8660     6.2560     2.1580 
   83.8750   -20.0830    85.6120     4.1110     4.3630     6.2880     2.1880 
   84.0000   -20.1890    92.9030     3.8160     4.0450     5.8030     2.2180 
   84.1250   -20.2900   102.7680     3.4750     3.6920     4.9010     2.2540 
   84.2500   -20.2940   106.6160     3.3150     3.5320     4.6650     2.2680 
   84.3750   -20.1730   110.4830     3.1910     3.4270     4.8090     2.2810 
   84.5000   -20.0020   109.5730     3.1610     3.4090     4.9830     2.2870 
   84.6250   -19.6350   104.6250     3.1650     3.4200     5.0510     2.2750 
   84.7500   -19.3510   101.4110     3.1890     3.4450     5.0280     2.2550 
   84.8750   -18.9430   100.5360     3.3000     3.5520     5.0160     2.2350 
   85.0000   -18.7180   102.1310     3.4210     3.6700     4.9780     2.2270 
   85.1250   -18.4760   104.6630     3.6600     3.9020     5.3600     2.2100 
   85.2500   -18.3710   104.0870     3.8470     4.0810     5.9490     2.1960 
   85.3750   -18.2720    98.2000     4.1630     4.3800     5.9240     2.1800 
   85.5000   -18.2350    92.2080     4.3850     4.5980     5.4280     2.1690 
   85.6250   -18.2200    87.0320     4.7380     4.9470     5.4990     2.1480 
   85.7500   -18.2400    84.9490     4.9520     5.1470     6.1700     2.1340 
   85.8750   -18.3090    79.1970     5.1510     5.3050     7.0070     2.1190 
   86.0000   -18.3750    74.6160     5.1950     5.3080     7.3950     2.1210 
   86.1250   -18.4900    71.5190     5.1760     5.2280     8.2260     2.1490 
   86.2500   -18.5760    71.6360     5.1450     5.1820     7.7720     2.1680 
   86.3750   -18.7140    73.2710     5.2030     5.2880     5.5720     2.1600 
   86.5000   -18.8040    73.7650     5.3410     5.4850     5.1310     2.1300 
   86.6250   -18.9080    72.1880     5.6060     5.8300     6.4550     2.0860 
   86.7500   -18.9360    68.5890     5.6760     5.9200     7.2990     2.0740 
   86.8750   -18.8870    63.1150     5.5010     5.7110     7.7230     2.0910 
   87.0000   -18.7880    62.9690     5.2470     5.4060     7.4180     2.1190 
   87.1250   -18.5460    68.4130     4.8290     4.9390     6.1770     2.1590 
   87.2500   -18.3370    72.5930     4.7470     4.8740     5.7960     2.1610 
   87.3750   -17.9810    73.4420     5.0140     5.2580     6.5740     2.1460 
   87.5000   -17.7310    71.7300     5.5230     5.8930     7.0750     2.1740 
   87.6250   -17.3540    66.3410     6.4290     6.9830    12.1500     2.3050 
   87.7500   -17.1050    61.9630     7.0040     7.6450    17.4800     2.3770 
   87.8750   -16.7320    60.1640     7.4470     8.0600    15.7130     2.3310 
   88.0000   -16.4810    63.2220     7.3130     7.8170    10.7140     2.2270 
   88.1250   -16.1100    67.3990     6.7700     7.1040     7.8820     2.1110 
   88.2500   -15.8800    66.3080     6.3330     6.5760     7.4900     2.0870 
   88.3750   -15.6030    60.4680     5.9020     6.1120     7.0090     2.0780 
   88.5000   -15.4840    57.4790     5.8150     6.0340     7.0940     2.0800 
