~V
VERS. 2.00: Ver 2.00
~W
STRT.M 63.0000:
STOP.M 219.0000:
STEP.M 0.1250:
NULL. -999.2500:
UWI. F11123:
~C
DEPT.M :
GR.API :
RML.OHMM :
RI. :
RXO.OHMM :
CALI.CM :
SP.MV :
DEN.GM/CC :
~A
# ...
   74.2500    71.9700     7.8150     6.3540     8.2790    25.2330   -22.9000     2.2240 
   74.3750    73.6510     7.5580     6.1760     7.9960    25.2950   -22.7810     2.2140 
   74.5000    71.2360     7.4070     6.0480     8.0970    25.3230   -22.7990     2.1880 
   74.6250    67.4130     7.3910     5.9970     8.3590    25.3620   -22.9790     2.1620 
   74.7500    64.9070     7.4570     5.9970     8.5190    25.4040   -23.2640     2.1390 
   74.8750    63.8130     7.5650     6.0210     8.8090    25.4360   -23.6110     2.1180 
   75.0000    62.9270     7.6760     6.0410     9.1220    25.4490   -23.9570     2.1000 
   75.1250    63.0250     7.7620     6.0410     9.2870    25.4470   -24.2070     2.0910 
   75.2500    64.6680     7.8240     6.0290     9.3770    25.3910   -24.3680     2.0940 
   75.3750    65.9220     7.8680     6.0130     9.3960    25.3540   -24.4370     2.1090 
   75.5000    65.7380     7.8940     6.0000     9.3200    25.4670   -24.4320     2.1320 
   75.6250    64.1420     7.9070     5.9960     9.4460    25.4610   -24.3560     2.1580 
   75.7500    63.3720     7.9040     5.9940     9.8450    25.4620   -24.2540     2.1830 
   75.8750    64.5620     7.8780     5.9870     9.9890    25.4520   -24.1550     2.2010 
   76.0000    65.6750     7.8330     5.9680     9.7900    25.4560   -24.0990     2.2050 
   76.1250    63.3540     7.7890     5.9470     9.6600    25.4590   -24.1010     2.1930 
   76.2500    60.3730     7.7800     5.9470     9.7010    25.4530   -24.1320     2.1750 
   76.3750    59.5340     7.8610     6.0000     9.8180    25.4470   -24.1330     2.1570 
   76.5000    60.2400     8.1340     6.1530     9.9810    25.4490   -24.0540     2.1390 
   76.6250    58.8910     8.7560     6.4820    10.1530    25.4490   -23.7830     2.1250 
   76.7500    56.2490     9.6310     6.9560    10.4160    25.4460   -23.2990     2.1280 
   76.8750    53.7480    10.5240     7.4800    11.0080    25.4380   -22.5480     2.1590 
   77.0000    51.1470    11.0990     7.8930    13.1770    25.4350   -21.5180     2.2080 
   77.1250    49.8180    11.0700     8.0370    20.8050    25.3830   -20.1890     2.2500 
   77.2500    52.3660    10.8270     8.0540    29.9260    25.3490   -18.6390     2.2710 
   77.3750    58.1450    11.0610     8.2480    23.9910    25.4320   -16.9340     2.2770 
   77.5000    63.1640    12.5350     9.0140    15.2340    25.4520   -15.1330     2.2900 
   77.6250    64.3600    16.0000    10.9280    15.9710    25.4410   -13.3250     2.3260 
   77.7500    63.9450    20.7790    13.9520    28.4730    25.4480   -11.6060     2.3730 
   77.8750    64.1190    25.2360    17.4360    53.3800    25.4450   -10.0430     2.4160 
   78.0000    66.3120    26.5930    19.5770    71.5350    25.4450    -8.6860     2.4450 
   78.1250    70.7650    22.5320    18.0410    49.0220    25.4250    -7.6120     2.4500 
   78.2500    74.7790    16.4110    14.4100    21.4550    25.3770    -6.8100     2.4290 
   78.3750    77.4860    11.2170    10.7490     9.6750    25.3050    -6.2660     2.3860 
   78.5000    79.2100     7.9730     8.0640     6.3390    25.2480    -5.9520     2.3410 
   78.6250    83.9870     6.5320     6.5540     5.3170    25.4110    -5.8370     2.3170 
   78.7500    91.1650     5.9850     5.7550     5.0460    25.4400    -5.8550     2.3140 
   78.8750    96.3950     5.8980     5.4090     4.8530    25.4470    -5.9920     2.3190 
   79.0000    97.7230     5.9830     5.3130     4.6930    25.4400    -6.2390     2.3220 
   79.1250    96.4900     6.1520     5.3850     4.4790    25.4450    -6.6350     2.3250 
   79.2500    95.7600     6.4640     5.6010     4.3480    25.4380    -7.1810     2.3280 
   79.3750    94.7250     6.9940     5.9880     4.4420    25.4060    -7.8980     2.3180 
   79.5000    90.7070     7.7330     6.5360     5.1390    25.3890    -8.7860     2.2870 
   79.6250    81.2270     8.5500     7.1690     6.6280    25.3890    -9.8110     2.2330 
   79.7500    69.7960     9.1960     7.7080     7.8480    25.3850   -10.8920     2.1770 
   79.8750    61.6280     9.4970     8.0030     7.8530    25.3840   -11.9640     2.1370 
   80.0000    58.7830     9.4410     8.0100     7.5620    25.3760   -12.9620     2.1200 
   80.1250    57.7460     9.1880     7.8170     7.5960    25.3790   -13.8120     2.1240 
   80.2500    57.8570     9.0100     7.6280     7.8240    25.3520   -14.5100     2.1280 
   80.3750    60.3800     9.0270     7.5480     8.1330    25.3230   -15.0590     2.1280 
   80.5000    63.8640     9.2330     7.5990     8.7650    25.3080   -15.5040     2.1270 
   80.6250    65.3210     9.5110     7.7240     9.6350    25.2170   -15.8520     2.1330 
   80.7500    65.8670     9.7250     7.8220    10.1680    24.9820   -16.1710     2.1520 
   80.8750    66.4450     9.8450     7.8590    10.2810    24.6090   -16.4720     2.1810 
   81.0000    65.5940     9.9050     7.8470    10.3810    24.4750   -16.7710     2.2130 
   81.1250    62.4470     9.9530     7.8170    10.3010    24.4570   -17.0970     2.2320 
   81.2500    60.5360     9.9980     7.7850     9.9750    24.4680   -17.4690     2.2330 
   81.3750    61.7860    10.0010     7.7410     9.7580    24.5580   -17.9240     2.2190 
   81.5000    63.5810     9.9230     7.6620     9.9550    24.5480   -18.4780     2.1940 
   81.6250    62.1380     9.7610     7.5270    10.5330    24.4440   -19.1230     2.1660 
   81.7500    59.3460     9.5790     7.3590    10.1030    24.5950   -19.8380     2.1430 
   81.8750    57.3390     9.4220     7.1890     9.8020    24.7030   -20.5900     2.1290 
   82.0000    57.1430     9.3080     7.0380     9.8690    24.8850   -21.3430     2.1260 
   82.1250    58.5030     9.2320     6.9150    10.0410    25.0260   -22.0620     2.1320 
   82.2500    58.4780     9.1770     6.8140    10.1460    25.1070   -22.6780     2.1390 
   82.3750    54.6380     9.1860     6.7700    10.1990    25.1640   -23.1660     2.1350 
   82.5000    50.3880     9.3440     6.8400    10.1500    25.2830   -23.5280     2.1200 
   82.6250    51.2250     9.7480     7.1040     9.9860    25.2830   -23.7480     2.1140 
   82.7500    53.9850    10.3130     7.5200    10.2470    25.3400   -23.8760     2.1440 
   82.8750    54.1600    10.8730     7.9940    12.9620    25.2820   -23.9150     2.2130 
   83.0000    52.7830    11.1620     8.3500    18.4110    25.0740   -23.8690     2.2890 
   83.1250    52.1760    10.8730     8.3500    20.4670    24.9130   -23.7450     2.3120 
   83.2500    51.6990    10.1740     8.0230    13.2960    25.1750   -23.5540     2.2770 
   83.3750    50.8190     9.3720     7.5230     9.9850    25.3510   -23.2950     2.2130 
   83.5000    50.2900     8.7530     7.0440     9.2970    25.3760   -22.9650     2.1570 
   83.6250    50.8680     8.5070     6.7630     9.7640    25.3820   -22.5250     2.1340 
   83.7500    51.7640     8.5230     6.6790    10.2960    25.3820   -21.9890     2.1340 
   83.8750    52.2460     8.6490     6.7310    10.5580    25.3810   -21.3570     2.1450 
   84.0000    52.3220     8.7420     6.8150    10.3870    25.3800   -20.6190     2.1470 
   84.1250    53.3030     8.7430     6.8510    10.0370    25.3570   -19.7650     2.1110 
   84.2500    55.6530     8.7260     6.8520     9.8410    25.3250   -18.7750     2.0390 
   84.3750    57.9160     8.7630     6.8610     9.7540    25.3300   -17.6470     1.9580 
   84.5000    58.6910     8.9050     6.9210     9.2630    25.3100   -16.4000     1.9070 
   84.6250    60.0800     9.1810     7.0550     8.5930    25.3970   -15.0510     1.9470 
   84.7500    63.0150     9.5010     7.2180     8.0050    25.4240   -13.7120     2.0810 
   84.8750    65.1400     9.7350     7.3360     7.9730    25.4420   -12.4370     2.2530 
   85.0000    64.1560     9.7470     7.3340     8.1280    25.4580   -11.2800     2.3600 
   85.1250    63.0810     9.4560     7.1660     8.1240    25.4640   -10.3210     2.3410 
   85.2500    65.3680     9.0290     6.9130     7.9000    25.4490    -9.5320     2.2780 
   85.3750    69.1240     8.6350     6.6570     7.6010    25.4050    -8.9030     2.2270 
