~V
VERS. 2.00: Ver 2.00
~W
STRT.M 20.0000:
STOP.M 279.0000:
STEP.M 0.1250:
NULL. -999.2500:
UWI. F11153:
~C
DEPT.M :
DEN.GM/CC :
GR.API :
RML.OHMM :
RI. :
RXO.OHMM :
CALI.CM :
SP.MV :
~A
# ...
  267.5000     2.4830    49.5200     9.3420     8.2270     6.9840    24.4900   -13.1570 
  267.6250     2.4830    49.7050    10.0240     8.7330     8.3130    24.4990   -13.1370 
  267.7500     2.4870    51.2630    10.8780     9.4680    10.5660    24.4950   -13.0980 
  267.8750     2.4950    54.4270    11.6560    10.2190    12.8580    24.5230   -13.0740 
  268.0000     2.5030    55.8640    12.1530    10.7730    14.0370    24.5600   -13.0160 
  268.1250     2.5090    54.2510    12.3290    11.0550    13.5470    24.5620   -12.9600 
  268.2500     2.5120    51.5070    12.3110    11.1370    11.8030    24.5360   -12.8770 
  268.3750     2.5130    51.5070    12.3320    11.1880    12.0300    24.5220   -12.7660 
  268.5000     2.5110    51.5070    12.5410    11.3400    12.7150    24.5310   -12.6970 
  268.6250     2.5010    51.5070    12.9480    11.6180    13.7060    24.5650   -12.6910 
  268.7500     2.4870    51.5070    13.4550    11.9760    14.5730    24.5870   -12.6770 
  268.8750     2.4760    51.5070    13.8680    12.3090    14.0800    24.5570   -12.6470 
  269.0000     2.4770    51.5070    14.0550    12.5200    13.1550    24.5280   -12.6540 
  269.1250     2.4860    51.5070    13.9930    12.5530    11.9790    24.5100   -12.6880 
  269.2500     2.4940    51.5070    13.7400    12.4050    10.4050    24.4980   -12.7360 
  269.3750     2.4990    51.5070    13.4040    12.1200     9.2260    24.5040   -12.8270 
  269.5000     2.5010    51.5070    13.1230    11.8230     8.5900    24.4790   -12.9100 
  269.6250     2.5040    51.5070    12.9730    11.6040     8.5270    24.4320   -12.9480 
  269.7500     2.5090    51.5070    12.9890    11.5290     9.1420    24.4040   -12.9900 
  269.8750     2.5160    51.5070    13.2010    11.6540    10.4940    24.3940   -13.0560 
  270.0000     2.5240    51.5070    13.5510    11.9350    11.7960    24.3850   -13.0900 
  270.1250     2.5320    51.5070    13.9870    12.3240    12.6080    24.3670   -13.1190 
  270.2500     2.5380    51.5070    14.4290    12.7540    12.9790    24.3520   -13.1970 
  270.3750     2.5360    51.5070    14.7760    13.1260    13.3170    24.3440   -13.2790 
  270.5000     2.5270    51.5070    14.9940    13.3730    13.6870    24.3220   -13.3370 
  270.6250     2.5210    51.5070    15.0800    13.4660    13.9700    24.2790   -13.4240 
  270.7500     2.5220    51.5070    15.0580    13.4180    14.6560    24.2630   -13.5010 
  270.8750     2.5220    51.5070    14.9500    13.2670    15.0620    24.3980   -13.5380 
  271.0000     2.5090    51.5070    14.8080    13.0930    16.0070    24.5530   -13.6240 
  271.1250     2.4890    51.5070    14.6670    12.9460    17.7360    24.6300   -13.7080 
  271.2500     2.4740    51.5070    14.5620    12.8510    21.7340    24.6370   -13.7590 
  271.3750     2.4700    51.5070    14.5260    12.8130    25.5260    24.6240   -13.8160 
  271.5000     2.4750    51.5070    14.5400    12.7980    26.2960    24.5970   -13.8560 
  271.6250     2.4860    51.5070    14.5730    12.7900    22.8450    24.5530   -13.8450 
  271.7500     2.4990    51.5070    14.5960    12.7820    19.2650    24.4920   -13.8520 
  271.8750     2.5080    51.5070    14.5860    12.7770    17.4440    24.4190   -13.8680 
  272.0000     2.5110    51.5070    14.5550    12.7750    15.9140    24.3770   -13.8530 
  272.1250     2.5070    51.5070    14.5240    12.7780    14.0200    24.3360   -13.8330 
  272.2500     2.5010    51.5070    14.5120    12.7830    13.0070    24.2910   -13.7980 
  272.3750     2.4910    51.5070    14.5290    12.7860    13.9570    24.2690   -13.7670 
  272.5000     2.4800    51.5070    14.5590    12.7870    13.9220    24.2430   -13.7330 
  272.6250     2.4760    51.5070    14.5930    12.7870    12.7190    24.2050   -13.7170 
  272.7500     2.4810    51.5070    14.6240    12.7830    13.6970    24.2020   -13.7140 
  272.8750     2.4860    51.5070    14.6450    12.7720    15.3580    24.2320   -13.7150 
  273.0000     2.4850    51.5070    14.6510    12.7560    14.9920    24.2430   -13.7130 
  273.1250     2.4860    51.5070    14.6420    12.7390    13.7440    24.2370   -13.7040 
  273.2500     2.4960    51.5070    14.6210    12.7280    13.5060    24.2420   -13.7100 
  273.3750     2.5090    51.5070    14.6010    12.7260    14.1250    24.2580   -13.7000 
  273.5000     2.5180    51.5070    14.5920    12.7340    14.5410    24.2700   -13.7160 
  273.6250     2.5220    51.5070    14.5940    12.7480    15.1420    24.2600   -13.7690 
  273.7500     2.5280    51.5070    14.6060    12.7660    15.5640    24.2520   -13.8440 
  273.8750     2.5300    51.5070    14.6270    12.7800    15.7350    24.2610   -13.9170 
  274.0000     2.5220    51.5070    14.6530    12.7890    15.1410    24.2630   -13.9940 
  274.1250     2.5090    51.5070    14.6780    12.7910    13.7670    24.2340   -14.0680 
  274.2500     2.4980    51.5070    14.6820    12.7910    11.3850    24.1730   -14.1510 
  274.3750     2.4890    51.5070    14.6820    12.7910     8.4210    24.1340   -14.2190 
  274.5000     2.4840    51.5070    14.6820    12.7910     7.3310    24.1130   -14.2640 
  274.6250     2.4830    51.5070    14.6820    12.7910     7.2590    24.1170   -14.2720 
  274.7500     2.4840    51.5070    14.6820    12.7910     7.4920    24.1260   -14.2810 
  274.8750     2.4820    51.5070    14.6820    12.7910     7.5700    24.1150  -999.2500 
  275.0000     2.4800    51.5070    14.6820    12.7910     7.5780    24.0750  -999.2500 
  275.1250     2.4830    51.5070    14.6820    12.7910     7.6040    24.0220  -999.2500 
  275.2500     2.4890    51.5070    14.6820    12.7910     7.6720    23.9950  -999.2500 
  275.3750     2.4920    51.5070    14.6820    12.7910     7.6640    23.9720  -999.2500 
  275.5000     2.4860    51.5070    14.6820    12.7910     7.7160    23.9610  -999.2500 
  275.6250     2.4610    51.5070    14.6820    12.7910     7.7350    23.9550  -999.2500 
  275.7500     2.4130    51.5070    14.6820    12.7910     7.6800    23.8560  -999.2500 
  275.8750     2.3420    51.5070    14.6820    12.7910     7.8030    22.9060  -999.2500 
  276.0000     2.2400    51.5070    14.6820    12.7910     8.0390    20.8040  -999.2500 
  276.1250     2.1000    51.5070    14.6820    12.7910     8.1980    18.5730  -999.2500 
  276.2500     1.9730    51.5070    14.6820    12.7910     8.2450    17.4600  -999.2500 
  276.3750     1.8950    51.5070    14.6820    12.7910     8.2470    17.2890  -999.2500 
  276.5000     1.8650    51.5070    14.6820    12.7910     8.2460    17.2790  -999.2500 
  276.6250     1.8640    51.5070    14.6820    12.7910     8.2450    17.2750  -999.2500 
  276.7500     1.8660    51.5070    14.6820    12.7910     8.2440    17.2710  -999.2500 
  276.8750     1.8670    51.5070    14.6820    12.7910     8.2430    17.2700  -999.2500 
  277.0000     1.8680    51.5070    14.6820    12.7910     8.2460    17.2730  -999.2500 
  277.1250     1.8690    51.5070    14.6820    12.7910     8.2490    17.2730  -999.2500 
  277.2500     1.8690    51.5070    14.6820    12.7910     8.2540    17.2720  -999.2500 
  277.3750     1.8670    51.5070    14.6820    12.7910     8.2530    17.2690  -999.2500 
  277.5000     1.8650    51.5070    14.6820    12.7910     8.2510    17.2680  -999.2500 
  277.6250     1.8630    51.5070    14.6820    12.7910     8.2470    17.2670  -999.2500 
  277.7500     1.8620    51.5070    14.6820    12.7910     8.2470    17.2670  -999.2500 
  277.8750     1.8620    51.5070    14.6820    12.7910     8.2460    17.2670  -999.2500 
  278.0000     1.8610    51.5070    14.6820    12.7910     8.2470    17.2670  -999.2500 
  278.1250     1.8620    51.5070    14.6820    12.7910     8.2470    17.2670  -999.2500 
  278.2500     1.8630    51.5070    14.6820    12.7910     8.2480    17.2670  -999.2500 
  278.3750     1.8650    51.5070    14.6820    12.7910     8.2500    17.2670  -999.2500 
  278.5000     1.8670    51.5070    14.6820    12.7910     8.2490    17.2670  -999.2500 
  278.6250     1.8670    51.5070    14.6820    12.7910     8.2480    17.2670  -999.2500 
