~V
VERS. 2.00: Ver 2.00
~W
STRT.M 20.0000:
STOP.M 279.0000:
STEP.M 0.1250:
NULL. -999.2500:
UWI. F11153:
~C
DEPT.M :
DEN.GM/CC :
GR.API :
RML.OHMM :
RI. :
RXO.OHMM :
CALI.CM :
SP.MV :
~A
# ...
  200.0000     2.2450    66.1690    53.4080    40.4480    30.7680    26.4160   -35.6820 
  200.1250     2.2670    69.6590    56.0710    41.3480    29.9500    26.4100   -36.1430 
  200.2500     2.2810    70.3820    62.5730    45.1310    34.4340    26.3930   -36.5740 
  200.3750     2.2790    68.0090    72.7820    51.9250    43.3160    26.3830   -36.9510 
  200.5000     2.2620    64.9280    85.8160    61.2580    51.6180    26.4120   -37.2410 
  200.6250     2.2340    61.4100    99.0320    71.4750    58.6490    26.4900   -37.4190 
  200.7500     2.2000    58.4090   108.0340    79.4360    65.7440    26.5300   -37.5240 
  200.8750     2.1580    57.9700   109.4250    82.5850    69.5560    26.4320   -37.5730 
  201.0000     2.1190    60.5430   103.0390    80.1640    62.2110    26.1730   -37.5620 
  201.1250     2.1210    61.9990    92.2400    73.5400    47.0400    25.7650   -37.4850 
  201.2500     2.1690    61.7390    82.2600    66.4070    36.6140    25.4000   -37.3590 
  201.3750     2.2440    64.3470    75.4810    60.8720    33.2520    25.1680   -37.2150 
  201.5000     2.3030    69.5120    72.7150    58.0300    33.4310    25.0380   -37.0890 
  201.6250     2.3160    72.6680    74.2140    58.4810    40.5000    25.0030   -37.0360 
  201.7500     2.3100    73.2140    78.2860    61.1080    49.7700    25.1080   -37.0750 
  201.8750     2.3060    72.3860    83.6320    64.9250    55.5050    25.3210   -37.1830 
  202.0000     2.3070    71.4020    88.8800    68.8140    57.7710    25.5020   -37.3120 
  202.1250     2.3120    71.2750    92.6410    71.5870    59.1810    25.5550   -37.4330 
  202.2500     2.3160    71.0630    94.9190    73.1140    59.8180    25.4680   -37.5420 
  202.3750     2.3110    70.1340    96.3880    73.8710    58.3870    25.2900   -37.6240 
  202.5000     2.2910    69.4430    97.9550    74.6100    56.0100    25.2020   -37.6620 
  202.6250     2.2490    70.9070   100.4430    76.0600    54.6870    25.3580   -37.6340 
  202.7500     2.1940    72.0690   103.8350    78.2810    56.4070    25.6920   -37.5180 
  202.8750     2.1440    72.6920   107.5990    80.9070    61.2750    25.9120   -37.3180 
  203.0000     2.1240    73.4890   110.6630    83.1440    67.1860    25.8150   -37.0800 
  203.1250     2.1510    69.7090   111.4230    83.7570    70.7650    25.5730   -36.7930 
  203.2500     2.2000    64.2860   109.7830    82.5450    71.1780    25.4040   -36.4340 
  203.3750     2.2440    62.9380   106.3900    79.8690    68.0150    25.3870   -36.0150 
  203.5000     2.2690    65.5590   102.4930    76.5550    62.2750    25.5830   -35.5570 
  203.6250     2.2660    65.6120    99.7820    73.8220    54.6450    25.8340   -35.0460 
  203.7500     2.2410    62.4150    99.1540    72.5200    51.8140    26.0940   -34.5020 
  203.8750     2.1990    61.5720   101.0710    73.1670    53.4750    26.3600   -33.9540 
  204.0000     2.1560    63.3490   105.9520    76.2760    57.0380    26.5630   -33.3870 
  204.1250     2.1360    62.3900   115.0770    83.2670    60.0620    26.6570   -32.8110 
  204.2500     2.1390    57.2660   127.9350    94.0660    69.0790    26.6600   -32.2470 
  204.3750     2.1590    51.8890   141.9250   107.0720    80.9380    26.5220   -31.6880 
  204.5000     2.1990    52.8690   149.1020   117.0450    93.1150    26.1760   -31.1440 
  204.6250     2.2840    58.9980   134.4400   112.5510   115.3800    25.5450   -30.6440 
  204.7500     2.4090    61.7690   103.2330    92.3520   141.4220    24.8000   -30.2020 
  204.8750     2.5480    60.1220    70.4060    65.1150   112.9930    24.1980   -29.8070 
  205.0000     2.6560    57.6800    41.1630    41.5600    49.1780    23.7900   -29.4930 
  205.1250     2.6940    58.0420    28.0860    27.0880    22.6670    23.6140   -29.3290 
  205.2500     2.6870    60.9120    20.1730    18.6090    13.0420    23.6760   -29.3330 
  205.3750     2.6600    66.0520    15.3950    13.7170     9.5400    23.9070   -29.5010 
  205.5000     2.6220    73.9080    12.4250    10.7810     8.2400    24.1380   -29.7950 
  205.6250     2.5680    81.1710    10.5950     9.0380     7.3500    24.3900   -30.2080 
  205.7500     2.4930    85.8140     9.3540     7.8970     6.3810    24.6780   -30.6660 
  205.8750     2.4080    89.4250     8.5900     7.1990     5.6560    24.8770   -31.1840 
  206.0000     2.3450    93.0320     8.2890     6.8800     5.2680    24.9650   -31.7630 
  206.1250     2.3360    95.6070     8.5600     7.0030     5.8060    24.8670   -32.3550 
  206.2500     2.3680    94.8240     9.3810     7.5500     6.9310    24.6700   -32.9090 
  206.3750     2.4170    90.9110    10.8400     8.5980     8.3740    24.4650   -33.4140 
  206.5000     2.4630    85.5900    12.9710    10.2140     9.2190    24.3060   -33.8480 
  206.6250     2.5030    82.6370    15.5530    12.3550    11.1820    24.1260   -34.1450 
  206.7500     2.5420    81.0180    17.6180    14.3030    14.7000    23.9890   -34.3220 
  206.8750     2.5700    77.5800    17.9360    14.9760    19.9950    23.9650   -34.2990 
  207.0000     2.5700    72.8050    15.7760    13.5970    22.1150    24.1020   -33.9850 
  207.1250     2.5270    71.2750    11.8470    10.6030    17.5990    24.3380   -33.3190 
  207.2500     2.4330    71.7820     8.3860     7.6520    10.5090    24.9980   -32.3690 
  207.3750     2.2700    71.9730     5.4250     5.4260     5.9530    26.6860   -31.1860 
  207.5000     2.0830    70.6760     3.8930     4.0060     4.4050    28.6770   -29.8500 
  207.6250     1.9760    68.6340     3.3810     3.3060     4.0350    28.3200   -28.4730 
  207.7500     1.9600    67.6020     3.2560     3.0230     4.1200    26.1720   -27.1320 
  207.8750     1.9900    68.2260     3.3710     3.0290     4.5420    24.6420   -25.8970 
  208.0000     2.0020    70.8550     3.6270     3.2140     4.6420    24.2590   -24.7990 
  208.1250     1.9850    74.1710     3.9360     3.4820     5.5140    24.3610   -23.8540 
  208.2500     1.9900    77.4430     4.2220     3.7440     5.5920    24.5990   -23.0400 
  208.3750     2.0260    78.2160     4.4490     3.9570     5.3070    25.0560   -22.3450 
  208.5000     2.0480    75.2080     4.5980     4.0970     5.6900    25.8590   -21.7570 
  208.6250     2.0010    72.6110     4.6440     4.1410     7.1600    26.7060   -21.2370 
  208.7500     1.9390    72.8810     4.6060     4.1050     8.4060    27.1550   -20.7540 
  208.8750     1.9260    75.0220     4.5070     3.9990     8.0230    27.1250   -20.3080 
  209.0000     1.9750    75.2410     4.3830     3.8460     7.5090    26.7490   -19.9290 
  209.1250     2.0410    72.0650     4.2970     3.6890     8.6570    26.4120   -19.6400 
  209.2500     2.0560    70.4800     4.2900     3.5830    10.9890    26.0670   -19.3900 
  209.3750     2.0290    73.8480     4.3820     3.5630    17.0160    25.7220   -19.1320 
  209.5000     2.0170    81.0650     4.5750     3.6390    26.0680    25.2870   -18.8210 
  209.6250     2.0580    84.2050     4.8650     3.7970    25.0700    24.8850   -18.4540 
  209.7500     2.1290    81.6830     5.1870     3.9820    14.2420    24.7370   -18.0350 
  209.8750     2.2030    77.6280     5.4810     4.1620     8.1810    24.7270   -17.5750 
  210.0000     2.2490    75.4560     5.7170     4.3250     6.7060    24.7190   -17.0850 
  210.1250     2.2520    76.2890     5.9350     4.4940     5.8390    24.6860   -16.5890 
  210.2500     2.2490    79.1270     6.2450     4.7150     6.4610    24.5650   -16.1490 
  210.3750     2.2600    82.5240     6.7320     5.0300     6.9560    24.4070   -15.7910 
  210.5000     2.2760    82.7350     7.4170     5.4690     7.1210    24.3000   -15.5190 
  210.6250     2.2860    80.6590     8.2210     6.0420     7.8410    24.3120   -15.3430 
  210.7500     2.2890    79.5040     8.9170     6.6400     8.9660    24.4010   -15.2430 
  210.8750     2.2940    78.5080     9.2930     7.1260     9.8210    24.5170   -15.2070 
  211.0000     2.2990    76.6970     9.2160     7.3600    10.1900    24.6180   -15.2290 
  211.1250     2.3000    73.3370     8.6810     7.2230     9.3120    24.6370   -15.3280 
