~V
VERS. 2.00: Ver 2.00
~W
STRT.M 45.0000:
STOP.M 264.0000:
STEP.M 0.1250:
NULL. -999.2500:
UWI. F11189:
~C
DEPT.M :
SP.MV :
GR.API :
RI. :
RML.OHMM :
RXO.OHMM :
DEN.GM/CC :
~A
   45.0000    29.1120    46.5440    42.6960    28.1480     1.2390     2.6020 
   45.1250    27.1380    46.0600    42.6950    28.1480     1.3920     2.6450 
   45.2500    25.1120    45.6320    42.6930    28.1480     1.5320     2.5690 
   45.3750    22.9040    44.7980    42.6930    28.1480     1.3410     2.5020 
   45.5000    20.3240    41.9480    42.6930    28.1470     0.9590     2.5620 
   45.6250    17.1410    38.1560    42.6930    28.1500     1.1550     2.6540 
   45.7500    13.3210    36.4010    42.6930    28.1500     1.9240     2.6230 
   45.8750     8.8830    37.5940    42.6930    28.1500     2.2450     2.4840 
   46.0000     4.0770    39.7900    42.6930    28.1490     2.2180     2.3880 
   46.1250    -1.6570    41.5870    42.6930    28.1480     2.4650     2.3800 
   46.2500    -5.3810    43.6370    42.6930    28.1480     2.5290     2.3940 
   46.3750    -9.5460    45.3500    42.6930    28.1480     2.3210     2.4030 
   46.5000   -13.3340    45.0320    42.6930    28.1480     2.2570     2.3970 
   46.6250   -16.5930    43.2060    42.6940    28.1470     2.2590     2.3790 
   46.7500   -19.3570    42.1210    42.6970    28.1480     2.2200     2.3620 
   46.8750   -21.5910    41.9660    42.6970    28.1480     2.1160     2.3550 
   47.0000   -23.3510    41.7370    42.6970    28.1480     1.9300     2.3550 
   47.1250   -24.6290    41.2970    42.6940    28.1470     1.7130     2.3530 
   47.2500   -25.5040    41.1730    42.6980    28.1470     1.4020     2.3480 
   47.3750   -26.0060    42.4600    42.7020    28.1470     1.1160     2.3480 
   47.5000   -26.2270    44.2310    42.7060    28.1470     1.0000     2.3550 
   47.6250   -26.2090    43.9440    42.7070    28.1470     1.0190     2.3660 
   47.7500   -26.0150    42.0430    42.7060    28.1470     1.3010     2.3770 
   47.8750   -25.6510    41.0770    42.7050    28.1470     1.3540     2.3860 
   48.0000   -25.1270    41.5570    42.7050    28.1480     0.9130     2.3860 
   48.1250   -24.4110    42.0660    42.7040    28.1490     0.6520     2.3800 
   48.2500   -23.5010    42.5150    42.7040    28.1490     0.5730     2.3790 
   48.3750   -22.3930    43.1630    42.7040    28.1490     0.4360     2.3850 
   48.5000   -21.1600    44.1330    42.7040    28.1470     0.2830     2.3910 
   48.6250   -19.8940    45.3980    42.7040    28.1470     0.1980     2.3880 
   48.7500   -18.4920    46.8570    42.7040    28.1470     0.2620     2.3770 
   48.8750   -16.7880    46.2610    42.7040    28.1470     0.4320     2.3600 
   49.0000   -14.6190    44.0220    42.7040    28.1470     0.6610     2.3510 
   49.1250   -11.9340    42.4920    42.7040    28.1470     0.8780     2.3570 
   49.2500    -8.8480    43.1710    42.7040    28.1470     0.9540     2.3630 
   49.3750    -5.8180    45.0380    42.7040    28.1470     0.7570     2.3590 
   49.5000    -3.2430    45.7730    42.7040    28.1470     0.5490     2.3540 
   49.6250    -1.0150    44.4260    42.7040    28.1470     0.5680     2.3580 
   49.7500     1.1470    42.1300    42.7040    28.1470     0.6120     2.3600 
   49.8750     3.4940    40.6920    42.7030    28.1470     0.5600     2.3570 
   50.0000     5.8030    41.1920    42.7030    28.1470     0.4750     2.3590 
   50.1250     7.9680    44.9790    42.7030    28.1470     0.4820     2.3680 
   50.2500     9.9510    51.0200    42.7010    28.1470     0.5940     2.3790 
   50.3750    11.7090    53.5460    42.7000    28.1470     0.5380     2.3950 
   50.5000    13.4630    50.4840    42.7000    28.1470     0.2730     2.4120 
   50.6250    15.4550    45.9320    42.6990    28.1480     0.1820     2.4120 
   50.7500    17.6930    44.5600    42.6990    28.1480     0.3820     2.3990 
   50.8750    19.9260    44.1500    42.6990    28.1480     0.5150     2.3910 
   51.0000    21.9450    42.6580    42.6980    28.1480     0.7690     2.3910 
   51.1250    23.7450    41.9540    42.6980    28.1470     1.1140     2.3850 
   51.2500    25.4280    41.3770    42.6980    28.1470     0.8370     2.3720 
   51.3750    27.0960    40.2250    42.6980    28.1470     0.3330     2.3530 
   51.5000    28.8210    39.4860    42.6980    28.1470     0.1890     2.3230 
   51.6250    30.4060    39.6290    42.6980    28.1470     0.2330     2.2830 
   51.7500    31.7920    39.8330    42.6980    28.1470     0.2840     2.2570 
   51.8750    33.0390    40.5610    42.6980    28.1470     0.3800     2.2600 
   52.0000    34.3160    43.9040    42.6980    28.1470     0.5090     2.2740 
   52.1250    35.6030    49.1040    42.6980    28.1470     0.5220     2.2810 
   52.2500    36.7230    52.6760    42.6980    28.1480     0.5900     2.2830 
   52.3750    37.7000    52.9250    42.6980    28.1480     0.8730     2.2840 
   52.5000    38.6330    51.2950    42.6970    28.1430     1.1180     2.2780 
   52.6250    39.5120    49.0200    41.9190    27.5660     0.9980     2.2690 
   52.7500    40.1290    47.3200    31.6930    20.7890     0.6120     2.2770 
   52.8750    40.3230    46.8180    19.8880    13.0290     0.3350     2.3040 
   53.0000    40.2350    46.7680     8.0910     5.2780     0.3410     2.3310 
   53.1250    39.7890    47.5470     0.2100     0.2140     0.5160     2.3480 
   53.2500    39.0060    48.8490     0.2260     0.2160     0.6930     2.3520 
   53.3750    37.9170    49.7460     0.2230     0.2210     0.7900     2.3460 
   53.5000    36.7390    49.5800     0.2160     0.2230     0.8220     2.3340 
   53.6250    35.6380    49.0720     0.2060     0.2100     0.8480     2.3230 
   53.7500    34.4820    48.7500     0.1960     0.2030     0.8610     2.3220 
   53.8750    33.3830    48.0440     0.1820     0.2000     0.8560     2.3510 
   54.0000    32.2890    46.3490     0.1660     0.2030     0.8620     2.4040 
   54.1250    31.0130    43.3830     0.1410     0.2020     0.8910     2.4540 
   54.2500    29.3950    39.5480     0.1050     0.1650     0.9300     2.4870 
   54.3750    27.5830    37.1830     0.0760     0.1140     0.9720     2.4840 
   54.5000    25.8510    37.6130     0.0600     0.0700     1.0740     2.4560 
   54.6250    24.1520    40.2490     0.0910     0.0710     1.3530     2.4560 
   54.7500    22.4730    44.8620     0.2100     0.1490     2.1560     2.4710 
   54.8750    20.7650    50.7310     0.5040     0.3650     3.5250     2.3990 
   55.0000    19.0820    57.5770     1.2690     1.0950     5.8190     2.2320 
   55.1250    17.1770    63.5090     2.6870     3.0140     6.6510     2.0960 
   55.2500    14.9270    67.5430     3.9100     4.2960     7.0040     2.0620 
   55.3750    12.1540    69.8410     4.7240     5.0140     6.9580     2.0770 
   55.5000     8.8350    71.5840     4.8790     4.7220     6.6700     2.0920 
   55.6250     5.4750    72.5150     4.7040     3.9630     6.4480     2.0990 
   55.7500     2.6110    72.5700     4.7800     3.8390     6.3470     2.0940 
   55.8750     0.5780    72.7090     4.9950     3.9660     6.3200     2.0950 
   56.0000    -0.9310    72.8570     5.1810     4.1100     6.5270     2.1280 
   56.1250    -2.3200    71.5930     5.3010     4.2640     7.2910     2.1840 
   56.2500    -3.6860    71.6730     5.3630     4.4040     7.9340     2.2030 
   56.3750    -5.0140    74.5490     5.3610     4.4930     7.4210     2.1570 
   56.5000    -6.2570    76.6640     5.2520     4.4900     6.8010     2.1010 
   56.6250    -7.3120    75.2650     5.0960     4.4460     6.7100     2.0920 
   56.7500    -8.3440    76.1440     4.9460     4.4350     6.4760     2.1230 
   56.8750    -9.3940    83.1590     4.8570     4.4810     6.2290     2.1500 
   57.0000   -10.4810    87.6110     4.9160     4.6420     6.4330     2.1540 
   57.1250   -11.6210    83.3940     5.0850     4.8960     6.9330     2.1460 
   57.2500   -12.8940    75.9530     5.2380     5.0860     7.6600     2.1430 
   57.3750   -14.1800    73.9890     5.4180     5.3590     8.6080     2.1430 
   57.5000   -15.2730    76.6070     5.8090     5.8490     8.5930     2.1370 
   57.6250   -15.9570    77.4560     6.5540     6.7280     9.0570     2.1660 
   57.7500   -16.3000    74.2380     7.3190     7.7190    26.5650     2.2680 
