~V
VERS. 2.00: Ver 2.00
~W
STRT.M 50.0000:
STOP.M 248.0000:
STEP.M 0.1250:
NULL. -999.2500:
UWI. F11129:
~C
DEPT.M :
SP.MV :
DEN.GM/CC :
GR.API :
RML.OHMM :
RI. :
RXO.OHMM :
CALI.CM :
~A
# ...
   72.5000   -25.2940     2.1840    76.7660     6.8870     5.0840     6.7750    22.9220 
   72.6250   -26.2160     2.1760    76.2710     7.1880     5.3030     7.0770    22.9030 
   72.7500   -27.2310     2.1770    76.1360     7.5200     5.5660     7.5490    22.9310 
   72.8750   -28.2700     2.1940    76.6760     7.8450     5.8410     8.2240    22.9200 
   73.0000   -29.1890     2.2140    76.7530     8.1220     6.0940     9.0610    22.7690 
   73.1250   -29.9400     2.2180    74.3390     8.3140     6.2970     9.9330    22.4830 
   73.2500   -30.5010     2.2030    69.4280     8.3980     6.4190    10.6510    22.1810 
   73.3750   -30.8120     2.1820    64.3860     8.3820     6.4490    11.0950    21.9890 
   73.5000   -30.8450     2.1700    62.3220     8.3030     6.4110    11.2290    21.9130 
   73.6250   -30.6340     2.1710    63.9080     8.1730     6.3250    10.8950    21.9010 
   73.7500   -30.2210     2.1820    66.6050     7.9800     6.2010    10.1550    21.9050 
   73.8750   -29.6220     2.1950    68.3310     7.7250     6.0440     9.5830    21.8860 
   74.0000   -28.9060     2.2020    70.5440     7.4470     5.8680     9.4530    21.8730 
   74.1250   -28.1450     2.2030    73.0590     7.2060     5.6950     9.0760    21.9280 
   74.2500   -27.4270     2.2000    74.0080     7.0720     5.5570     8.1840    22.0270 
   74.3750   -26.7950     2.1950    73.9630     7.0790     5.4860     7.6030    22.0660 
   74.5000   -26.2530     2.1860    74.7330     7.2010     5.4920     7.8040    22.0430 
   74.6250   -25.7990     2.1760    74.8950     7.4060     5.5750     8.2960    22.0450 
   74.7500   -25.4010     2.1710    74.1660     7.6720     5.7340     8.6430    22.1600 
   74.8750   -25.0220     2.1760    75.5370     7.9680     5.9570     8.9420    22.3640 
   75.0000   -24.6210     2.1880    77.9710     8.2270     6.1980     9.1720    22.5120 
   75.1250   -24.1380     2.2050    76.6890     8.3510     6.3840     9.4990    22.5240 
   75.2500   -23.5080     2.2280    73.0910     8.2260     6.4180    10.0370    22.4820 
   75.3750   -22.7690     2.2620    74.3720     7.8170     6.2420    10.1830    22.5100 
   75.5000   -22.0460     2.2970    81.9030     7.2370     5.9000     8.9960    22.6750 
   75.6250   -21.3740     2.3180    90.9370     6.6380     5.4780     6.8680    22.9790 
   75.7500   -20.7880     2.3110    97.3710     6.1740     5.0870     5.4400    23.3140 
   75.8750   -20.3690     2.2900   100.5700     5.9050     4.8080     5.1650    23.4930 
   76.0000   -20.1850     2.2740   102.1600     5.7780     4.6530     5.2310    23.4990 
   76.1250   -20.2720     2.2730   102.9990     5.7340     4.6020     5.1130    23.4360 
   76.2500   -20.6930     2.2810   103.0630     5.7400     4.6350     4.9230    23.3070 
   76.3750   -21.4400     2.2870   102.2500     5.8260     4.7420     4.9830    23.1010 
   76.5000   -22.3810     2.2890   100.5500     6.0670     4.9410     5.2910    22.9090 
   76.6250   -23.4760     2.2910    95.6530     6.5390     5.2790     5.7480    22.8000 
   76.7500   -24.7050     2.2940    86.4160     7.2680     5.7980     6.5920    22.7450 
   76.8750   -25.9710     2.2940    77.4200     8.1610     6.4730     8.2900    22.7040 
   77.0000   -27.2050     2.2920    73.1380     9.0080     7.1690    10.7770    22.6760 
   77.1250   -28.4090     2.2870    72.0180     9.5950     7.7210    13.3660    22.6620 
   77.2500   -29.5130     2.2720    70.1760     9.7580     7.9530    13.7650    22.6210 
   77.3750   -30.4420     2.2430    66.6900     9.5220     7.8220    11.3780    22.5190 
   77.5000   -31.2090     2.2130    62.9410     9.1180     7.4760     9.9030    22.3830 
   77.6250   -31.8370     2.1950    59.7670     8.7290     7.0650     9.4410    22.2890 
   77.7500   -32.3240     2.1910    58.7600     8.4630     6.7140     9.3380    22.3020 
   77.8750   -32.7010     2.1930    60.9080     8.3480     6.4800     9.1920    22.4420 
   78.0000   -32.9960     2.1920    64.9920     8.3570     6.3600     9.2410    22.6600 
   78.1250   -33.2190     2.1860    68.4230     8.4840     6.3440     9.6270    22.8790 
   78.2500   -33.3980     2.1760    68.6770     8.7230     6.4260    10.1410    23.0640 
   78.3750   -33.5540     2.1660    66.7870     9.0420     6.5950    10.4700    23.2500 
   78.5000   -33.6950     2.1570    65.7980     9.3600     6.8130    10.6470    23.4180 
   78.6250   -33.8250     2.1480    65.3450     9.6030     7.0350    10.8470    23.4470 
   78.7500   -33.9630     2.1390    64.6340     9.7020     7.2100    11.1010    23.2190 
   78.8750   -34.1290     2.1330    66.0800     9.6420     7.3000    11.3580    22.7760 
   79.0000   -34.3470     2.1340    70.6970     9.4900     7.3180    11.5250    22.3750 
   79.1250   -34.6430     2.1400    74.3540     9.3250     7.2940    11.5820    22.1740 
   79.2500   -35.0150     2.1490    73.2590     9.2250     7.2660    11.5830    22.1180 
   79.3750   -35.4390     2.1560    69.3670     9.2240     7.2620    11.5340    22.1100 
   79.5000   -35.9060     2.1600    66.8220     9.2820     7.2880    11.6240    22.1070 
   79.6250   -36.4210     2.1610    65.1360     9.3410     7.3310    11.7000    22.1010 
   79.7500   -36.9490     2.1610    62.7130     9.3610     7.3710    11.7730    22.1120 
   79.8750   -37.4360     2.1610    61.1650     9.3470     7.4000    11.9330    22.2080 
   80.0000   -37.8540     2.1600    61.7580     9.3380     7.4220    12.1500    22.4280 
   80.1250   -38.1780     2.1600    62.4500     9.3560     7.4450    12.4940    22.6980 
   80.2500   -38.3640     2.1570    60.7780     9.3910     7.4710    12.8780    22.8880 
   80.3750   -38.3910     2.1550    58.0170     9.4190     7.4990    13.2110    22.9560 
   80.5000   -38.2930     2.1550    56.4850     9.4270     7.5220    13.5450    22.9720 
   80.6250   -38.0660     2.1590    56.1070     9.4220     7.5300    13.7460    22.9700 
   80.7500   -37.6630     2.1650    56.0900     9.4180     7.5160    13.7900    22.9510 
   80.8750   -37.0770     2.1720    56.0250     9.4140     7.4770    13.7010    22.9020 
   81.0000   -36.3630     2.1770    56.5000     9.3910     7.4130    13.4500    22.8400 
   81.1250   -35.5110     2.1780    59.0200     9.3200     7.3240    13.1320    22.7880 
   81.2500   -34.5050     2.1740    62.2710     9.1760     7.2040    12.7520    22.6940 
   81.3750   -33.3590     2.1700    62.9740     9.0000     7.0650    12.1590    22.4560 
   81.5000   -32.0720     2.1750    61.4060     8.9310     6.9680    11.4230    22.0820 
   81.6250   -30.6390     2.1930    60.0050     9.1550     7.0220    11.0250    21.7140 
   81.7500   -29.1260     2.2270    60.8160     9.8440     7.3680    11.1740    21.4940 
   81.8750   -27.6220     2.2760    63.4770    10.9820     8.0660    11.9260    21.4710 
   82.0000   -26.1470     2.3410    64.8950    12.2500     8.9780    13.8320    21.6220 
   82.1250   -24.7400     2.4170    64.4360    13.1630     9.8240    17.6550    21.9450 
   82.2500   -23.5240     2.4640    64.9060    13.1360    10.1660    20.5660    22.3820 
   82.3750   -22.5810     2.4400    69.6630    12.0430     9.7620    17.5480    22.7720 
   82.5000   -21.8900     2.3590    77.5550    10.4910     8.8740    11.6640    22.9650 
   82.6250   -21.4310     2.2770    84.3420     9.0930     7.8940     8.5320    22.9630 
   82.7500   -21.1470     2.2270    85.8990     8.2170     7.1450     8.0100    22.9040 
   82.8750   -20.9440     2.2050    81.4620     7.9010     6.7620     8.2210    22.8910 
   83.0000   -20.7850     2.1940    76.2560     7.9360     6.6780     8.1540    22.8910 
   83.1250   -20.6500     2.1890    75.4340     8.1230     6.7790     7.9530    22.8510 
   83.2500   -20.4210     2.1910    78.8230     8.2620     6.9070     7.9460    22.7480 
   83.3750   -20.0210     2.2060    82.0830     8.2130     6.9250     8.1430    22.5920 
   83.5000   -19.5200     2.2360    83.1280     7.9410     6.7700     8.0130    22.4480 
   83.6250   -19.0230     2.2730    85.0860     7.4700     6.4360     7.1840    22.4150 
