~V
VERS. 2.00: Ver 2.00
~W
STRT.M 50.0000:
STOP.M 240.0000:
STEP.M 0.1250:
NULL. -999.2500:
UWI. F11117:
~C
DEPT.M :
DEN.GM/CC :
GR.API :
RML.OHMM :
RI. :
RXO.OHMM :
CALI.CM :
SP.MV :
~A
# ...
  128.7500     2.4910    49.5100     8.8010     7.9630    13.9930    29.9650   -10.9580 
  128.8750     2.4690    50.9840     8.2690     7.5410    12.2820    30.0050   -11.1730 
  129.0000     2.4510    51.9170     7.7120     7.1210    10.2050    30.0610   -11.3570 
  129.1250     2.4440    51.8770     7.3180     6.8510     9.6580    30.1600   -11.5590 
  129.2500     2.4450    52.1020     7.1450     6.7770     9.6480    30.2220   -11.7210 
  129.3750     2.4500    52.0830     7.1980     6.9030     9.9340    30.4350   -11.8750 
  129.5000     2.4560    50.2420     7.4470     7.2020    10.5080    30.5890   -11.9950 
  129.6250     2.4620    46.6440     7.8600     7.6320    11.8940    30.6460   -12.0790 
  129.7500     2.4670    45.5750     8.3430     8.0920    12.0130    30.7550   -12.1400 
  129.8750     2.4710    47.9920     8.7960     8.4710    11.4050    30.9480   -12.1770 
  130.0000     2.4690    49.9930     9.0400     8.6100    11.3580    31.2260   -12.2300 
  130.1250     2.4490    49.5080     8.7460     8.2430    11.8570    31.3520   -12.2790 
  130.2500     2.4080    50.6790     7.8610     7.3950    11.7750    31.4510   -12.3290 
  130.3750     2.3500    55.4590     6.7560     6.2270    10.5690    31.3480   -12.3650 
  130.5000     2.2900    61.5380     5.3140     5.0020     7.2760    31.2470   -12.3920 
  130.6250     2.2460    65.7880     4.0790     4.0050     4.9460    31.3890   -12.4120 
  130.7500     2.2250    69.0120     3.2840     3.3300     3.7920    31.3470   -12.4330 
  130.8750     2.2280    71.8380     2.9290     3.0020     3.3890    31.1000   -12.4350 
  131.0000     2.2500    74.0310     2.9740     3.0190     3.5050    30.8660   -12.4430 
  131.1250     2.2890    72.8730     3.4540     3.4230     4.1350    30.8680   -12.4350 
  131.2500     2.3400    68.7630     4.2680     4.1130     5.3430    31.0710   -12.4080 
  131.3750     2.3900    63.7630     5.2920     4.9600     7.5190    31.1520   -12.4000 
  131.5000     2.4230    59.5340     5.9660     5.7140     9.6710    31.3210   -12.4040 
  131.6250     2.4130    55.8930     6.3770     5.9710    10.2370    31.4620   -12.4430 
  131.7500     2.3620    54.3600     6.1360     5.7030     9.2170    31.7180   -12.4970 
  131.8750     2.2880    55.6610     5.4360     5.1230     7.3890    32.0550   -12.5650 
  132.0000     2.2160    58.8330     4.6670     4.5340     5.4450    32.2400   -12.6570 
  132.1250     2.1770    61.0730     4.2030     4.1990     5.1860    31.7740   -12.7690 
  132.2500     2.1800    60.7060     4.1170     4.1570     6.1680    31.3080   -12.8970 
  132.3750     2.2230    56.1970     4.3910     4.3990     7.4680    31.2040   -13.0150 
  132.5000     2.2900    49.9560     4.9760     4.8870     7.9430    31.0500   -13.0940 
  132.6250     2.3600    47.1310     5.8170     5.5800     8.1370    30.9190   -13.1830 
  132.7500     2.4130    46.0900     6.7510     6.3440     9.0660    30.8300   -13.2330 
  132.8750     2.4430    43.9380     7.6500     7.0740    10.1280    30.8490   -13.2550 
  133.0000     2.4550    42.0750     8.3960     7.6750    11.0430    30.8380   -13.2560 
  133.1250     2.4540    42.6420     8.8360     8.0240    11.7350    30.7390   -13.2300 
  133.2500     2.4470    42.8820     8.9470     8.1040    11.5070    30.5770   -13.2450 
  133.3750     2.4390    41.4090     8.7440     7.9400    10.9160    30.5360   -13.2500 
  133.5000     2.4310    40.5820     8.3340     7.6250    10.3880    30.3240   -13.2530 
  133.6250     2.4230    44.0840     7.8980     7.2970     9.9170    30.3130   -13.2660 
  133.7500     2.4100    48.6360     7.6120     7.0880     9.3370    30.4070   -13.3000 
  133.8750     2.3940    52.5560     7.5810     7.0790     9.0500    30.3430   -13.3620 
  134.0000     2.3790    54.7390     7.8410     7.2990     9.6950    30.5750   -13.3780 
  134.1250     2.3740    53.4920     8.3580     7.7050    11.0480    30.6480   -13.3830 
  134.2500     2.3810    51.4720     8.8890     8.0800    12.1260    30.7450   -13.3890 
  134.3750     2.3940    51.6760     9.1660     8.1990    12.5420    30.7800   -13.3890 
  134.5000     2.4030    53.7970     8.9620     7.9140    12.4990    30.7710   -13.4180 
  134.6250     2.3960    53.5740     8.1940     7.2420    11.2150    30.7720   -13.4210 
  134.7500     2.3770    51.5820     7.2340     6.4950     8.9500    30.8090   -13.4310 
  134.8750     2.3560    51.0730     6.3970     5.8840     7.1340    30.9040   -13.4410 
  135.0000     2.3450    52.7700     5.8830     5.5230     6.5520    30.9840   -13.5060 
  135.1250     2.3500    53.8430     5.7950     5.4710     7.0490    30.7670   -13.6410 
  135.2500     2.3670    54.1350     5.9970     5.6280     8.0220    30.4640   -13.7490 
  135.3750     2.3880    53.5130     6.3780     5.9190     8.8820    30.3880   -13.8790 
  135.5000     2.4090    53.1680     6.8300     6.2690     9.4360    30.3310   -13.9980 
  135.6250     2.4240    53.8370     7.2760     6.6300     9.5850    30.4230   -14.0820 
  135.7500     2.4350    53.5660     7.7000     6.9880     9.4340    30.3850   -14.1910 
  135.8750     2.4420    50.8590     8.1020     7.3360    10.1150    30.2970   -14.3140 
  136.0000     2.4450    46.8380     8.4590     7.6440    12.0640    30.2300   -14.3970 
  136.1250     2.4430    46.1820     8.6730     7.8310    13.6260    30.1700   -14.4150 
  136.2500     2.4390    48.2600     8.7020     7.8600    14.0150    30.0620   -14.4080 
  136.3750     2.4350    50.6320     8.5600     7.7500    12.4500    29.9580   -14.3280 
  136.5000     2.4330    53.6850     8.3470     7.5830    10.4940    29.9170   -14.2170 
  136.6250     2.4350    55.8530     8.2150     7.4790     9.6970    29.8810   -14.1530 
  136.7500     2.4390    54.9090     8.2210     7.4750     9.6130    29.8150   -14.0180 
  136.8750     2.4430    51.6240     8.3110     7.5230     9.8150    29.7900   -13.8140 
  137.0000     2.4440    49.8160     8.3550     7.5150    10.2830    29.6390   -13.6350 
  137.1250     2.4430    51.9060     8.1620     7.3040    11.1600    29.5970   -13.4190 
  137.2500     2.4410    54.0990     7.7100     6.9000    10.8290    29.5900   -13.2000 
  137.3750     2.4370    55.2090     7.0890     6.3890     9.0740    29.5800   -13.0500 
  137.5000     2.4350    53.2200     6.4620     5.8950     7.5960    29.5610   -12.9540 
  137.6250     2.4380    48.3200     6.0140     5.5450     7.1220    29.4620   -12.8130 
  137.7500     2.4440    43.7770     5.7880     5.3590     7.1540    29.1750   -12.7090 
  137.8750     2.4530    41.8720     5.7630     5.3180     7.2020    29.0970   -12.6590 
  138.0000     2.4590    44.8280     5.8660     5.3640     7.2930    29.0950   -12.6030 
  138.1250     2.4560    50.6830     5.9860     5.4160     7.4980    29.1590   -12.6360 
  138.2500     2.4460    54.6300     6.0360     5.4200     7.6970    29.1730   -12.6900 
  138.3750     2.4290    54.7120     6.0010     5.3710     7.7460    29.1730   -12.7400 
  138.5000     2.4080    53.9350     5.9140     5.2950     7.6540    29.3110   -12.7470 
  138.6250     2.3880    55.3210     5.8370     5.2370     7.4340    29.2850   -12.7780 
  138.7500     2.3730    56.8580     5.8220     5.2330     7.7440    29.2950   -12.8640 
  138.8750     2.3640    57.8570     5.9000     5.3020     8.4230    29.3820   -12.9780 
  139.0000     2.3600    59.5020     6.0810     5.4520     8.6760    29.2690   -13.1040 
  139.1250     2.3600    60.8930     6.3760     5.6860     8.3030    29.2700   -13.1760 
  139.2500     2.3600    60.1700     6.7430     5.9690     8.1700    29.1740   -13.2610 
  139.3750     2.3620    59.0920     7.1360     6.2660     8.9180    29.3380   -13.3640 
  139.5000     2.3630    60.1260     7.4970     6.5290     9.8310    29.5350   -13.4980 
  139.6250     2.3630    61.7170     7.7340     6.6890    10.1750    29.5660   -13.6190 
  139.7500     2.3610    61.4310     7.8180     6.7250     9.9560    29.5310   -13.6240 
  139.8750     2.3560    60.2330     7.7420     6.6400     9.0740    29.3100   -13.5470 
