~V
VERS. 2.00: Ver 2.00
~W
STRT.M 45.0000:
STOP.M 264.0000:
STEP.M 0.1250:
NULL. -999.2500:
UWI. F11189:
~C
DEPT.M :
SP.MV :
GR.API :
RI. :
RML.OHMM :
RXO.OHMM :
DEN.GM/CC :
~A
# ...
  199.5000     2.8390    69.9930    36.2300    31.6810    40.7540     2.2140 
  199.6250     3.0900    69.2400    32.1700    28.1060    33.9450     2.2120 
  199.7500     3.3060    68.6950    29.2190    25.5730    34.5140     2.2150 
  199.8750     3.4750    68.9720    27.6590    24.2070    39.7310     2.2220 
  200.0000     3.5970    69.9870    26.8520    23.5260    39.6910     2.2300 
  200.1250     3.6680    71.9830    27.0370    23.7730    35.4200     2.2320 
  200.2500     3.6980    73.5340    27.5170    24.2720    36.7670     2.2210 
  200.3750     3.6940    72.2070    27.6650    24.4920    40.9880     2.2000 
  200.5000     3.6700    68.7000    26.9820    23.9850    43.3280     2.1840 
  200.6250     3.6340    65.4180    25.6300    22.8920    42.2320     2.1800 
  200.7500     3.5930    65.0120    24.0960    21.6690    35.0950     2.1850 
  200.8750     3.5540    65.4490    23.4870    21.3580    27.9800     2.1940 
  201.0000     3.5250    64.5170    24.7380    22.9950    28.3640     2.1970 
  201.1250     3.5190    64.0030    28.6920    27.5360    33.6750     2.1870 
  201.2500     3.5490    65.0230    36.5680    36.0700    41.9050     2.1600 
  201.3750     3.6300    66.0660    46.8400    47.0610    53.2470     2.1190 
  201.5000     3.7630    64.5610    58.1290    58.4910    54.4810     2.0890 
  201.6250     3.9460    61.0970    62.5480    61.8160    50.9940     2.1230 
  201.7500     4.1640    57.6680    59.1000    57.0430    76.3030     2.2340 
  201.8750     4.4100    55.7790    49.5410    46.5840    91.5070     2.3380 
  202.0000     4.6830    56.1930    37.7170    34.7930    58.3710     2.3410 
  202.1250     4.9960    58.0130    30.5500    28.5350    35.3540     2.2770 
  202.2500     5.3580    60.5530    26.8650    25.5310    35.9180     2.2460 
  202.3750     5.7800    63.9630    26.8590    25.8840    36.8380     2.2600 
  202.5000     6.2520    67.1920    29.8800    29.4840    57.3100     2.2820 
  202.6250     6.7610    67.8310    34.4680    34.6840    75.8310     2.3410 
  202.7500     7.2830    65.3310    34.7600    34.9230    95.1890     2.4500 
  202.8750     7.7980    61.7920    29.8260    29.9240   108.0080     2.5570 
  203.0000     8.2890    59.3690    21.3690    20.9790   103.3070     2.6080 
  203.1250     8.7450    56.0470    11.8960    11.5240    94.7620     2.5830 
  203.2500     9.1680    52.2790     7.0990     6.9400    74.9040     2.4960 
  203.3750     9.5620    51.6180     4.7840     4.7090    24.4160     2.3890 
  203.5000     9.9400    54.8640     3.6430     3.6370     3.2600     2.3250 
  203.6250    10.3160    58.3750     3.2260     3.2780     3.3170     2.3220 
  203.7500    10.6950    59.6370     2.9510     3.0410     3.0640     2.3490 
  203.8750    11.0720    60.6290     2.7120     2.8130     2.5330     2.3920 
  204.0000    11.4260    61.0030     2.4690     2.5600     2.1370     2.4660 
  204.1250    11.7140    59.6220     2.2840     2.3570     1.9610     2.5490 
  204.2500    11.9010    58.2660     2.2000     2.2690     1.9470     2.5730 
  204.3750    11.9510    59.3680     2.2140     2.2930     2.0830     2.4990 
  204.5000    11.8720    63.6610     2.3080     2.4080     2.5000     2.3900 
  204.6250    11.6770    69.4020     2.4430     2.5640     3.0070     2.3220 
  204.7500    11.4130    75.5670     2.5730     2.7070     2.9610     2.3020 
  204.8750    11.1170    80.3540     2.6810     2.8240     2.6760     2.3110 
  205.0000    10.8250    84.2000     2.8000     2.9650     2.8490     2.3310 
  205.1250    10.5550    88.0900     2.9370     3.1360     3.2990     2.3380 
  205.2500    10.3090    90.6890     3.0570     3.2980     3.5200     2.3260 
  205.3750    10.0830    92.0310     3.1540     3.4320     3.4050     2.3270 
  205.5000     9.8630    94.9680     3.2250     3.5400     3.3150     2.3520 
  205.6250     9.6350    98.6800     3.2770     3.6310     3.4470     2.3700 
  205.7500     9.3870   101.5300     3.3190     3.7270     3.6890     2.3650 
  205.8750     9.1030   103.3730     3.3470     3.8250     3.8580     2.3510 
  206.0000     8.7860   105.8690     3.3330     3.8620     3.8180     2.3480 
  206.1250     8.4470   107.8410     3.2760     3.8330     3.8490     2.3560 
  206.2500     8.1080   105.3170     3.1730     3.7310     3.8590     2.3630 
  206.3750     7.7870    98.3710     3.0500     3.5810     3.4020     2.3380 
  206.5000     7.4880    93.2350     2.9780     3.5010     3.0610     2.2520 
  206.6250     7.2040    91.7010     3.0420     3.6000     3.1570     2.1100 
  206.7500     6.9270    90.1530     3.2580     3.9010     3.0410     1.9960 
  206.8750     6.6610    85.9210     3.5950     4.3600     3.3790     1.9970 
  207.0000     6.4200    83.8520     3.9830     4.8560     4.8130     2.0950 
  207.1250     6.2320    85.2820     4.2610     5.1760     5.6340     2.2120 
  207.2500     6.1120    87.7040     4.3330     5.2010     5.2780     2.2820 
  207.3750     6.0760    91.0910     4.2450     5.0320     4.9610     2.2980 
  207.5000     6.1110    94.6450     4.1280     4.8820     4.8570     2.2980 
  207.6250     6.2030    96.3720     4.1570     4.9850     4.8130     2.3030 
  207.7500     6.3200    96.3340     4.2950     5.2450     5.1350     2.3090 
  207.8750     6.4390    95.9760     4.3550     5.3880     6.2260     2.3000 
  208.0000     6.5420    94.7990     4.2240     5.2430     6.9250     2.2790 
  208.1250     6.6120    93.0600     3.8750     4.7650     5.6560     2.2580 
  208.2500     6.6400    94.1440     3.4650     4.1990     3.7370     2.2520 
  208.3750     6.6100    96.2640     3.1680     3.7920     2.7660     2.2630 
  208.5000     6.5180    96.2200     3.0500     3.6500     2.8080     2.2800 
  208.6250     6.3650    94.7930     3.2210     3.9140     3.7550     2.2940 
  208.7500     6.1830    93.4470     3.5770     4.4120     4.8720     2.3060 
  208.8750     6.0180    91.0220     4.0470     5.0470     5.5310     2.3260 
  209.0000     5.9100    88.7070     4.4680     5.5880     5.8800     2.3520 
  209.1250     5.8940    88.7540     4.6570     5.7990     7.3750     2.3840 
  209.2500     5.9620    90.8190     4.4980     5.5390     8.9240     2.4160 
  209.3750     6.1020    94.3640     4.0460     4.9020     7.6720     2.4100 
  209.5000     6.2740    97.4350     3.4340     4.0780     5.3740     2.3470 
  209.6250     6.4390    94.2890     2.8480     3.3240     3.6360     2.2760 
  209.7500     6.5570    85.1710     2.3900     2.7620     2.5350     2.2580 
  209.8750     6.5980    74.0800     2.0790     2.4030     2.2750     2.2850 
  210.0000     6.5590    63.4000     1.9310     2.2460     2.2010     2.2990 
  210.1250     6.4490    55.3080     1.9000     2.2290     2.2270     2.2890 
  210.2500     6.2910    53.1450     1.9210     2.2590     2.2580     2.2860 
  210.3750     6.0940    57.7370     1.9550     2.2880     2.2390     2.2950 
  210.5000     5.8560    63.6920     1.9810     2.3040     2.2880     2.3050 
  210.6250     5.5570    67.4910     1.9940     2.2910     2.3090     2.3110 
  210.7500     5.1890    70.9630     1.9890     2.2580     2.2470     2.3160 
  210.8750     4.7440    76.9200     1.9730     2.2150     2.2000     2.3280 
  211.0000     4.2460    83.0500     1.9490     2.1750     2.2160     2.3420 
  211.1250     3.7310    85.1820     1.9360     2.1610     2.2670     2.3470 
  211.2500     3.2500    85.5870     1.9300     2.1590     2.3520     2.3380 
  211.3750     2.8580    85.8880     1.9280     2.1660     2.4220     2.3290 
  211.5000     2.5800    85.0200     1.9290     2.1710     2.4670     2.3230 
  211.6250     2.4310    82.0090     1.9370     2.1890     2.5120     2.3130 
  211.7500     2.3790    80.6550     1.9660     2.2330     2.5670     2.3000 
  211.8750     2.3870    81.9350     2.0310     2.3150     2.6710     2.2890 
  212.0000     2.4030    83.3580     2.1410     2.4580     2.9270     2.2840 
  212.1250     2.3800    84.3610     2.3280     2.6970     3.2710     2.2880 
  212.2500     2.2960    86.4590     2.5500     2.9710     3.4460     2.2950 
