~V
VERS. 2.00: Ver 2.00
~W
STRT.M 63.0000:
STOP.M 244.0000:
STEP.M 0.1250:
NULL. -999.2500:
UWI. F11131:
~C
DEPT.M :
SP.MV :
DEN.GM/CC :
GR.API :
RML.OHMM :
RI. :
RXO.OHMM :
CALI.CM :
~A
# ...
  108.0000   -31.0610     2.1810    71.9910     9.5710     8.1930    11.1120    25.5670 
  108.1250   -30.9310     2.1830    78.8080     8.7260     7.5540    11.0830    25.5890 
  108.2500   -30.7620     2.1920    87.2070     7.5960     6.6660    10.4790    25.6160 
  108.3750   -30.5790     2.2070    94.3100     6.4620     5.7360     9.6820    25.6310 
  108.5000   -30.3830     2.2290    97.7470     5.6070     4.9740     9.4230    25.6380 
  108.6250   -30.1960     2.2470    95.3230     5.3230     4.6030     7.9660    25.6620 
  108.7500   -30.0810     2.2540    87.9790     5.6100     4.6500     6.0570    25.6740 
  108.8750   -30.0990     2.2450    78.5870     6.4430     5.1310     5.1240    25.6180 
  109.0000   -30.3220     2.2240    70.7290     7.6970     6.0020     5.7290    25.4640 
  109.1250   -30.7490     2.2040    66.4670     9.0750     7.1230     7.8180    25.2690 
  109.2500   -31.2900     2.1910    65.1500    10.1390     8.1500     9.7290    25.1090 
  109.3750   -31.8620     2.1830    64.9210    10.6490     8.8250    10.4770    24.9590 
  109.5000   -32.3970     2.1770    65.1890    10.6380     9.0730    10.3160    24.8780 
  109.6250   -32.8370     2.1700    66.9800    10.2910     8.9520    10.0630    25.1080 
  109.7500   -33.1450     2.1650    69.6980     9.6120     8.4410    10.1010    25.8430 
  109.8750   -33.2520     2.1650    69.6260     8.8600     7.7650    10.1850    26.5320 
  110.0000   -33.1240     2.1710    67.9200     8.3820     7.2670     9.8010    26.8230 
  110.1250   -32.7210     2.1740    69.7310     8.2430     6.9990     8.9190    27.0130 
  110.2500   -32.1140     2.1670    72.8040     8.5620     7.0660     8.2950    27.1090 
  110.3750   -31.3460     2.1570    72.9870     9.3400     7.4890     8.6190    27.1370 
  110.5000   -30.4630     2.1660    70.7080    10.3870     8.1590    10.2730    27.1640 
  110.6250   -29.4840     2.2080    70.8680    11.1950     8.7730    12.1480    27.1940 
  110.7500   -28.4580     2.2770    74.2270    11.2800     8.9760    11.0090    27.1470 
  110.8750   -27.4260     2.3430    78.7210    10.5490     8.6380     7.8020    27.0180 
  111.0000   -26.4590     2.3600    83.5860     9.3550     7.9170     6.5420    26.8890 
  111.1250   -25.5900     2.3290    87.8960     8.1170     7.0280     6.5830    26.8460 
  111.2500   -24.8230     2.2790    88.4890     7.0860     6.1750     7.5680    26.8490 
  111.3750   -24.1610     2.2360    87.5820     6.8550     5.9390     7.5130    26.8470 
  111.5000   -23.6140     2.2190    88.3230     6.7940     5.8500     6.2760    26.8390 
  111.6250   -23.1980     2.2230    88.7130     6.9060     5.8970     5.6290    26.8350 
  111.7500   -22.8940     2.2370    88.2900     7.1780     6.0540     5.7130    26.8230 
  111.8750   -22.6870     2.2490    89.0160     7.5570     6.2900     6.3990    26.8090 
  112.0000   -22.5460     2.2460    92.6570     7.8850     6.5120     7.3100    26.8230 
  112.1250   -22.4940     2.2330    97.5600     7.8800     6.5320     7.4360    26.8710 
  112.2500   -22.4910     2.2210   100.6740     7.4810     6.2790     6.8970    26.9080 
  112.3750   -22.5070     2.2190   101.4590     6.8340     5.8210     5.9780    26.9210 
  112.5000   -22.5100     2.2320    98.6800     6.2380     5.3430     5.1590    26.9200 
  112.6250   -22.5050     2.2510    91.9810     6.0470     5.0960     4.7770    26.8740 
  112.7500   -22.4700     2.2700    85.4590     6.3210     5.1590     5.1170    26.7790 
  112.8750   -22.4030     2.2910    82.0020     6.9970     5.5270     6.5290    26.6820 
  113.0000   -22.2840     2.3230    81.8500     7.8630     6.0890     9.5490    26.6230 
  113.1250   -22.0920     2.3670    84.8620     8.4940     6.5850     9.9450    26.5970 
  113.2500   -21.9050     2.4100    89.6290     8.6040     6.7720     8.4180    26.5510 
  113.3750   -21.7650     2.4310    91.6830     8.2170     6.5990     6.7320    26.4500 
  113.5000   -21.6800     2.4110    89.7280     7.6040     6.2020     5.9340    26.2930 
  113.6250   -21.6290     2.3680    89.4350     7.4970     6.1190     5.8540    26.2610 
  113.7500   -21.6030     2.3230    88.5590     7.1740     5.8690     5.6140    26.1660 
  113.8750   -21.6050     2.2900    89.8220     6.9710     5.6820     5.6070    26.1000 
  114.0000   -21.6310     2.2760    92.8790     6.7930     5.4800     5.5560    26.0260 
  114.1250   -21.6900     2.2710    92.4310     6.8000     5.4360     5.5590    25.9760 
  114.2500   -21.7380     2.2670    89.3610     6.8530     5.4590     5.6320    25.9380 
  114.3750   -21.7710     2.2590    87.1100     6.8960     5.4960     5.7840    25.9240 
  114.5000   -21.7960     2.2480    86.0960     6.9170     5.5240     5.9520    25.9270 
  114.6250   -21.7970     2.2380    85.8880     6.9270     5.5460     5.9280    25.9290 
  114.7500   -21.7620     2.2310    86.1520     6.9480     5.5710     5.8840    25.9260 
  114.8750   -21.7090     2.2270    86.2800     6.9910     5.6050     5.8420    25.9250 
  115.0000   -21.6610     2.2220    86.6620     7.0570     5.6490     5.8760    25.9280 
  115.1250   -21.6410     2.2180    88.0840     7.1330     5.6950     5.9820    25.9280 
  115.2500   -21.6340     2.2150    88.9030     7.1740     5.7180     6.1060    25.9260 
  115.3750   -21.6310     2.2130    88.5790     7.1960     5.7280     6.1220    25.9220 
  115.5000   -21.6430     2.2120    86.3440     7.1850     5.7130     6.0680    25.9170 
  115.6250   -21.7190     2.2120    84.7650     7.0770     5.6310     6.0100    25.9160 
  115.7500   -21.8810     2.2120    85.0940     6.9020     5.5040     6.0020    25.9160 
  115.8750   -22.0980     2.2130    86.2740     6.7210     5.3710     6.0040    25.9160 
  116.0000   -22.3270     2.2190    86.6340     6.6100     5.2810     6.0310    25.9190 
  116.1250   -22.5220     2.2290    85.6200     6.6610     5.3020     5.9180    25.8630 
  116.2500   -22.7050     2.2380    83.0800     6.8710     5.4390     5.7210    25.6860 
  116.3750   -22.8930     2.2390    81.2660     7.2110     5.6800     5.5400    25.4290 
  116.5000   -23.0900     2.2240    82.8890     7.6120     5.9890     5.8110    25.2030 
  116.6250   -23.2860     2.2020    85.4930     7.9690     6.2980     6.4660    25.0430 
  116.7500   -23.4710     2.1810    85.6390     8.1880     6.5310     6.7790    24.8660 
  116.8750   -23.6330     2.1670    85.3020     8.2390     6.6020     6.8430    24.7860 
  117.0000   -23.7610     2.1670    84.4260     8.2040     6.6430     6.7680    24.6260 
  117.1250   -23.8660     2.1780    84.2320     7.9680     6.5390     6.8470    24.5140 
  117.2500   -23.9590     2.1990    82.6540     7.6020     6.3090     7.3000    24.5150 
  117.3750   -24.0390     2.2230    79.4730     7.2170     6.0250     7.4400    24.5860 
  117.5000   -24.1090     2.2420    76.8370     6.9600     5.7900     6.9590    24.6600 
  117.6250   -24.1480     2.2540    74.9060     7.0320     5.7540     6.2210    24.6930 
  117.7500   -24.1580     2.2660    72.8430     7.4560     5.9570     5.8990    24.6930 
  117.8750   -24.1440     2.2930    70.9760     8.1970     6.3950     6.0100    24.6740 
  118.0000   -24.1090     2.3430    70.5580     9.1080     6.9950     6.1680    24.6420 
  118.1250   -24.0720     2.4030    71.4760     9.8600     7.5660     7.0200    24.6240 
  118.2500   -24.0510     2.4540    71.7870    10.1830     7.9040     9.0570    24.6210 
  118.3750   -24.0660     2.4780    70.8500    10.0430     7.9410    11.1770    24.5760 
  118.5000   -24.1390     2.4620    70.5810     9.9870     7.9290    11.5230    24.5620 
  118.6250   -24.2720     2.4170    69.8580     9.5650     7.7270    10.5690    24.3860 
  118.7500   -24.4720     2.3530    70.7750     9.2710     7.5560    10.1950    24.1390 
  118.8750   -24.7590     2.2850    74.5110     9.5900     7.7510    10.3810    23.8710 
  119.0000   -25.1460     2.2270    74.3960    10.3620     8.2740    11.7510    23.8380 
  119.1250   -25.5930     2.1870    70.3730    11.4190     9.0550    11.5740    23.9210 
