~V
VERS. 2.00: Ver 2.00
~W
STRT.M 40.0000:
STOP.M 232.0000:
STEP.M 0.1250:
NULL. -999.2500:
UWI. F11121:
~C
DEPT.M :
SP.MV :
DEN.GM/CC :
GR.API :
RML.OHMM :
RI. :
RXO.OHMM :
CALI.CM :
~A
# ...
  220.0000     4.4070     2.2810    88.3790     6.7380     5.2590     5.5680    23.5410 
  220.1250     4.3930     2.2850    86.4620     7.1390     5.5500     5.8770    23.7040 
  220.2500     4.4060     2.2880    82.4170     7.5900     5.8860     6.1990    23.9550 
  220.3750     4.4350     2.2840    80.7790     8.0060     6.2130     6.7900    24.2200 
  220.5000     4.4390     2.2740    83.6300     8.2840     6.4560     7.4260    24.4260 
  220.6250     4.4530     2.2660    88.0030     8.3050     6.5250     7.7760    24.5970 
  220.7500     4.4840     2.2730    89.6820     8.1200     6.4380     7.1090    24.7490 
  220.8750     4.5190     2.2920    89.6820     7.8200     6.2440     6.2450    24.8100 
  221.0000     4.5770     2.3140    89.6820     7.5210     6.0230     5.6920    24.7480 
  221.1250     4.6280     2.3270    89.6820     7.3280     5.8530     5.8320    24.5990 
  221.2500     4.6840     2.3270    89.6820     7.2500     5.7620     6.0650    24.3910 
  221.3750     4.7250     2.3210    89.6820     7.2640     5.7430     6.1820    24.1110 
  221.5000     4.7740     2.3170    89.6820     7.3230     5.7720     5.9600    23.8520 
  221.6250     4.8710     2.3180    89.6820     7.3830     5.8200     5.6510    23.7670 
  221.7500     4.9550     2.3230    89.6820     7.4260     5.8680     5.3980    23.7950 
  221.8750     5.0290     2.3250    89.6820     7.4650     5.9190     5.2230    23.8560 
  222.0000     5.0820     2.3150    89.6820     7.5170     5.9860     5.1200    23.9150 
  222.1250     5.1290     2.2940    89.6820     7.5960     6.0750     5.0350    23.9750 
  222.2500     5.1120     2.2700    89.6820     7.6850     6.1690     4.9930    24.0120 
  222.3750     5.0830     2.2530    89.6820     7.7630     6.2480     5.1650    24.0060 
  222.5000     5.0500     2.2520    89.6820     7.8130     6.2970     5.4850    23.9630 
  222.6250     4.9600     2.2670    89.6820     7.8290     6.3090     5.8800    23.9120 
  222.7500     4.8690     2.2870    89.6820     7.8290     6.3060     6.1420    23.8770 
  222.8750     4.7640     2.2950    89.6820     7.8240     6.3000     6.1340    23.8480 
  223.0000     4.6750     2.2900    89.6820     7.8200     6.2960     5.8590    23.7890 
  223.1250     4.5890     2.2800    89.6820     7.8180     6.2970     5.5860    23.7010 
  223.2500     4.5450     2.2830    89.6820     7.8200     6.3020     5.4120    23.6410 
  223.3750     4.4820     2.3030    89.6820     7.8270     6.3110     5.2740    23.6300 
  223.5000     4.4080     2.3330    89.6820     7.8370     6.3230     5.5620    23.6420 
  223.6250     4.3470     2.3570    89.6820     7.8450     6.3330     7.1550    23.6770 
  223.7500     4.2990     2.3640    89.6820     7.8470     6.3390     9.7180    23.7560 
  223.8750     4.2910     2.3590    89.6820     7.8450     6.3400    11.8580    23.8690 
  224.0000     4.2720     2.3460    89.6820     7.8410     6.3390    13.5010    23.9820 
  224.1250     4.2480     2.3280    89.6820     7.8380     6.3380    15.2470    24.0640 
  224.2500     4.2230     2.3070    89.6820     7.8380     6.3370    13.3650    24.0740 
  224.3750     4.2100     2.2870    89.6820     7.8430     6.3370    10.7730    23.9820 
  224.5000     4.2390     2.2720    89.6820     7.8510     6.3370     9.9340    23.7540 
  224.6250     4.2710     2.2670    89.6820     7.8600     6.3370    10.0340    23.3590 
  224.7500     4.3070     2.2780    89.6820     7.8640     6.3380    10.2310    23.0500 
  224.8750     4.3130     2.3050    89.6820     7.8610     6.3380     9.9660    23.0400 
  225.0000     4.3060     2.3440    89.6820     7.8530     6.3390     9.7390    23.3280 
  225.1250     4.2970     2.3820    89.6820     7.8430     6.3380     9.6670    23.6800 
  225.2500     4.2550     2.3990    89.6820     7.8370     6.3380     9.2480    23.8960 
  225.3750     4.2200     2.3920    89.6820     7.8350     6.3380     9.0230    23.9940 
  225.5000     4.1660     2.3770    89.6820     7.8370     6.3380     9.6950    24.0100 
  225.6250     4.1120     2.3650    89.6820     7.8410     6.3380    10.2650    24.0080 
  225.7500     4.0170     2.3560    89.6820     7.8460     6.3390     9.8570    24.0150 
  225.8750     3.9070     2.3390    89.6820     7.8490     6.3390     9.1300    24.0120 
  226.0000     3.7940     2.3110    89.6820     7.8490     6.3390     9.7280    24.0030 
  226.1250     3.6620     2.2840    89.6820     7.8450     6.3390    10.7630    23.9970 
  226.2500     3.5440     2.2460    89.6820     7.8370     6.3400    11.3940    23.9820 
  226.3750     3.4360     2.1650    89.6820     7.8310     6.3400    12.0120    23.9460 
  226.5000     3.3390     2.0370    89.6820     7.8280     6.3390    12.4590    23.8930 
  226.6250     3.2550     1.8850    89.6820     7.8280     6.3390    12.4170    23.8220 
  226.7500     3.1980     1.7430    89.6820     7.8280     6.3390    11.3720    23.7370 
  226.8750     3.1840     1.6330    89.6820     7.8280     6.3390    10.1070    23.7310 
  227.0000     3.1700     1.5700    89.6820     7.8280     6.3390     8.5910    22.8380 
  227.1250     3.2050     1.5650    89.6820     7.8280     6.3390     6.6630    19.9650 
  227.2500     3.2440     1.6140    89.6820     7.8280     6.3390     4.8590    15.9610 
  227.3750     3.2870     1.6860    89.6820     7.8280     6.3390     4.1650    13.3800 
  227.5000     3.2890     1.7520    89.6820     7.8280     6.3390     4.0170    12.7580 
  227.6250     3.2980     1.7930    89.6820     7.8280     6.3390     4.0160    12.8950 
  227.7500     3.2980     1.8070    89.6820     7.8280     6.3390     4.0160    12.8790 
  227.8750     3.2730     1.8120    89.6820     7.8280     6.3390     4.0160    12.8760 
  228.0000  -999.2500     1.8150    89.6820     7.8280     6.3390     4.0150    12.8750 
  228.1250  -999.2500     1.8170    89.6820     7.8280     6.3390     4.0140    12.8790 
  228.2500  -999.2500     1.8180    89.6820     7.8280     6.3390     4.0140    12.8850 
  228.3750  -999.2500     1.8190    89.6820     7.8280     6.3390     4.0140    12.8890 
  228.5000  -999.2500     1.8200    89.6820     7.8280     6.3390     4.0130    12.8880 
  228.6250  -999.2500     1.8210    89.6820     7.8280     6.3390     4.0110    12.8840 
  228.7500  -999.2500     1.8210    89.6820     7.8280     6.3390     4.0100    12.8760 
  228.8750  -999.2500     1.8190    89.6820     7.8280     6.3390     4.0100    12.8700 
  229.0000  -999.2500     1.8150    89.6820     7.8280     6.3390     4.0100    12.8690 
  229.1250  -999.2500     1.8110    89.6820     7.8280     6.3390     4.0100    12.8720 
  229.2500  -999.2500     1.8100    89.6820     7.8280     6.3390     4.0100    12.8750 
  229.3750  -999.2500     1.8120    89.6820     7.8280     6.3390     4.0090    12.8750 
  229.5000  -999.2500     1.8190    89.6820     7.8280     6.3390     4.0070    12.8750 
  229.6250  -999.2500     1.8250    89.6820     7.8280     6.3390     4.0070    12.8750 
  229.7500  -999.2500     1.8270    89.6820     7.8280     6.3390     4.0060    12.8760 
  229.8750  -999.2500     1.8250    89.6820     7.8280     6.3390     4.0050    12.8770 
  230.0000  -999.2500     1.8200    89.6820     7.8280     6.3390     4.0050    12.8730 
  230.1250  -999.2500     1.8140    89.6820     7.8280     6.3390     4.0050    12.8640 
  230.2500  -999.2500     1.8100    89.6820     7.8280     6.3390     4.0050    12.8630 
  230.3750  -999.2500     1.8080    89.6820     7.8280     6.3390     4.0050    12.8710 
  230.5000  -999.2500     1.8080    89.6820     7.8280     6.3390     4.0050    12.8640 
  230.6250  -999.2500     1.8090    89.6820     7.8280     6.3390     4.0040    12.8370 
  230.7500  -999.2500     1.8100    89.6820     7.8280     6.3390     4.0040    12.8280 
  230.8750  -999.2500     1.8100    89.6820     7.8280     6.3390     4.0030    12.8480 
  231.0000  -999.2500     1.8100    89.6820     7.8280     6.3390     4.0020    12.8720 
  231.1250  -999.2500     1.8100    89.6820     7.8280     6.3390     3.9990    12.8750 
