~V
VERS. 2.00: Ver 2.00
~W
STRT.M 63.0000:
STOP.M 219.0000:
STEP.M 0.1250:
NULL. -999.2500:
UWI. F11123:
~C
DEPT.M :
GR.API :
RML.OHMM :
RI. :
RXO.OHMM :
CALI.CM :
SP.MV :
DEN.GM/CC :
~A
# ...
  186.7500    52.4850   407.2420   390.5970    67.7690    24.0770   -12.5270     2.1600 
  186.8750    52.6390   398.3830   390.6180    70.9310    24.0790   -12.6100     2.1650 
  187.0000    50.4560   346.2550   348.4220    86.6510    24.1520   -12.6630     2.1810 
  187.1250    49.1170   269.1200   277.3340    99.1720    24.3290   -12.7140     2.2100 
  187.2500    50.0320   195.1010   204.7060   104.8160    24.4280   -12.7430     2.2490 
  187.3750    53.0650   137.2090   145.0180    99.7560    24.4660   -12.7640     2.2890 
  187.5000    57.4910    98.7030   103.7100    76.0040    24.5310   -12.7540     2.3190 
  187.6250    61.4780    79.0790    81.8030    51.0310    24.7450   -12.7450     2.3310 
  187.7500    63.5260    71.1320    72.3360    42.5720    24.9560   -12.7270     2.3310 
  187.8750    63.1010    71.6430    72.0160    54.7250    25.0370   -12.7120     2.3260 
  188.0000    61.4850    78.0460    78.2260    87.8180    25.0110   -12.7110     2.3220 
  188.1250    59.6690    88.0140    88.7140   118.2760    24.9980   -12.7010     2.3220 
  188.2500    57.6230    97.9000    99.4720   121.8330    24.9670   -12.6650     2.3220 
  188.3750    55.4660   105.6040   107.9100   112.9700    24.9390   -12.5850     2.3230 
  188.5000    55.3770   110.8870   113.3130   106.4490    24.9200   -12.4850     2.3310 
  188.6250    58.5190   115.4520   117.0760    99.6370    24.8580   -12.3550     2.3580 
  188.7500    59.7540   121.3410   121.5020   106.3280    24.7910   -12.2510     2.4040 
  188.8750    56.5470   129.3510   127.5030   129.1300    24.7800   -12.1510     2.4620 
  189.0000    50.7650   140.1690   135.6820   150.9060    24.7580   -12.0730     2.5220 
  189.1250    46.5310   156.7860   148.6680   157.2350    24.7550   -11.9710     2.5750 
  189.2500    44.6630   182.3950   170.0440   170.7530    24.8510   -11.8620     2.6200 
  189.3750    43.6100   221.6900   205.2930   254.9940    24.8630   -11.7310     2.6550 
  189.5000    43.1410   279.0310   259.4480   475.3770    24.8610   -11.5770     2.6790 
  189.6250    42.8840   357.2790   335.9430   827.2750    24.8150   -11.3780     2.6920 
  189.7500    41.6280   439.9140   419.0140   856.7450    24.8040   -11.1940     2.7000 
  189.8750    40.1240   502.5370   485.4130   677.0750    24.8040   -11.0190     2.7090 
  190.0000    40.5290   527.8750   516.4500   517.2590    24.8050   -10.8860     2.7220 
  190.1250    42.3340   517.7830   510.6260   607.2580    24.7720   -10.7730     2.7380 
  190.2500    42.3250   488.4960   485.6560   706.0440    24.7300   -10.6870     2.7460 
  190.3750    41.2670   436.0960   440.5660   777.6720    24.7670   -10.5870     2.7380 
  190.5000    42.8290   355.7900   369.4560   805.5100    24.7440   -10.4780     2.7180 
  190.6250    46.7210   259.4700   277.2190   643.4840    24.7480   -10.3610     2.7000 
  190.7500    48.8440   173.3380   188.1560   372.5790    24.7330   -10.2400     2.6930 
  190.8750    47.5200   108.5940   117.3650   183.0390    24.6870   -10.1010     2.6940 
  191.0000    43.7890    65.3640    69.3300    95.6190    24.5780    -9.9380     2.6890 
  191.1250    41.0980    40.4860    42.5530    51.1290    24.5640    -9.7080     2.6530 
  191.2500    43.2940    25.4680    27.0720    28.7980    24.5250    -9.4170     2.5860 
  191.3750    50.0650    16.6830    18.2730    17.4590    24.5880    -9.0620     2.5040 
  191.5000    56.7730    11.7420    13.2930    12.6250    24.7690    -8.6280     2.4260 
  191.6250    59.4510     9.3240    10.7120    11.5530    24.8050    -8.1320     2.3680 
  191.7500    60.4980     8.0740     9.2840    11.5580    24.8200    -7.5850     2.3320 
  191.8750    60.7670     7.5100     8.5990    11.8810    24.8310    -7.0300     2.3130 
  192.0000    58.9880     7.3300     8.3830    11.7290    24.8340    -6.4900     2.3020 
  192.1250    54.8670     7.3400     8.4390    10.1830    24.8640    -5.9970     2.2930 
  192.2500    51.5400     7.3940     8.5670     8.4390    24.8680    -5.5510     2.2850 
  192.3750    50.0510     7.4610     8.6950     7.6360    24.8690    -5.1840     2.2800 
  192.5000    50.0990     7.5360     8.7950     7.5160    24.8660    -4.9070     2.2780 
  192.6250    51.1270     7.6150     8.8510     7.6710    24.8680    -4.7650     2.2820 
  192.7500    52.0980     7.6790     8.8630     7.6700    24.8680    -4.7420     2.2920 
  192.8750    51.9700     7.7050     8.8160     7.5880    24.8770    -4.8430     2.3120 
  193.0000    50.7700     7.6670     8.7010     7.7450    24.8680    -5.0400     2.3380 
  193.1250    49.1990     7.5660     8.5160     7.7630    24.8690    -5.3400     2.3570 
  193.2500    46.9320     7.4560     8.3060     7.5040    24.8740    -5.6790     2.3620 
  193.3750    44.9200     7.3890     8.1170     7.0990    24.8700    -6.0230     2.3540 
  193.5000    44.4430     7.4100     7.9930     6.8020    24.8750    -6.3280     2.3430 
  193.6250    45.4230     7.5510     7.9790     6.8160    24.8660    -6.5920     2.3360 
  193.7500    45.6590     7.7630     8.0470     7.0570    24.8620    -6.7900     2.3340 
  193.8750    44.9640     7.9880     8.1490     7.3210    24.8240    -6.9460     2.3370 
  194.0000    44.6120     8.1550     8.2200     7.5350    24.8060    -7.0540     2.3430 
  194.1250    45.1770     8.1940     8.1890     7.4690    24.7810    -7.1810     2.3530 
  194.2500    48.1630     8.1380     8.0630     7.2570    24.7420    -7.3390     2.3680 
  194.3750    54.3510     8.0580     7.8870     6.9590    24.6940    -7.5680     2.3810 
  194.5000    63.5830     8.0370     7.7280     6.7350    24.7790    -7.8740     2.3850 
  194.6250    73.1450     8.1360     7.6520     6.5430    24.7780    -8.2500     2.3750 
  194.7500    81.9580     8.3160     7.6630     6.4320    24.7840    -8.6050     2.3550 
  194.8750    89.7840     8.5350     7.7410     6.9830    24.7920    -8.8950     2.3370 
  195.0000    94.9910     8.7540     7.8530     7.8640    24.8000    -9.0890     2.3300 
  195.1250    93.8890     8.9610     7.9660     8.5760    24.8000    -9.1440     2.3390 
  195.2500    88.7540     9.1820     8.0790     8.9310    24.8000    -9.0720     2.3560 
  195.3750    85.7550     9.4630     8.2280     9.3710    24.8020    -8.8980     2.3750 
  195.5000    86.3210     9.8570     8.4690     9.9490    24.8050    -8.6480     2.3920 
  195.6250    86.4020    10.4360     8.8720    10.5340    24.8100    -8.3430     2.4090 
  195.7500    84.1020    11.1610     9.4140    11.0910    24.8280    -8.0430     2.4270 
  195.8750    81.2780    11.9450    10.0370    12.1610    24.8440    -7.7540     2.4400 
  196.0000    80.6940    12.6520    10.6410    13.8160    24.8080    -7.4800     2.4400 
  196.1250    84.1140    13.0940    11.0700    13.2340    24.7760    -7.2150     2.4270 
  196.2500    88.3920    13.2440    11.2740    13.2670    24.7990    -6.9920     2.4110 
  196.3750    89.4560    13.1510    11.2700    13.2630    24.8020    -6.8030     2.4000 
  196.5000    86.4210    12.9110    11.1220    13.1460    24.8050    -6.6620     2.4010 
  196.6250    84.2440    12.6100    10.8800    13.0470    24.7960    -6.5320     2.4200 
  196.7500    83.9630    12.2980    10.5970    12.5640    24.7800    -6.4110     2.4500 
  196.8750    82.9320    11.9730    10.2870    12.2480    24.7860    -6.2620     2.4790 
  197.0000    82.6440    11.6240     9.9560    12.8200    24.8000    -6.1040     2.4920 
  197.1250    86.8180    11.3320     9.6740    10.7810    24.8210    -5.9320     2.4770 
  197.2500    93.7380    11.3180     9.5890     9.9010    24.8900    -5.7940     2.4460 
  197.3750    97.1000    11.8520     9.8830    10.7820    24.9230    -5.6810     2.4180 
  197.5000    92.9900    13.1470    10.7140    11.8000    24.9250    -5.6040     2.4120 
  197.6250    85.1530    15.3360    12.2380    13.7770    24.8960    -5.5480     2.4430 
  197.7500    79.4770    17.8360    14.1300    19.2580    24.8430    -5.4910     2.4980 
  197.8750    76.0060    19.7450    15.7760    26.2520    24.8090    -5.4130     2.5550 
