~V
VERS. 2.00: Ver 2.00
~W
STRT.M 50.0000:
STOP.M 245.0000:
STEP.M 0.1250:
NULL. -999.2500:
UWI. F11135:
~C
DEPT.M :
GR.API :
RML.OHMM :
RI. :
RXO.OHMM :
CALI.CM :
SP.MV :
DEN.GM/CC :
~A
# ...
  173.7500    40.4660   304.7870   290.1250   180.8650    25.3790   -37.8710     2.1820 
  173.8750    38.6370   309.6670   297.7940   221.2090    25.3850   -37.9870     2.1740 
  174.0000    39.5090   302.2350   294.2300   200.2990    25.4150   -38.0600     2.1650 
  174.1250    42.2830   280.2240   276.6000   149.3060    25.4560   -38.1220     2.1520 
  174.2500    42.2430   249.6620   249.2710   121.4000    25.4510   -38.1320     2.1380 
  174.3750    39.8020   217.2020   217.8490   108.2830    25.4080   -38.0970     2.1280 
  174.5000    39.4870   189.0640   188.5290   105.6300    25.2900   -38.0400     2.1230 
  174.6250    43.4340   170.8310   167.2570    90.9410    25.3200   -37.9820     2.1230 
  174.7500    46.9140   163.0700   155.4230    83.4930    25.2850   -37.9140     2.1290 
  174.8750    47.3440   166.4910   154.2920    80.3280    25.1010   -37.8330     2.1430 
  175.0000    45.6050   181.0080   164.4320    90.6540    25.2000   -37.7640     2.1650 
  175.1250    44.1570   205.9010   185.9140   127.4680    25.3460   -37.6250     2.1890 
  175.2500    43.8770   233.3020   211.4410   181.3240    25.3720   -37.4890     2.2040 
  175.3750    43.8440   253.4100   232.0560   224.0090    25.3640   -37.3480     2.2030 
  175.5000    42.9200   257.5060   239.1670   224.8550    25.3210   -37.2140     2.1880 
  175.6250    41.4550   244.7720   229.7870   172.7340    25.3470   -37.0650     2.1680 
  175.7500    41.1030   228.7460   215.0520   121.9840    25.3660   -36.9420     2.1530 
  175.8750    43.0740   217.3770   202.9920    96.3540    25.3270   -36.8220     2.1500 
  176.0000    46.5840   212.7680   196.8320   113.8320    25.3060   -36.7180     2.1550 
  176.1250    49.7840   212.5220   195.2600   146.1590    25.3060   -36.6370     2.1630 
  176.2500    50.5650   210.5930   192.8680   166.5330    25.3220   -36.5530     2.1670 
  176.3750    49.9980   203.0210   185.8620   154.4460    25.3300   -36.4960     2.1630 
  176.5000    49.6040   189.4200   173.3220   136.0710    25.2940   -36.4420     2.1540 
  176.6250    48.2060   173.7410   158.1680   111.2630    25.2070   -36.3820     2.1440 
  176.7500    46.3680   161.3780   145.4650    95.6710    25.0720   -36.2800     2.1380 
  176.8750    45.3740   154.7570   137.7530    90.5400    25.0480   -36.1640     2.1380 
  177.0000    45.3810   154.3960   135.6900    92.0600    25.1660   -35.9890     2.1410 
  177.1250    45.4460   160.5860   139.5190    98.7230    25.2340   -35.8060     2.1450 
  177.2500    45.3250   170.9140   147.1270   109.9160    25.2970   -35.6010     2.1490 
  177.3750    44.4800   183.1520   156.7720   123.3650    25.3290   -35.3690     2.1540 
  177.5000    42.9800   194.2070   166.0870   131.0760    25.3660   -35.1090     2.1610 
  177.6250    44.0600   199.6080   171.5540   130.9830    25.3430   -34.8130     2.1700 
  177.7500    47.4450   197.8760   171.4940   131.9420    25.2630   -34.5010     2.1760 
  177.8750    48.3580   189.1980   165.5460   134.0050    25.2240   -34.1580     2.1780 
  178.0000    45.6960   175.9070   155.1400   121.7570    25.2280   -33.8140     2.1740 
  178.1250    42.9660   161.5100   142.8500   104.7750    25.2980   -33.4450     2.1710 
  178.2500    42.3390   148.2600   131.0300    90.4820    25.4070   -33.0660     2.1700 
  178.3750    45.2090   136.0850   119.9990    83.7750    25.4180   -32.6690     2.1710 
  178.5000    51.2010   124.3840   109.4480    85.9840    25.3390   -32.2750     2.1710 
  178.6250    54.4240   103.0050    99.4820    86.4120    25.2750   -31.8910     2.1700 
  178.7500    50.9630    94.3430    90.7550    74.4310    25.3110   -31.5510     2.1640 
  178.8750    45.8270    88.0940    84.1840    56.9860    25.2160   -31.2520     2.1550 
  179.0000    44.5490    84.6760    80.2620    45.5640    24.9840   -30.9800     2.1510 
  179.1250    46.0610    83.7550    78.8740    46.8220    24.9480   -30.7690     2.1560 
  179.2500    47.3730    83.4610    78.3100    50.7560    24.9720   -30.6010     2.1700 
  179.3750    49.5790    82.4150    77.2360    55.8440    24.9440   -30.5010     2.1860 
  179.5000    51.7360    79.9030    74.8610    61.5510    24.8310   -30.4470     2.1970 
  179.6250    50.3030    76.2710    71.2900    56.1190    24.7410   -30.4490     2.2000 
  179.7500    47.9340    73.1510    67.9430    47.6590    24.6600   -30.4440     2.1990 
  179.8750    47.3790    71.7670    66.0030    43.4180    24.5300   -30.4530     2.2020 
  180.0000    48.1550    72.6880    66.1200    41.8030    24.4830   -30.4770     2.2120 
  180.1250    49.4080    76.1510    68.5740    43.8840    24.3150   -30.4920     2.2280 
  180.2500    50.5830    81.3610    72.5510    45.4900    24.2310   -30.4880     2.2440 
  180.3750    51.1320    88.2210    77.8000    46.0460    24.2240   -30.4530     2.2520 
  180.5000    50.6590    97.2260    84.6190    46.8700    24.2830   -30.3780     2.2530 
  180.6250    49.7930   110.2130    94.6380    50.3340    24.3380   -30.2450     2.2470 
  180.7500    47.4490   128.1740   109.0600    56.1960    24.4470   -30.1060     2.2410 
  180.8750    43.7300   151.8530   128.8420    66.5720    24.5580   -29.9300     2.2340 
  181.0000    42.6150   180.0640   153.2650    83.1310    24.6070   -29.7170     2.2270 
  181.1250    45.0770   204.9450   176.7640   112.7560    24.7190   -29.4450     2.2170 
  181.2500    47.2740   211.1030   187.5260   152.4540    24.9500   -29.1490     2.2030 
  181.3750    47.0590   186.4880   174.0020   169.4120    25.0540   -28.8160     2.1870 
  181.5000    43.8710   137.9510   136.1980   128.2600    24.9260   -28.4710     2.1700 
  181.6250    41.3350    89.6740    91.3300    74.8040    24.5200   -28.1270     2.1560 
  181.7500    43.7370    58.1200    56.7350    44.4530    24.1650   -27.7900     2.1490 
  181.8750    51.5140    38.4310    34.9370    25.3250    23.9270   -27.4710     2.1530 
  182.0000    59.3910    25.1350    22.8500    15.0000    23.9400   -27.1940     2.1710 
  182.1250    61.5780    18.9830    17.2570    11.9360    23.9080   -26.9600     2.2070 
  182.2500    60.5810    15.9590    14.5090    11.4210    23.9310   -26.7660     2.2510 
  182.3750    59.2830    14.7380    13.3980    12.0160    24.0820   -26.6230     2.2970 
  182.5000    60.3780    14.6050    13.2770    12.2720    24.4140   -26.5150     2.3350 
  182.6250    61.4680    15.1230    13.7480    12.4380    24.7430   -26.4590     2.3550 
  182.7500    61.2830    15.7530    14.3210    12.9160    25.0280   -26.4140     2.3620 
  182.8750    61.5080    16.2110    14.7370    12.8830    25.0550   -26.4020     2.3580 
  183.0000    62.6990    16.3770    14.8880    12.6150    25.0000   -26.3980     2.3480 
  183.1250    63.5080    16.2940    14.8130    13.2220    25.0010   -26.4250     2.3420 
  183.2500    64.4400    16.1730    14.7030    13.3860    25.0630   -26.4590     2.3480 
  183.3750    65.1130    16.1400    14.6720    12.0610    25.1270   -26.4970     2.3670 
  183.5000    64.0590    16.2210    14.7460    11.3750    25.1380   -26.5440     2.3920 
  183.6250    60.5370    16.2810    14.8010    12.2850    25.1220   -26.6030     2.4090 
  183.7500    56.9000    16.1010    14.6370    13.5720    25.0530   -26.6800     2.4090 
  183.8750    55.6710    15.5550    14.1410    13.2580    24.9900   -26.7720     2.3950 
  184.0000    58.7920    14.6770    13.3430    11.2690    24.9370   -26.8900     2.3780 
  184.1250    67.2830    13.6620    12.4200     9.8960    24.7790   -27.0460     2.3700 
  184.2500    75.6550    12.7790    11.6170     9.5980    24.3890   -27.2340     2.3720 
  184.3750    79.7440    12.1620    11.0560    10.1020    24.1120   -27.4550     2.3790 
  184.5000    79.2410    11.8610    10.7830     9.8830    24.0700   -27.7130     2.3850 
  184.6250    76.5960    11.9560    10.8690    10.0760    24.1250   -28.0100     2.3860 
  184.7500    72.9420    12.4470    11.3150    10.8260    24.1840   -28.3560     2.3880 
  184.8750    68.4800    13.4680    12.2430    11.6850    24.2800   -28.7390     2.3920 
