~V
VERS. 2.00: Ver 2.00
~W
STRT.M 20.0000:
STOP.M 279.0000:
STEP.M 0.1250:
NULL. -999.2500:
UWI. F11153:
~C
DEPT.M :
DEN.GM/CC :
GR.API :
RML.OHMM :
RI. :
RXO.OHMM :
CALI.CM :
SP.MV :
~A
# ...
  166.2500     2.2710    73.8230    17.4550    15.8950    14.5150    24.9100   -22.9600 
  166.3750     2.2730    72.5670    17.0600    15.4830    13.7520    24.7230   -23.0920 
  166.5000     2.2810    71.8780    16.7240    15.0930    13.3480    24.5840   -23.1790 
  166.6250     2.2920    75.1720    16.5400    14.8310    13.2570    24.5850   -23.2540 
  166.7500     2.2990    78.8900    16.4550    14.6840    13.3640    24.6830   -23.3630 
  166.8750     2.2970    77.4900    16.3490    14.5680    13.2070    24.8160   -23.4770 
  167.0000     2.2900    72.6250    16.0740    14.3540    12.8550    24.9060   -23.5420 
  167.1250     2.2830    71.1900    15.5010    13.9110    12.5560    24.9340   -23.5580 
  167.2500     2.2780    74.6100    14.7500    13.2970    12.0140    24.9370   -23.5800 
  167.3750     2.2750    78.3580    14.0000    12.6450    11.1160    24.9250   -23.6300 
  167.5000     2.2770    78.0750    13.4440    12.1190    10.3630    24.8960   -23.6790 
  167.6250     2.2850    76.7480    13.2600    11.8850    10.8370    24.9030   -23.6400 
  167.7500     2.2930    77.5960    13.3940    11.9280    12.2230    24.9570   -23.5710 
  167.8750     2.2930    78.2930    13.7600    12.2020    13.3030    25.0710   -23.5330 
  168.0000     2.2840    77.5770    14.2380    12.6310    13.7410    25.2200   -23.5170 
  168.1250     2.2720    76.7870    14.7060    13.1190    13.6140    25.3300   -23.4830 
  168.2500     2.2630    77.8630    15.1000    13.5690    13.2580    25.4060   -23.4180 
  168.3750     2.2600    79.2510    15.4190    13.9470    13.0510    25.4420   -23.3300 
  168.5000     2.2620    78.4210    15.6800    14.2520    13.5360    25.4520   -23.2820 
  168.6250     2.2680    76.8500    15.8710    14.4680    13.9260    25.4440   -23.3180 
  168.7500     2.2700    77.1720    15.9840    14.6040    13.8940    25.3580   -23.3570 
  168.8750     2.2650    79.5790    16.0080    14.6560    13.7740    25.0820   -23.3460 
  169.0000     2.2570    81.6850    15.9390    14.6190    13.4190    24.6160   -23.3220 
  169.1250     2.2520    80.7160    15.7550    14.4700    12.9550    24.2220   -23.3440 
  169.2500     2.2540    79.2500    15.4430    14.2060    12.7070    23.9890   -23.3970 
  169.3750     2.2630    77.9730    14.9770    13.8020    12.7550    23.8500   -23.4450 
  169.5000     2.2750    76.7870    14.4010    13.2750    12.8000    23.7300   -23.4470 
  169.6250     2.2910    76.4660    13.9050    12.7530    12.4710    23.6320   -23.4480 
  169.7500     2.3060    77.4420    13.7180    12.4310    11.8570    23.6440   -23.4880 
  169.8750     2.3160    80.1580    14.0170    12.4710    11.6280    23.9730   -23.5430 
  170.0000     2.3120    81.6470    14.9010    12.9900    12.5840    24.6880   -23.5910 
  170.1250     2.2870    78.2500    16.4100    14.1220    15.5560    25.5210   -23.6160 
  170.2500     2.2520    75.3470    18.1890    15.6680    18.8170    26.1810   -23.6560 
  170.3750     2.2230    75.4770    19.8610    17.3520    20.0530    26.5370   -23.7240 
  170.5000     2.2100    74.6700    21.0650    18.8170    20.0340    26.6180   -23.8010 
  170.6250     2.2130    70.8700    21.5920    19.7320    19.9300    26.4930   -23.7960 
  170.7500     2.2200    69.9140    21.7930    20.2600    18.9280    26.2700   -23.7360 
  170.8750     2.2250    72.6460    21.9730    20.6480    17.8720    26.0420   -23.7030 
  171.0000     2.2310    74.8470    22.2430    21.0540    17.7120    25.8080   -23.7130 
  171.1250     2.2390    72.1480    22.3810    21.3760    19.9700    25.6280   -23.7300 
  171.2500     2.2410    67.7680    22.0740    21.3550    21.6460    25.4730   -23.7140 
  171.3750     2.2410    66.8280    21.2010    20.8160    20.5700    25.3290   -23.6890 
  171.5000     2.2470    69.8650    19.9290    19.8110    16.5780    25.2210   -23.6970 
  171.6250     2.2670    71.0980    18.6820    18.6250    14.1910    25.2180   -23.8340 
  171.7500     2.2900    71.6100    17.8440    17.6440    13.4350    25.2950   -24.0900 
  171.8750     2.3070    76.5610    17.5700    17.0870    13.3880    25.3710   -24.4280 
  172.0000     2.3140    83.2710    17.8610    17.0430    13.5740    25.3880   -24.8170 
  172.1250     2.3100    80.6370    18.7180    17.5710    14.1750    25.3640   -25.2670 
  172.2500     2.3000    75.7460    20.0460    18.5500    15.3080    25.3710   -25.8140 
  172.3750     2.2870    76.6680    21.9500    20.0230    17.1470    25.4090   -26.4890 
  172.5000     2.2740    80.1910    24.6280    22.1280    19.4990    25.4710   -27.2500 
  172.6250     2.2640    79.7180    28.5560    25.2900    22.1450    25.5640   -27.9890 
  172.7500     2.2580    77.9730    35.6630    29.6860    25.7770    25.6680   -28.6760 
  172.8750     2.2550    76.3480    44.7080    35.5210    32.8910    25.7950   -29.3360 
  173.0000     2.2550    72.3820    53.6980    42.7590    45.2000    25.9360   -30.0120 
  173.1250     2.2590    66.7240    63.7680    51.0890    52.6730    26.0200   -30.6670 
  173.2500     2.2670    64.5950    73.9310    59.6470    52.5020    26.0540   -31.2060 
  173.3750     2.2740    64.3520    83.6020    67.9540    55.8690    26.0850   -31.6080 
  173.5000     2.2710    63.7190    92.4510    75.8020    65.2080    26.1650   -31.9310 
  173.6250     2.2550    61.7740    99.8190    82.8090    81.0180    26.3140   -32.2100 
  173.7500     2.2370    59.3870   104.9720    88.3650    89.6960    26.4240   -32.4030 
  173.8750     2.2250    56.6070   106.9530    91.5930    85.0400    26.4620   -32.4770 
  174.0000     2.2190    54.0830   105.4240    91.9760    81.5990    26.4160   -32.4350 
  174.1250     2.2150    54.2260   100.6530    89.3860    78.2770    26.2380   -32.3550 
  174.2500     2.2160    55.9230    94.2540    85.1000    68.2530    25.9700   -32.2840 
  174.3750     2.2240    55.9690    86.8540    79.7250    61.6650    25.7260   -32.1850 
  174.5000     2.2360    54.3780    78.6470    73.4590    59.8800    25.5700   -31.9980 
  174.6250     2.2440    55.2590    69.8190    66.3090    58.2580    25.5800   -31.7410 
  174.7500     2.2490    58.6010    61.1720    58.9150    52.6890    25.6820   -31.5050 
  174.8750     2.2530    60.5700    53.5410    51.9970    45.3050    25.8470   -31.3340 
  175.0000     2.2560    60.2810    47.6720    46.2870    37.6130    25.9410   -31.2380 
  175.1250     2.2600    61.2620    44.5450    42.7770    31.7680    25.9400   -31.1870 
  175.2500     2.2630    64.4000    44.0160    41.5690    29.2440    25.9230   -31.1450 
  175.3750     2.2640    69.1290    46.0170    42.7480    30.8290    25.9500   -31.1220 
  175.5000     2.2620    73.7230    50.2300    46.1480    35.2640    25.9810   -31.1800 
  175.6250     2.2610    73.8260    56.1370    51.4530    42.0350    26.0210   -31.3290 
  175.7500     2.2630    70.7480    62.3100    57.3520    49.6400    26.0470   -31.4840 
  175.8750     2.2680    69.7500    67.5780    62.7250    54.3990    26.0280   -31.5930 
  176.0000     2.2730    72.3440    71.0670    66.6580    54.2070    25.9420   -31.6350 
  176.1250     2.2780    75.1250    72.1030    68.3640    50.2880    25.8280   -31.6400 
  176.2500     2.2800    74.9170    71.1700    68.1340    49.8440    25.7590   -31.6790 
  176.3750     2.2750    72.0730    68.5610    66.1610    54.1660    25.7140   -31.7270 
  176.5000     2.2670    69.4630    64.7330    62.8310    56.3670    25.6700   -31.7110 
  176.6250     2.2620    68.7250    60.3840    58.7550    51.2160    25.6890   -31.6420 
  176.7500     2.2650    68.4980    56.4120    54.8630    44.3430    25.7330   -31.5790 
  176.8750     2.2690    68.3730    53.2990    51.6900    39.1610    25.7440   -31.5660 
  177.0000     2.2740    68.8860    51.1730    49.4530    35.1630    25.7070   -31.5980 
  177.1250     2.2780    68.8230    49.9280    48.1560    33.8700    25.6560   -31.6190 
  177.2500     2.2830    66.6710    49.0420    47.3300    34.5910    25.5360   -31.5820 
  177.3750     2.2870    64.9680    48.2720    46.7100    35.6610    25.2870   -31.5210 
