~V
VERS. 2.00: Ver 2.00
~W
STRT.M 60.0000:
STOP.M 281.0000:
STEP.M 0.1250:
NULL. -999.2500:
UWI. F11154:
~C
DEPT.M :
DEN.GM/CC :
GR.API :
RML.OHMM :
RI. :
RXO.OHMM :
CALI.CM :
SP.MV :
~A
# ...
  105.0000     2.1590    61.0170     9.8380     8.5870     9.7600    23.3990   -19.2420 
  105.1250     2.1830    63.3240     9.8950     8.5710     9.1200    23.4110   -18.6550 
  105.2500     2.2110    64.5210     9.9510     8.5450     8.5160    23.3460   -18.0740 
  105.3750     2.2280    64.0440     9.9570     8.4890     8.2530    23.2610   -17.5290 
  105.5000     2.2310    63.3250     9.8510     8.3710     8.4250    23.2430   -17.0570 
  105.6250     2.2290    65.9050     9.5660     8.1510     8.5940    23.2540   -16.6970 
  105.7500     2.2310    69.2740     9.1540     7.8550     8.6220    23.2750   -16.5020 
  105.8750     2.2290    69.9330     8.6980     7.5330     8.4540    23.3070   -16.5720 
  106.0000     2.2140    67.0530     8.3100     7.2600     8.1740    23.3680   -16.9410 
  106.1250     2.1950    62.1610     8.1740     7.1630     8.4340    23.4430   -17.5520 
  106.2500     2.1920    58.4730     8.4120     7.3320     9.4620    23.5590   -18.2230 
  106.3750     2.2120    56.3780     9.1680     7.8750    10.4420    23.7700   -18.8580 
  106.5000     2.2570    55.5950    10.5380     8.8880    11.0980    24.0220   -19.3890 
  106.6250     2.3350    55.3970    12.5200    10.4370    12.1000    24.1750   -19.7550 
  106.7500     2.4360    54.4150    14.6140    12.2000    14.4970    24.1730   -19.9900 
  106.8750     2.5320    53.3440    16.2300    13.7410    17.8810    24.0490   -20.1110 
  107.0000     2.5760    52.0750    16.7750    14.5500    21.4650    23.9270   -20.1090 
  107.1250     2.5390    50.5170    15.7420    14.0700    23.3060    23.8550   -20.0240 
  107.2500     2.4770    50.5040    13.7690    12.6730    19.6450    23.7780   -19.9440 
  107.3750     2.3980    52.6700    11.6470    10.9640    14.1790    23.6550   -19.9110 
  107.5000     2.3100    54.6180    10.0350     9.5060    11.7780    23.5290   -19.9440 
  107.6250     2.2320    53.9760     9.3010     8.6410    11.5180    23.4440   -20.0770 
  107.7500     2.2070    53.3400     9.1750     8.2570    11.6540    23.3880   -20.2530 
  107.8750     2.2040    54.6630     9.3930     8.2110    11.7820    23.3560   -20.4010 
  108.0000     2.2060    56.1980     9.6790     8.3300    11.8970    23.3420   -20.4570 
  108.1250     2.2050    54.8560     9.7840     8.4260    12.0040    23.3310   -20.3550 
  108.2500     2.2010    52.7270     9.6580     8.3970    11.9310    23.3150   -20.1610 
  108.3750     2.1960    51.7920     9.3620     8.2410    11.5910    23.3050   -19.9260 
  108.5000     2.1930    52.6190     9.0200     8.0240    11.0090    23.3120   -19.6640 
  108.6250     2.1970    54.6720     8.7770     7.8420    10.4660    23.3370   -19.4410 
  108.7500     2.2010    56.5710     8.6930     7.7550    10.1290    23.3990   -19.2970 
  108.8750     2.1950    56.6880     8.7610     7.7750    10.2000    23.4920   -19.2180 
  109.0000     2.1800    54.7260     8.9290     7.8770    10.7390    23.6100   -19.2120 
  109.1250     2.1670    52.2990     9.1080     8.0060    11.0730    23.7090   -19.3280 
  109.2500     2.1610    52.0110     9.2160     8.0970    11.0790    23.7320   -19.5450 
  109.3750     2.1550    53.8690     9.2180     8.1120    10.8690    23.6450   -19.8660 
  109.5000     2.1470    55.9060     9.1140     8.0390    10.7690    23.5490   -20.2860 
  109.6250     2.1360    57.1330     8.9370     7.8920    10.5890    23.5080   -20.7030 
  109.7500     2.1270    57.9190     8.7520     7.7210    10.2520    23.5440   -21.0580 
  109.8750     2.1210    58.1350     8.6020     7.5610     9.7590    23.5880   -21.3540 
  110.0000     2.1200    57.2580     8.5130     7.4340     9.4450    23.6000   -21.5920 
  110.1250     2.1230    55.8890     8.5110     7.3650     9.4990    23.5680   -21.8010 
  110.2500     2.1280    55.7560     8.5720     7.3460     9.8600    23.5210   -21.9740 
  110.3750     2.1350    56.5460     8.6710     7.3680    10.1050    23.4930   -22.0770 
  110.5000     2.1420    57.2110     8.7790     7.4170    10.2790    23.4930   -22.0930 
  110.6250     2.1480    57.8070     8.8680     7.4730    10.4550    23.5160   -22.0290 
  110.7500     2.1520    59.3080     8.9340     7.5230    10.5980    23.5510   -21.8970 
  110.8750     2.1540    61.2680     8.9830     7.5650    10.7040    23.5750   -21.7160 
  111.0000     2.1510    61.6290     9.0280     7.6030    10.7930    23.5880   -21.5370 
  111.1250     2.1460    58.8570     9.0770     7.6440    10.8840    23.5700   -21.3560 
  111.2500     2.1420    55.4690     9.1330     7.6900    10.9170    23.5350   -21.1220 
  111.3750     2.1420    53.3170     9.1970     7.7430    10.9150    23.4790   -20.8200 
  111.5000     2.1460    52.6990     9.2660     7.8010    10.8950    23.4300   -20.5060 
  111.6250     2.1520    53.1040     9.3360     7.8620    10.8400    23.4040   -20.2530 
  111.7500     2.1530    53.2190     9.3950     7.9150    10.7680    23.4020   -20.0880 
  111.8750     2.1480    53.2160     9.4270     7.9480    10.6560    23.4260   -20.0190 
  112.0000     2.1400    53.1880     9.4150     7.9480    10.5410    23.4940   -19.9990 
  112.1250     2.1390    51.8140     9.3400     7.8990    10.4360    23.5860   -19.9900 
  112.2500     2.1410    49.2160     9.2200     7.8110    10.3220    23.6620   -20.0300 
  112.3750     2.1430    48.2940     9.0750     7.7010    10.1370    23.6970   -20.1290 
  112.5000     2.1430    49.6910     8.9340     7.5920     9.8990    23.6880   -20.2620 
  112.6250     2.1440    50.6010     8.8300     7.5130     9.6890    23.5940   -20.3960 
  112.7500     2.1490    51.6910     8.7790     7.4760     9.6090    23.4660   -20.5060 
  112.8750     2.1530    54.9610     8.7850     7.4840     9.7130    23.3760   -20.5520 
  113.0000     2.1560    58.9310     8.8450     7.5360     9.9910    23.3470   -20.5060 
  113.1250     2.1550    59.9900     8.9460     7.6300    10.2690    23.3620   -20.3580 
  113.2500     2.1510    58.9370     9.0500     7.7430    10.3490    23.4070   -20.0910 
  113.3750     2.1460    57.8690     9.1180     7.8540    10.2730    23.5020   -19.6730 
  113.5000     2.1460    57.0670     9.1090     7.9290    10.0830    23.6330   -19.0530 
  113.6250     2.1580    56.8120     8.9600     7.9070     9.7650    23.7240   -18.1510 
  113.7500     2.1740    58.3940     8.6700     7.7670     9.2730    23.7820   -17.0090 
  113.8750     2.1960    62.8530     8.2570     7.5070     8.6030    23.8150   -15.6550 
  114.0000     2.2240    69.2960     7.7770     7.1570     7.8710    23.8100   -14.1890 
  114.1250     2.2520    75.1390     7.3260     6.7810     7.0220    23.7850   -12.6900 
  114.2500     2.2720    79.4530     6.9820     6.4500     6.2770    23.7490   -11.2220 
  114.3750     2.2820    81.3190     6.7780     6.2030     5.7280    23.6720    -9.8090 
  114.5000     2.2880    80.8220     6.6940     6.0450     5.4910    23.5630    -8.5250 
  114.6250     2.2930    79.9620     6.6570     5.9430     5.2640    23.4770    -7.4790 
  114.7500     2.2940    81.0730     6.5680     5.8260     5.0280    23.4940    -6.6780 
  114.8750     2.2930    83.9890     6.3700     5.6460     4.7860    23.6170    -6.1340 
  115.0000     2.2920    86.8130     6.0550     5.3850     4.4970    23.7970    -5.7780 
  115.1250     2.2920    87.1740     5.6740     5.0730     4.3170    23.9940    -5.5950 
  115.2500     2.3010    86.8690     5.3460     4.7920     4.1920    24.1790    -5.5580 
  115.3750     2.3250    87.1060     5.1850     4.6230     4.1690    24.3690    -5.6910 
  115.5000     2.3580    87.2150     5.3020     4.6450     4.3590    24.4840    -5.9790 
  115.6250     2.3800    85.9930     5.8480     4.9730     4.9150    24.4070    -6.4100 
  115.7500     2.3900    84.2280     6.7620     5.5900     5.7570    24.3290    -6.9440 
  115.8750     2.4030    82.1870     7.9230     6.4450     6.8360    24.2640    -7.5790 
  116.0000     2.4330    77.4790     9.1010     7.4030     7.9760    24.1410    -8.3350 
  116.1250     2.4690    70.0000     9.9270     8.2090     8.7680    23.9490    -9.1990 
