~V
VERS. 2.00: Ver 2.00
~W
STRT.M 51.0000:
STOP.M 249.0000:
STEP.M 0.1250:
NULL. -999.2500:
UWI. F11143:
~C
DEPT.M :
GR.API :
RML.OHMM :
RI. :
RXO.OHMM :
CALI.CM :
SP.MV :
DEN.GM/CC :
~A
# ...
  219.7500    59.1240    29.6560    29.1530    22.1670    23.6740   -20.5190     2.4510 
  219.8750    60.6600    29.5150    28.4680    22.6140    23.5970   -20.0010     2.4590 
  220.0000    62.5830    31.7440    30.0480    24.9690    23.6640   -19.5420     2.4670 
  220.1250    62.8150    36.0670    33.9270    29.0180    23.7770   -19.1120     2.4710 
  220.2500    62.1880    41.1180    39.1170    36.9090    23.7610   -18.7150     2.4930 
  220.3750    61.5800    44.9330    43.7770    50.7640    23.6480   -18.3500     2.5330 
  220.5000    60.8380    44.8110    44.6510    67.7290    23.6020   -18.0220     2.5650 
  220.6250    59.7100    38.4490    38.6250    69.2350    23.6400   -17.6870     2.5700 
  220.7500    59.2680    29.1440    29.4370    64.1990    23.6770   -17.3830     2.5670 
  220.8750    63.9570    20.3720    20.8980    48.6880    23.7080   -17.1350     2.5550 
  221.0000    73.9710    14.1010    14.7750    24.3380    23.7400   -16.9590     2.5170 
  221.1250    79.6800    10.8330    11.3560    12.0230    23.8510   -16.8560     2.4600 
  221.2500    73.9780     9.3150     9.5250     9.3910    23.9160   -16.7940     2.4210 
  221.3750    62.7940     8.8240     8.7170     9.8180    23.9570   -16.7630     2.4140 
  221.5000    56.6120     8.7980     8.5090    10.7150    23.9360   -16.7870     2.4250 
  221.6250    58.4330     8.7630     8.5140    10.9460    23.8510   -16.8940     2.4310 
  221.7500    60.6600     8.4810     8.3920    10.4170    23.7940   -17.0650     2.4250 
  221.8750    61.8510     8.0290     8.0970     9.0220    23.8230   -17.2720     2.4050 
  222.0000    64.5940     7.6320     7.7680     7.5460    23.8620   -17.4700     2.3810 
  222.1250    70.4170     7.5150     7.6110     7.4620    23.8890   -17.6650     2.3720 
  222.2500    75.5840     7.6570     7.6780     8.4760    23.9410   -17.8540     2.3810 
  222.3750    77.9160     7.9830     7.9400     9.9520    23.9680   -18.0390     2.4000 
  222.5000    80.8030     8.3810     8.3030    10.7780    23.9730   -18.2020     2.4150 
  222.6250    86.0700     8.7160     8.6150    10.6870    23.9730   -18.3510     2.4200 
  222.7500    89.2520     8.9190     8.7780    10.5950    23.9680   -18.4730     2.4210 
  222.8750    89.1560     8.9860     8.7870    10.6360    23.9520   -18.5270     2.4240 
  223.0000    90.9220     8.9460     8.6900    10.6060    23.9170   -18.5430     2.4310 
  223.1250    97.5060     8.8470     8.5480    10.4220    23.9060   -18.5920     2.4370 
  223.2500   101.4660     8.7480     8.4140    10.2020    23.9190   -18.6310     2.4340 
  223.3750   101.7580     8.6770     8.3070    10.1990    23.9640   -18.6660     2.4240 
  223.5000   102.1020     8.6480     8.2290    10.2970    24.0210   -18.6890     2.4120 
  223.6250   103.8400     8.6660     8.1750    10.2040    24.0580   -18.6980     2.4080 
  223.7500   104.2880     8.7090     8.1320    10.1840    24.0900   -18.6550     2.4110 
  223.8750   104.8250     8.7570     8.0970    10.2980    24.1120   -18.5940     2.4210 
  224.0000   105.5650     8.7920     8.0660    10.3920    24.1160   -18.4990     2.4330 
  224.1250   103.6690     8.8220     8.0490    10.2590    24.1110   -18.3820     2.4420 
  224.2500    99.8170     8.8760     8.0480    10.1470    24.1150   -18.2820     2.4440 
  224.3750    99.0910     8.9830     8.0610    10.1050    24.1190   -18.2470     2.4380 
  224.5000   102.0830     9.1380     8.0730    10.1630    24.1110   -18.2240     2.4290 
  224.6250   101.5760     9.2670     8.0530    10.2880    24.1060   -18.1760     2.4190 
  224.7500    97.2030     9.3000     7.9810    10.4430    24.1220   -18.1530     2.4120 
  224.8750    94.7960     9.2580     7.8810    10.6250    24.1420   -18.2170     2.4110 
  225.0000    96.5660     9.3070     7.8530    10.6060    24.0700   -18.3510     2.4150 
  225.1250    98.2510     9.8580     8.1370    10.7860    24.0430   -18.4430     2.4180 
  225.2500    98.5670    11.2210     8.9230    11.2900    24.0290   -18.5280     2.4120 
  225.3750    99.0970    13.6390    10.4200    13.0550    24.0060   -18.5400     2.3990 
  225.5000    98.6680    17.1490    12.8070    17.6880    23.9650   -18.5220     2.3830 
  225.6250    93.0710    21.4670    16.2210    27.8960    23.9520   -18.4380     2.3620 
  225.7500    87.0360    25.4410    19.9280    37.0170    23.9050   -18.3320     2.3420 
  225.8750    82.2920    27.7760    22.7610    39.3700    23.8390   -18.1580     2.3290 
  226.0000    77.9500    27.6320    23.6100    35.6490    23.9150   -17.8740     2.3150 
  226.1250    75.4010    25.2700    22.2540    29.2940    23.9960   -17.5550     2.2980 
  226.2500    74.9730    22.5450    20.2050    25.4820    24.0420   -17.2240     2.2860 
  226.3750    76.8050    20.4970    18.4030    23.9060    24.0550   -16.8650     2.2900 
  226.5000    78.9950    19.5040    17.2770    22.9250    24.0640   -16.4700     2.3110 
  226.6250    78.5260    19.5890    16.9720    21.6640    24.0460   -16.1520     2.3500 
  226.7500    73.0790    20.2090    17.1760    22.1050    23.9770   -15.8620     2.4040 
  226.8750    65.8890    20.9060    17.5910    24.7620    23.9210   -15.5950     2.4580 
  227.0000    64.7300    21.1720    17.8260    25.9100    23.8880   -15.3340     2.4840 
  227.1250    69.1380    20.4030    17.3460    23.3230    23.9630   -15.0760     2.4550 
  227.2500    72.9780    18.6900    16.1040    18.0390    23.9860   -14.8020     2.4120 
  227.3750    76.1380    16.4110    14.3410    15.3600    23.9300   -14.5430     2.3970 
  227.5000    80.8610    14.1550    12.4980    13.2340    23.8410   -14.3080     2.4210 
  227.6250    86.4460    12.6050    11.1010    12.3810    23.8880   -14.1020     2.4580 
  227.7500    88.9950    11.9400    10.3340    11.1700    23.9280   -13.8560     2.4790 
  227.8750    88.3490    12.1190    10.2170    11.0420    23.9330   -13.5960     2.4860 
  228.0000    86.4620    12.9040    10.6400    12.3950    23.9180   -13.4040     2.4940 
  228.1250    85.0350    13.8250    11.3400    16.1220    23.8830   -13.1910     2.5060 
  228.2500    82.8320    14.2480    11.7900    18.4400    23.8420   -12.9700     2.5060 
  228.3750    77.7550    13.8010    11.6070    18.2490    23.8320   -12.7490     2.4770 
  228.5000    71.2360    12.5580    10.7560    15.7150    23.9560   -12.5300     2.4240 
  228.6250    68.2640     9.7600     9.5860    11.4980    24.1700   -12.3040     2.3760 
  228.7500    68.4310     8.6670     8.5680     9.5840    24.2060   -12.1120     2.3530 
  228.8750    67.0710     8.0090     7.8750     8.7400    24.1140   -11.9290     2.3510 
  229.0000    62.8440     7.7710     7.5260     8.5820    24.1140   -11.7610     2.3510 
  229.1250    60.0020     7.8520     7.4850     8.8610    24.1420   -11.6660     2.3430 
  229.2500    59.0050     8.0350     7.6050     8.9450    24.1750   -11.5650     2.3380 
  229.3750    56.4570     8.2210     7.8030     8.4290    24.2550   -11.4820     2.3390 
  229.5000    52.7820     8.3750     8.0170     7.9850    24.3330   -11.4490     2.3440 
  229.6250    54.4930     8.5070     8.2040     8.9220    24.1660   -11.4010     2.3460 
  229.7500    60.3320     8.6470     8.3550     9.7880    24.0040   -11.2840     2.3310 
  229.8750    66.5310     8.8050     8.4750    10.2850    23.9970   -11.1480     2.2910 
  230.0000    69.4120     8.9790     8.5730    10.7750    24.0680   -11.0210     2.2460 
  230.1250    69.2020     9.1360     8.6400    11.2630    24.0660   -10.8650     2.2430 
  230.2500    68.5310     9.2420     8.6650    11.3360    24.0690   -10.7270     2.2890 
  230.3750    68.0100     9.2730     8.6380    10.9540    24.0560   -10.6310     2.3550 
  230.5000    68.0160     9.2290     8.5610    10.7870    23.9000   -10.5200     2.3960 
  230.6250    67.4790     9.1420     8.4450    10.3660    23.6850   -10.4030     2.3930 
  230.7500    66.7900     9.0660     8.3150     9.5540    23.5550   -10.3820     2.3810 
  230.8750    65.2530     9.0210     8.1920     9.1150    23.5770   -10.3790     2.3770 
