~V
VERS. 2.00: Ver 2.00
~W
STRT.M 14.0000:
STOP.M 209.0000:
STEP.M 0.1250:
NULL. -999.2500:
UWI. F11100:
~C
DEPT.M :
GR.API :
RML.OHMM :
RI. :
RXO.OHMM :
CALI.CM :
SP.MV :
DEN.GM/CC :
~A
# ...
  137.7500    43.2110    19.0840    15.9910    16.8520    25.2080     1.7700     2.5090 
  137.8750    45.5770    18.5740    15.6880    16.1020    25.2350     1.7270     2.5090 
  138.0000    47.8870    18.0920    15.3760    15.8430    25.2850     1.6880     2.5090 
  138.1250    48.9730    17.7590    15.1290    15.3340    25.3280     1.6640     2.5060 
  138.2500    49.2490    17.6100    14.9840    15.1400    25.3490     1.6380     2.5000 
  138.3750    48.8350    17.6770    14.9740    15.2370    25.3590     1.5950     2.4920 
  138.5000    48.6330    17.9700    15.1140    15.7150    25.3780     1.5510     2.4850 
  138.6250    51.0210    18.4760    15.4120    16.3590    25.4210     1.5370     2.4800 
  138.7500    56.0970    19.0460    15.7820    17.1020    25.4950     1.5390     2.4770 
  138.8750    59.8630    19.5120    16.1160    18.2440    25.5930     1.5300     2.4740 
  139.0000    58.9850    19.7140    16.2960    19.8390    25.6860     1.5120     2.4720 
  139.1250    55.5750    19.5830    16.2440    19.6110    25.7480     1.5210     2.4700 
  139.2500    54.4250    19.3420    16.0880    18.5460    25.7810     1.5490     2.4690 
  139.3750    56.3800    19.1920    15.9580    17.0590    25.7930     1.5810     2.4720 
  139.5000    59.4260    19.2450    15.9360    15.8430    25.8190     1.6010     2.4790 
  139.6250    59.9350    19.4840    16.0320    15.6830    25.8940     1.5920     2.4850 
  139.7500    56.3740    19.6840    16.1240    17.5430    25.9840     1.5700     2.4890 
  139.8750    51.5270    19.6350    16.0890    19.1250    26.0430     1.5380     2.4890 
  140.0000    50.2850    19.2380    15.8570    17.9250    26.0600     1.4660     2.4830 
  140.1250    55.6180    18.5840    15.4560    16.4040    26.0630     1.3290     2.4750 
  140.2500    62.9480    17.9680    15.0430    15.1140    26.0810     1.1640     2.4690 
  140.3750    67.5200    17.5630    14.7250    14.5900    26.1220     1.0130     2.4650 
  140.5000    67.2620    17.4060    14.5430    14.7950    26.1760     0.8860     2.4640 
  140.6250    62.9960    17.4190    14.4810    15.5590    26.2280     0.7860     2.4650 
  140.7500    57.7200    17.4370    14.4460    16.7660    26.2750     0.7010     2.4680 
  140.8750    52.9080    17.4150    14.4020    16.8090    26.3290     0.6350     2.4700 
  141.0000    49.6850    17.4060    14.3680    15.3140    26.3920     0.6250     2.4680 
  141.1250    49.6210    17.4920    14.3860    15.0730    26.4440     0.6770     2.4630 
  141.2500    51.8960    17.6260    14.4330    15.6700    26.4850     0.7320     2.4560 
  141.3750    54.1710    17.6990    14.4560    16.5710    26.5290     0.7960     2.4530 
  141.5000    54.1110    17.6120    14.3940    16.9260    26.5680     0.8940     2.4580 
  141.6250    51.9060    17.3070    14.2040    16.7170    26.5960     1.0540     2.4660 
  141.7500    52.4270    16.9010    13.9380    15.6140    26.6470     1.2380     2.4700 
  141.8750    55.6450    16.5400    13.6710    14.3680    26.7520     1.4080     2.4690 
  142.0000    57.4510    16.3340    13.4770    14.1780    26.8860     1.5470     2.4650 
  142.1250    55.7640    16.3170    13.3980    14.6550    27.0070     1.6730     2.4630 
  142.2500    54.7420    16.3670    13.3840    14.7460    27.1160     1.7970     2.4630 
  142.3750    55.0230    16.3840    13.3780    14.5360    27.2230     1.9060     2.4640 
  142.5000    54.1600    16.3030    13.3310    14.2050    27.3230     1.9810     2.4670 
  142.6250    52.2960    16.1150    13.2170    13.9460    27.3930     2.0110     2.4700 
  142.7500    52.1620    15.8730    13.0570    13.5810    27.4300     2.0150     2.4740 
  142.8750    53.7110    15.5750    12.8510    13.3090    27.4410     2.0180     2.4820 
  143.0000    54.0610    15.1790    12.5720    12.9690    27.4380     1.9870     2.4950 
  143.1250    52.4360    14.6410    12.1850    13.1860    27.4350     1.8990     2.5100 
  143.2500    50.9930    14.0310    11.7300    12.9070    27.4620     1.7540     2.5170 
  143.3750    50.6500    13.4380    11.2660    11.7740    27.5170     1.5840     2.5090 
  143.5000    51.1400    12.9510    10.8560    10.5700    27.5670     1.4040     2.4860 
  143.6250    52.6420    12.6550    10.5700    10.1240    27.5960     1.2080     2.4580 
  143.7500    55.4560    12.5280    10.4080    10.6910    27.6220     0.9810     2.4380 
  143.8750    56.8560    12.5550    10.3680    10.9490    27.6480     0.7280     2.4290 
  144.0000    56.7620    12.7260    10.4430    10.5560    27.6560     0.4900     2.4270 
  144.1250    57.9770    13.0500    10.6350    10.1470    27.6530     0.2820     2.4200 
  144.2500    59.9560    13.4680    10.8990    10.4520    27.6520     0.0950     2.4040 
  144.3750    59.3130    13.9010    11.1830    11.6190    27.6520    -0.0750     2.3810 
  144.5000    57.0150    14.2410    11.4230    12.7340    27.6540    -0.2210     2.3600 
  144.6250    58.2840    14.3590    11.5370    13.4770    27.6400    -0.3030     2.3490 
  144.7500    61.4510    14.2850    11.5300    13.0350    27.5940    -0.3560     2.3480 
  144.8750    63.1850    14.1300    11.4490    12.0260    27.6110    -0.3940     2.3530 
  145.0000    62.7360    14.0540    11.3820    11.4930    27.8030    -0.4070     2.3590 
  145.1250    61.3270    14.1970    11.4170    11.4310    28.1050    -0.3600     2.3650 
  145.2500    59.8830    14.4790    11.5360    12.1340    28.2920    -0.2760     2.3720 
  145.3750    58.2940    14.7610    11.6750    12.6340    28.3280    -0.1970     2.3780 
  145.5000    56.6180    14.9300    11.7760    13.5120    28.3160    -0.1600     2.3820 
  145.6250    55.9800    14.9680    11.8230    13.8270    28.3210    -0.1740     2.3810 
  145.7500    56.3370    15.0210    11.8830    13.2340    28.3220    -0.2020     2.3800 
  145.8750    56.8680    15.2200    12.0230    12.1230    28.3180    -0.2450     2.3830 
  146.0000    56.5250    15.6030    12.2670    12.6430    28.3150    -0.3240     2.3970 
  146.1250    56.9610    16.0560    12.5670    13.9700    28.3160    -0.4340     2.4230 
  146.2500    58.3140    16.3560    12.7950    15.3370    28.3180    -0.5280     2.4530 
  146.3750    58.1060    16.3550    12.8570    14.7030    28.3190    -0.5930     2.4790 
  146.5000    55.1860    16.0210    12.7130    13.6680    28.3170    -0.6420     2.4920 
  146.6250    51.2820    15.4580    12.3960    12.6870    28.3140    -0.7180     2.4880 
  146.7500    49.4130    14.9160    12.0560    12.4370    28.3220    -0.8320     2.4770 
  146.8750    49.5500    14.5240    11.7870    12.1810    28.3660    -0.9700     2.4680 
  147.0000    50.2270    14.3000    11.6210    11.5590    28.4430    -1.1000     2.4680 
  147.1250    51.3210    14.1780    11.5410    10.9960    28.5100    -1.2120     2.4810 
  147.2500    51.5920    14.0340    11.4780    10.9580    28.5400    -1.3330     2.4970 
  147.3750    50.5320    13.8050    11.3930    11.9620    28.5440    -1.4820     2.5080 
  147.5000    48.5290    13.4860    11.2790    12.6720    28.5460    -1.6440     2.5100 
  147.6250    47.5400    13.1320    11.1580    12.2510    28.5410    -1.7940     2.5060 
  147.7500    47.9870    12.8440    11.0780    11.1940    28.5420    -1.9420     2.5050 
  147.8750    49.0610    12.7070    11.0850    10.8220    28.5750    -2.1100     2.5070 
  148.0000    50.1020    12.7660    11.2060    10.5940    28.6360    -2.2850     2.5120 
  148.1250    49.1620    13.0190    11.4480    10.3360    28.6820    -2.4450     2.5160 
  148.2500    49.0140    13.3320    11.7290    10.2690    28.6930    -2.5920     2.5120 
  148.3750    51.4300    13.5490    11.9450    10.5850    28.6850    -2.7470     2.4920 
  148.5000    54.9260    13.4960    11.9680    10.9440    28.6970    -2.9460     2.4500 
  148.6250    56.6870    12.9790    11.6380    10.8550    28.7750    -3.2170     2.3920 
  148.7500    57.0900    12.1000    11.0060    10.3180    28.8900    -3.5240     2.3390 
  148.8750    55.8610    11.0390    10.1870     9.3480    28.9960    -3.8300     2.3090 
