~V
VERS. 2.00: Ver 2.00
~W
STRT.M 60.0000:
STOP.M 282.0000:
STEP.M 0.1250:
NULL. -999.2500:
UWI. F11159:
~C
DEPT.M :
GR.API :
RML.OHMM :
RI. :
RXO.OHMM :
CALI.CM :
SP.MV :
DEN.GM/CC :
~A
# ...
  262.5000    63.5130     8.6050     8.2120    10.8040    23.6200   -18.6030     2.3670 
  262.6250    64.9180     8.4710     8.1680     8.5570    23.5310   -18.6360     2.3600 
  262.7500    65.4050     8.1030     7.8940     7.4030    23.3450   -18.6740     2.3660 
  262.8750    65.9450     7.6500     7.4840     7.1610    23.2170   -18.7160     2.3830 
  263.0000    67.4580     7.3250     7.1110     7.9290    23.2360   -18.7680     2.4030 
  263.1250    68.4990     7.3750     7.0010    10.5350    23.5610   -18.8140     2.4130 
  263.2500    67.7200     7.8420     7.2380    13.6880    23.8150   -18.8510     2.4070 
  263.3750    64.9720     8.7270     7.8650    15.8840    23.9790   -18.8780     2.3910 
  263.5000    62.9560     9.9460     8.8540    17.5520    24.0800   -18.9510     2.3750 
  263.6250    62.6720    11.3030    10.1060    20.3720    24.0710   -19.0460     2.3700 
  263.7500    62.7660    12.4980    11.3480    23.6040    24.0310   -19.1160     2.3770 
  263.8750    63.5000    13.3370    12.3600    27.9370    24.0070   -19.1590     2.3870 
  264.0000    63.2110    13.7610    13.0050    27.9580    23.9430   -19.1710     2.3960 
  264.1250    60.7270    13.8270    13.2470    24.2190    23.9210   -19.2020     2.4010 
  264.2500    59.2420    13.7980    13.3060    21.4460    23.8250   -19.2320     2.4080 
  264.3750    59.5220    13.8610    13.3640    20.1480    23.5690   -19.2440     2.4210 
  264.5000    61.1790    14.1490    13.5660    17.9170    22.7310   -19.2260     2.4370 
  264.6250    63.0750    14.7470    14.0260    17.2530    22.7270   -19.2310     2.4540 
  264.7500    66.0040    15.5220    14.6760    19.1130    23.2050   -19.2720     2.4640 
  264.8750    67.4090    16.3170    15.4150    21.8900    23.8570   -19.3590     2.4670 
  265.0000    65.3520    16.9740    16.1150    22.6950    24.0050   -19.4700     2.4610 
  265.1250    63.7290    17.3620    16.6380    23.9870    24.0110   -19.5720     2.4480 
  265.2500    65.6320    17.5550    16.9820    25.6850    23.9580   -19.6780     2.4320 
  265.3750    69.2730    17.7690    17.0790    26.0780    23.8500   -19.7560     2.4170 
  265.5000    70.2120    17.9310    17.1270    23.5780    23.6730   -19.8360     2.4050 
  265.6250    67.7990    18.0100    17.1540    18.0500    23.6570   -19.8760     2.4020 
  265.7500    66.5290    17.9790    17.0700    14.6720    23.6900   -19.8730     2.4090 
  265.8750    67.7240    17.7550    16.7890    12.9940    23.7370   -19.8330     2.4220 
  266.0000    69.0750    17.2720    16.2600    12.3500    23.7890   -19.7810     2.4370 
  266.1250    67.6340    16.5010    15.4840    12.5910    23.8430   -19.7070     2.4460 
  266.2500    64.8940    15.5990    14.6240    12.5740    23.8520   -19.6040     2.4510 
  266.3750    62.3680    14.7190    13.8220    12.3020    23.8560   -19.5160     2.4530 
  266.5000    60.9140    13.9960    13.1930    12.4040    23.8420   -19.4270     2.4560 
  266.6250    63.3560    13.5440    12.8230    12.9830    23.7750   -19.3600     2.4590 
  266.7500    66.9910    13.3170    12.6510    13.7690    23.6940   -19.3050     2.4610 
  266.8750    67.6100    13.2570    12.6110    14.6960    23.6340   -19.2730     2.4590 
  267.0000    64.7770    13.2960    12.6420    15.3090    23.6240   -19.2500     2.4560 
  267.1250    62.9070    13.3810    12.7000    14.8340    23.6260   -19.2550     2.4480 
  267.2500    63.0570    13.4620    12.7500    14.6770    23.6440   -19.2990     2.4380 
  267.3750    63.1770    13.4970    12.7570    17.6400    23.7290   -19.3850     2.4250 
  267.5000    62.9530    13.4340    12.6640    20.5530    23.7670   -19.4820     2.4120 
  267.6250    63.6930    13.2110    12.3980    18.8450    23.7610   -19.5720     2.3980 
  267.7500    64.7430    12.8690    12.0080    14.3310    23.7180   -19.6590     2.3850 
  267.8750    64.8010    12.4710    11.5790    11.1540    23.7040   -19.7280     2.3710 
  268.0000    64.9870    12.0980    11.2070    10.4830    23.6960   -19.7570     2.3560 
  268.1250    65.8890    11.8210    10.9580    12.3320    23.6690   -19.7690     2.3440 
  268.2500    65.6130    11.6220    10.7750    14.9230    23.6270   -19.7450     2.3410 
  268.3750    63.9500    11.4360    10.5770    15.9330    23.5990   -19.6700     2.3450 
  268.5000    62.8880    11.1750    10.2840    14.5130    23.4770   -19.5980     2.3500 
  268.6250    64.3210    10.7430     9.8460    12.2740    23.4000   -19.5040     2.3500 
  268.7500    65.2940    10.1640     9.3180    10.6570    23.5430   -19.3820     2.3410 
  268.8750    64.8270     9.4980     8.7560     8.6280    23.6950   -19.2320     2.3310 
  269.0000    65.2520     8.8300     8.2080     7.4880    23.7680   -19.0800     2.3260 
  269.1250    67.5140     8.2500     7.7260     7.0350    23.8660   -18.8930     2.3300 
  269.2500    69.3010     7.7930     7.3340     6.7860    23.8770   -18.7410     2.3380 
  269.3750    67.8180     7.4740     7.0470     6.4950    23.8760   -18.6200     2.3460 
  269.5000    63.7610     7.2940     6.8780     6.4610    23.8760   -18.5060     2.3510 
  269.6250    62.0380     7.2610     6.8690     6.8550    23.8420   -18.4520     2.3550 
  269.7500    64.7190     7.3440     6.9970     7.6140    23.8140   -18.4390     2.3580 
  269.8750    68.6060     7.5320     7.2360     8.7910    23.8100   -18.4800     2.3610 
  270.0000    70.0670     7.8040     7.5430    10.6280    23.8090   -18.5790     2.3660 
  270.1250    67.8500     8.0680     7.8980    13.7450    23.8090   -18.7320     2.3710 
  270.2500    64.3740     8.3180     8.1750    17.8160    23.8090   -18.8840     2.3750 
  270.3750    62.8030     8.4580     8.3820    17.7650    23.8090   -19.0410     2.3750 
  270.5000    65.4350     8.4920     8.4850    13.0680    23.8030   -19.1770     2.3690 
  270.6250    69.4520     8.4380     8.4530     9.7970    23.7710   -19.2310     2.3560 
  270.7500    68.5740     8.3340     8.3180     8.5080    23.7200   -19.2470     2.3390 
  270.8750    64.4470     8.1980     8.1120     7.7980    23.7090   -19.2280     2.3260 
  271.0000    61.9130     8.0460     7.8760     7.3960    23.6990   -19.1770     2.3220 
  271.1250    62.6100     7.8890     7.6500     7.0340    23.6450   -19.0810     2.3330 
  271.2500    64.6020     7.7440     7.4540     6.3570    23.6370   -18.9640     2.3500 
  271.3750    66.6160     7.6270     7.2930     6.0710    23.6350   -18.8280     2.3680 
  271.5000    67.1990     7.5500     7.1640     6.2120    23.6350   -18.6830     2.3820 
  271.6250    66.0680     7.5250     7.0790     6.4680    23.6350   -18.5530     2.3910 
  271.7500    65.6360     7.5500     7.0500     6.7220    23.6350   -18.4330     2.3980 
  271.8750    66.7290     7.6430     7.0990     6.8950    23.6350   -18.3440     2.4060 
  272.0000    68.4960     7.8210     7.2430     7.0060    23.6350   -18.2920     2.4140 
  272.1250    68.9220     8.1190     7.5090     7.6440    23.6350   -18.2890     2.4180 
  272.2500    68.9220     8.5330     7.8750     8.8730    23.6350   -18.3040     2.4190 
  272.3750    68.9220     9.0450     8.3280    10.1470    23.6350   -18.3150     2.4180 
  272.5000    68.9220     9.6300     8.8480    11.0170    23.6350   -18.3590     2.4160 
  272.6250    68.9220    10.2340     9.3990    12.7270    23.6350   -18.4510     2.4160 
  272.7500    68.9220    10.7770     9.9050    15.1250    23.6350   -18.5880     2.4190 
  272.8750    68.9220    11.1880    10.2800    15.7180    23.6310   -18.7390     2.4220 
  273.0000    68.9220    11.3930    10.4490    14.7450    23.6210   -18.8660     2.4250 
  273.1250    68.9220    11.3180    10.3540    12.5700    23.5620   -18.9650     2.4310 
  273.2500    68.9220    11.0640    10.1010    10.4800    23.5550   -19.0250     2.4400 
  273.3750    68.9220    10.7510     9.7980     9.2830    23.5550   -19.0750     2.4500 
  273.5000    68.9220    10.4920     9.5380     8.9930    23.5550   -19.0800     2.4550 
  273.6250    68.9220    10.3590     9.3860     9.5370    23.5430   -19.0440     2.4490 
