~V
VERS. 2.00: Ver 2.00
~W
STRT.M 55.0000:
STOP.M 240.0000:
STEP.M 0.1250:
NULL. -999.2500:
UWI. F11138:
~C
DEPT.M :
SP.MV :
DEN.GM/CC :
GR.API :
RML.OHMM :
RI. :
RXO.OHMM :
CALI.CM :
~A
# ...
  133.7500    -9.9060     2.4280    79.3670    18.4930    17.2450    15.0230    21.9390 
  133.8750   -10.0510     2.4290    80.4260    18.9320    17.4960    15.0710    21.8650 
  134.0000   -10.2600     2.4350    82.7760    19.6110    18.0010    15.7460    21.7750 
  134.1250   -10.5540     2.4370    86.7020    20.4570    18.7140    16.9490    21.7510 
  134.2500   -10.8790     2.4350    90.3360    21.4060    19.5610    18.4650    21.8000 
  134.3750   -11.2410     2.4340    92.1070    22.5000    20.5490    19.4110    21.9010 
  134.5000   -11.5910     2.4420    92.6330    23.8080    21.7180    19.1410    21.9530 
  134.6250   -11.8970     2.4540    92.5010    25.3600    23.0920    18.7200    21.9350 
  134.7500   -12.1610     2.4650    91.8400    26.9350    24.5050    19.0210    21.9180 
  134.8750   -12.3660     2.4710    91.6340    28.2350    25.7210    20.0380    21.8660 
  135.0000   -12.5060     2.4730    90.8920    28.9600    26.4830    21.8690    21.7900 
  135.1250   -12.5960     2.4680    88.9300    28.8530    26.5350    24.1130    21.7720 
  135.2500   -12.6590     2.4620    86.7300    28.2130    26.0860    23.7530    21.8140 
  135.3750   -12.6250     2.4590    86.2370    27.4070    25.4220    22.1790    21.8720 
  135.5000   -12.4940     2.4550    87.9160    26.7820    24.8430    21.1370    21.9210 
  135.6250   -12.2880     2.4470    89.7860    26.5610    24.5720    20.7570    21.9780 
  135.7500   -12.0450     2.4340    91.1300    26.5940    24.5380    21.1260    21.9650 
  135.8750   -11.7840     2.4200    91.7120    26.6700    24.5930    21.8210    21.8890 
  136.0000   -11.5050     2.4090    92.5960    26.5730    24.5570    21.3560    21.8340 
  136.1250   -11.1980     2.4070    94.2660    26.1210    24.2500    20.7580    21.8650 
  136.2500   -10.8460     2.4110    94.9840    25.3930    23.6900    19.8610    21.9370 
  136.3750   -10.4980     2.4150    95.3800    24.5150    22.9600    19.4880    21.9550 
  136.5000   -10.2050     2.4150    96.5690    23.6330    22.1810    19.1310    21.9390 
  136.6250   -10.0100     2.4110    96.7740    22.8900    21.4770    18.3040    21.9210 
  136.7500    -9.8630     2.4060    94.4620    22.3010    20.8920    17.6620    21.8710 
  136.8750    -9.7400     2.4050    92.4450    21.8250    20.4060    17.4750    21.8420 
  137.0000    -9.6800     2.4120    93.5690    21.3770    19.9610    17.6100    21.8160 
  137.1250    -9.7260     2.4220    95.8100    20.8600    19.4800    17.5590    21.7730 
  137.2500    -9.8540     2.4230    96.4220    20.2810    18.9590    17.6410    21.6960 
  137.3750   -10.0370     2.4180    95.3230    19.7340    18.4630    17.3190    21.6160 
  137.5000   -10.2600     2.4170    93.1110    19.3710    18.1120    16.6890    21.6310 
  137.6250   -10.4770     2.4240    90.8510    19.4120    18.0870    16.1270    21.7100 
  137.7500   -10.6600     2.4320    90.0920    19.8410    18.3910    15.9920    21.7840 
  137.8750   -10.8110     2.4380    90.6170    20.5420    18.9450    16.5980    21.7980 
  138.0000   -10.9440     2.4440    91.6900    21.2810    19.5690    17.1630    21.7870 
  138.1250   -11.0470     2.4450    93.2260    21.7230    19.9710    17.3320    21.7470 
  138.2500   -11.1850     2.4360    94.8830    21.7370    19.9990    16.9440    21.5950 
  138.3750   -11.3590     2.4200    96.0980    21.3650    19.6510    16.1690    21.3920 
  138.5000   -11.5360     2.4100    96.0770    20.7960    19.0780    15.0520    21.3290 
  138.6250   -11.6780     2.4160    94.2730    20.2670    18.5020    14.1620    21.4160 
  138.7500   -11.7980     2.4310    92.5840    19.8720    18.0530    14.0200    21.5310 
  138.8750   -11.8820     2.4430    92.6760    19.5570    17.7210    14.5740    21.6030 
  139.0000   -11.9140     2.4490    93.7420    19.2200    17.4350    14.8740    21.5950 
  139.1250   -11.9110     2.4490    92.9150    18.8030    17.1390    14.8850    21.4940 
  139.2500   -11.8960     2.4500    91.2910    18.4140    16.8760    14.9890    21.4080 
  139.3750   -11.8800     2.4490    91.5290    18.2290    16.7590    15.1870    21.4470 
  139.5000   -11.8770     2.4500    93.0040    18.3910    16.8940    15.5270    21.6410 
  139.6250   -11.9090     2.4570    93.1370    18.8990    17.2940    16.1410    21.9540 
  139.7500   -11.9480     2.4640    91.5690    19.3700    17.6700    16.8260    22.1540 
  139.8750   -11.9810     2.4640    88.7510    19.3590    17.6580    17.3980    22.1610 
  140.0000   -11.9930     2.4540    86.1900    18.4960    16.9220    18.3890    22.0500 
  140.1250   -11.9770     2.4210    85.7730    16.5790    15.2400    18.8250    21.9340 
  140.2500   -11.9840     2.3700    86.3340    14.1290    13.0770    17.3730    21.8510 
  140.3750   -11.9780     2.3140    87.5490    11.6930    10.9270    13.9080    21.8370 
  140.5000   -11.9930     2.2710    90.5470     9.7210     9.1930     9.9580    21.8800 
  140.6250   -12.0680     2.2550    94.7500     8.5840     8.1710     7.9170    21.8650 
  140.7500   -12.1830     2.2550    97.5940     8.1890     7.7690     6.8220    21.9130 
  140.8750   -12.3430     2.2560    98.2090     8.5980     7.9260     6.9330    21.9280 
  141.0000   -12.5300     2.2470    97.1020     9.4750     8.5590     7.2660    21.8520 
  141.1250   -12.7030     2.2290    93.5880    10.6680     9.5820     8.1000    21.7570 
  141.2500   -12.8230     2.2160    89.5490    11.9050    10.7420     9.2260    21.6680 
  141.3750   -12.9260     2.2110    88.4640    12.9780    11.8330    10.4120    21.5820 
  141.5000   -12.9640     2.2070    90.1990    13.7150    12.6590    11.4420    21.5640 
  141.6250   -12.8710     2.1990    89.9790    13.9490    13.0130    12.0280    21.7380 
  141.7500   -12.6800     2.1900    87.4650    13.7910    12.9530    12.3000    21.9460 
  141.8750   -12.3980     2.1870    85.0860    13.3580    12.5680    12.3860    22.1430 
  142.0000   -12.0480     2.1880    83.1900    12.7900    11.9870    12.2210    22.2530 
  142.1250   -11.6850     2.1890    80.7780    12.2210    11.3370    11.7790    22.2690 
  142.2500   -11.3340     2.1890    80.8020    11.7450    10.7460    11.1800    22.2500 
  142.3750   -10.9880     2.1890    85.3500    11.4220    10.2900    10.5730    22.2300 
  142.5000   -10.6810     2.1880    91.1010    11.2870    10.0190    10.1490    22.2250 
  142.6250   -10.4450     2.1870    93.0470    11.3750     9.9800     9.9520    22.2220 
  142.7500   -10.2480     2.1830    92.3770    11.6150    10.1080     9.9820    22.2240 
  142.8750   -10.0830     2.1780    91.1780    11.9320    10.3400    10.1740    22.2280 
  143.0000    -9.9610     2.1710    90.6580    12.2290    10.5840    10.5100    22.2370 
  143.1250    -9.8740     2.1660    90.5800    12.3550    10.7040    10.8370    22.2160 
  143.2500    -9.7720     2.1650    89.7830    12.2410    10.6290    10.9050    22.1830 
  143.3750    -9.6690     2.1730    87.6050    11.8750    10.3410    10.7540    22.1480 
  143.5000    -9.5640     2.1900    84.2920    11.3130     9.8770    10.4900    22.1240 
  143.6250    -9.4730     2.2220    81.7880    10.6470     9.3050     9.8030    22.1440 
  143.7500    -9.4300     2.2630    81.3530     9.9980     8.7250     8.9640    22.1420 
  143.8750    -9.4420     2.3010    83.0370     9.4420     8.2010     8.4390    22.0820 
  144.0000    -9.4970     2.3130    85.2520     9.0350     7.7810     8.3550    21.9810 
  144.1250    -9.5780     2.2860    87.4080     8.8470     7.5260     8.0670    21.9030 
  144.2500    -9.6800     2.2440    89.5150     8.8520     7.4260     7.4250    21.9150 
  144.3750    -9.7920     2.2050    89.9620     9.0110     7.4580     7.2280    21.8980 
  144.5000    -9.9300     2.1750    88.1470     9.2420     7.5710     7.6350    21.7900 
  144.6250   -10.1090     2.1480    87.4020     9.4240     7.6850     8.0450    21.7030 
  144.7500   -10.3030     2.1270    89.7160     9.4790     7.7320     8.2570    21.6510 
  144.8750   -10.4830     2.1170    92.0100     9.3930     7.6900     8.1100    21.5850 
