~V
VERS. 2.00: Ver 2.00
~W
STRT.M 56.0000:
STOP.M 269.0000:
STEP.M 0.1250:
NULL. -999.2500:
UWI. F11148:
~C
DEPT.M :
GR.API :
RML.OHMM :
RI. :
RXO.OHMM :
SP.MV :
DEN.GM/CC :
CALI.CM :
~A
# ...
  213.5000    66.0990    31.9650    29.8010    28.3820   -15.0500     2.2100    24.5350 
  213.6250    65.2990    33.0280    30.6170    30.2930   -15.1810     2.2040    24.7290 
  213.7500    63.2790    34.8420    32.2060    32.9690   -15.3350     2.1990    24.7840 
  213.8750    61.2520    36.8890    34.1670    34.7640   -15.5070     2.1970    24.6830 
  214.0000    60.2920    38.7530    36.1400    35.7440   -15.6970     2.1990    24.5560 
  214.1250    60.5920    40.0720    37.7530    36.5910   -15.8940     2.2030    24.5170 
  214.2500    60.2860    40.5080    38.6190    36.5560   -16.0870     2.2120    24.4910 
  214.3750    58.2930    40.2210    38.8020    35.4710   -16.2560     2.2210    24.3650 
  214.5000    56.7410    39.3770    38.4120    35.4770   -16.3930     2.2300    24.2470 
  214.6250    57.3340    38.2410    37.6510    34.3230   -16.4970     2.2370    24.2160 
  214.7500    58.7990    37.2960    36.9030    32.1760   -16.5700     2.2440    24.2690 
  214.8750    58.7090    37.0390    36.6380    30.9270   -16.6370     2.2490    24.3550 
  215.0000    59.0140    37.8530    37.2420    31.2650   -16.7080     2.2470    24.4520 
  215.1250    60.5900    43.7610    38.9720    32.7430   -16.8010     2.2410    24.5210 
  215.2500    61.2380    45.1960    41.8670    36.6790   -16.9180     2.2360    24.5410 
  215.3750    60.4400    47.6910    44.9310    43.2180   -17.0690     2.2330    24.5450 
  215.5000    59.5470    49.1360    46.8940    51.6630   -17.2520     2.2280    24.5390 
  215.6250    59.4870    49.4970    46.6880    56.7530   -17.4590     2.2210    24.4970 
  215.7500    62.1870    48.9010    44.1200    45.4500   -17.6840     2.2170    24.3570 
  215.8750    65.3710    46.6090    40.9330    33.3400   -17.8950     2.2200    24.1600 
  216.0000    66.2800    43.4450    38.4790    31.3860   -18.0680     2.2260    24.0080 
  216.1250    65.2560    42.5400    37.5590    36.1490   -18.1960     2.2290    23.9490 
  216.2500    66.4370    43.9620    38.6090    39.8950   -18.2810     2.2230    24.0340 
  216.3750    69.6820    46.3820    40.8240    42.0230   -18.3360     2.2150    24.2240 
  216.5000    70.9310    48.3600    43.1420    43.2440   -18.3630     2.2130    24.4480 
  216.6250    70.0990    48.5110    44.2650    43.6380   -18.3780     2.2190    24.6060 
  216.7500    67.9060    46.0290    43.1130    39.2880   -18.4020     2.2280    24.6720 
  216.8750    66.0300    42.2800    40.5640    35.2290   -18.4420     2.2410    24.6880 
  217.0000    65.7680    38.5820    37.6990    31.0050   -18.4950     2.2650    24.6930 
  217.1250    67.4670    35.8400    35.3720    28.7580   -18.5600     2.2940    24.6800 
  217.2500    69.3430    34.4580    34.0510    28.5690   -18.6480     2.3060    24.6280 
  217.3750    68.2410    33.7670    33.3050    29.2560   -18.7730     2.3040    24.5330 
  217.5000    65.5920    33.0310    32.5120    29.5630   -18.9440     2.3040    24.4540 
  217.6250    65.8140    31.5790    31.0340    29.3870   -19.1570     2.3130    24.4010 
  217.7500    71.1900    29.0380    28.4940    27.5340   -19.4030     2.3240    24.3470 
  217.8750    75.0970    26.0400    25.5120    23.4440   -19.6630     2.3310    24.2620 
  218.0000    73.4000    23.3570    22.8080    18.8620   -19.9380     2.3320    24.1910 
  218.1250    70.7940    21.7120    20.9820    16.4130   -20.2180     2.3290    24.1510 
  218.2500    72.5950    21.9750    20.6800    16.4540   -20.4760     2.3210    24.1230 
  218.3750    75.1810    24.3790    22.0710    17.5000   -20.6870     2.3100    24.1090 
  218.5000    75.1860    29.3930    25.6790    19.6420   -20.8490     2.2950    24.1080 
  218.6250    72.8780    37.3400    32.1110    24.5090   -20.9740     2.2740    24.1190 
  218.7500    69.5940    48.1650    41.8740    35.7850   -21.0760     2.2490    24.1320 
  218.8750    65.6570    59.2010    52.6160    49.7010   -21.1650     2.2260    24.1300 
  219.0000    62.4070    66.8230    60.8000    58.6660   -21.2410     2.2090    24.1270 
  219.1250    60.7040    68.1670    63.3740    59.1670   -21.3020     2.2040    24.1630 
  219.2500    61.3720    63.6220    60.1150    52.7760   -21.3600     2.2150    24.2810 
  219.3750    64.8670    58.1120    55.3480    45.0310   -21.4050     2.2330    24.4370 
  219.5000    69.9130    54.1040    51.4740    41.7440   -21.4230     2.2470    24.5180 
  219.6250    71.0630    52.1880    49.2840    41.4090   -21.4050     2.2520    24.5360 
  219.7500    65.4960    52.0710    48.7300    43.6150   -21.3270     2.2520    24.5350 
  219.8750    60.2400    52.6360    48.9310    45.0700   -21.2090     2.2550    24.5300 
  220.0000    59.9220    53.2680    49.3610    47.1210   -21.0640     2.2600    24.5220 
  220.1250    62.1870    53.6860    49.7140    49.6800   -20.8970     2.2660    24.5200 
  220.2500    62.5990    53.8420    49.8770    51.1880   -20.7400     2.2680    24.5030 
  220.3750    62.2870    53.7210    49.8070    50.1630   -20.6130     2.2660    24.4750 
  220.5000    62.5270    53.1260    49.3340    53.2380   -20.5360     2.2650    24.4450 
  220.6250    63.5940    51.9030    48.3020    50.9300   -20.5050     2.2720    24.4130 
  220.7500    65.8700    50.1970    46.7540    43.9580   -20.5200     2.2920    24.4200 
  220.8750    69.9670    48.8010    45.3100    40.6700   -20.5870     2.3160    24.4510 
  221.0000    73.8790    48.6220    44.7180    37.5070   -20.7180     2.3330    24.4110 
  221.1250    75.1340    50.5640    45.7930    36.7930   -20.9190     2.3430    24.3030 
  221.2500    72.5380    55.9340    49.8160    41.9010   -21.1550     2.3500    24.1540 
  221.3750    67.7170    64.8040    57.0680    50.5720   -21.3950     2.3560    23.9850 
  221.5000    63.1890    77.2510    67.7690    56.1640   -21.6160     2.3460    23.9360 
  221.6250    61.0120    92.4880    81.2680    62.1070   -21.8090     2.3160    24.0060 
  221.7500    62.8870   108.0460    95.4360    74.8350   -21.9660     2.2870    24.2280 
  221.8750    66.2410   120.9220   107.5600    87.7120   -22.0680     2.2760    24.4610 
  222.0000    67.6540   130.7450   117.0760    95.2270   -22.1060     2.2790    24.6570 
  222.1250    65.8520   140.0840   125.9120    95.8480   -22.0640     2.2910    24.7430 
  222.2500    63.4640   151.7310   136.7230    99.6420   -21.9450     2.3160    24.6970 
  222.3750    63.2380   159.6170   145.3430   103.7410   -21.7650     2.3510    24.5440 
  222.5000    62.9500   149.1290   139.8170   115.5030   -21.5380     2.3960    24.2400 
  222.6250    59.6940   113.3400   110.9890   142.9820   -21.2640     2.4490    23.8610 
  222.7500    55.9000    70.7890    70.8430   153.5380   -20.9290     2.5070    23.5610 
  222.8750    55.7030    40.4620    40.3530    85.8880   -20.5700     2.5560    23.4940 
  223.0000    57.6990    22.8640    22.5520    28.8450   -20.1880     2.5720    23.6150 
  223.1250    57.7840    13.8480    13.6700    10.2690   -19.7850     2.5430    23.8420 
  223.2500    53.9880    10.2270    10.0850     7.7690   -19.3840     2.4830    24.0430 
  223.3750    50.0230     8.9240     8.5600     7.7880   -19.0190     2.4330    24.2150 
  223.5000    47.5140     8.8870     8.2070     8.3530   -18.7040     2.4080    24.3450 
  223.6250    46.1570     9.4000     8.5460     8.5270   -18.4540     2.4060    24.3970 
  223.7500    45.5440     9.8040     9.0740     8.5450   -18.3010     2.4140    24.3590 
  223.8750    45.9740     9.7170     9.2800     8.4920   -18.1940     2.4210    24.3320 
  224.0000    48.1420     9.1440     9.0200     8.1720   -18.1190     2.4240    24.3260 
  224.1250    51.2130     8.3140     8.4230     7.6280   -18.0980     2.4220    24.3180 
  224.2500    52.1410     7.5070     7.7210     6.7060   -18.1330     2.4130    24.2790 
  224.3750    51.1060     6.9040     7.1250     6.1760   -18.2050     2.4030    24.2370 
  224.5000    49.9830     6.5900     6.7390     6.3070   -18.3130     2.3990    24.2570 
  224.6250    49.7040     6.5960     6.6150     6.5770   -18.4640     2.4010    24.3130 
