~V
VERS. 2.00: Ver 2.00
~W
STRT.M 52.0000:
STOP.M 240.0000:
STEP.M 0.1250:
NULL. -999.2500:
UWI. F11139:
~C
DEPT.M :
GR.API :
RML.OHMM :
RI. :
RXO.OHMM :
CALI.CM :
SP.MV :
DEN.GM/CC :
~A
# ...
   97.0000    71.8790     9.3280     9.3310    12.1030    24.9380   -21.5760     2.1510 
   97.1250    69.5620     8.7500     8.4770    11.6420    25.4480   -22.1240     2.0950 
   97.2500    68.3940     8.5850     8.0750    11.3960    25.7030   -22.4270     2.0690 
   97.3750    67.2640     8.6190     7.9540    11.2700    25.5730   -22.4880     2.0780 
   97.5000    66.7700     8.7070     7.9790    11.2410    25.2860   -22.3630     2.1110 
   97.6250    68.4730     8.7570     8.0500    11.1760    25.1400   -22.0580     2.1420 
   97.7500    70.3630     8.7510     8.1080    11.2130    25.1840   -21.7130     2.1580 
   97.8750    70.9880     8.7110     8.1450    11.3000    25.3210   -21.3360     2.1630 
   98.0000    70.6880     8.6910     8.1800    11.4500    25.4330   -20.9410     2.1690 
   98.1250    70.3930     8.7830     8.2710    11.5780    25.4400   -20.4890     2.1750 
   98.2500    69.9030     9.0190     8.4610    11.7150    25.3830   -19.9160     2.1820 
   98.3750    69.3200     9.3560     8.7430    11.9100    25.3090   -19.1360     2.1910 
   98.5000    69.7210     9.6580     9.0270    12.3540    25.2680   -18.0600     2.2080 
   98.6250    71.6980     9.6780     9.1050    12.9980    25.2380   -16.7710     2.2420 
   98.7500    73.2070     9.3210     8.8540    13.2930    25.1070   -15.2890     2.2940 
   98.8750    75.0550     8.6170     8.2600    12.9300    24.8140   -13.7800     2.3550 
   99.0000    79.7780     7.7310     7.4420    11.2700    24.4620   -12.4210     2.3850 
   99.1250    86.6030     6.9350     6.6240     8.1560    24.2730   -11.3450     2.3480 
   99.2500    89.6540     6.3980     5.9900     6.7050    24.2970   -10.5470     2.2850 
   99.3750    86.7510     6.1730     5.6110     6.7250    24.4850   -10.0740     2.2360 
   99.5000    81.3930     6.2500     5.5060     7.0790    24.8010   -10.0100     2.2140 
   99.6250    78.4600     6.6230     5.6990     7.4610    25.2030   -10.4290     2.2180 
   99.7500    78.4710     7.1820     6.1080     8.2990    25.4990   -11.2520     2.2310 
   99.8750    79.7440     7.8520     6.6740     9.9180    25.5850   -12.2940     2.2400 
  100.0000    79.6230     8.5380     7.3260    12.0040    25.5260   -13.3730     2.2380 
  100.1250    76.8670     9.0890     7.9430    13.2430    25.5380   -14.3920     2.2240 
  100.2500    73.0740     9.4020     8.4010    13.1120    25.6840   -15.3050     2.2030 
  100.3750    69.9660     9.4240     8.6100    12.7870    25.9310   -16.0840     2.1740 
  100.5000    69.4690     9.1780     8.5400    12.5840    26.2360   -16.6690     2.1420 
  100.6250    71.2490     8.7580     8.2290    12.1810    26.4360   -16.9600     2.1180 
  100.7500    72.6730     8.3330     7.8400    11.2490    26.4920   -17.0070     2.1060 
  100.8750    72.8150     7.9940     7.4760    10.3670    26.4280   -16.9770     2.1090 
  101.0000    72.4480     7.7870     7.2040     9.6670    26.2870   -16.9310     2.1240 
  101.1250    73.0320     7.7330     7.0680     9.4530    26.1290   -16.8240     2.1410 
  101.2500    72.4900     7.7710     7.0330     9.5930    26.0660   -16.7050     2.1470 
  101.3750    70.6620     7.8490     7.0590     9.8360    26.0300   -16.5540     2.1430 
  101.5000    69.1620     7.9080     7.1000     9.9520    26.0110   -16.3940     2.1370 
  101.6250    70.0710     7.8850     7.0950     9.8410    25.9930   -16.2260     2.1410 
  101.7500    73.3940     7.7640     7.0140     9.5710    25.9450   -16.0460     2.1570 
  101.8750    77.0340     7.5580     6.8520     9.2750    25.8230   -15.6880     2.1830 
  102.0000    79.6560     7.2990     6.6260     9.0470    25.6970   -15.1610     2.2120 
  102.1250    82.7880     7.0310     6.3640     8.6360    25.5970   -14.6770     2.2380 
  102.2500    86.0250     6.8010     6.1120     8.2250    25.5220   -14.2240     2.2570 
  102.3750    87.2590     6.6460     5.9040     7.9900    25.4580   -13.8310     2.2630 
  102.5000    85.4450     6.5950     5.7720     8.1620    25.5030   -13.5620     2.2530 
  102.6250    84.0450     6.6910     5.7620     8.1840    25.6810   -13.4630     2.2350 
  102.7500    84.5380     6.9220     5.8750     7.9890    25.8440   -13.5160     2.2180 
  102.8750    84.5170     7.2930     6.1200     8.1320    25.9030   -13.7300     2.1980 
  103.0000    81.8550     7.8110     6.5060     8.9330    25.9250   -14.0750     2.1690 
  103.1250    77.8550     8.5090     7.0700     9.8800    25.9600   -14.3780     2.1420 
  103.2500    74.2960     9.3410     7.7830    10.5330    25.8790   -14.6510     2.1410 
  103.3750    71.0920    10.2310     8.6020    10.8590    25.5460   -14.9380     2.1860 
  103.5000    68.7290    11.0350     9.4180    11.1610    25.0390   -15.2280     2.2820 
  103.6250    68.8370    11.4990    10.0190    11.4630    24.7220   -15.4800     2.4060 
  103.7500    69.0380    11.5240    10.2650    11.6320    24.8270   -15.6890     2.4930 
  103.8750    66.6340    11.1140    10.0990    11.6460    25.1300   -15.9160     2.4990 
  104.0000    62.7450    10.4170     9.5990    11.5680    25.3890   -16.2170     2.4320 
  104.1250    62.6580     9.6910     8.9530    11.5140    25.4770   -16.6820     2.3320 
  104.2500    65.9630     9.1560     8.3910    11.6400    25.4700   -17.2180     2.2460 
  104.3750    68.6190     8.8760     8.0120    11.8390    25.4110   -17.7630     2.1810 
  104.5000    67.2220     8.8150     7.8320    11.9320    25.4160   -18.2430     2.1330 
  104.6250    63.3240     8.8760     7.8120    11.9210    25.5110   -18.6970     2.1010 
  104.7500    61.5320     8.9090     7.8320    11.9200    25.6310   -19.0730     2.0880 
  104.8750    61.9320     8.8290     7.8060    11.9490    25.7100   -19.3400     2.0890 
  105.0000    62.3420     8.6020     7.6780    11.9150    25.7560   -19.4700     2.0970 
  105.1250    61.8010     8.2530     7.4340    11.5760    25.7450   -19.4460     2.1050 
  105.2500    62.4740     7.8890     7.1430    11.0550    25.5910   -19.4460     2.1160 
  105.3750    65.6040     7.5870     6.8710    10.4480    25.3140   -19.5460     2.1290 
  105.5000    69.6430     7.3970     6.6660     9.9830    25.0020   -19.8000     2.1400 
  105.6250    71.0580     7.3440     6.5700    10.1220    24.7450   -20.0840     2.1420 
  105.7500    69.1690     7.3750     6.5550    10.7800    24.6520   -20.3490     2.1340 
  105.8750    66.7340     7.4420     6.5940    11.3660    24.7800   -20.5600     2.1250 
  106.0000    66.3080     7.5060     6.6530    11.5750    24.9940   -20.7400     2.1260 
  106.1250    66.5460     7.5370     6.6990    11.3840    25.1370   -20.7460     2.1350 
  106.2500    65.9080     7.5470     6.7220    11.0570    25.2470   -20.5350     2.1480 
  106.3750    65.8350     7.5540     6.7290    10.7730    25.3410   -20.0640     2.1600 
  106.5000    67.5270     7.5820     6.7370    10.5490    25.4070   -19.3660     2.1700 
  106.6250    71.1010     7.6430     6.7620    10.2880    25.4650   -18.5090     2.1800 
  106.7500    74.1110     7.7120     6.7980    10.1240    25.5390   -17.6090     2.1890 
  106.8750    76.2500     7.7500     6.8190    10.1220    25.6230   -16.6850     2.1940 
  107.0000    77.5690     7.7130     6.7870    10.0450    25.6960   -15.7170     2.1950 
  107.1250    79.2320     7.5540     6.6470     9.5310    25.6860   -14.7860     2.1970 
  107.2500    82.3590     7.3060     6.4110     8.6830    25.5450   -13.9680     2.2050 
  107.3750    85.2470     7.0310     6.1210     7.6840    25.2870   -13.3470     2.2210 
  107.5000    85.7230     6.8110     5.8510     6.8900    25.0570   -13.0370     2.2390 
  107.6250    84.0130     6.7480     5.7030     7.0000    25.0970   -13.1380     2.2480 
  107.7500    84.3350     6.8490     5.7100     7.7790    25.3110   -13.6290     2.2470 
  107.8750    86.0540     7.0820     5.8620     8.8920    25.4810   -14.4910     2.2360 
  108.0000    84.4280     7.3800     6.1100    10.0470    25.5350   -15.6070     2.2180 
  108.1250    78.2210     7.6440     6.3680    11.2540    25.6310   -16.8470     2.1910 
