~V
VERS. 2.00: Ver 2.00
~W
STRT.M 50.0000:
STOP.M 206.0000:
STEP.M 0.1250:
NULL. -999.2500:
UWI. F11107:
~C
DEPT.M :
DEN.GM/CC :
GR.API :
RML.OHMM :
RI. :
RXO.OHMM :
CALI.CM :
SP.MV :
~A
# ...
   61.2500     2.1730    50.5010 970559.5000     0.2770    -0.1020    25.7880   119.4650 
   61.3750     2.1900    48.4640 970559.5000     0.2790    -0.1030    25.7950   118.8250 
   61.5000     2.1780    48.7350 970559.5000     0.2830    -0.1070    25.8090   117.8930 
   61.6250     2.1340    50.6340 969686.3130     0.2900    -0.1070    25.8160   116.5720 
   61.7500     2.0790    51.6150 975312.9380     0.2980    -0.1010    25.8140   114.8290 
   61.8750     2.0290    50.7490 988874.8130     0.3060    -0.0970    25.8300   112.6840 
   62.0000     2.0000    49.0210 891591.7500     0.3100    -0.1000    25.8450   110.1900 
   62.1250     1.9960    47.1140 565260.5000     0.3060    -0.1020    25.8480   107.2760 
   62.2500     2.0050    45.5540 202383.6560     0.2900    -0.0940    25.8450   103.9530 
   62.3750     2.0130    46.0380  4749.3280     0.2560    -0.0840    25.8430   100.3270 
   62.5000     2.0130    47.1220  -999.2500     0.2040    -0.0790    25.8440    96.6100 
   62.6250     2.0130    45.8640  2617.7070     0.1470    -0.0200    25.8310    92.7330 
   62.7500     2.0400    43.2490     0.4330     0.1010     0.1200    25.8010    88.5810 
   62.8750     2.1200    41.7510    -0.2520     0.0770     0.2380    25.7670    83.9670 
   63.0000     2.2570    42.1070    -0.3640     0.0740     0.2890    25.7390    78.5680 
   63.1250     2.4100    42.4840    -0.3500     0.0920     0.2920    25.7250    71.9470 
   63.2500     2.5040    43.9200    -0.2540     0.1390     0.4750    25.7110    63.9960 
   63.3750     2.4960    49.0330    -0.0230     0.2500     1.0100    25.7430    54.6810 
   63.5000     2.3850    55.9700     0.4510     0.4880     1.9770    25.8850    44.3400 
   63.6250     2.2130    59.0940     1.3840     0.9710     3.0960    25.9680    33.5440 
   63.7500     2.0430    58.3740     2.6840     1.6900     4.2810    26.2940    22.9100 
   63.8750     1.9030    57.5230     4.0100     2.5620     5.0870    26.7610    12.8210 
   64.0000     1.7960    58.4640     4.9160     3.4240     5.0230    27.1510     3.7150 
   64.1250     1.7310    58.4530     5.1760     4.1040     4.2500    28.0000    -3.7280 
   64.2500     1.7060    59.3690     5.2140     4.6260     4.0040    29.5610    -9.3620 
   64.3750     1.7270    64.6150     5.3650     5.0760     4.1780    30.5760   -13.0870 
   64.5000     1.7890    72.4310     5.7350     5.5230     4.5960    29.2490   -15.3830 
   64.6250     1.8790    76.3530     6.2350     5.9560     5.4160    26.6550   -16.6860 
   64.7500     1.9750    77.0500     6.6720     6.3070     6.3800    24.8440   -17.4670 
   64.8750     2.0620    79.1850     6.9360     6.5060     6.9880    24.1310   -17.9330 
   65.0000     2.1300    82.5900     6.9920     6.5240     7.1760    23.9360   -18.2210 
   65.1250     2.1690    84.8070     6.8820     6.3690     6.9810    23.9260   -18.4930 
   65.2500     2.1860    87.8100     6.7480     6.1570     6.5070    23.9930   -18.8100 
   65.3750     2.1910    93.3430     6.6850     5.9730     6.1180    23.9040   -19.2330 
   65.5000     2.1960    98.8590     6.7450     5.8800     6.5490    23.6240   -19.7650 
   65.6250     2.2090    97.5140     6.9480     5.9220     7.4100    23.4330   -20.4230 
   65.7500     2.2230    90.6380     7.2240     6.0570     9.1240    23.2470   -21.1630 
   65.8750     2.2310    84.1430     7.5080     6.2440    10.9380    23.0160   -22.0040 
   66.0000     2.2280    81.1670     7.7480     6.4410    10.2420    22.8190   -23.0120 
   66.1250     2.2150    80.4790     7.9080     6.6180     9.3640    22.6500   -24.0910 
   66.2500     2.2010    81.1100     8.0150     6.7730     8.5490    22.4980   -25.1330 
   66.3750     2.1910    83.0650     8.0940     6.9130     8.4900    22.3710   -26.1110 
   66.5000     2.1820    82.4610     8.1580     7.0400     8.7250    22.2300   -26.9740 
   66.6250     2.1720    77.5080     8.1990     7.1380     8.4080    22.1860   -27.7260 
   66.7500     2.1620    73.0800     8.2020     7.1920     7.8770    22.2740   -28.4450 
   66.8750     2.1540    71.3830     8.1510     7.1840     7.6270    22.4170   -29.0670 
   67.0000     2.1490    72.1730     8.0430     7.1090     7.6650    22.3670   -29.5250 
   67.1250     2.1500    74.4520     7.8800     6.9700     7.7260    22.0490   -29.7660 
   67.2500     2.1560    76.4910     7.6920     6.8000     7.7730    21.7600   -29.8670 
   67.3750     2.1690    78.1350     7.5010     6.6270     7.9930    21.6150   -29.8570 
   67.5000     2.1870    81.0930     7.3270     6.4750     8.0310    21.5600   -29.7200 
   67.6250     2.2040    84.8410     7.1900     6.3700     7.7920    21.5140   -29.4710 
   67.7500     2.2130    84.5640     7.0960     6.3140     7.5820    21.4480   -29.1560 
   67.8750     2.2100    79.3440     7.0430     6.3010     7.5380    21.3720   -28.8030 
   68.0000     2.1970    74.4400     7.0270     6.3200     7.6230    21.3380   -28.4750 
   68.1250     2.1800    73.8190     7.0390     6.3570     7.6060    21.3340   -28.2720 
   68.2500     2.1690    75.7680     7.0640     6.3960     7.4950    21.3860   -28.1730 
   68.3750     2.1680    77.2150     7.0960     6.4310     7.2350    21.4250   -28.1420 
   68.5000     2.1740    78.1640     7.1310     6.4560     7.2260    21.3960   -28.1450 
   68.6250     2.1840    80.4500     7.1550     6.4580     7.1800    21.3740   -28.1520 
   68.7500     2.1940    81.1490     7.1400     6.4250     7.1770    21.3800   -28.1670 
   68.8750     2.2020    78.4130     7.0570     6.3410     7.1010    21.4270   -28.2100 
   69.0000     2.2070    74.8930     6.9040     6.2060     7.0230    21.5040   -28.2250 
   69.1250     2.2060    74.8120     6.7600     6.0640     7.0950    21.6190   -28.1390 
   69.2500     2.2010    76.4900     6.7860     6.0230     7.0370    21.7600   -27.9680 
   69.3750     2.1940    77.0480     7.1710     6.2320     6.8780    21.9800   -27.7560 
   69.5000     2.1940    76.9660     8.1070     6.8700     6.7600    22.3220   -27.5470 
   69.6250     2.2180    76.2550     9.8320     8.2170     7.2820    22.6860   -27.3760 
   69.7500     2.2640    73.6020    12.0600    10.1480    10.0620    23.1400   -27.2420 
   69.8750     2.3160    71.1210    14.1620    12.2520    19.0700    23.7590   -27.1720 
   70.0000     2.3470    71.5870    15.2130    13.7650    26.3390    24.4920   -27.1810 
   70.1250     2.3280    73.3100    14.3110    13.7130    31.9940    24.6470   -27.3090 
   70.2500     2.2680    74.3670    12.1520    12.3340    20.1970    24.2760   -27.5600 
   70.3750     2.1900    75.7760     9.6970    10.3020    10.6830    23.6470   -27.9150 
   70.5000     2.1190    76.5110     7.7250     8.3620     7.2720    23.2360   -28.3770 
   70.6250     2.0780    74.5530     6.6100     7.0230     6.7920    23.1320   -28.9040 
   70.7500     2.0620    72.1260     6.0700     6.2180     6.8330    23.3230   -29.4000 
   70.8750     2.0610    71.9520     5.8870     5.8150     6.9720    23.5320   -29.8040 
   71.0000     2.0670    76.1410     5.8800     5.6690     7.0250    23.5460   -30.1780 
   71.1250     2.0760    81.0210     5.9250     5.6660     6.9980    23.1990   -30.5180 
   71.2500     2.0830    81.6420     5.9580     5.7030     6.8870    22.8930   -30.7520 
   71.3750     2.0880    77.5350     5.9780     5.7490     6.7710    22.7850   -30.9030 
   71.5000     2.0890    73.6330     6.0010     5.7980     6.6520    22.8180   -30.9770 
   71.6250     2.0860    75.8210     6.0380     5.8560     6.6160    22.7580   -31.0190 
   71.7500     2.0830    79.8680     6.0890     5.9230     6.6350    22.6180   -31.0840 
   71.8750     2.0840    81.8050     6.1530     5.9960     6.6060    22.5420   -31.1450 
   72.0000     2.0890    80.7830     6.2310     6.0710     6.6390    22.5650   -31.0750 
   72.1250     2.0950    79.8090     6.3260     6.1500     6.8100    22.6310   -30.8480 
   72.2500     2.0960    80.6690     6.4180     6.2240     7.0130    22.7090   -30.5750 
   72.3750     2.0910    80.2880     6.4710     6.2710     6.9420    22.7950   -30.1960 
