~V
VERS. 2.00: Ver 2.00
~W
STRT.M 60.0000:
STOP.M 281.0000:
STEP.M 0.1250:
NULL. -999.2500:
UWI. F11154:
~C
DEPT.M :
DEN.GM/CC :
GR.API :
RML.OHMM :
RI. :
RXO.OHMM :
CALI.CM :
SP.MV :
~A
# ...
  240.0000     2.2670    56.4210    36.6120    33.2870    35.1450    23.8020   -11.0640 
  240.1250     2.2680    56.8330    34.4970    31.4240    32.0510    24.1440   -11.1280 
  240.2500     2.2730    56.9080    33.0850    30.0780    29.6340    24.2620   -11.2560 
  240.3750     2.2760    55.4770    32.5360    29.4450    29.1110    24.2320   -11.4530 
  240.5000     2.2780    54.3790    32.7200    29.4770    30.1820    24.1780   -11.7110 
  240.6250     2.2780    54.5570    33.3460    29.9940    31.9300    24.1470   -11.9520 
  240.7500     2.2820    54.8540    33.9280    30.5800    33.1650    24.0970   -12.1380 
  240.8750     2.2890    54.7660    34.1300    30.9200    33.2160    24.0280   -12.2920 
  241.0000     2.2940    55.0680    33.7050    30.7530    32.1670    23.9280   -12.4250 
  241.1250     2.2860    54.9670    32.3840    29.7810    30.8380    23.8870   -12.5290 
  241.2500     2.2740    54.3350    30.3250    28.0990    29.1460    24.0200   -12.6110 
  241.3750     2.2710    54.7290    27.7380    25.8800    27.5770    24.3230   -12.6570 
  241.5000     2.2810    56.9280    24.9710    23.4410    25.3600    24.4940   -12.6630 
  241.6250     2.2940    60.7530    22.5070    21.2120    22.3360    24.4400   -12.6380 
  241.7500     2.2960    64.8200    20.6250    19.4570    19.4980    24.3350   -12.5960 
  241.8750     2.2910    67.9910    19.4280    18.2780    18.0890    24.2710   -12.4980 
  242.0000     2.2870    70.3060    18.8530    17.6440    18.3570    24.2290   -12.3450 
  242.1250     2.2880    71.2400    18.7680    17.4780    18.2360    24.2050   -12.1620 
  242.2500     2.2890    71.3770    18.8670    17.5310    17.8750    24.1930   -11.9400 
  242.3750     2.2870    71.1040    18.9830    17.6490    17.5610    24.1720   -11.7080 
  242.5000     2.2800    69.8850    19.0050    17.7120    17.5720    24.1170   -11.4970 
  242.6250     2.2740    68.4740    18.8660    17.6290    17.6790    24.0600   -11.3310 
  242.7500     2.2730    68.7800    18.6070    17.4140    17.6110    24.0160   -11.1770 
  242.8750     2.2760    70.0720    18.2770    17.1040    17.3000    24.0140   -11.0640 
  243.0000     2.2820    70.6280    17.9440    16.7640    16.9050    24.0520   -10.9970 
  243.1250     2.2920    70.1240    17.7270    16.5010    16.3470    24.0850   -10.9550 
  243.2500     2.3040    69.3140    17.7060    16.3960    15.9650    24.1080   -10.9320 
  243.3750     2.3200    67.9090    17.9240    16.4990    16.2270    24.1140   -10.9230 
  243.5000     2.3370    66.0750    18.3780    16.8180    16.8310    24.1010   -10.9480 
  243.6250     2.3510    65.5950    19.0430    17.3480    17.3680    24.0950   -11.0220 
  243.7500     2.3580    65.6030    19.8140    17.9990    18.0850    24.0920   -11.1740 
  243.8750     2.3550    66.2240    20.6260    18.7130    18.9070    24.0820   -11.3610 
  244.0000     2.3400    69.6390    21.4200    19.4350    19.8490    24.0760   -11.5340 
  244.1250     2.3180    75.6920    22.1280    20.0910    20.9820    24.0560   -11.6400 
  244.2500     2.3010    82.1850    22.7060    20.6220    22.0760    24.0100   -11.7110 
  244.3750     2.2920    90.1330    23.0940    20.9670    22.8490    23.9570   -11.7490 
  244.5000     2.2890    98.1040    23.2500    21.0820    23.2140    23.9330   -11.7590 
  244.6250     2.2910   100.0360    23.1510    20.9540    22.9620    23.9230   -11.7380 
  244.7500     2.2910    95.4280    22.9460    20.7250    22.4640    23.8720   -11.6310 
  244.8750     2.2880    89.4450    22.8250    20.5570    21.8590    23.7440   -11.4560 
  245.0000     2.2840    87.2550    23.0320    20.6490    21.5440    23.4600   -11.2590 
  245.1250     2.2780    88.1390    23.9380    21.3070    22.2460    23.0920   -11.0730 
  245.2500     2.2730    88.6040    25.5900    22.6010    24.2390    22.9840   -10.8680 
  245.3750     2.2730    87.1320    27.9260    24.5290    26.9840    23.3980   -10.6550 
  245.5000     2.2800    82.2690    30.6360    26.8840    30.1300    23.9480   -10.4170 
  245.6250     2.3010    74.3140    33.0120    29.1160    32.5610    24.1790   -10.1620 
  245.7500     2.3400    67.9530    34.3120    30.5300    32.8250    24.1510    -9.9410 
  245.8750     2.3970    67.0700    34.0490    30.6200    31.0910    23.9630    -9.7560 
  246.0000     2.4550    71.1730    32.2230    29.2810    28.2380    23.7680    -9.5990 
  246.1250     2.4730    74.9940    29.4170    26.9280    25.0460    23.7660    -9.4650 
  246.2500     2.4540    75.8640    26.8370    24.6220    21.7460    23.8700    -9.4070 
  246.3750     2.4380    74.8990    25.2170    23.0180    19.5050    23.9640    -9.4310 
  246.5000     2.4490    73.8370    24.8880    22.4410    19.5160    23.9570    -9.5260 
  246.6250     2.4560    72.8320    25.9770    23.0810    22.1010    23.9040    -9.7220 
  246.7500     2.4230    72.5730    27.8970    24.5330    25.8010    23.8820    -9.9990 
  246.8750     2.3720    72.9270    30.1390    26.4230    28.9010    23.9410   -10.3340 
  247.0000     2.3520    72.2020    32.1500    28.2890    31.2110    24.0200   -10.6790 
  247.1250     2.3690    68.8550    33.3000    29.5590    32.7780    23.9630   -11.0190 
  247.2500     2.3810    65.2720    33.4940    30.0480    33.2070    23.7840   -11.3350 
  247.3750     2.3710    62.5740    32.8540    29.7890    31.8750    23.6290   -11.6280 
  247.5000     2.3500    60.1390    31.6910    28.9960    30.4210    23.7270   -11.9120 
  247.6250     2.3320    58.6460    30.3700    27.9340    29.3010    23.9380   -12.1650 
  247.7500     2.3170    59.1100    29.1840    26.8900    28.9550    24.0280   -12.3670 
  247.8750     2.3030    60.8150    28.2630    26.0150    28.6080    24.1100   -12.5130 
  248.0000     2.2910    64.1670    27.6850    25.4240    27.9390    24.2370   -12.6690 
  248.1250     2.2820    70.0350    27.5960    25.2720    27.0480    24.3700   -12.8470 
  248.2500     2.2750    74.6370    27.9740    25.5430    26.7460    24.4500   -13.0170 
  248.3750     2.2710    74.3580    28.7490    26.1740    27.8750    24.5100   -13.1130 
  248.5000     2.2660    70.8290    29.6610    26.9510    29.5050    24.5460   -13.1570 
  248.6250     2.2620    69.4060    30.1220    27.3870    30.8550    24.5640   -13.1370 
  248.7500     2.2620    70.7860    29.6980    27.0950    31.6150    24.5740   -13.0660 
  248.8750     2.2690    71.7220    28.2990    25.9690    31.2890    24.5770   -12.9620 
  249.0000     2.2800    69.9710    26.3110    24.2960    29.3000    24.5650   -12.7970 
  249.1250     2.2910    67.2710    24.5880    22.7480    25.7770    24.5610   -12.5900 
  249.2500     2.2910    67.4770    23.8090    21.9010    22.7920    24.5560   -12.4100 
  249.3750     2.2780    70.0990    24.2140    21.9960    22.8770    24.5130   -12.3300 
  249.5000     2.2570    71.3640    25.6810    23.0250    26.4200    24.3570   -12.3090 
  249.6250     2.2470    68.9830    27.9590    24.9100    30.2630    24.0880   -12.3070 
  249.7500     2.2580    65.6310    30.5900    27.2770    32.6300    24.0230   -12.3330 
  249.8750     2.2940    63.4140    33.3750    29.9130    33.6150    24.2690   -12.3820 
  250.0000     2.3540    62.7850    36.0650    32.5360    34.5230    24.5320   -12.4680 
  250.1250     2.4390    63.2540    37.9180    34.4640    38.7590    24.5490   -12.5480 
  250.2500     2.5300    64.1920    38.0940    34.9570    46.4920    24.4190   -12.6170 
  250.3750     2.6010    63.8650    35.8820    33.3560    56.2690    24.1990   -12.6950 
  250.5000     2.6220    61.1490    31.3430    29.6100    64.9850    23.9910   -12.7790 
  250.6250     2.5920    58.4110    25.7750    24.7330    57.3030    23.9300   -12.8780 
  250.7500     2.5430    59.5850    21.1440    20.4860    40.1320    23.9660   -12.9830 
  250.8750     2.4810    63.5310    18.1740    17.5430    26.2010    24.0410   -13.0840 
  251.0000     2.4200    64.4190    16.6600    15.7940    21.3960    24.0430   -13.1450 
  251.1250     2.3430    58.1990    15.9180    14.7570    24.9480    23.8060   -13.2210 
