~V
VERS. 2.00: Ver 2.00
~W
STRT.M 47.0000:
STOP.M 248.0000:
STEP.M 0.1250:
NULL. -999.2500:
UWI. F11134:
~C
DEPT.M :
GR.API :
RML.OHMM :
RI. :
RXO.OHMM :
CALI.CM :
SP.MV :
DEN.GM/CC :
~A
# ...
  103.2500    55.1400     8.2590     6.5240     7.6280    24.2670   -28.2660     2.2020 
  103.3750    53.2230     8.6030     6.7560     8.0210    24.1450   -28.3640     2.2000 
  103.5000    53.3160     8.9370     7.0190     8.1760    24.0410   -28.6060     2.2140 
  103.6250    53.5210     9.1750     7.2510     8.2800    23.9600   -28.9250     2.2230 
  103.7500    52.5550     9.3170     7.4330     8.4010    23.8980   -29.2950     2.2180 
  103.8750    51.4480     9.4350     7.5920     8.7190    23.8710   -29.6510     2.2030 
  104.0000    51.4210     9.6110     7.7660     9.2790    23.8800   -29.9240     2.1880 
  104.1250    52.6080     9.8700     7.9740     9.7150    23.9040   -30.1180     2.1830 
  104.2500    54.9330    10.1840     8.2030     9.9110    23.9210   -30.2570     2.1910 
  104.3750    56.8690    10.4960     8.4250    10.0840    23.9250   -30.3140     2.2060 
  104.5000    56.8830    10.7570     8.6140    10.1610    23.9250   -30.2870     2.2190 
  104.6250    55.6320    10.9550     8.7590    10.1980    23.9250   -30.2040     2.2330 
  104.7500    54.9250    11.1090     8.8710    10.3630    23.9240   -30.0720     2.2540 
  104.8750    54.5080    11.2380     8.9600    10.4380    23.9220   -29.8620     2.2750 
  105.0000    52.9360    11.3280     9.0210    10.4890    23.9230   -29.5540     2.2840 
  105.1250    50.7820    11.3280     9.0210    11.0290    23.9490   -29.1740     2.2760 
  105.2500    48.7480    11.1910     8.9270    12.8860    24.0280   -28.7690     2.2640 
  105.3750    47.7510    10.9680     8.7580    15.9960    24.1300   -28.3870     2.2650 
  105.5000    49.2810    10.8450     8.6330    16.8460    24.1940   -28.0420     2.2790 
  105.6250    52.7410    11.0170     8.6940    14.3080    24.2140   -27.7640     2.3000 
  105.7500    55.5680    11.5620     9.0170    11.8490    24.2180   -27.5850     2.3210 
  105.8750    55.7560    12.3940     9.5810    12.8420    24.2200   -27.5470     2.3460 
  106.0000    53.9160    13.1970    10.1950    17.2720    24.2190   -27.6460     2.3690 
  106.1250    51.4050    13.5980    10.5940    20.0380    24.2040   -27.8500     2.3640 
  106.2500    49.2480    13.3960    10.5950    17.0140    24.1670   -28.1320     2.3200 
  106.3750    48.9850    12.6890    10.1980    12.7890    24.1200   -28.4580     2.2650 
  106.5000    50.0840    11.8710     9.6350    10.8400    24.0780   -28.8050     2.2350 
  106.6250    51.3720    11.2860     9.1530    10.2760    24.0390   -29.1520     2.2330 
  106.7500    53.0950    11.0500     8.8710    10.0660    23.9990   -29.4740     2.2310 
  106.8750    54.0830    11.0710     8.7840     9.9000    23.9490   -29.7590     2.2090 
  107.0000    53.0180    11.1040     8.7550     9.8020    23.8950   -30.0130     2.1750 
  107.1250    51.1490    10.9540     8.6530     9.7200    23.8610   -30.2490     2.1450 
  107.2500    51.3070    10.5950     8.4410     9.4550    23.8500   -30.4740     2.1370 
  107.3750    54.3640    10.1360     8.1680     8.9290    23.8480   -30.6990     2.1580 
  107.5000    57.6810     9.7400     7.9280     8.4860    23.8490   -30.9270     2.1930 
  107.6250    59.0970     9.5160     7.7890     8.5110    23.8500   -31.1510     2.2170 
  107.7500    58.2530     9.4780     7.7670     8.7980    23.8500   -31.3780     2.2190 
  107.8750    56.5130     9.5760     7.8330     8.9740    23.8500   -31.6330     2.2040 
  108.0000    54.8070     9.7090     7.9260     8.9890    23.8500   -31.9120     2.1880 
  108.1250    53.1790     9.7970     7.9970     8.9300    23.8500   -32.1620     2.1850 
  108.2500    52.1630     9.8190     8.0370     8.8540    23.8450   -32.3760     2.2000 
  108.3750    51.7910     9.8240     8.0740     8.8810    23.8280   -32.5920     2.2130 
  108.5000    52.0120     9.8780     8.1390     9.0540    23.8010   -32.7910     2.2010 
  108.6250    53.1230    10.0000     8.2400     9.1870    23.7820   -32.9320     2.1590 
  108.7500    54.7070    10.1570     8.3590     9.1960    23.7760   -32.9990     2.1090 
  108.8750    54.4150    10.2780     8.4590     9.2070    23.7830   -32.9640     2.0830 
  109.0000    51.1030    10.3120     8.5130     9.2430    23.8030   -32.8230     2.0950 
  109.1250    46.9520    10.2550     8.5170     9.2390    23.8280   -32.5940     2.1330 
  109.2500    44.9000    10.1380     8.4790     9.1550    23.8400   -32.2640     2.1770 
  109.3750    46.6920    10.0080     8.4220     9.0190    23.8210   -31.7740     2.2050 
  109.5000    50.8230     9.9070     8.3660     8.8960    23.7750   -31.1330     2.2070 
  109.6250    53.2450     9.8660     8.3330     8.8090    23.7320   -30.3760     2.1830 
  109.7500    52.2250     9.9030     8.3400     8.7270    23.7200   -29.4960     2.1520 
  109.8750    50.4620    10.0110     8.3920     8.5830    23.7470   -28.4620     2.1400 
  110.0000    49.9790    10.1060     8.4420     8.4010    23.8030   -27.2830     2.1560 
  110.1250    50.6200    10.0540     8.3960     8.2590    23.8620   -25.9800     2.1920 
  110.2500    53.2110     9.7250     8.1520     8.1810    23.9270   -24.5800     2.2370 
  110.3750    60.1350     9.0380     7.6300     7.9980    24.0120   -23.1540     2.2780 
  110.5000    70.8300     8.1040     6.8960     7.3300    24.1230   -21.7630     2.3050 
  110.6250    81.8540     7.1530     6.1160     6.1280    24.2510   -20.4430     2.3200 
  110.7500    90.2520     6.3900     5.4500     5.1000    24.3600   -19.2550     2.3280 
  110.8750    93.2860     5.9740     5.0350     4.6460    24.4080   -18.2870     2.3280 
  111.0000    91.2740     5.8990     4.8920     4.6130    24.3860   -17.5790     2.3180 
  111.1250    87.3820     6.0670     4.9710     4.9180    24.2950   -17.1110     2.3030 
  111.2500    84.0200     6.3620     5.1960     5.5260    24.1860   -16.8320     2.2870 
  111.3750    81.5590     6.6360     5.4650     5.9200    24.1900   -16.7310     2.2800 
  111.5000    79.1140     6.7890     5.6850     5.8360    24.3640   -16.7840     2.2840 
  111.6250    76.2980     6.8140     5.8190     5.7950    24.6200   -16.9300     2.2940 
  111.7500    74.7590     6.7650     5.8760     6.0060    24.8070   -17.1010     2.2960 
  111.8750    75.7920     6.7240     5.8950     6.0430    24.8890   -17.2690     2.2830 
  112.0000    77.0420     6.7660     5.9330     5.9690    24.9340   -17.4330     2.2620 
  112.1250    76.6390     6.9260     6.0340     5.9690    24.9960   -17.5980     2.2470 
  112.2500    75.9490     7.1960     6.2100     5.9250    25.0980   -17.7730     2.2410 
  112.3750    76.2950     7.5150     6.4320     6.0530    25.1680   -17.9510     2.2480 
  112.5000    76.3310     7.7720     6.6300     6.5900    25.0970   -18.1060     2.2630 
  112.6250    76.1330     7.8510     6.7220     7.4290    24.8590   -18.2050     2.2780 
  112.7500    77.8180     7.6970     6.6580     7.5080    24.6060   -18.2350     2.2920 
  112.8750    80.7640     7.3550     6.4450     6.9060    24.5780   -18.2240     2.3090 
  113.0000    82.4840     6.9780     6.1770     6.0780    24.7600   -18.1980     2.3240 
  113.1250    82.4850     6.7160     5.9600     5.5240    24.9740   -18.1640     2.3260 
  113.2500    80.9160     6.6450     5.8590     5.3990    25.1020   -18.1490     2.3160 
  113.3750    78.0790     6.7670     5.8990     5.6540    25.1340   -18.1780     2.3060 
  113.5000    76.3480     6.9840     6.0260     6.0820    25.1170   -18.2830     2.3050 
  113.6250    77.4550     7.1630     6.1480     6.4350    25.0980   -18.5140     2.3020 
  113.7500    79.1330     7.2120     6.1960     6.4460    25.0900   -18.8830     2.2880 
  113.8750    77.7660     7.1290     6.1550     6.2140    25.0860   -19.3670     2.2630 
  114.0000    74.4200     7.0480     6.1030     6.0600    25.0700   -19.9620     2.2350 
  114.1250    72.8620     7.1540     6.1630     6.0990    25.0230   -20.6950     2.2120 
  114.2500    73.8450     7.5980     6.4420     6.3800    24.9210   -21.5530     2.1930 
  114.3750    72.7300     8.5180     7.0510     7.2480    24.7570   -22.4700     2.1820 
