~V
VERS. 2.00: Ver 2.00
~W
STRT.M 58.0000:
STOP.M 208.0000:
STEP.M 0.1250:
NULL. -999.2500:
UWI. F11103:
~C
DEPT.M :
DEN.GM/CC :
SP.MV :
GR.API :
RML.OHMM :
RI. :
RXO.OHMM :
CALI.CM :
~A
# ...
  125.5000     2.5270   -18.2120    45.7300    30.7020    28.3730    32.6090    25.3190 
  125.6250     2.5270   -18.2400    43.6510    31.1990    28.6660    33.1560    25.2780 
  125.7500     2.5260   -18.2730    44.1120    31.9820    29.2450    31.0840    25.2850 
  125.8750     2.5260   -18.3080    47.1840    32.8960    30.0490    32.3340    25.3400 
  126.0000     2.5260   -18.3500    49.6610    33.6350    30.8750    39.2640    25.3940 
  126.1250     2.5250   -18.4280    48.0490    33.9500    31.4580    44.0150    25.4020 
  126.2500     2.5220   -18.5340    45.0320    33.6620    31.5670    43.1240    25.3970 
  126.3750     2.5150   -18.6650    44.7640    32.6900    31.0310    40.3780    25.4480 
  126.5000     2.5030   -18.8190    46.1020    31.0830    29.7780    35.8550    25.5680 
  126.6250     2.4860   -19.0010    46.2270    29.2550    28.1810    33.8860    25.5460 
  126.7500     2.4670   -19.2020    45.5840    27.5000    26.5330    32.7870    25.4240 
  126.8750     2.4470   -19.3990    46.5320    26.0020    25.0480    32.2350    25.3030 
  127.0000     2.4300   -19.5800    48.2690    24.8340    23.8280    30.1880    25.0480 
  127.1250     2.4180   -19.6700    48.8260    23.8610    22.7740    29.0220    25.3130 
  127.2500     2.4110   -19.7460    50.0050    23.0360    21.8490    27.4640    25.7170 
  127.3750     2.4110   -19.8730    54.1830    22.4250    21.1110    23.6370    25.7650 
  127.5000     2.4160   -19.9590    59.1440    22.2700    20.7660    20.5400    25.6810 
  127.6250     2.4250   -20.0180    60.0960    22.6800    20.9080    18.8250    25.6920 
  127.7500     2.4360   -20.0310    57.4480    23.6880    21.5960    18.8460    25.7060 
  127.8750     2.4480   -20.0160    54.9380    25.1360    22.7630    22.1420    25.6960 
  128.0000     2.4570   -19.9690    54.4830    26.6200    24.1450    26.7920    25.8260 
  128.1250     2.4620   -19.9200    55.5450    27.6270    25.2650    29.8530    25.9180 
  128.2500     2.4640   -19.8330    58.6890    27.8180    25.7390    29.5140    25.9640 
  128.3750     2.4620   -19.7310    61.9010    27.1230    25.3790    27.2900    25.9860 
  128.5000     2.4570   -19.5780    62.3040    25.7890    24.2690    24.6480    26.0700 
  128.6250     2.4550   -19.4000    60.7780    24.4420    22.9800    23.8620    26.1230 
  128.7500     2.4570   -19.2130    59.7940    23.4560    21.8960    22.5710    26.1350 
  128.8750     2.4650   -19.0260    59.1950    23.0380    21.2590    19.2770    26.1440 
  129.0000     2.4810   -18.8100    57.0150    23.3440    21.2630    16.6060    26.1860 
  129.1250     2.5000   -18.6120    54.2120    24.1510    21.7690    16.2820    26.1570 
  129.2500     2.5170   -18.4370    52.5500    25.2060    22.6010    18.7170    26.0140 
  129.3750     2.5300   -18.2830    50.5060    26.1550    23.4830    22.0360    25.8380 
  129.5000     2.5340   -18.2140    46.2530    26.4710    23.9700    23.1510    25.8030 
  129.6250     2.5310   -18.1960    44.2590    25.9930    23.8260    23.3190    25.7760 
  129.7500     2.5220   -18.2060    46.6790    24.8260    23.0550    23.4880    25.7560 
  129.8750     2.5110   -18.2430    51.1250    23.3300    21.9130    22.6660    25.7640 
  130.0000     2.5020   -18.3230    54.4990    21.9650    20.7680    20.6990    25.7060 
  130.1250     2.4960   -18.3900    56.5260    20.9810    19.8490    19.0290    25.6330 
  130.2500     2.4950   -18.4580    58.4630    20.4660    19.2310    18.6920    25.5900 
  130.3750     2.4970   -18.5320    59.4110    20.4170    18.9410    19.6280    25.5820 
  130.5000     2.5030   -18.5710    57.7910    20.7850    19.0050    20.6550    25.5820 
  130.6250     2.5080   -18.5880    54.3780    21.3230    19.2870    19.6280    25.5820 
  130.7500     2.5130   -18.5870    51.1760    21.8420    19.6540    18.2480    25.5820 
  130.8750     2.5170   -18.5590    49.5770    22.1600    19.9360    19.0520    25.5800 
  131.0000     2.5190   -18.5320    47.3120    22.0580    19.9040    21.1190    25.5710 
  131.1250     2.5200   -18.5110    45.1590    21.5690    19.5370    21.5130    25.5650 
  131.2500     2.5210   -18.5040    45.5840    20.8390    18.9410    19.5440    25.5790 
  131.3750     2.5220   -18.4690    48.8320    20.1450    18.3310    17.8330    25.5860 
  131.5000     2.5220   -18.4420    51.6170    19.9060    18.0260    16.8670    25.6180 
  131.6250     2.5230   -18.4090    52.0610    20.2630    18.1720    17.2980    25.7210 
  131.7500     2.5240   -18.3860    51.0870    21.1440    18.7640    19.2930    25.8060 
  131.8750     2.5250   -18.3680    52.4700    22.2510    19.6160    21.5650    25.9020 
  132.0000     2.5280   -18.3390    57.0090    23.0710    20.3380    23.5070    26.0320 
  132.1250     2.5300   -18.2930    59.2640    23.3090    20.6230    24.1890    26.0630 
  132.2500     2.5330   -18.2460    57.1270    22.9850    20.4250    23.0180    26.1280 
  132.3750     2.5340   -18.2240    54.3400    22.3810    19.9320    20.8450    26.2230 
  132.5000     2.5340   -18.2170    55.2110    21.8840    19.4600    19.6580    26.3240 
  132.6250     2.5320   -18.2250    56.2500    21.6610    19.1940    19.5190    26.4180 
  132.7500     2.5300   -18.2420    55.5800    21.6480    19.1240    19.7580    26.4530 
  132.8750     2.5270   -18.2870    54.6650    21.6580    19.1210    20.4070    26.5090 
  133.0000     2.5230   -18.3810    52.4840    21.4720    19.0030    20.5780    26.5390 
  133.1250     2.5160   -18.5050    49.3950    21.1030    18.7340    19.7680    26.6470 
  133.2500     2.5080   -18.6560    48.4590    20.6790    18.3860    19.3710    26.8790 
  133.3750     2.4980   -18.7960    51.8850    20.3590    18.0830    18.5230    27.0580 
  133.5000     2.4870   -18.9170    56.6000    20.2700    17.9450    17.6350    27.0330 
  133.6250     2.4770   -19.0140    57.6320    20.3390    17.9490    18.4640    26.9470 
  133.7500     2.4690   -19.1150    54.5310    20.4600    18.0220    19.6540    26.9460 
  133.8750     2.4620   -19.1760    51.1580    20.5240    18.0740    20.1610    26.9840 
  134.0000     2.4570   -19.2110    53.5100    20.4670    18.0370    19.5650    26.9920 
  134.1250     2.4530   -19.2170    57.7060    20.3410    17.9340    18.7810    26.9890 
  134.2500     2.4500   -19.1870    59.0790    20.2050    17.8070    18.7350    26.9570 
  134.3750     2.4480   -19.1540    57.4710    20.0830    17.6820    19.7800    26.8110 
  134.5000     2.4480   -19.0950    56.3950    19.9170    17.5190    19.7550    26.4640 
  134.6250     2.4490   -19.0520    55.6260    19.6540    17.2740    18.9000    26.2560 
  134.7500     2.4510   -18.9800    53.8290    19.3280    16.9590    18.7280    26.2460 
  134.8750     2.4530   -18.8880    52.4450    19.0800    16.6720    18.8710    26.2800 
  135.0000     2.4550   -18.7940    55.1040    19.1840    16.6180    18.2280    26.2870 
  135.1250     2.4580   -18.6940    60.1900    19.7200    16.8930    17.3550    26.2880 
  135.2500     2.4610   -18.5940    62.5020    20.6370    17.4950    18.2410    26.2940 
  135.3750     2.4640   -18.5300    60.0250    21.7520    18.3100    20.7950    26.3180 
  135.5000     2.4680   -18.4910    56.1100    22.7530    19.1170    23.1580    26.4650 
  135.6250     2.4710   -18.4580    54.2380    23.3790    19.6760    25.2720    26.5470 
  135.7500     2.4710   -18.4430    52.4220    23.5160    19.8540    24.1390    26.5860 
  135.8750     2.4690   -18.4770    49.5560    23.2320    19.6620    20.6200    26.5660 
  136.0000     2.4660   -18.4720    46.6740    22.7120    19.2170    19.9380    26.5930 
  136.1250     2.4640   -18.4630    45.4000    22.1790    18.7300    20.3990    26.6010 
  136.2500     2.4640   -18.4360    48.8060    21.7120    18.3060    20.2570    26.6330 
  136.3750     2.4660   -18.3510    56.2260    21.3340    17.9910    19.5550    26.6050 
  136.5000     2.4680   -18.2300    60.5500    21.0720    17.7990    19.5390    26.6050 
  136.6250     2.4700   -18.0470    59.5680    20.9580    17.7070    19.1130    26.6020 
