~V
VERS. 2.00: Ver 2.00
~W
STRT.M 62.0000:
STOP.M 217.0000:
STEP.M 0.1250:
NULL. -999.2500:
UWI. F11126:
~C
DEPT.M :
DEN.GM/CC :
SP.MV :
GR.API :
RML.OHMM :
RI. :
RXO.OHMM :
CALI.CM :
~A
# ...
  140.7500     2.2780    -7.4040    87.3390     5.2310     4.3120     4.6000    26.6780 
  140.8750     2.2730    -7.2750    86.5860     5.2220     4.3170     4.6580    26.7610 
  141.0000     2.2750    -7.0850    85.1730     5.1070     4.2400     4.6240    26.8900 
  141.1250     2.2790    -6.8760    85.9090     4.9350     4.1030     4.5420    26.9430 
  141.2500     2.2780    -6.6490    88.0900     4.7660     3.9430     4.4310    26.9450 
  141.3750     2.2720    -6.4460    88.3180     4.6640     3.8110     4.3020    26.9150 
  141.5000     2.2670    -6.3340    85.3680     4.6970     3.7740     4.1510    26.8930 
  141.6250     2.2650    -6.3550    83.3490     4.8410     3.8430     4.1770    26.8850 
  141.7500     2.2620    -6.4680    83.3440     5.0520     3.9980     4.4690    26.8800 
  141.8750     2.2580    -6.6120    83.6380     5.2720     4.1950     4.8940    26.8640 
  142.0000     2.2590    -6.7880    85.5990     5.4320     4.3600     5.2440    26.8110 
  142.1250     2.2660    -6.9330    89.2980     5.5100     4.4450     5.2360    26.7470 
  142.2500     2.2750    -7.0420    91.7580     5.5130     4.4390     4.9210    26.7060 
  142.3750     2.2790    -7.1320    90.8190     5.4730     4.3630     4.5610    26.7140 
  142.5000     2.2800    -7.1940    90.2670     5.4260     4.2540     4.4680    26.6930 
  142.6250     2.2790    -7.1880    93.2720     5.3840     4.1490     4.5470    26.5860 
  142.7500     2.2780    -7.1000    97.2950     5.3480     4.0670     4.6480    26.3930 
  142.8750     2.2780    -6.9500    98.5900     5.3440     4.0290     4.6400    26.2020 
  143.0000     2.2820    -6.7830    96.2990     5.4570     4.0890     4.5540    26.1060 
  143.1250     2.2900    -6.6610    93.0400     5.7470     4.2800     4.6480    26.0160 
  143.2500     2.3050    -6.5810    89.4530     6.2220     4.6210     5.0790    25.9420 
  143.3750     2.3300    -6.5300    85.7900     6.8030     5.0770     5.9550    25.9390 
  143.5000     2.3570    -6.5540    82.9120     7.3090     5.5490     7.1080    25.9430 
  143.6250     2.3650    -6.6500    80.7120     7.5860     5.9060     8.1630    25.9080 
  143.7500     2.3470    -6.7470    79.0910     7.5750     6.0650     8.6430    25.8430 
  143.8750     2.3230    -6.7820    78.8120     7.3220     6.0070     7.8760    25.7880 
  144.0000     2.3220    -6.8140    81.1290     6.9550     5.7790     6.5250    25.7590 
  144.1250     2.3340    -6.7920    84.1870     6.6260     5.5130     5.8750    25.7050 
  144.2500     2.3440    -6.7140    86.3400     6.3790     5.2770     5.7900    25.6420 
  144.3750     2.3470    -6.5570    87.4910     6.1950     5.0900     5.6880    25.5950 
  144.5000     2.3480    -6.3090    87.8610     6.0200     4.9380     5.5250    25.5450 
  144.6250     2.3470    -5.9840    88.2610     5.8170     4.7810     5.2950    25.5160 
  144.7500     2.3420    -5.6820    89.7630     5.5880     4.6040     5.0300    25.4940 
  144.8750     2.3320    -5.4970    93.0000     5.3630     4.4150     4.6960    25.5020 
  145.0000     2.3200    -5.4020    94.8170     5.1830     4.2430     4.4250    25.5360 
  145.1250     2.3110    -5.4120    93.6860     5.0610     4.1080     4.2560    25.5190 
  145.2500     2.3070    -5.4990    91.7270     5.0000     4.0250     4.2080    25.4370 
  145.3750     2.3090    -5.6750    91.5410     4.9990     3.9990     4.2570    25.3130 
  145.5000     2.3120    -5.9240    92.2310     5.0720     4.0400     4.3480    25.3570 
  145.6250     2.3160    -6.2220    91.0500     5.2080     4.1350     4.4660    25.4250 
  145.7500     2.3190    -6.4880    89.3580     5.4020     4.2780     4.6470    25.4680 
  145.8750     2.3220    -6.7080    87.2670     5.6500     4.4660     4.9210    25.4840 
  146.0000     2.3240    -6.9200    83.8030     5.9760     4.7210     5.3010    25.4970 
  146.1250     2.3240    -7.0530    81.1750     6.3940     5.0620     5.7620    25.5060 
  146.2500     2.3200    -7.1360    81.1560     6.9220     5.5080     6.2470    25.5080 
  146.3750     2.3120    -7.2030    82.5470     7.5420     6.0580     6.7040    25.5160 
  146.5000     2.3030    -7.2310    80.9070     8.1680     6.6640     7.4190    25.5340 
  146.6250     2.2930    -7.2710    77.2650     8.6480     7.2000     8.4500    25.5320 
  146.7500     2.2830    -7.3660    75.0990     8.8460     7.5350     9.2030    25.5110 
  146.8750     2.2750    -7.4610    76.0780     8.6890     7.5710     9.0350    25.5060 
  147.0000     2.2770    -7.4930    78.4300     8.1790     7.2510     8.3360    25.5400 
  147.1250     2.2890    -7.5290    78.9030     7.5240     6.7370     7.5920    25.5690 
  147.2500     2.3040    -7.5550    79.1920     6.8820     6.1680     6.7060    25.5280 
  147.3750     2.3140    -7.5290    83.1070     6.3640     5.6620     5.9210    25.4420 
  147.5000     2.3130    -7.5110    88.7460     6.0500     5.3050     5.6880    25.3680 
  147.6250     2.3020    -7.4840    91.3810     5.9120     5.0870     5.5640    25.3110 
  147.7500     2.2890    -7.4750    89.8280     5.9440     5.0030     5.4040    25.3060 
  147.8750     2.2830    -7.5240    86.7340     6.1410     5.0560     5.3710    25.3570 
  148.0000     2.2880    -7.6890    84.1290     6.5430     5.2880     5.5300    25.4330 
  148.1250     2.2940    -7.9520    81.3010     7.1450     5.7060     5.8770    25.4910 
  148.2500     2.2930    -8.2740    78.6930     7.9500     6.3310     6.5770    25.5030 
  148.3750     2.2820    -8.6060    77.7650     8.9160     7.1500     7.7120    25.4960 
  148.5000     2.2680    -8.9190    78.7600     9.9250     8.0900     9.2420    25.5130 
  148.6250     2.2550    -9.2410    78.6240    10.8000     8.9810    10.6910    25.5840 
  148.7500     2.2480    -9.5590    76.7520    11.4110     9.6770    11.5900    25.7110 
  148.8750     2.2470    -9.8460    75.0170    11.7080    10.0810    11.5590    25.8510 
  149.0000     2.2560    -9.9930    73.4800    11.7350    10.1740    10.7590    25.9280 
  149.1250     2.2710   -10.0240    71.7960    11.6990    10.1360    10.2560    25.9490 
  149.2500     2.2900   -10.0000    70.8390    11.7330    10.1010    10.1750    26.0270 
  149.3750     2.3100    -9.9510    70.4120    11.8860    10.1440    10.3930    26.1600 
  149.5000     2.3210    -9.8540    69.2780    12.1290    10.2790    10.8330    26.2930 
  149.6250     2.3190    -9.6860    68.5330    12.3740    10.4550    11.2670    26.3830 
  149.7500     2.3070    -9.4460    69.7380    12.5850    10.6470    11.4170    26.4390 
  149.8750     2.2950    -9.1650    71.6270    12.7640    10.8490    11.3710    26.4780 
  150.0000     2.2910    -8.8800    72.0120    12.9270    11.0660    11.4260    26.5440 
  150.1250     2.2920    -8.5770    72.5570    13.0660    11.2810    11.7010    26.6540 
  150.2500     2.2940    -8.2460    73.7920    13.1210    11.4490    12.0800    26.7200 
  150.3750     2.2950    -7.9820    74.7830    13.0240    11.5100    12.3130    26.7270 
  150.5000     2.2920    -7.8220    74.0650    12.7110    11.3840    12.2210    26.6980 
  150.6250     2.2840    -7.6840    73.9580    12.2480    11.0900    11.9570    26.6750 
  150.7500     2.2760    -7.5540    75.8850    11.7230    10.6680    11.4870    26.6470 
  150.8750     2.2670    -7.4650    79.0900    11.2400    10.1900    10.8940    26.6230 
  151.0000     2.2590    -7.4420    80.9560    10.9010     9.7470    10.2970    26.5770 
  151.1250     2.2540    -7.4840    81.8470    10.6990     9.3860     9.6950    26.5100 
  151.2500     2.2530    -7.5890    83.2900    10.5950     9.1240     9.1760    26.4690 
  151.3750     2.2540    -7.6800    85.3950    10.5400     8.9600     8.8510    26.4550 
  151.5000     2.2520    -7.7440    85.8880    10.5100     8.9040     8.8720    26.4430 
  151.6250     2.2510    -7.8170    83.6580    10.5230     8.9440     8.8430    26.4200 
  151.7500     2.2540    -7.9140    79.7710    10.6280     9.0940     8.7080    26.4090 
  151.8750     2.2620    -8.0100    77.1280    10.8590     9.3630     8.6460    26.4100 
