~V
VERS. 2.00: Ver 2.00
~W
STRT.M 51.0000:
STOP.M 277.0000:
STEP.M 0.1250:
NULL. -999.2500:
UWI. F11147:
~C
DEPT.M :
DEN.GM/CC :
GR.API :
RML.OHMM :
RI. :
RXO.OHMM :
CALI.CM :
SP.MV :
~A
# ...
  163.5000     2.2290    77.7540    31.1270    30.0180    30.1130    24.9450   -19.1100 
  163.6250     2.2290    74.7400    31.5980    30.9670    28.2510    24.9450   -18.9670 
  163.7500     2.2290    68.1570    30.5160    30.6200    27.2730    24.9480   -18.7740 
  163.8750     2.2300    62.7860    27.0280    27.8640    27.5160    24.9450   -18.5490 
  164.0000     2.2350    62.8620    22.5170    23.3960    25.8690    24.9020   -18.3010 
  164.1250     2.2480    68.1830    17.7190    18.4370    19.9290    24.7460   -18.0680 
  164.2500     2.2680    76.2350    13.3520    14.1450    12.7760    24.4120   -17.8770 
  164.3750     2.2930    82.3140    10.5480    11.2480     9.0150    24.0310   -17.7610 
  164.5000     2.3110    84.5900     8.9200     9.4560     7.7100    23.9610   -17.7340 
  164.6250     2.3190    84.6220     8.1470     8.5100     7.4690    24.1380   -17.8210 
  164.7500     2.3160    86.1240     7.9220     8.1530     7.6200    24.3560   -18.0300 
  164.8750     2.3060    92.0550     8.0350     8.2110     8.3720    24.4910   -18.3810 
  165.0000     2.2990    95.5490     8.3340     8.4890     8.4390    24.4910   -18.8690 
  165.1250     2.3000    93.5260     8.8840     8.9940     7.3410    24.3810   -19.4810 
  165.2500     2.3070    89.2740     9.8260     9.8230     7.1710    24.1650   -20.1960 
  165.3750     2.3070    86.3780    11.3010    11.1360     9.4110    23.9180   -21.0070 
  165.5000     2.2990    84.3550    13.0480    12.7970    12.6020    23.8080   -21.8780 
  165.6250     2.2890    82.3850    14.6740    14.4890    14.5870    23.9610   -22.8180 
  165.7500     2.2830    80.8580    15.7740    15.7350    15.1060    24.2710   -23.8100 
  165.8750     2.2850    78.3110    16.2330    16.1630    16.2650    24.4230   -24.8410 
  166.0000     2.2880    76.9590    16.8290    16.3390    17.3060    24.4490   -25.8850 
  166.1250     2.2890    79.1260    18.5490    17.0650    16.5940    24.4420   -26.9520 
  166.2500     2.2860    81.9670    22.4140    19.2490    16.7130    24.4670   -28.0270 
  166.3750     2.2780    78.3930    29.7940    24.6460    28.0260    24.6250   -29.0920 
  166.5000     2.2650    70.1510    40.9510    34.5530    59.9020    24.9820   -30.1180 
  166.6250     2.2460    62.3880    58.7280    50.5700    99.1400    25.4060   -31.0420 
  166.7500     2.2260    58.2090    82.5940    72.9320   106.2000    25.7060   -31.8600 
  166.8750     2.2110    60.2120   108.6240    97.5170   107.3150    25.8590   -32.5710 
  167.0000     2.2000    63.8510   128.1870   116.3700   113.2290    26.0070   -33.1940 
  167.1250     2.1920    64.6960   138.1520   126.7740   114.9950    26.1040   -33.7070 
  167.2500     2.1840    61.8350   142.1750   131.4750   112.2060    26.0970   -34.1120 
  167.3750     2.1750    59.6730   144.9100   134.2640   105.5050    25.9930   -34.4310 
  167.5000     2.1660    61.3550   148.3180   137.3260   103.3270    25.9140   -34.7140 
  167.6250     2.1590    64.8360   152.2780   140.8440   106.1550    25.8740   -35.0280 
  167.7500     2.1600    67.6080   156.0050   144.3140   115.6140    25.8300   -35.3700 
  167.8750     2.1690    67.4940   158.0790   146.6080   120.8600    25.7210   -35.7150 
  168.0000     2.1790    65.2140   158.1110   147.2180   123.1010    25.5780   -36.0560 
  168.1250     2.1870    62.9160   156.6160   146.3670   123.0370    25.4330   -36.3890 
  168.2500     2.1930    60.6530   154.8780   145.0190   118.6580    25.3070   -36.7310 
  168.3750     2.1980    59.0030   154.5060   144.6480   110.7400    25.2450   -37.0390 
  168.5000     2.2010    60.6320   155.6540   145.7060   109.2880    25.2040   -37.3200 
  168.6250     2.2030    63.6360   157.4230   147.5980   113.8320    25.1740   -37.5460 
  168.7500     2.2050    64.0550   158.3410   149.0390   119.1270    25.1480   -37.7140 
  168.8750     2.2070    61.9790   156.8570   148.4260   121.6800    25.1490   -37.8600 
  169.0000     2.2090    61.7450   153.6520   145.9430   120.1400    25.1360   -37.9730 
  169.1250     2.2120    62.3630   150.4550   142.9150   110.1450    25.1090   -38.0630 
  169.2500     2.2190    63.3390   149.2570   141.3150    96.3270    25.0760   -38.1220 
  169.3750     2.2260    65.9140   151.3210   142.7970    89.1060    25.0480   -38.1510 
  169.5000     2.2270    66.7410   154.6340   145.8830    96.5230    25.0360   -38.1680 
  169.6250     2.2210    64.5760   156.0920   147.9570   112.6980    25.0340   -38.1670 
  169.7500     2.2120    62.1330   152.5000   146.1120   132.0950    25.0330   -38.1470 
  169.8750     2.2060    62.2360   142.4940   138.3440   134.3670    25.0200   -38.0970 
  170.0000     2.2060    61.9500   130.7770   127.9530   108.3610    24.9930   -38.0220 
  170.1250     2.2100    61.9590   121.5370   118.7980    86.5410    24.9620   -37.9240 
  170.2500     2.2140    65.1880   117.0870   113.7380    80.3690    24.9370   -37.8230 
  170.3750     2.2190    69.5100   118.2700   114.2930    81.6350    24.9070   -37.7470 
  170.5000     2.2240    70.1050   122.5890   118.3490    91.1490    24.8970   -37.6710 
  170.6250     2.2250    66.7370   127.4100   123.5210   115.9210    24.9040   -37.5900 
  170.7500     2.2160    64.3450   129.5560   126.8680   129.0320    24.9170   -37.5000 
  170.8750     2.2030    65.0050   125.5370   124.9270   117.9930    24.9090   -37.4190 
  171.0000     2.1990    64.1320   116.4570   117.8730    96.6350    24.8970   -37.3600 
  171.1250     2.2020    61.1750   104.8620   107.4250    82.7770    24.8850   -37.3230 
  171.2500     2.2090    61.2390    93.6450    96.2410    79.2150    24.8590   -37.3050 
  171.3750     2.2170    66.8620    85.1940    87.0360    70.6590    24.7920   -37.3170 
  171.5000     2.2260    71.2960    79.6940    80.5880    59.7620    24.7260   -37.3530 
  171.6250     2.2360    71.0290    77.0890    76.9980    54.0100    24.6930   -37.4180 
  171.7500     2.2410    68.3360    77.2660    76.1860    62.1450    24.6960   -37.5490 
  171.8750     2.2390    66.7860    80.5320    78.5180    70.8030    24.6910   -37.7290 
  172.0000     2.2330    65.9710    86.1650    83.3710    68.5280    24.6800   -37.9390 
  172.1250     2.2270    64.3010    94.9720    90.2200    66.7170    24.6580   -38.1730 
  172.2500     2.2180    63.2480   103.6220    98.0190    72.8180    24.6460   -38.4150 
  172.3750     2.2050    64.6240   110.7590   105.0860    89.2100    24.6930   -38.6470 
  172.5000     2.1960    66.6150   115.6020   110.1570    95.0080    24.7230   -38.8550 
  172.6250     2.1930    65.9990   117.5620   112.5660    89.9700    24.7370   -39.0490 
  172.7500     2.1960    62.7570   116.8610   112.3020    82.4720    24.7370   -39.2210 
  172.8750     2.2030    59.4090   114.4390   110.0110    81.8390    24.7260   -39.3510 
  173.0000     2.2100    58.0340   111.8240   107.2830    87.9130    24.6980   -39.4350 
  173.1250     2.2160    59.0390   109.5080   104.8120    91.1310    24.6710   -39.4820 
  173.2500     2.2220    61.0480   107.4630   102.7350    85.6930    24.6600   -39.5020 
  173.3750     2.2290    63.5700   105.5770   100.9760    78.9090    24.6600   -39.4850 
  173.5000     2.2340    65.6130   103.9230    99.4750    80.1640    24.6600   -39.4680 
  173.6250     2.2340    65.8300   102.7660    98.4070    81.9070    24.6600   -39.4560 
  173.7500     2.2320    63.5950   102.3450    98.0160    79.5970    24.6590   -39.4230 
  173.8750     2.2300    60.9800   102.6950    98.4490    74.1890    24.6480   -39.3940 
  174.0000     2.2270    59.8950   103.1850    99.1500    74.6990    24.6130   -39.3740 
  174.1250     2.2240    61.6990   103.1990    99.4980    78.8170    24.5540   -39.3720 
  174.2500     2.2210    64.6990   102.3750    99.0010    81.9780    24.4930   -39.3980 
  174.3750     2.2210    64.1590   100.9850    97.6290    80.2880    24.5380   -39.4700 
  174.5000     2.2250    61.5380   100.2560    96.4480    76.3070    24.6530   -39.5480 
  174.6250     2.2330    61.3220   101.4340    96.7190    70.6440    24.7960   -39.6210 
