~V
VERS. 2.00: Ver 2.00
~W
STRT.M 63.0000:
STOP.M 244.0000:
STEP.M 0.1250:
NULL. -999.2500:
UWI. F11131:
~C
DEPT.M :
SP.MV :
DEN.GM/CC :
GR.API :
RML.OHMM :
RI. :
RXO.OHMM :
CALI.CM :
~A
# ...
  153.0000   -19.8240     2.2540    82.2600     7.4890     6.5520     5.1670    24.4800 
  153.1250   -20.0530     2.2420    77.1390     8.4660     7.3900     5.3870    24.4770 
  153.2500   -20.2730     2.2340    74.7200     9.3870     8.2510     6.6250    24.4880 
  153.3750   -20.4600     2.2330    76.7490     9.9440     8.8830     9.0660    24.5130 
  153.5000   -20.6180     2.2430    80.6530     9.9880     9.1160    11.4770    24.5370 
  153.6250   -20.7430     2.2580    78.9970     9.6350     8.9580    10.5380    24.5460 
  153.7500   -20.8430     2.2740    72.5520     9.3020     8.7170     8.9860    24.5460 
  153.8750   -20.9120     2.2870    67.2380     9.2060     8.5860     8.5260    24.5450 
  154.0000   -20.9410     2.2910    66.8350     9.3470     8.6120     9.1590    24.5450 
  154.1250   -20.9350     2.2890    72.0510     9.5020     8.6600    10.3500    24.5480 
  154.2500   -20.8920     2.2840    77.7410     9.3740     8.5080    10.8130    24.5460 
  154.3750   -20.8220     2.2780    80.8700     8.8190     8.0290     9.9410    24.5150 
  154.5000   -20.7210     2.2780    81.9560     7.8940     7.2460     8.0150    24.4460 
  154.6250   -20.6150     2.2820    83.7490     6.8500     6.3370     6.4030    24.3690 
  154.7500   -20.5540     2.2850    85.8930     6.0070     5.5600     5.5550    24.3240 
  154.8750   -20.5430     2.2860    84.3590     5.5730     5.0850     5.3130    24.3130 
  155.0000   -20.5810     2.2910    79.4730     5.7030     5.0330     5.4030    24.3180 
  155.1250   -20.6340     2.3080    75.6580     6.6630     5.6030     6.0430    24.3270 
  155.2500   -20.6970     2.3350    75.1340     8.4200     6.7910     8.2040    24.3310 
  155.3750   -20.7820     2.3560    77.7480    10.8440     8.5640    13.2000    24.3270 
  155.5000   -20.8980     2.3500    80.3630    13.4230    10.6270    20.6510    24.3210 
  155.6250   -21.0800     2.3220    80.5810    14.9140    12.1130    22.5420    24.3180 
  155.7500   -21.2860     2.2890    81.1390    14.6820    12.3560    18.9000    24.3200 
  155.8750   -21.4870     2.2710    82.9410    13.1160    11.4590    13.5410    24.3240 
  156.0000   -21.6740     2.2750    82.9120    11.2590    10.1190    10.2360    24.3280 
  156.1250   -21.8260     2.2870    77.9200    10.0790     9.0730     9.1740    24.3300 
  156.2500   -21.9850     2.2950    74.0080     9.7020     8.5460     8.8690    24.3070 
  156.3750   -22.1570     2.2950    73.7560    10.0100     8.5280     9.6090    24.2350 
  156.5000   -22.3450     2.2880    73.0570    10.8290     8.9420    11.5040    24.1630 
  156.6250   -22.5190     2.2800    68.5210    12.0530     9.7490    12.4830    24.2510 
  156.7500   -22.6380     2.2720    64.2010    13.5570    10.8330    13.0420    24.4800 
  156.8750   -22.6970     2.2650    62.8850    15.3680    12.1880    14.2250    24.6950 
  157.0000   -22.6930     2.2630    62.9850    17.4890    13.8020    17.0470    24.7830 
  157.1250   -22.6390     2.2640    63.3390    19.8040    15.6120    20.6360    24.7710 
  157.2500   -22.5460     2.2660    65.1600    22.0090    17.4110    21.8980    24.7490 
  157.3750   -22.4490     2.2600    67.4920    23.7820    18.9710    23.6500    24.7190 
  157.5000   -22.3630     2.2440    68.6380    24.7480    20.0000    26.7360    24.6800 
  157.6250   -22.2630     2.2270    69.8090    24.4160    20.0690    25.9430    24.6440 
  157.7500   -22.1590     2.2180    72.4170    23.0530    19.2950    23.8680    24.6210 
  157.8750   -22.0780     2.2230    74.2960    21.0850    17.9560    25.7290    24.6070 
  158.0000   -22.0460     2.2410    73.0730    19.1140    16.4810    24.3450    24.5860 
  158.1250   -22.0870     2.2580    70.8700    17.9010    15.4180    17.1230    24.5570 
  158.2500   -22.1740     2.2650    71.1470    17.6420    14.9770    13.5370    24.5390 
  158.3750   -22.2470     2.2600    74.0480    18.1230    15.0800    13.4120    24.5370 
  158.5000   -22.2840     2.2490    77.4970    18.6980    15.3420    16.3350    24.5440 
  158.6250   -22.3020     2.2450    78.9420    18.1790    14.9670    22.4860    24.5440 
  158.7500   -22.3420     2.2520    79.4040    17.2390    14.3320    24.0240    24.5410 
  158.8750   -22.4090     2.2660    79.9350    15.5810    13.1920    21.5800    24.5270 
  159.0000   -22.5040     2.2730    79.9910    12.4510    10.9830    14.3090    24.4920 
  159.1250   -22.6260     2.2650    75.9680     9.8310     9.0110     9.1080    24.4620 
  159.2500   -22.7420     2.2460    70.0370     8.4860     7.8730     6.3120    24.4540 
  159.3750   -22.8350     2.2240    66.3270     8.6250     7.8210     6.3500    24.4640 
  159.5000   -22.9060     2.2110    65.7590    10.1170     8.8940     9.5740    24.4760 
  159.6250   -22.9830     2.2150    65.4050    12.4220    10.8670    16.1040    24.4770 
  159.7500   -23.0560     2.2320    66.5120    14.0840    12.5660    20.9920    24.4770 
  159.8750   -23.1060     2.2560    70.9600    13.8930    12.8120    21.4750    24.4900 
  160.0000   -23.1080     2.2760    77.0330    11.8410    11.3430    18.8420    24.5070 
  160.1250   -23.0130     2.2880    81.0560     9.1920     9.0710    16.3740    24.4900 
  160.2500   -22.8790     2.2950    82.1640     7.1180     7.1040    13.8400    24.4430 
  160.3750   -22.7770     2.2990    82.8050     5.7810     5.6950     9.8190    24.4020 
  160.5000   -22.7360     2.3010    84.4980     4.9920     4.7820     5.7690    24.3930 
  160.6250   -22.7490     2.2980    85.9680     4.6690     4.3400     4.4320    24.4010 
  160.7500   -22.7900     2.2900    85.7240     4.7570     4.2870     4.3930    24.4030 
  160.8750   -22.8410     2.2810    83.1520     5.3320     4.6480     4.5240    24.4110 
  161.0000   -22.9060     2.2740    78.0580     6.4260     5.4340     4.3290    24.4470 
  161.1250   -23.0210     2.2680    71.6720     7.9240     6.6000     4.0750    24.5020 
  161.2500   -23.1750     2.2640    67.4930     9.3420     7.7990     4.5050    24.5370 
  161.3750   -23.3610     2.2600    67.1930    10.2170     8.6620     6.1590    24.5440 
  161.5000   -23.5720     2.2590    69.9310    10.3470     8.9680     9.4970    24.5430 
  161.6250   -23.7730     2.2610    73.3420    10.0890     8.8790    11.8130    24.5440 
  161.7500   -23.9530     2.2620    74.3960     9.9970     8.8210    12.4390    24.5410 
  161.8750   -24.1380     2.2580    74.1790    10.0090     8.7950    12.7780    24.5220 
  162.0000   -24.3590     2.2460    69.8330    10.5790     9.0930    11.7740    24.4890 
  162.1250   -24.6570     2.2340    67.0610    11.6310     9.7330    10.7200    24.4660 
  162.2500   -24.9850     2.2310    68.6430    12.5810    10.3620    10.1990    24.4620 
  162.3750   -25.2940     2.2420    72.5240    12.8670    10.5990    10.4740    24.4670 
  162.5000   -25.5610     2.2660    75.9780    12.1820    10.1950    12.4140    24.4700 
  162.6250   -25.7780     2.2900    78.0220    10.7120     9.2050    15.7900    24.4710 
  162.7500   -25.9760     2.3050    79.5360     9.2130     8.1200    18.9440    24.4710 
  162.8750   -26.1700     2.3090    80.4300     8.0810     7.2290    18.1110    24.4690 
  163.0000   -26.3430     2.3050    80.8420     7.4240     6.6560    14.6240    24.4660 
  163.1250   -26.4740     2.2990    81.2260     7.2190     6.4440     9.5000    24.4630 
  163.2500   -26.5650     2.2950    82.4740     7.2540     6.4540     7.8300    24.4630 
  163.3750   -26.6070     2.2940    82.4890     7.4180     6.5960     7.1680    24.4660 
  163.5000   -26.6050     2.2980    79.7680     7.6430     6.7970     7.0810    24.4670 
  163.6250   -26.6040     2.3020    78.1760     7.8790     6.9990     6.8460    24.4670 
  163.7500   -26.6300     2.3010    81.9930     8.0640     7.1520     6.8750    24.4680 
  163.8750   -26.6560     2.2920    87.9010     8.1210     7.2000     7.1280    24.4700 
  164.0000   -26.6600     2.2790    90.5760     7.9680     7.0790     7.3530    24.4680 
  164.1250   -26.6100     2.2680    89.4490     7.5270     6.7180     7.4740    24.4630 
