~V
VERS. 2.00: Ver 2.00
~W
STRT.M 55.0000:
STOP.M 240.0000:
STEP.M 0.1250:
NULL. -999.2500:
UWI. F11138:
~C
DEPT.M :
SP.MV :
DEN.GM/CC :
GR.API :
RML.OHMM :
RI. :
RXO.OHMM :
CALI.CM :
~A
# ...
   77.5000   -34.0940     2.0850    75.9870     8.1390     6.4380     9.5030    23.2160 
   77.6250   -34.0620     2.0840    75.4190     8.2260     6.4390     9.8310    23.2700 
   77.7500   -33.9780     2.0870    74.0030     8.2760     6.4450    10.0000    23.3920 
   77.8750   -33.8350     2.0940    72.9020     8.2420     6.4320    10.0220    23.4910 
   78.0000   -33.6000     2.1020    72.2270     8.1300     6.3980    10.0380    23.5060 
   78.1250   -33.3270     2.1100    71.5520     8.0150     6.3810    10.1950    23.4540 
   78.2500   -33.1300     2.1140    70.8960     8.0100     6.4380    10.2700    23.3780 
   78.3750   -33.0660     2.1130    70.9480     8.1910     6.6130    10.2410    23.3070 
   78.5000   -33.1240     2.1140    71.4630     8.5650     6.9200    10.3660    23.3820 
   78.6250   -33.2660     2.1200    71.1240     9.0600     7.3290    11.1510    23.5980 
   78.7500   -33.4170     2.1190    69.9380     9.5100     7.7310    12.0670    23.6640 
   78.8750   -33.5490     2.1090    68.7790     9.7920     8.0300    12.6960    23.4950 
   79.0000   -33.6970     2.1010    69.9500     9.8450     8.1500    13.0090    23.0910 
   79.1250   -33.8010     2.0980    74.9180     9.6580     8.0430    13.1040    22.7720 
   79.2500   -33.7040     2.0990    78.9980     9.3500     7.7840    12.7270    22.7320 
   79.3750   -33.2720     2.1120    79.1570     8.9750     7.4260    12.1390    22.8510 
   79.5000   -32.4580     2.1410    77.2860     8.5440     7.0050    11.7650    23.0520 
   79.6250   -31.2240     2.1840    78.6670     8.0390     6.5430    11.5000    23.2000 
   79.7500   -29.7150     2.2320    84.5830     7.5140     6.0990    11.0710    23.1750 
   79.8750   -28.0680     2.2750    92.2510     7.1000     5.7570    10.1450    23.0980 
   80.0000   -26.4160     2.3020    98.7480     7.0400     5.6510     8.9130    23.0990 
   80.1250   -24.8440     2.3130   100.2000     7.8210     6.0650     7.9520    23.0910 
   80.2500   -23.3730     2.3340    97.3100     9.6320     7.1560     8.6320    23.0150 
   80.3750   -22.0350     2.3780    91.3830    12.4550     9.0230    10.9260    22.9010 
   80.5000   -20.8800     2.4380    85.2170    15.7870    11.4800    15.6310    22.7990 
   80.6250   -20.0000     2.4900    81.8110    18.3980    13.8310    22.0950    22.7110 
   80.7500   -19.3480     2.5060    81.5660    19.1330    15.1200    32.5140    22.8600 
   80.8750   -18.8020     2.4750    84.9380    17.4380    14.6360    48.0650    23.2620 
   81.0000   -18.2430     2.4120    91.4990    13.9270    12.4630    39.1220    23.7420 
   81.1250   -17.6670     2.3560   100.3810    10.2980     9.7150    17.9110    24.0270 
   81.2500   -17.1780     2.3270   108.7380     7.7020     7.5050     7.9080    24.1890 
   81.3750   -16.8550     2.3230   114.1100     6.2040     6.0400     5.7960    24.2510 
   81.5000   -16.7240     2.3350   115.9130     5.5390     5.2280     5.8270    24.1840 
   81.6250   -16.7970     2.3560   114.9050     5.5580     5.0220     5.8090    23.9750 
   81.7500   -17.0380     2.3810   114.0330     6.1000     5.2850     5.6470    23.8220 
   81.8750   -17.4440     2.4120   112.7220     7.2350     6.0450     5.8460    23.8790 
   82.0000   -17.9870     2.4500   107.4600     9.0090     7.3320     7.1380    23.9850 
   82.1250   -18.6950     2.4790    95.4540    11.2990     9.1120    10.4570    24.0340 
   82.2500   -19.5530     2.4570    82.5720    13.4830    10.9580    15.8430    24.0150 
   82.3750   -20.6020     2.3600    74.9790    14.9010    12.3680    23.7730    23.8830 
   82.5000   -21.8200     2.2270    73.7350    15.0150    12.8430    29.9040    23.6050 
   82.6250   -23.1920     2.1320    74.7560    13.6300    12.0600    24.1610    23.4100 
   82.7500   -24.5670     2.0910    74.1520    11.7230    10.7080    16.8190    23.1770 
   82.8750   -25.8640     2.0880    72.3000    10.0820     9.4010    13.0750    22.9510 
   83.0000   -27.0510     2.0990    71.5630     9.1140     8.4790    11.9230    22.8180 
   83.1250   -28.0620     2.1080    72.6990     8.9040     8.0560    11.7360    22.8010 
   83.2500   -28.8910     2.1140    72.6550     9.0990     7.9400    11.8190    22.8290 
   83.3750   -29.4910     2.1200    71.3050     9.4540     7.9890    11.8470    22.8630 
   83.5000   -29.9130     2.1240    70.3280     9.7700     8.0770    11.7770    22.8960 
   83.6250   -30.1860     2.1270    69.8300     9.8750     8.0880    11.7940    22.9090 
   83.7500   -30.4230     2.1300    68.3370     9.7460     7.9770    11.8520    22.9180 
   83.8750   -30.6590     2.1340    66.8440     9.4100     7.7410    11.8670    22.9330 
   84.0000   -30.9080     2.1360    67.0080     8.9480     7.4160    11.7670    22.9580 
   84.1250   -31.1740     2.1420    67.6990     8.5350     7.1000    11.5050    22.9880 
   84.2500   -31.4300     2.1560    67.4370     8.4000     6.9340    11.1730    23.0610 
   84.3750   -31.6410     2.1800    67.6640     8.7680     7.0630    10.9550    23.1820 
   84.5000   -31.7570     2.2100    69.6470     9.7760     7.5960    11.3440    23.2890 
   84.6250   -31.7920     2.2400    71.6300    11.3780     8.5680    12.8980    23.3420 
   84.7500   -31.7750     2.2740    70.6580    13.0110     9.6720    15.6810    23.3870 
   84.8750   -31.7580     2.2980    66.8720    14.0750    10.5400    19.7170    23.5480 
   85.0000   -31.7630     2.2780    62.7940    14.0660    10.7940    25.8390    23.7490 
   85.1250   -31.7490     2.2030    60.7460    12.7260    10.1280    29.1040    23.8390 
   85.2500   -31.6950     2.1350    60.5170    10.8570     8.9710    18.1340    23.6910 
   85.3750   -31.6330     2.1080    62.3470     9.2270     7.8200    10.3770    23.3870 
   85.5000   -31.6160     2.1130    65.2270     8.3340     7.0370     8.6980    23.1520 
   85.6250   -31.6650     2.1280    67.9620     8.3930     6.8300     9.8180    23.0600 
   85.7500   -31.7690     2.1420    70.4670     9.0400     7.0570    11.5730    23.0380 
   85.8750   -31.9000     2.1620    72.0760     9.9510     7.5650    13.0500    22.9740 
   86.0000   -32.0430     2.1920    71.7190    10.7800     8.1480    14.5550    22.8900 
   86.1250   -32.1910     2.2160    71.1170    11.1700     8.5480    17.0990    22.7870 
   86.2500   -32.3730     2.2090    71.7360    11.0910     8.6540    21.0380    22.5950 
   86.3750   -32.5960     2.1660    71.3850    10.6520     8.4780    22.6500    22.3410 
   86.5000   -32.7940     2.1210    68.6040    10.0530     8.1230    16.8900    22.2650 
   86.6250   -32.9210     2.1050    67.7450     9.5220     7.7320    13.3380    22.5980 
   86.7500   -32.9860     2.1050    69.3810     9.1730     7.4190    12.0090    22.9820 
   86.8750   -32.9830     2.1020    70.1430     9.0220     7.2260    11.7360    23.2670 
   87.0000   -32.8610     2.0950    69.6290     9.0310     7.1510    11.6920    23.4520 
   87.1250   -32.5730     2.0910    69.8400     9.1360     7.1700    11.6780    23.5230 
   87.2500   -32.1590     2.0910    71.0520     9.2470     7.2180    11.7430    23.5040 
   87.3750   -31.6590     2.0940    72.4460     9.3190     7.2570    11.8290    23.4270 
   87.5000   -31.1640     2.0990    74.2860     9.3250     7.2620    11.8110    23.3550 
   87.6250   -30.7190     2.1030    76.4160     9.2380     7.2150    11.6180    23.3020 
   87.7500   -30.2980     2.1010    76.9520     9.0850     7.1270    11.3280    23.2890 
   87.8750   -29.9040     2.0940    76.3310     8.8990     7.0150    11.0140    23.2700 
   88.0000   -29.5780     2.0850    75.4510     8.7250     6.9010    10.7830    23.2730 
   88.1250   -29.3490     2.0840    74.7370     8.6140     6.8160    10.5570    23.2740 
   88.2500   -29.2020     2.0900    74.8090     8.5700     6.7670    10.3710    23.3210 
   88.3750   -29.1110     2.0980    75.7710     8.5680     6.7460    10.2840    23.3190 
   88.5000   -29.0280     2.1060    76.6120     8.5620     6.7270    10.2620    23.2670 
   88.6250   -28.8920     2.1180    77.0070     8.4970     6.6760    10.3110    23.2110 
