~V
VERS. 2.00: Ver 2.00
~W
STRT.M 50.0000:
STOP.M 255.0000:
STEP.M 0.1250:
NULL. -999.2500:
UWI. F12008:
~C
DEPT.M :
SP.MV :
GR.API :
RI. :
RML.OHMM :
RXO.OHMM :
DEN.GM/CC :
~A
# ...
  101.5000   -25.7910    98.9300     4.1480     4.8970     4.6650     2.1880 
  101.6250   -25.8900   101.0170     3.9650     4.7030     4.7770     2.1880 
  101.7500   -25.9710   105.0040     3.8560     4.5880     4.8040     2.1890 
  101.8750   -26.0110   109.5670     3.7790     4.5050     4.4910     2.1990 
  102.0000   -26.0020   112.4910     3.7190     4.4420     4.1720     2.2240 
  102.1250   -25.9430   111.9620     3.6930     4.4150     4.0620     2.2480 
  102.2500   -25.8530   108.5800     3.7280     4.4520     4.1740     2.2460 
  102.3750   -25.7500   104.4290     3.8730     4.6050     4.1730     2.2190 
  102.5000   -25.6580   100.4400     4.0930     4.8390     4.2370     2.1930 
  102.6250   -25.5970    96.2890     4.3450     5.1060     4.5750     2.1780 
  102.7500   -25.5840    93.1260     4.5580     5.3320     4.9910     2.1670 
  102.8750   -25.6370    91.2290     4.6850     5.4660     5.3310     2.1610 
  103.0000   -25.7510    90.0630     4.7500     5.5350     5.3460     2.1700 
  103.1250   -25.9110    91.1730     4.7540     5.5390     5.1320     2.1850 
  103.2500   -26.0770    94.8860     4.7290     5.5120     5.1450     2.1900 
  103.3750   -26.2010    97.1250     4.6950     5.4770     5.4190     2.1880 
  103.5000   -26.2500    95.7600     4.6320     5.4100     5.4790     2.1870 
  103.6250   -26.2000    95.0630     4.5410     5.3140     5.2730     2.1880 
  103.7500   -26.0620    96.9360     4.4450     5.2120     5.2030     2.1980 
  103.8750   -25.8540    99.3330     4.3620     5.1240     5.0740     2.2250 
  104.0000   -25.6160    98.3470     4.3090     5.0670     4.7900     2.2530 
  104.1250   -25.3890    96.2570     4.2910     5.0480     4.8400     2.2650 
  104.2500   -25.2070    95.2050     4.3590     5.1200     5.0500     2.2580 
  104.3750   -25.1000    96.1100     4.5220     5.2930     5.0600     2.2400 
  104.5000   -25.0660    97.0180     4.6850     5.4660     5.3190     2.2290 
  104.6250   -25.0990    96.7380     4.8120     5.6010     6.4430     2.2320 
  104.7500   -25.1700    95.8470     4.9280     5.7240     7.0290     2.2420 
  104.8750   -25.2570    94.7960     5.0670     5.8710     6.0210     2.2430 
  105.0000   -25.3390    93.3340     5.2430     6.0580     5.4710     2.2480 
  105.1250   -25.4090    94.2920     5.4310     6.2570     7.2550     2.2570 
  105.2500   -25.4800    96.0620     5.5480     6.3810     8.9100     2.2450 
  105.3750   -25.5740    95.9600     5.6020     6.4390     8.4810     2.2160 
  105.5000   -25.7170    95.7470     5.5930     6.4290     7.7810     2.1940 
  105.6250   -25.9310    95.6850     5.5090     6.3400     7.6490     2.1920 
  105.7500   -26.2110    94.0520     5.4640     6.2920     7.9810     2.1920 
  105.8750   -26.5430    90.4190     5.5990     6.4350     8.2090     2.1840 
  106.0000   -26.8890    90.3570     5.9420     6.7990     7.7720     2.1730 
  106.1250   -27.2040    94.0140     6.3910     7.2740     7.5220     2.1530 
  106.2500   -27.4550    94.3900     6.8880     7.8020     8.7310     2.1220 
  106.3750   -27.6250    90.5780     7.3140     8.2530    10.0660     2.0880 
  106.5000   -27.7520    86.2440     7.5220     8.4730    10.4400     2.0700 
  106.6250   -27.8990    82.4330     7.4690     8.4170    10.5710     2.0770 
  106.7500   -28.1260    78.6820     7.1970     8.1290    10.4400     2.1000 
  106.8750   -28.4740    76.5650     6.8530     7.7640     9.6340     2.1150 
  107.0000   -28.9200    77.3870     6.6080     7.5040     8.7590     2.1090 
  107.1250   -29.4060    79.4210     6.5920     7.4870     8.6020     2.0910 
  107.2500   -29.8520    79.4530     7.0440     7.9670     9.0550     2.0960 
  107.3750   -30.1770    77.4560     8.2470     9.2410     9.6200     2.1500 
  107.5000   -30.3490    74.8550     9.9530    11.0510    15.3210     2.2420 
  107.6250   -30.3490    75.1050    11.6700    12.8710    39.8970     2.3120 
  107.7500   -30.2160    75.8200    12.8620    14.1340    56.4730     2.3030 
  107.8750   -29.9800    73.0970    12.7880    14.0560    35.3250     2.2190 
  108.0000   -29.6850    68.7750    11.7240    12.9270    14.3310     2.1290 
  108.1250   -29.3500    66.1680    10.2980    11.4150    11.7640     2.0840 
  108.2500   -28.9960    65.8060     9.0310    10.0730    11.4770     2.0730 
  108.3750   -28.6420    65.9700     8.5080     9.5190    11.2990     2.0710 
  108.5000   -28.3090    65.5250     8.4170     9.4210    11.2660     2.0700 
  108.6250   -28.0230    63.6200     8.4420     9.4490    11.2370     2.0730 
  108.7500   -27.7930    61.5510     8.4630     9.4710    11.2070     2.0790 
  108.8750   -27.6160    61.5940     8.5050     9.5150    11.3370     2.0860 
  109.0000   -27.4670    62.1800     8.7050     9.7280    11.4350     2.0900 
  109.1250   -27.3220    60.5430     9.2980    10.3560    11.4220     2.1090 
  109.2500   -27.1590    58.6210    10.0200    11.1210    11.8350     2.1810 
  109.3750   -26.9600    58.6270    10.4770    11.6060    12.2800     2.3130 
  109.5000   -26.7160    61.1500    10.3030    11.4210    11.6170     2.4220 
  109.6250   -26.4160    65.2000     9.1540    10.2030    10.4500     2.4210 
  109.7500   -26.0690    69.8380     7.5670     8.5210     7.9900     2.3410 
  109.8750   -25.6950    76.0580     6.0810     6.9450     7.1480     2.2700 
  110.0000   -25.3310    84.3510     4.9520     5.7490     6.1960     2.2480 
  110.1250   -25.0250    92.5040     4.5070     5.2770     5.5740     2.2480 
  110.2500   -24.8110    97.5240     4.4540     5.2220     5.3580     2.2270 
  110.3750   -24.7340    98.0540     4.7040     5.4860     5.4530     2.1860 
  110.5000   -24.7990    95.5130     5.1610     5.9700     5.9120     2.1530 
  110.6250   -25.0060    89.3740     5.7350     6.5790     6.5540     2.1390 
  110.7500   -25.2910    83.3620     6.3160     7.1950     7.0380     2.1340 
  110.8750   -25.5680    81.1380     6.7140     7.6160     7.4050     2.1290 
  111.0000   -25.7380    79.6710     6.7930     7.7010     7.8560     2.1320 
  111.1250   -25.7090    77.9760     6.4940     7.3830     8.2080     2.1540 
  111.2500   -25.4590    78.9140     5.9470     6.8040     7.6880     2.1840 
  111.3750   -24.9880    83.9100     5.3450     6.1650     5.5510     2.2010 
  111.5000   -24.3720    90.9060     4.7980     5.5850     5.0840     2.2040 
  111.6250   -23.6950    97.5350     4.4790     5.2480     5.0210     2.2090 
  111.7500   -23.0700   102.2090     4.4000     5.1640     4.9140     2.2150 
  111.8750   -22.6080   100.9090     4.5520     5.3260     4.9160     2.2070 
  112.0000   -22.3610    94.6500     4.8310     5.6200     5.1010     2.1860 
  112.1250   -22.3510    89.1950     5.0370     5.8390     5.5230     2.1690 
  112.2500   -22.5080    88.1040     5.0340     5.8360     5.9620     2.1760 
  112.3750   -22.7430    91.4520     4.7990     5.5870     5.8380     2.2090 
  112.5000   -22.9460    95.8180     4.3790     5.1420     5.1850     2.2450 
  112.6250   -23.0210    99.8890     3.9110     4.6450     4.6450     2.2620 
  112.7500   -22.9420   103.9010     3.5950     4.3100     4.3810     2.2660 
  112.8750   -22.7220   104.0470     3.6080     4.3250     4.2040     2.2920 
  113.0000   -22.4490   100.0470     4.1180     4.8650     4.1750     2.3630 
  113.1250   -22.2210    96.0440     5.0610     5.8650     5.7860     2.4500 
  113.2500   -22.1000    92.5320     6.1450     7.0140    10.5700     2.4940 
  113.3750   -22.1100    87.1780     6.8520     7.7630    14.2910     2.4690 
  113.5000   -22.2190    80.9340     6.8410     7.7520    12.2050     2.4100 
  113.6250   -22.3920    77.6430     6.2130     7.0860     8.1040     2.3480 
  113.7500   -22.6010    77.6240     5.3730     6.1960     6.0310     2.2870 
  113.8750   -22.8410    78.2070     4.7800     5.5670     5.1940     2.2360 
  114.0000   -23.1160    79.1080     4.5730     5.3480     5.1750     2.2020 
  114.1250   -23.4380    79.6060     4.6700     5.4500     5.2920     2.1790 
  114.2500   -23.7900    79.3310     4.7850     5.5720     5.1670     2.1630 
