~V
VERS. 2.00: Ver 2.00
~W
STRT.M 50.0000:
STOP.M 255.0000:
STEP.M 0.1250:
NULL. -999.2500:
UWI. F12008:
~C
DEPT.M :
SP.MV :
GR.API :
RI. :
RML.OHMM :
RXO.OHMM :
DEN.GM/CC :
~A
# ...
  140.1250   -24.4860    99.2840     4.9700     5.7680     6.1620     2.2840 
  140.2500   -24.4040    98.5230     4.9010     5.6950     6.0970     2.2890 
  140.3750   -24.3460    96.4400     4.8900     5.6830     5.6050     2.2990 
  140.5000   -24.3240    93.4360     4.9920     5.7910     5.3650     2.3170 
  140.6250   -24.3360    91.8090     5.2110     6.0240     5.8230     2.3280 
  140.7500   -24.3610    92.5540     5.4780     6.3070     6.4300     2.3240 
  140.8750   -24.3730    95.2500     5.6100     6.4460     6.8010     2.3250 
  141.0000   -24.3610    97.4850     5.4610     6.2890     7.4490     2.3500 
  141.1250   -24.3310    97.7180     5.0930     5.8980     8.0300     2.3590 
  141.2500   -24.2990    97.4390     4.7160     5.4990     6.0620     2.3290 
  141.3750   -24.2750    97.2480     4.6430     5.4220     4.8870     2.2810 
  141.5000   -24.2590    96.8140     5.0980     5.9040     5.2370     2.2480 
  141.6250   -24.2420    94.0790     6.2870     7.1640     8.9320     2.2160 
  141.7500   -24.2200    87.4150     8.2790     9.2760    13.0610     2.1670 
  141.8750   -24.1890    79.7670    10.5210    11.6520    13.4430     2.1230 
  142.0000   -24.1490    75.4930    12.0570    13.2800    12.2560     2.1090 
  142.1250   -24.1040    74.4040    12.0720    13.2970    12.2200     2.1270 
  142.2500   -24.0630    74.5310    11.0950    12.2610    12.5720     2.1570 
  142.3750   -24.0400    75.2660     9.5660    10.6400    11.3880     2.1870 
  142.5000   -24.0430    75.5600     8.5130     9.5240     9.0180     2.2090 
  142.6250   -24.0790    73.9580     8.2180     9.2110     8.0570     2.2230 
  142.7500   -24.1490    72.6730     9.1700    10.2200     8.3370     2.2170 
  142.8750   -24.2450    73.4850    12.0280    13.2500    11.8410     2.1790 
  143.0000   -24.3480    73.9960    16.4300    17.9160    24.2300     2.1250 
  143.1250   -24.4320    69.4900    23.7650    25.6910    40.6310     2.0860 
  143.2500   -24.4800    62.4540    31.9960    34.4150    49.7060     2.0780 
  143.3750   -24.4830    57.3470    38.3810    41.1840    53.3780     2.0900 
  143.5000   -24.4610    56.4870    41.9690    44.9870    53.3490     2.1030 
  143.6250   -24.4410    58.5710    41.4370    44.4230    47.8270     2.1060 
  143.7500   -24.4510    61.3340    40.1770    43.0880    44.0100     2.1020 
  143.8750   -24.5020    63.2910    40.2570    43.1720    43.8080     2.1180 
  144.0000   -24.5760    63.8640    42.1340    45.1620    43.6660     2.1710 
  144.1250   -24.6430    63.9520    44.9480    48.1440    43.0330     2.2450 
  144.2500   -24.6840    62.5350    47.4970    50.8460    46.4540     2.2710 
  144.3750   -24.7000    59.8200    48.5450    51.9580    49.6640     2.2100 
  144.5000   -24.7080    58.7740    47.5130    50.8640    44.7740     2.1250 
  144.6250   -24.7220    59.6090    44.7360    47.9200    41.3050     2.0860 
  144.7500   -24.7450    59.0620    41.3360    44.3160    43.1160     2.0890 
  144.8750   -24.7750    57.3360    38.0010    40.7810    42.5480     2.0950 
  145.0000   -24.8080    58.2870    35.3290    37.9490    38.0320     2.0890 
  145.1250   -24.8390    62.3340    33.9970    36.5370    33.9100     2.0830 
  145.2500   -24.8590    65.1150    33.9180    36.4530    32.3170     2.0760 
  145.3750   -24.8570    66.0950    35.1340    37.7420    32.4200     2.0750 
  145.5000   -24.8300    66.1670    37.4280    40.1740    42.0140     2.0790 
  145.6250   -24.7780    64.9760    40.0590    42.9630    64.5080     2.0820 
  145.7500   -24.7170    63.4950    42.0330    45.0550    76.5720     2.0780 
  145.8750   -24.6740    63.1480    42.6860    45.7470    63.9460     2.0740 
  146.0000   -24.6700    63.8130    42.0010    45.0210    47.1680     2.0750 
  146.1250   -24.7200    63.4680    40.4920    43.4220    40.9350     2.0770 
  146.2500   -24.8150    63.2500    39.3480    42.2090    40.2780     2.0770 
  146.3750   -24.9430    63.9540    39.0730    41.9170    40.9340     2.0780 
  146.5000   -25.0910    63.0730    39.1410    41.9900    42.4240     2.0760 
  146.6250   -25.2560    60.5910    37.5530    40.3060    44.6940     2.0730 
  146.7500   -25.4400    61.2750    35.0290    37.6310    48.8910     2.0830 
  146.8750   -25.6480    65.2070    32.7960    35.2640    51.9770     2.1430 
  147.0000   -25.8840    67.7120    32.0460    34.4690    45.7190     2.2700 
  147.1250   -26.1530    65.3120    33.0710    35.5550    44.5660     2.4300 
  147.2500   -26.4430    61.8850    32.7110    35.1730    65.1230     2.5480 
  147.3750   -26.7270    60.5220    28.5310    30.7430    86.8440     2.5720 
  147.5000   -26.9690    60.9370    21.7710    23.5770    85.5880     2.5130 
  147.6250   -27.1280    65.3680    15.0040    16.4040    54.8620     2.4060 
  147.7500   -27.2000    73.9570     9.8570    10.9490    19.1230     2.3010 
  147.8750   -27.1960    83.1360     7.6490     8.6080     6.6470     2.2360 
  148.0000   -27.1600    89.1420     6.7310     7.6350     7.7070     2.2140 
  148.1250   -27.1360    91.3210     6.4260     7.3120     9.0900     2.2290 
  148.2500   -27.1570    91.8080     6.5510     7.4440     8.8510     2.2650 
  148.3750   -27.2400    92.0920     6.7310     7.6340     6.9780     2.3040 
  148.5000   -27.3680    93.1130     6.8250     7.7340     6.1460     2.3280 
  148.6250   -27.5140    93.2820     6.8680     7.7810     6.2080     2.3220 
  148.7500   -27.6900    91.4700     7.0530     7.9760     5.8200     2.3000 
  148.8750   -27.7740    92.4900     7.2920     8.2290     5.6940     2.2870 
  149.0000   -27.8290    94.6730     7.5670     8.5210     7.5040     2.3020 
  149.1250   -27.8730    93.0310     7.8210     8.7900    11.1330     2.3300 
  149.2500   -27.9270    89.2010     7.9400     8.9170    11.3720     2.3360 
  149.3750   -27.9980    88.2990     7.7230     8.6860     8.2480     2.3180 
  149.5000   -28.0730    92.3930     7.3180     8.2570     6.4920     2.2950 
  149.6250   -28.1260    96.2170     6.8810     7.7940     6.0710     2.2750 
  149.7500   -28.1350    96.7110     6.5630     7.4560     6.0050     2.2540 
  149.8750   -28.0910    96.4440     6.4950     7.3850     6.3830     2.2340 
  150.0000   -28.0020    97.1230     6.5280     7.4200     6.7910     2.2290 
  150.1250   -27.8810    96.1240     6.5660     7.4600     7.0200     2.2370 
  150.2500   -27.7520    93.7420     6.5730     7.4670     7.0970     2.2530 
  150.3750   -27.6410    93.4830     6.5670     7.4610     7.2800     2.2760 
  150.5000   -27.5690    93.7140     6.6280     7.5260     7.4630     2.3100 
  150.6250   -27.5490    91.2120     7.1440     8.0730     8.2010     2.3570 
  150.7500   -27.5740    87.3230     8.4990     9.5090     9.9660     2.4060 
  150.8750   -27.6310    84.5260    10.9200    12.0750    13.2290     2.4330 
  151.0000   -27.7000    82.9230    15.3020    16.7200    21.7710     2.4350 
  151.1250   -27.7680    79.7130    21.8990    23.7130    38.9540     2.4160 
  151.2500   -27.8270    74.0060    30.1420    32.4500    52.9910     2.3790 
  151.3750   -27.8740    69.0440    37.4760    40.2240    52.3180     2.3350 
  151.5000   -27.9170    67.3180    42.1910    45.2220    48.5150     2.3080 
  151.6250   -27.9640    66.6910    44.6990    47.8800    50.4170     2.3000 
  151.7500   -28.0150    64.1770    45.5360    48.7680    51.4130     2.3050 
  151.8750   -28.0640    61.1650    46.5540    49.8470    62.0230     2.3250 
  152.0000   -28.1020    60.2680    47.4800    50.8290    79.8740     2.3310 
  152.1250   -28.1200    59.1780    47.2590    50.5950    76.5060     2.3050 
  152.2500   -28.1240    56.9730    43.0790    46.1640    57.1940     2.2750 
  152.3750   -28.1260    55.9060    34.5720    37.1470    42.0340     2.2850 
  152.5000   -28.1380    58.7460    24.5500    26.5230    34.2930     2.3260 
  152.6250   -28.1640    66.1990    15.2330    16.6470    24.6010     2.3590 
  152.7500   -28.1940    74.7340    10.1190    11.2260    12.2920     2.3680 
  152.8750   -28.2050    81.7680     7.9690     8.9470     7.5690     2.3640 
