~V
VERS. 2.00: Ver 2.00
~W
STRT.M 50.0000:
STOP.M 247.0000:
STEP.M 0.1250:
NULL. -999.2500:
UWI. F12010:
~C
DEPT.M :
SP.MV :
GR.API :
RI. :
RML.OHMM :
RXO.OHMM :
DEN.GM/CC :
~A
# ...
  217.3750   -14.1010    89.1290     8.0230     8.9250     8.0070     2.2210 
  217.5000   -14.7330    88.9020     8.1090     9.0140     7.7230     2.2140 
  217.6250   -15.4660    88.2590     8.1820     9.0920     7.5700     2.2140 
  217.7500   -15.9470    87.8980     8.0580     8.9600     7.8670     2.2170 
  217.8750   -16.0030    88.6540     7.6890     8.5730     7.5060     2.2210 
  218.0000   -15.7850    90.3220     7.2030     8.0630     6.3950     2.2300 
  218.1250   -15.4300    89.8130     6.6420     7.4750     5.9810     2.2490 
  218.2500   -15.0420    86.6140     6.2190     7.0300     6.1520     2.2670 
  218.3750   -14.7150    82.5340     5.9970     6.7970     5.9820     2.2750 
  218.5000   -14.5740    78.6360     5.9840     6.7830     5.9080     2.2650 
  218.6250   -14.5990    77.4050     6.2890     7.1030     6.4810     2.2410 
  218.7500   -14.6520    76.8940     6.8600     7.7030     7.2660     2.2200 
  218.8750   -14.7690    76.6850     7.5860     8.4650     8.2650     2.2160 
  219.0000   -14.7770    79.0810     8.2220     9.1330     9.6780     2.2260 
  219.1250   -14.8550    84.0600     8.6440     9.5760    10.1400     2.2350 
  219.2500   -15.0150    87.0160     8.6950     9.6290     9.1660     2.2370 
  219.3750   -15.1860    86.5420     8.4970     9.4220     8.2280     2.2330 
  219.5000   -15.2520    87.2760     8.2810     9.1950     7.8340     2.2250 
  219.6250   -15.4440    90.6550     8.2210     9.1320     7.6960     2.2100 
  219.7500   -15.5950    93.0180     8.4480     9.3700     8.0740     2.1980 
  219.8750   -15.4220    91.4830     8.9290     9.8750     8.5320     2.2090 
  220.0000   -14.7440    87.9260     9.6090    10.5890     8.3190     2.2390 
  220.1250   -13.8570    84.8160    10.4910    11.5160     8.4240     2.2700 
  220.2500   -13.1230    83.2980    11.4510    12.5230     9.3220     2.2900 
  220.3750   -12.9090    82.8010    12.2550    13.3680    16.8230     2.3040 
  220.5000   -13.1260    84.4310    12.8020    13.9420    26.1020     2.3200 
  220.6250   -13.4700    86.9230    12.9660    14.1140    22.5450     2.3260 
  220.7500   -13.7940    86.7560    12.9610    14.1090    14.9330     2.3190 
  220.8750   -13.8550    83.7340    12.9790    14.1280    12.3790     2.3190 
  221.0000   -13.4750    82.5420    13.1840    14.3430    11.9650     2.3420 
  221.1250   -12.9010    84.9730    13.5130    14.6890    12.7580     2.3760 
  221.2500   -12.3970    86.6490    13.7530    14.9400    13.3820     2.3850 
  221.3750   -11.8990    85.0270    13.5400    14.7170    12.6610     2.3570 
  221.5000   -11.6750    82.2840    12.8310    13.9720    10.4810     2.3130 
  221.6250   -11.7390    81.2110    11.8670    12.9600     8.9920     2.2750 
  221.7500   -11.9700    83.1230    10.9470    11.9950     8.9380     2.2510 
  221.8750   -12.2290    87.1360    10.3850    11.4050     9.9890     2.2410 
  222.0000   -12.4550    91.1330    10.1220    11.1290    10.9740     2.2410 
  222.1250   -12.5260    93.2010    10.2420    11.2540    10.7320     2.2570 
  222.2500   -12.6720    93.8220    10.5820    11.6110    10.5480     2.2830 
  222.3750   -12.8670    91.6740    11.0650    12.1180    13.4930     2.3040 
  222.5000   -12.9290    86.6850    11.7620    12.8500    18.3020     2.3070 
  222.6250   -12.9450    83.2550    12.8000    13.9400    20.3210     2.3070 
  222.7500   -12.9940    83.6330    14.0530    15.2550    19.3900     2.3240 
  222.8750   -12.8920    87.2860    15.5710    16.8500    17.5790     2.3580 
  223.0000   -12.4040    90.1380    17.1100    18.4650    17.8190     2.3890 
  223.1250   -11.4830    89.7190    18.3280    19.7440    19.3200     2.3960 
  223.2500   -10.5760    86.8820    18.7610    20.1990    19.9040     2.3700 
  223.3750   -10.0230    84.0630    18.0860    19.4900    19.4240     2.3290 
  223.5000   -10.1010    83.9850    16.5690    17.8970    16.2860     2.2980 
  223.6250   -10.6900    85.9160    14.7720    16.0100    12.8110     2.2800 
  223.7500   -11.4650    88.4010    13.1070    14.2620    11.8360     2.2640 
  223.8750   -12.0880    89.4810    11.8220    12.9130    12.8750     2.2500 
  224.0000   -12.2340    88.8580    10.9210    11.9670    14.9000     2.2450 
  224.1250   -11.9290    87.8660    10.3970    11.4170    14.1960     2.2480 
  224.2500   -11.5260    88.4530    10.2120    11.2220    10.8210     2.2560 
  224.3750   -11.0870    89.7500    10.2720    11.2860    10.7970     2.2650 
  224.5000   -10.6640    89.7160    10.5730    11.6010    14.1630     2.2720 
  224.6250   -10.3150    88.0580    11.0900    12.1440    15.6280     2.2800 
  224.7500   -10.0710    87.9790    11.3500    12.4170    16.3240     2.2830 
  224.8750    -9.7690    89.6010    10.8510    11.8940    17.8040     2.2780 
  225.0000    -9.4470    89.6650     9.5810    10.5600    15.4850     2.2600 
  225.1250    -9.0710    88.1900     7.9000     8.7940     9.4310     2.2250 
  225.2500    -8.6840    86.3510     6.4370     7.2590     5.1270     2.1870 
  225.3750    -8.5280    81.9990     5.5690     6.3470     4.5630     2.1740 
  225.5000    -8.6640    75.4880     5.2120     5.9730     5.2400     2.1970 
  225.6250    -8.8230    71.7920     5.2280     5.9890     5.1570     2.2410 
  225.7500    -9.0030    72.4520     5.4430     6.2150     5.2200     2.2740 
  225.8750    -9.3230    74.5290     5.6580     6.4410     5.7150     2.2740 
  226.0000    -9.2330    73.9610     5.6850     6.4690     5.6410     2.2500 
  226.1250    -8.6180    70.5050     5.5180     6.2930     5.2050     2.2280 
  226.2500    -7.7720    65.5950     5.2660     6.0290     4.9050     2.2160 
  226.3750    -6.9480    63.0540     5.0630     5.8160     4.8000     2.2020 
  226.5000    -6.5480    64.5530     4.9820     5.7310     4.8190     2.1870 
  226.6250    -6.8040    68.5750     5.0080     5.7580     4.9150     2.1810 
  226.7500    -7.4800    72.7820     5.0690     5.8230     5.2470     2.1820 
  226.8750    -8.0960    75.5110     5.0800     5.8340     5.6610     2.1940 
  227.0000    -8.5040    76.4470     5.0400     5.7920     5.6130     2.2250 
  227.1250    -8.4670    75.1770     4.9260     5.6720     5.0270     2.2520 
  227.2500    -8.0740    73.1290     4.8070     5.5480     4.5150     2.2470 
  227.3750    -7.6520    71.6140     4.7450     5.4820     4.6560     2.2220 
  227.5000    -7.4400    71.2690     4.7510     5.4880     5.1250     2.2040 
  227.6250    -7.5380    72.1880     4.8040     5.5440     5.3520     2.1980 
  227.7500    -7.8020    72.9610     4.8510     5.5940     5.3300     2.1990 
  227.8750    -8.0750    70.9010     4.8790     5.6230     5.1760     2.2160 
  228.0000    -8.1960    67.0450     4.8640     5.6070     5.2240     2.2420 
  228.1250    -8.3870    65.3860     4.8610     5.6050     5.1660     2.2530 
  228.2500    -8.5760    67.9580     4.9000     5.6450     4.6690     2.2480 
  228.3750    -8.5380    70.4450     4.9730     5.7220     4.7500     2.2510 
  228.5000    -8.4400    69.5940     5.0730     5.8260     5.6730     2.2720 
  228.6250    -8.3920    67.3600     5.1560     5.9140     6.3500     2.2970 
  228.7500    -8.2230    67.0350     5.1660     5.9250     6.2970     2.3050 
  228.8750    -8.1820    68.2590     5.1180     5.8730     6.0320     2.2890 
  229.0000    -8.6470    69.7950     5.0470     5.8000     5.9000     2.2560 
  229.1250    -8.8080    71.5480     5.0440     5.7960     5.7860     2.2200 
  229.2500    -8.5690    73.1300     5.1040     5.8590     5.7440     2.2010 
  229.3750    -8.0960    73.9100     5.2400     6.0020     5.6040     2.2200 
  229.5000    -7.4530    75.4530     5.3770     6.1460     5.1570     2.2530 
  229.6250    -6.8900    77.4030     5.4820     6.2560     4.8620     2.2670 
  229.7500    -6.7040    77.8550     5.5200     6.2960     5.5640     2.2590 
  229.8750    -6.9260    76.5390     5.5050     6.2800     7.1820     2.2570 
  230.0000    -7.3410    75.8350     5.4710     6.2450     7.7270     2.2710 
  230.1250    -7.8910    75.6630     5.3940     6.1630     6.5470     2.2820 
