~V
VERS. 2.00: Ver 2.00
~W
STRT.M 50.0000:
STOP.M 178.0000:
STEP.M 0.1250:
NULL. -999.2500:
UWI. F12004:
~C
DEPT.M :
SP.MV :
GR.API :
RI. :
RML.OHMM :
RXO.OHMM :
DEN.GM/CC :
~A
# ...
   62.8750   107.7610    50.1420     7.4590     8.0710     3.3210     2.1290 
   63.0000   107.9690    50.4490     7.3420     7.9650     3.1960     2.1120 
   63.1250   107.9560    48.8230     7.2690     7.9030     3.1020     2.0990 
   63.2500   107.8880    48.0800     7.2560     7.9000     3.1040     2.1000 
   63.3750   107.9760    48.8510     7.2880     7.9430     3.2010     2.1080 
   63.5000   108.0270    49.6060     7.3540     8.0240     3.3010     2.1090 
   63.6250   108.0050    49.5610     7.3560     8.0200     3.2690     2.1020 
   63.7500   107.9520    50.3510     7.2740     7.9220     3.2030     2.0990 
   63.8750   108.0470    50.4640     7.1070     7.7380     3.2410     2.1060 
   64.0000   108.0030    49.8690     6.8980     7.5240     3.4390     2.1200 
   64.1250   107.8180    50.5440     6.7260     7.3610     3.5970     2.1240 
   64.2500   107.5450    51.7880     6.6320     7.2970     3.4130     2.1120 
   64.3750   107.2470    51.3860     6.6220     7.3210     3.1830     2.0940 
   64.5000   106.7990    49.3920     6.6360     7.3640     3.2320     2.0930 
   64.6250   106.4820    48.9010     6.6510     7.4060     3.3670     2.1060 
   64.7500   106.4370    50.4720     6.6300     7.3950     3.4800     2.1250 
   64.8750   106.4720    52.8290     6.5650     7.3320     3.6830     2.1400 
   65.0000   106.2090    55.3660     6.4620     7.2140     3.8630     2.1480 
   65.1250   105.4740    58.6610     6.3440     7.0810     3.9220     2.1410 
   65.2500   104.3580    61.6400     6.3740     7.1180     3.9580     2.1380 
   65.3750   102.7680    63.1000     6.6210     7.4020     4.0810     2.1820 
   65.5000   101.3060    62.9310     7.0130     7.8600     4.8270     2.2900 
   65.6250    99.7300    61.7820     7.3550     8.2640     5.6720     2.4150 
   65.7500    98.1290    60.4900     7.4720     8.4030     5.2130     2.4640 
   65.8750    96.8220    58.9850     7.2250     8.1210     4.1950     2.3890 
   66.0000    95.7860    58.1780     6.7440     7.5590     3.7890     2.2590 
   66.1250    94.8870    59.2940     6.2140     6.9540     3.7030     2.1660 
   66.2500    94.1550    60.6440     5.7790     6.4740     3.6920     2.1330 
   66.3750    93.6870    60.0830     5.6310     6.3300     3.7890     2.1380 
   66.5000    93.4230    57.8500     5.6430     6.3780     3.8670     2.1480 
   66.6250    93.3530    56.5170     5.7380     6.5000     3.8320     2.1500 
   66.7500    93.4290    56.0860     5.8210     6.5930     3.8050     2.1540 
   66.8750    93.5750    55.6720     5.8570     6.6210     3.8360     2.1580 
   67.0000    93.7850    55.8910     5.8810     6.6330     3.8240     2.1540 
   67.1250    93.9190    58.0150     5.8830     6.6140     3.7170     2.1430 
   67.2500    93.9550    60.1710     5.8960     6.6280     3.7330     2.1500 
   67.3750    93.8870    61.8320     6.0200     6.8580     4.0800     2.1790 
   67.5000    93.9920    63.1500     6.3480     7.4300     4.3360     2.1980 
   67.6250    93.8800    63.4930     6.8880     8.3320     4.4570     2.1940 
   67.7500    93.6800    59.9270     7.5630     9.3760     5.3390     2.1880 
   67.8750    93.6280    54.2060     8.1590    10.4910     6.9080     2.1800 
   68.0000    93.8060    50.4870     8.4640    11.2200     7.5480     2.1630 
   68.1250    94.1570    50.8690     8.3200    11.1470     6.5030     2.1420 
   68.2500    94.4470    52.4560     7.7840    10.2290     5.0910     2.1350 
   68.3750    94.4530    52.7570     7.1420     8.8860     4.3660     2.1470 
   68.5000    94.2470    50.7290     6.7160     7.8180     4.0040     2.1620 
   68.6250    94.1240    49.3280     6.5730     7.3220     3.7300     2.1670 
   68.7500    94.1110    51.5240     6.6240     7.2410     3.5790     2.1630 
   68.8750    94.2910    55.3590     6.6890     7.2490     3.5410     2.1610 
   69.0000    94.5750    56.4310     6.6500     7.1660     3.5960     2.1630 
   69.1250    94.7720    55.1710     6.4820     6.9620     3.6850     2.1690 
   69.2500    94.8060    54.5360     6.2610     6.7050     3.7400     2.1730 
   69.3750    94.7370    55.0270     6.0380     6.4490     3.7580     2.1740 
   69.5000    94.5590    55.9940     5.9220     6.3210     3.7720     2.1710 
   69.6250    94.3920    56.1730     6.0290     6.4480     3.7720     2.1670 
   69.7500    94.3350    56.1570     6.2940     6.7510     3.7610     2.1680 
   69.8750    94.3280    56.4900     6.7270     7.2550     4.1180     2.1730 
   70.0000    94.4640    57.2380     7.3580     7.9710     4.9160     2.1750 
   70.1250    94.9740    57.3700     8.2550     8.9970     5.5160     2.1660 
   70.2500    95.6740    55.4430     9.4330    10.3520     5.9780     2.1510 
   70.3750    96.3950    51.2090    10.7930    11.9400     6.9230     2.1380 
   70.5000    96.8540    46.5550    12.2260    13.5980     8.1080     2.1380 
   70.6250    97.0050    44.5680    13.3810    14.9470     9.0420     2.1540 
   70.7500    97.1420    44.9540    13.9910    15.5860     9.0980     2.1700 
   70.8750    97.4200    44.7330    14.0050    15.5880     7.9790     2.1710 
   71.0000    97.8270    44.0440    13.5550    15.0600     7.1210     2.1580 
   71.1250    98.2380    45.0500    12.8640    14.3410     7.2060     2.1390 
   71.2500    98.6440    47.2730    12.2320    13.7620     7.4220     2.1270 
   71.3750    98.9700    47.8140    12.0400    13.6350     7.3970     2.1390 
   71.5000    99.2790    46.3330    12.6460    14.4000    10.2340     2.2060 
   71.6250    99.5790    45.4790    14.2800    16.3420    23.1680     2.3470 
   71.7500    99.8110    45.9720    17.0420    19.5840    39.2190     2.5080 
   71.8750    99.9500    47.3390    20.0160    23.0190    44.5700     2.6150 
   72.0000    99.9870    48.6290    21.0020    23.9860    43.2870     2.6470 
   72.1250    99.9350    49.8990    19.3330    22.9660    36.2680     2.6090 
   72.2500    99.7770    51.7570    15.5930    18.2410    21.0410     2.5010 
   72.3750    99.7190    54.1630    11.5130    13.2890     8.6940     2.3500 
   72.5000    99.8550    56.8310     8.7640    10.0580     5.0220     2.2350 
   72.6250   100.2160    58.3020     7.3930     8.4950     4.8560     2.1930 
   72.7500   100.7810    57.6260     6.6290     7.6630     4.6150     2.1890 
   72.8750   101.2520    55.8210     6.1940     7.1620     4.3820     2.1930 
   73.0000   101.4220    56.5170     5.8160     6.6670     4.2360     2.2140 
   73.1250   101.3710    63.5450     5.4300     6.1390     3.6590     2.2500 
   73.2500   101.0820    72.6920     5.1010     5.6810     3.0900     2.2720 
   73.3750   100.3890    76.8030     4.9650     5.4410     3.2150     2.2570 
   73.5000    99.1190    74.8470     4.9190     5.3540     3.5790     2.2250 
   73.6250    97.7100    70.9150     4.9720     5.3800     3.6940     2.2110 
   73.7500    96.7830    68.6620     5.0260     5.4090     3.6800     2.2210 
   73.8750    96.3390    68.4270     5.0120     5.3820     3.6890     2.2390 
   74.0000    96.1320    69.3430     4.9510     5.2850     3.9650     2.2550 
   74.1250    96.0540    70.0440     4.8640     5.1830     4.2630     2.2670 
   74.2500    95.9890    69.8900     4.8100     5.1250     4.2680     2.2670 
   74.3750    95.8720    68.3630     4.8690     5.1890     4.4480     2.2550 
   74.5000    95.7280    65.6180     5.0900     5.4300     4.5710     2.2350 
   74.6250    95.6270    62.0560     5.8190     6.2410     4.3890     2.2210 
   74.7500    95.5620    59.2420     7.1730     7.7600     6.7450     2.2490 
   74.8750    95.4740    58.2140     9.2370    10.2130    15.7390     2.3660 
   75.0000    95.3660    58.2080    11.8150    13.1470    25.3330     2.4990 
   75.1250    95.2110    57.7310    13.8260    15.3260    22.9150     2.5080 
   75.2500    95.0500    55.8160    14.5850    15.5780    12.7560     2.3780 
   75.3750    94.8990    53.2370    13.9930    14.8640     7.8060     2.2230 
   75.5000    95.0130    51.0440    12.7800    13.8590     7.6890     2.1350 
   75.6250    95.5250    50.3480    12.2290    13.3470     8.0120     2.1050 
