~V
VERS. 2.00: Ver 2.00
~W
STRT.M 50.0000:
STOP.M 300.0000:
STEP.M 0.1250:
NULL. -999.2500:
UWI. F12002:
~C
DEPT.M :
SP.MV :
GR.API :
RI. :
RML.OHMM :
RXO.OHMM :
DEN.GM/CC :
~A
# ...
  140.1250   -32.0870    82.9130     4.2390     4.9930     5.2050     2.2510 
  140.2500   -32.0510    85.3820     4.1080     4.8540     5.1280     2.2800 
  140.3750   -31.9080    90.8310     3.9440     4.6800     4.8480     2.2940 
  140.5000   -31.6790    94.6110     3.7830     4.5100     4.5150     2.2910 
  140.6250   -31.4100    93.7840     3.6380     4.3570     4.3910     2.2790 
  140.7500   -31.1590    90.4670     3.5220     4.2330     4.4470     2.2730 
  140.8750   -30.9700    89.5110     3.5300     4.2420     4.4400     2.2770 
  141.0000   -30.8640    90.1350     3.7880     4.5160     4.3710     2.2920 
  141.1250   -30.8630    87.9220     4.4260     5.1920     4.6160     2.3370 
  141.2500   -30.9660    80.9520     5.4470     6.2740    12.8140     2.4100 
  141.3750   -31.1790    73.1090     6.6250     7.5220    31.2200     2.4780 
  141.5000   -31.4850    68.2710     7.5770     8.5310    36.6830     2.4920 
  141.6250   -31.8840    64.8410     7.7460     8.7110    22.2990     2.4270 
  141.7500   -32.3700    62.3710     7.1350     8.0630    10.3630     2.3230 
  141.8750   -32.9690    62.7040     6.0510     6.9140     6.7270     2.2400 
  142.0000   -33.6850    64.7010     5.0960     5.9020     5.8540     2.2020 
  142.1250   -34.5140    64.0870     4.6850     5.4660     6.1680     2.1820 
  142.2500   -35.3870    61.2050     4.7090     5.4910     6.2980     2.1660 
  142.3750   -36.2050    59.1940     4.8710     5.6630     6.2430     2.1690 
  142.5000   -36.8770    60.4720     4.9910     5.7910     5.9020     2.1920 
  142.6250   -37.3280    64.0450     4.9640     5.7620     5.3930     2.2120 
  142.7500   -37.5640    68.0330     4.8400     5.6310     5.0360     2.2140 
  142.8750   -37.6010    69.6010     4.6950     5.4760     5.1040     2.2080 
  143.0000   -37.5150    68.7420     4.5810     5.3560     5.4510     2.2100 
  143.1250   -37.3750    69.4150     4.5100     5.2810     5.5580     2.2300 
  143.2500   -37.2510    72.5480     4.4170     5.1820     5.4820     2.2510 
  143.3750   -37.1740    75.9240     4.2850     5.0420     5.3230     2.2570 
  143.5000   -37.1330    76.0230     4.1450     4.8940     5.1200     2.2470 
  143.6250   -37.1190    73.8180     4.0710     4.8150     5.0880     2.2330 
  143.7500   -37.1510    71.8020     4.1150     4.8620     5.1380     2.2210 
  143.8750   -37.2910    69.9700     4.2920     5.0500     5.4930     2.2100 
  144.0000   -37.5790    66.3620     4.5700     5.3450     6.1960     2.1950 
  144.1250   -38.0320    62.9840     4.9290     5.7240     6.4310     2.1820 
  144.2500   -38.5900    63.2130     5.3160     6.1350     6.2760     2.1800 
  144.3750   -39.1770    64.8240     5.7020     6.5450     6.4210     2.1830 
  144.5000   -39.7080    64.3870     6.0040     6.8650     6.5920     2.1770 
  144.6250   -40.1160    62.5850     6.1130     6.9800     6.6360     2.1610 
  144.7500   -40.3830    61.3110     6.0540     6.9170     6.7650     2.1520 
  144.8750   -40.4900    60.6780     5.8330     6.6830     6.6700     2.1570 
  145.0000   -40.4520    60.3450     5.5430     6.3750     6.3120     2.1700 
  145.1250   -40.2530    61.4440     5.2480     6.0630     6.0930     2.1840 
  145.2500   -39.8970    63.4330     4.9730     5.7710     6.0450     2.1950 
  145.3750   -39.3750    67.1740     4.7860     5.5730     5.6680     2.2020 
  145.5000   -38.7150    71.0440     4.6370     5.4150     4.9360     2.2060 
  145.6250   -37.9420    72.1730     4.4470     5.2140     4.8310     2.2110 
  145.7500   -37.1160    72.5200     4.2300     4.9840     5.3090     2.2240 
  145.8750   -36.2830    75.9500     4.0060     4.7460     5.0990     2.2400 
  146.0000   -35.4730    81.0190     3.7850     4.5120     4.2200     2.2540 
  146.1250   -34.6860    83.7830     3.6050     4.3210     3.7860     2.2680 
  146.2500   -33.9030    84.9730     3.4380     4.1440     3.9430     2.2860 
  146.3750   -33.1220    85.8370     3.3020     4.0000     3.9880     2.3030 
  146.5000   -32.3730    84.5280     3.2200     3.9130     3.7680     2.3120 
  146.6250   -31.7160    79.7200     3.1490     3.8380     3.6390     2.3150 
  146.7500   -31.1960    74.8300     3.0790     3.7640     3.7270     2.3140 
  146.8750   -30.8650    73.9960     3.0560     3.7390     3.7880     2.3150 
  147.0000   -30.7320    77.8130     3.1330     3.8210     3.6940     2.3200 
  147.1250   -30.8220    83.6340     3.3270     4.0270     3.7360     2.3240 
  147.2500   -31.1070    87.2900     3.6930     4.4140     4.0840     2.3350 
  147.3750   -31.5680    86.3540     4.3160     5.0750     4.9890     2.3710 
  147.5000   -32.1460    80.6150     5.0130     5.8130     5.9280     2.4200 
  147.6250   -32.7970    73.9950     5.5950     6.4310     6.3790     2.4300 
  147.7500   -33.4790    69.6450     5.8900     6.7440     6.5510     2.3700 
  147.8750   -34.1750    68.2860     5.8040     6.6520     6.1120     2.2740 
  148.0000   -34.8830    68.4380     5.5250     6.3560     5.6580     2.2070 
  148.1250   -35.6140    69.2150     5.2340     6.0480     5.7410     2.1900 
  148.2500   -36.3670    69.2330     5.0420     5.8450     5.9470     2.1950 
  148.3750   -37.1230    69.2260     4.9900     5.7900     6.0660     2.2020 
  148.5000   -37.8440    70.7320     5.0500     5.8530     6.0190     2.2100 
  148.6250   -38.4930    71.6160     5.1300     5.9380     5.9790     2.2070 
  148.7500   -39.2790    68.4080     5.2830     6.1000     6.4490     2.1890 
  148.8750   -39.7730    66.9880     5.4900     6.3190     6.9170     2.1650 
  149.0000   -40.2390    68.8250     5.7680     6.6140     7.0780     2.1530 
  149.1250   -40.6820    70.3810     6.0750     6.9400     7.1010     2.1540 
  149.2500   -41.0860    68.8660     6.3420     7.2220     7.2780     2.1550 
  149.3750   -41.4100    66.4300     6.5130     7.4030     7.5420     2.1460 
  149.5000   -41.6240    64.4900     6.5740     7.4690     7.8190     2.1310 
  149.6250   -41.6960    63.8740     6.5300     7.4220     8.1320     2.1220 
  149.7500   -41.6450    65.0420     6.4390     7.3260     8.2540     2.1240 
  149.8750   -41.4980    66.8970     6.3710     7.2530     8.0610     2.1310 
  150.0000   -41.3110    66.0010     6.3590     7.2410     7.8510     2.1330 
  150.1250   -41.1270    63.2150     6.4170     7.3020     7.8910     2.1280 
  150.2500   -40.9690    63.2770     6.4990     7.3890     7.9930     2.1260 
  150.3750   -40.8330    63.9020     6.5420     7.4340     7.8850     2.1270 
  150.5000   -40.6900    62.6930     6.4290     7.3150     7.7710     2.1270 
  150.6250   -40.4950    63.6290     6.1490     7.0170     7.7720     2.1420 
  150.7500   -40.2250    68.9820     5.7530     6.5980     7.2260     2.1800 
  150.8750   -39.8780    75.5040     5.3410     6.1620     6.0010     2.2140 
  151.0000   -39.5090    79.2540     5.0140     5.8150     5.3830     2.2200 
  151.1250   -39.2110    80.7000     4.7850     5.5720     5.7860     2.2060 
  151.2500   -39.0760    79.3090     4.6850     5.4660     6.2030     2.1940 
  151.3750   -39.1930    74.6910     4.7420     5.5270     6.1050     2.1840 
  151.5000   -39.5460    71.0820     4.9570     5.7550     5.8330     2.1710 
  151.6250   -40.0780    69.9420     5.3050     6.1230     6.1630     2.1570 
  151.7500   -40.6620    67.0410     5.7610     6.6060     7.2090     2.1460 
  151.8750   -41.1890    61.5260     6.2330     7.1070     7.9960     2.1320 
  152.0000   -41.6040    59.5460     6.6250     7.5220     8.0510     2.1200 
  152.1250   -41.8860    62.7760     6.7600     7.6660     7.8640     2.1130 
  152.2500   -42.0720    66.6810     6.6530     7.5520     7.7270     2.1190 
  152.3750   -42.1980    68.7190     6.3900     7.2740     7.6260     2.1320 
  152.5000   -42.3050    69.7360     6.1160     6.9830     7.5080     2.1410 
  152.6250   -42.4160    70.4380     5.9410     6.7970     7.3130     2.1430 
  152.7500   -42.5380    71.0920     5.8570     6.7080     7.2470     2.1410 
  152.8750   -42.6710    71.7330     5.8770     6.7290     7.4400     2.1400 
