~V
VERS. 2.00: Ver 2.00
~W
STRT.M 50.0000:
STOP.M 247.0000:
STEP.M 0.1250:
NULL. -999.2500:
UWI. F12010:
~C
DEPT.M :
SP.MV :
GR.API :
RI. :
RML.OHMM :
RXO.OHMM :
DEN.GM/CC :
~A
# ...
  204.5000    -8.9110    67.0170    67.0800    70.9340    54.9150     2.1920 
  204.6250    -8.5640    68.9090    72.2240    76.3350    38.6780     2.2130 
  204.7500    -8.7080    70.8370    79.4700    83.9440    47.1060     2.2640 
  204.8750    -9.2470    71.1800    86.4500    91.2720    67.3980     2.2810 
  205.0000    -9.9830    68.1030    86.4670    91.2900    73.3150     2.2040 
  205.1250   -10.7460    62.4250    74.9660    79.2140    81.5050     2.0980 
  205.2500   -11.5050    60.2550    56.5090    59.8340    79.5760     2.1020 
  205.3750   -11.8530    61.9520    36.5220    38.8480    39.2490     2.2290 
  205.5000   -11.9360    65.0260    23.4460    25.1180     8.4490     2.3330 
  205.6250   -11.7210    68.7650    18.0700    19.4740     6.7680     2.3340 
  205.7500   -11.3870    73.4200    17.6130    18.9940    13.2630     2.3060 
  205.8750   -11.2510    75.4240    20.8600    22.4030    36.3210     2.3210 
  206.0000   -11.1460    73.1200    30.6080    32.6390    68.7920     2.3570 
  206.1250   -11.0920    69.2200    47.9840    50.8830    83.1320     2.3750 
  206.2500   -10.9760    66.6140    66.3800    70.1990    87.1530     2.3950 
  206.3750   -10.7980    65.0030    77.2860    81.6510    86.9030     2.4510 
  206.5000   -10.7020    63.4230    71.4440    75.5160    66.5690     2.5240 
  206.6250   -10.7020    59.9900    52.2170    55.3280    44.5810     2.5720 
  206.7500   -10.8240    55.9920    31.8680    33.9610    31.5090     2.5850 
  206.8750   -11.0540    54.2070    16.4120    17.7330    17.5270     2.5510 
  207.0000   -11.1700    54.9720    10.1410    11.1480     7.8890     2.4860 
  207.1250   -11.2200    54.9650     7.1270     7.9840     5.4360     2.4120 
  207.2500   -11.5260    52.3780     5.5220     6.2980     5.0890     2.3610 
  207.3750   -11.8380    50.2050     4.8380     5.5800     4.5990     2.3370 
  207.5000   -11.8380    51.6400     4.6170     5.3470     4.4660     2.3330 
  207.6250   -11.4870    54.1870     4.6850     5.4190     4.7100     2.3440 
  207.7500   -11.2410    54.9070     4.8390     5.5810     4.7610     2.3540 
  207.8750   -11.4220    53.6780     5.0040     5.7540     4.8680     2.3510 
  208.0000   -12.1560    52.3780     5.1220     5.8780     5.1790     2.3430 
  208.1250   -13.1970    51.8310     5.1870     5.9460     5.2910     2.3360 
  208.2500   -13.9770    51.4230     5.2170     5.9780     4.9670     2.3300 
  208.3750   -14.6160    51.2630     5.2870     6.0510     4.6150     2.3260 
  208.5000   -14.8830    50.5500     5.3420     6.1090     5.0560     2.3240 
  208.6250   -14.6280    49.2080     5.3410     6.1080     5.7170     2.3280 
  208.7500   -14.4890    48.6240     5.2490     6.0110     5.7110     2.3310 
  208.8750   -14.3760    48.0080     5.1030     5.8580     5.4360     2.3330 
  209.0000   -14.2010    46.6380     4.9420     5.6900     5.2470     2.3380 
  209.1250   -14.2210    46.1820     4.8270     5.5680     5.3250     2.3430 
  209.2500   -14.1540    47.4400     4.7580     5.4960     5.7760     2.3370 
  209.3750   -13.9670    49.7780     4.6860     5.4210     6.0430     2.2910 
  209.5000   -13.8890    50.9600     4.6120     5.3430     5.7640     2.2280 
  209.6250   -13.7940    52.2640     4.5380     5.2650     5.2700     2.2040 
  209.7500   -13.5940    54.6840     4.4790     5.2030     4.9880     2.2370 
  209.8750   -13.5920    57.5640     4.5040     5.2290     5.3550     2.2960 
  210.0000   -13.8210    63.0110     4.6530     5.3850     6.2230     2.3360 
  210.1250   -14.1840    73.4980     4.9180     5.6640     6.6300     2.3500 
  210.2500   -14.8110    84.1060     5.1740     5.9320     6.7820     2.3540 
  210.3750   -15.5780    89.6070     5.3770     6.1450     7.2520     2.3650 
  210.5000   -16.0560    91.7190     5.4730     6.2470     7.2080     2.3820 
  210.6250   -15.8510    93.5410     5.4400     6.2120     6.7670     2.3880 
  210.7500   -15.1030    94.7850     5.3250     6.0910     6.7090     2.3820 
  210.8750   -14.2380    93.3500     5.1450     5.9030     6.5100     2.3680 
  211.0000   -13.6350    91.7650     4.9690     5.7170     6.3340     2.3490 
  211.1250   -13.7180    91.5340     4.8470     5.5900     6.6530     2.3380 
  211.2500   -14.1400    91.7910     4.8530     5.5950     6.7980     2.3290 
  211.3750   -14.5760    90.8850     4.9030     5.6480     6.7400     2.3140 
  211.5000   -14.9570    89.2480     5.0380     5.7900     6.7250     2.2970 
  211.6250   -15.0960    90.4470     5.1830     5.9420     6.6760     2.3030 
  211.7500   -14.6820    93.2350     5.2310     5.9930     7.1500     2.3240 
  211.8750   -13.9790    94.3140     5.2140     5.9750     7.2560     2.3300 
  212.0000   -13.1130    91.6990     5.2170     5.9770     6.2600     2.3140 
  212.1250   -12.3550    88.3610     5.2910     6.0550     5.9620     2.2980 
  212.2500   -11.7430    86.2920     5.4780     6.2520     7.0170     2.2900 
  212.3750   -11.3680    85.9580     5.8420     6.6340     8.1630     2.2880 
  212.5000   -11.3290    85.7820     6.2130     7.0240     8.4450     2.2860 
  212.6250   -11.3460    85.8530     6.3870     7.2060     8.0700     2.2790 
  212.7500   -11.4240    87.9270     6.3090     7.1240     7.2350     2.2680 
  212.8750   -11.5880    90.9190     5.8980     6.6930     6.1380     2.2580 
  213.0000   -11.7800    91.7660     5.3970     6.1670     5.6990     2.2540 
  213.1250   -12.0430    88.5960     5.0340     5.7860     5.6430     2.2540 
  213.2500   -12.2680    86.5920     4.8580     5.6010     5.4150     2.2590 
  213.3750   -12.6160    88.6470     4.9500     5.6980     5.5380     2.2660 
  213.5000   -12.9770    90.8590     5.4070     6.1770     6.3040     2.2650 
  213.6250   -13.1190    89.8900     6.2680     7.0820     7.1450     2.2530 
  213.7500   -13.0580    88.8060     7.6680     8.5510     8.4660     2.2390 
  213.8750   -12.5280    89.3000     9.7570    10.7450    11.9730     2.2310 
  214.0000   -11.8410    88.9190    12.1470    13.2540    15.8040     2.2270 
  214.1250   -11.4150    85.8460    14.5950    15.8250    17.4200     2.2240 
  214.2500   -11.3530    83.5680    16.5790    17.9080    17.8500     2.2230 
  214.3750   -11.6240    84.1990    17.8610    19.2550    19.2930     2.2240 
  214.5000   -12.0070    86.0500    18.6650    20.0980    20.9870     2.2260 
  214.6250   -12.3920    85.4590    18.1890    19.5990    21.8110     2.2260 
  214.7500   -12.5390    81.1030    16.2810    17.5950    26.9500     2.2250 
  214.8750   -12.0510    75.1830    13.6590    14.8420    28.3590     2.2250 
  215.0000   -11.3590    71.4490    10.8880    11.9330    17.1450     2.2220 
  215.1250   -10.8360    70.8440     9.1740    10.1330     7.9020     2.2110 
  215.2500   -10.6470    72.7810     8.5290     9.4560     7.4750     2.1970 
  215.3750   -10.7270    78.1240     8.7770     9.7160     9.7830     2.1890 
  215.5000   -11.0810    83.1070     9.4840    10.4580    12.1070     2.1940 
  215.6250   -11.4830    85.1770    10.3140    11.3300    12.7660     2.2030 
  215.7500   -11.8710    86.2950    10.9000    11.9450    11.7090     2.2090 
  215.8750   -12.3170    88.4890    11.0450    12.0970    10.8270     2.2110 
  216.0000   -12.7560    88.7080    11.0900    12.1450    12.3320     2.2150 
  216.1250   -13.1600    86.3800    11.2050    12.2660    15.0890     2.2240 
  216.2500   -13.5670    85.0780    11.3410    12.4080    14.8060     2.2250 
  216.3750   -13.9180    85.6560    11.3480    12.4160    12.0150     2.2180 
  216.5000   -14.3670    85.7650    11.0840    12.1380    10.2460     2.2140 
  216.6250   -14.8180    85.2680    10.5300    11.5560     9.6160     2.2210 
  216.7500   -14.9570    83.9060     9.7520    10.7390     9.2790     2.2290 
  216.8750   -14.6600    83.5070     9.0190     9.9700     9.0830     2.2300 
  217.0000   -14.1160    84.9210     8.4760     9.3990     8.8560     2.2310 
  217.1250   -13.6360    88.2550     8.1240     9.0300     8.3980     2.2360 
  217.2500   -13.6180    89.3460     8.0130     8.9140     8.0710     2.2330 
