~V
VERS. 2.00: Ver 2.00
~W
STRT.M 50.0000:
STOP.M 226.0000:
STEP.M 0.1250:
NULL. -999.2500:
UWI. F12001:
~C
DEPT.M :
SP.MV :
GR.API :
RI. :
RML.OHMM :
RXO.OHMM :
DEN.GM/CC :
~A
# ...
  165.8750    -2.4480    85.6420    18.3500    21.0130    17.7590     2.2690 
  166.0000    -2.6970    85.7030    18.0100    20.5400    17.0730     2.2620 
  166.1250    -2.9480    82.3370    17.8380    20.3010    15.8230     2.2610 
  166.2500    -3.1010    81.0870    17.7920    20.2940    16.4870     2.2690 
  166.3750    -3.2210    82.7320    17.9620    20.5730    17.2620     2.2810 
  166.5000    -3.3650    84.0010    18.2480    20.9470    16.6140     2.2850 
  166.6250    -3.4640    84.1520    18.6370    21.4340    16.9370     2.2820 
  166.7500    -3.4910    86.0070    19.0180    21.8960    18.2060     2.2710 
  166.8750    -3.5550    87.7810    19.3000    22.2550    19.2470     2.2600 
  167.0000    -3.6430    87.0850    19.6430    22.7080    20.7840     2.2600 
  167.1250    -3.7840    84.3660    20.0360    23.1880    21.5340     2.2750 
  167.2500    -3.9310    82.7220    20.3960    23.6160    20.6860     2.2960 
  167.3750    -4.0280    83.4630    20.6420    23.9240    20.6170     2.3130 
  167.5000    -4.0600    83.4950    20.7670    24.1110    21.5540     2.3210 
  167.6250    -4.0540    80.9590    20.7950    24.1740    21.1900     2.3210 
  167.7500    -4.0160    79.5190    20.7370    24.1370    20.5350     2.3210 
  167.8750    -4.0160    81.2770    20.5340    23.9440    21.2530     2.3230 
  168.0000    -3.9960    83.1670    20.2660    23.6530    21.1030     2.3210 
  168.1250    -3.9250    82.3450    19.8260    23.1400    19.6850     2.3130 
  168.2500    -3.8200    82.8970    19.3800    22.6260    18.9600     2.3040 
  168.3750    -3.7310    84.3890    19.1120    22.3360    17.5800     2.3000 
  168.5000    -3.7180    84.2690    19.0430    22.3300    15.4240     2.3010 
  168.6250    -3.7480    83.4120    19.4510    22.9470    16.5290     2.3040 
  168.7500    -3.7890    85.2390    20.1590    23.9540    18.9180     2.3110 
  168.8750    -3.7470    86.9300    20.7610    24.7780    19.8560     2.3230 
  169.0000    -3.7790    86.0910    20.8510    24.8890    21.1110     2.3340 
  169.1250    -3.8470    85.8520    20.2850    24.0950    20.9250     2.3380 
  169.2500    -3.8770    87.2750    19.2070    22.6270    19.0660     2.3300 
  169.3750    -3.8940    87.8150    18.0320    21.0960    17.2710     2.3110 
  169.5000    -3.9350    87.2060    17.3810    20.2920    15.7320     2.2880 
  169.6250    -3.9620    88.0010    17.5010    20.4760    15.7530     2.2820 
  169.7500    -4.0260    89.7220    18.5670    21.8760    16.5850     2.3000 
  169.8750    -4.0600    90.3730    20.1120    23.8760    17.9070     2.3310 
  170.0000    -4.0260    88.5430    21.3320    25.4420    20.5950     2.3540 
  170.1250    -3.9030    85.0030    21.5130    25.6810    21.8570     2.3590 
  170.2500    -3.7620    82.6420    20.4300    24.2890    19.2580     2.3490 
  170.3750    -3.6790    83.3730    18.5840    21.9600    14.3130     2.3270 
  170.5000    -3.5990    85.7000    16.6470    19.5850    11.6440     2.3010 
  170.6250    -3.5600    86.6570    15.2360    17.9660    12.0450     2.2800 
  170.7500    -3.5140    86.0060    14.4210    17.1100    13.9250     2.2730 
  170.8750    -3.5580    84.9320    14.1560    16.9300    15.8260     2.2770 
  171.0000    -3.6300    85.4430    14.4090    17.3210    14.6630     2.2740 
  171.1250    -3.7260    87.6610    15.0790    18.1640    12.6910     2.2690 
  171.2500    -3.7350    89.6890    16.0150    19.3130    15.9840     2.2760 
  171.3750    -3.6060    89.5340    17.3030    20.9150    23.4350     2.2950 
  171.5000    -3.3960    89.4370    18.9770    23.0230    24.7490     2.3030 
  171.6250    -3.1840    88.9800    20.8590    25.3510    18.2310     2.2950 
  171.7500    -3.0400    88.9660    22.6550    27.5970    14.5250     2.2810 
  171.8750    -2.9430    87.7980    23.8000    29.0140    16.3830     2.2660 
  172.0000    -2.8840    84.3850    23.8270    28.9920    20.3610     2.2550 
  172.1250    -2.8510    80.1470    22.8800    27.7500    23.3070     2.2560 
  172.2500    -2.8230    77.8380    21.0860    25.3840    20.7930     2.2640 
  172.3750    -2.8840    80.9740    19.0640    22.7610    15.6320     2.2660 
  172.5000    -2.9650    86.8780    17.4220    20.6920    17.5430     2.2560 
  172.6250    -3.0240    89.7160    16.5500    19.6150    27.7990     2.2480 
  172.7500    -3.0600    87.4470    16.3780    19.4060    30.1640     2.2520 
  172.8750    -3.0870    83.1940    16.7120    19.7830    20.1610     2.2600 
  173.0000    -3.1040    81.7360    17.3490    20.4940    14.6860     2.2670 
  173.1250    -3.1210    83.7190    18.1170    21.3450    16.3580     2.2720 
  173.2500    -3.1240    86.9840    18.8230    22.0790    17.4980     2.2740 
  173.3750    -3.1140    89.9000    19.0550    22.2230    17.2250     2.2670 
  173.5000    -3.1310    90.6600    18.9270    21.9640    16.3310     2.2550 
  173.6250    -3.1630    88.1850    18.4140    21.2610    15.3660     2.2450 
  173.7500    -3.1180    85.2160    17.7980    20.5080    15.6700     2.2380 
  173.8750    -2.9890    84.9270    17.3680    20.0210    17.1860     2.2360 
  174.0000    -2.8330    87.2070    17.2310    19.8970    16.6640     2.2410 
  174.1250    -2.6800    88.0210    17.4520    20.3210    14.4230     2.2510 
  174.2500    -2.5070    86.2890    17.9350    20.9900    13.4080     2.2600 
  174.3750    -2.4340    86.6980    19.1230    22.5320    14.3310     2.2650 
  174.5000    -2.3720    90.3340    21.3720    25.0590    16.0120     2.2630 
  174.6250    -2.3000    91.2480    24.3120    28.2160    17.8130     2.2470 
  174.7500    -2.2360    85.9270    27.1090    31.1660    21.2240     2.2130 
  174.8750    -2.2210    79.7220    29.1660    33.2020    30.0970     2.1750 
  175.0000    -2.1480    76.7730    30.2930    34.1400    34.0610     2.1640 
  175.1250    -2.0770    74.5180    30.6780    34.0440    24.6090     2.1980 
  175.2500    -2.0460    73.3940    30.3300    33.3480    20.1700     2.2480 
  175.3750    -2.0040    77.4040    28.8320    32.0630    25.0290     2.2680 
  175.5000    -1.9240    83.7720    26.6970    29.9010    25.0630     2.2620 
  175.6250    -1.7970    84.8400    24.6380    27.3950    18.1800     2.2710 
  175.7500    -1.7170    80.7700    22.8190    25.5910    13.0580     2.3070 
  175.8750    -1.6260    77.5050    21.5120    23.3220    14.3380     2.3510 
  176.0000    -1.5540    75.3050    20.9920    22.7540    17.6960     2.3870 
  176.1250    -1.4770    72.9040    21.4530    23.3460    18.3260     2.4140 
  176.2500    -1.2800    71.2710    22.5760    24.6240    17.4390     2.4220 
  176.3750    -1.0020    71.4150    23.6600    25.7530    17.6010     2.3970 
  176.5000    -0.7780    73.1970    24.3330    26.3940    18.0900     2.3560 
  176.6250    -0.6370    76.6560    24.8310    26.8660    18.0210     2.3270 
  176.7500    -0.5200    80.3820    25.4740    27.5610    16.9760     2.3220 
  176.8750    -0.3680    81.3390    26.5270    28.7720    19.4440     2.3380 
  177.0000    -0.2420    78.8710    28.1460    30.7320    26.3550     2.3590 
  177.1250    -0.2420    74.6380    31.8400    35.2150    31.9920     2.3630 
  177.2500    -0.3540    69.6690    37.6830    42.1980    34.9280     2.3340 
  177.3750    -0.4970    64.9150    46.8850    52.9250    44.4970     2.3050 
  177.5000    -0.6190    61.0600    60.0700    68.3470    70.3420     2.3210 
  177.6250    -0.7020    62.3970    77.5980    89.6870   118.3210     2.3780 
  177.7500    -0.7410    70.0580   103.5990   121.0480   163.8270     2.4130 
  177.8750    -0.7980    78.8770   133.6620   156.0880   162.2160     2.3810 
  178.0000    -0.8220    83.8650   158.6370   184.0680   136.7260     2.3070 
  178.1250    -0.8710    85.3620   173.6000   199.1940   125.3200     2.2440 
  178.2500    -0.9610    86.4150   174.4540   197.8700   120.6980     2.2150 
  178.3750    -1.1480    85.7200   164.8400   183.9590   107.2050     2.2140 
  178.5000    -1.3370    82.5440   146.7250   160.8870    94.8760     2.2200 
  178.6250    -1.5360    79.5760   122.5630   131.9150   104.3420     2.2320 
