~V
VERS. 2.00: Ver 2.00
~W
STRT.M 50.0000:
STOP.M 300.0000:
STEP.M 0.1250:
NULL. -999.2500:
UWI. F12002:
~C
DEPT.M :
SP.MV :
GR.API :
RI. :
RML.OHMM :
RXO.OHMM :
DEN.GM/CC :
~A
# ...
  114.3750   -32.9400    92.9530     3.9290     4.6650     3.9990     2.2040 
  114.5000   -31.6630    96.6000     3.8240     4.5530     4.0240     2.2130 
  114.6250   -30.5420    98.8080     3.8500     4.5810     3.9610     2.2220 
  114.7500   -29.6380    99.9520     3.9360     4.6720     3.8450     2.2320 
  114.8750   -29.0130    99.7490     4.0000     4.7400     3.8850     2.2310 
  115.0000   -28.6530    97.4070     3.9900     4.7290     3.9610     2.2220 
  115.1250   -28.5650    94.3210     3.9120     4.6470     3.9550     2.2230 
  115.2500   -28.6970    92.8480     3.7790     4.5060     3.9900     2.2360 
  115.3750   -29.0160    94.6550     3.6380     4.3560     3.9500     2.2390 
  115.5000   -29.4410    97.3180     3.7030     4.4250     3.8260     2.2240 
  115.6250   -29.9100    96.8440     4.2040     4.9560     3.8980     2.2170 
  115.7500   -30.3770    91.9910     5.4630     6.2900     6.0190     2.2440 
  115.8750   -30.8280    83.2850     7.5710     8.5260    13.8230     2.2680 
  116.0000   -31.2760    72.7170    10.4350    11.5610    24.7000     2.2300 
  116.1250   -31.7430    63.2910    13.3200    14.6190    29.2170     2.1220 
  116.2500   -32.2510    59.0220    14.2830    15.6400    23.5320     1.9970 
  116.3750   -32.8360    61.1760    13.8800    15.2130    14.7860     1.9100 
  116.5000   -33.5290    64.6610    12.4780    13.7260    10.6410     1.9020 
  116.6250   -34.3750    65.1870    11.4150    12.6000     9.8630     1.9780 
  116.7500   -35.3780    63.4980    11.6120    12.8090     9.7680     2.0700 
  116.8750   -36.5310    62.3190    12.3330    13.5730    10.1420     2.0970 
  117.0000   -37.7730    62.3340    12.9630    14.2410    10.2880     2.0610 
  117.1250   -39.0330    62.4370    12.9220    14.1980    10.2960     2.0100 
  117.2500   -40.2290    61.9230    12.2600    13.4950    10.8760     1.9890 
  117.3750   -41.2760    60.4490    10.9720    12.1310    11.9120     1.9970 
  117.5000   -42.1300    58.1510     9.7170    10.8000    11.5530     2.0110 
  117.6250   -42.7490    57.4600     8.8980     9.9320     9.6180     2.0230 
  117.7500   -43.1620    58.3090     8.3590     9.3610     9.8970     2.0320 
  117.8750   -43.3960    59.5630     8.1070     9.0930    14.7180     2.0360 
  118.0000   -43.5110    59.4260     7.8860     8.8590    17.6600     2.0290 
  118.1250   -43.5430    57.7620     7.4900     8.4390    14.4990     2.0200 
  118.2500   -43.5270    57.4350     6.9240     7.8400    11.9360     2.0370 
  118.3750   -43.4890    59.7300     6.3140     7.1920    10.9620     2.0900 
  118.5000   -43.4590    63.0780     5.7910     6.6380     9.1180     2.1500 
  118.6250   -43.4690    64.7900     5.5910     6.4270     8.5770     2.1750 
  118.7500   -43.5380    63.7120     5.7180     6.5620     9.2300     2.1700 
  118.8750   -43.6830    61.6550     6.0970     6.9620     9.8570     2.1560 
  119.0000   -43.8950    59.1510     6.5650     7.4590    10.3210     2.1450 
  119.1250   -44.1600    57.2250     6.9430     7.8600    10.7080     2.1360 
  119.2500   -44.4360    55.8060     7.1430     8.0720    11.1760     2.1220 
  119.3750   -44.6670    55.0130     7.1370     8.0650    11.5810     2.1050 
  119.5000   -44.8050    54.7970     6.9450     7.8610    11.0080     2.0880 
  119.6250   -44.8010    54.0290     6.6020     7.4980     9.5100     2.0820 
  119.7500   -44.6570    52.9700     6.2200     7.0940     8.3750     2.0930 
  119.8750   -44.3850    53.2810     5.9430     6.8000     7.4500     2.1180 
  120.0000   -44.0510    55.3420     5.8290     6.6790     6.9280     2.1390 
  120.1250   -43.7270    57.0530     5.9240     6.7800     7.7260     2.1400 
  120.2500   -43.4890    55.2780     6.1920     7.0640     8.7220     2.1300 
  120.3750   -43.3960    51.9370     6.5560     7.4500     8.9610     2.1200 
  120.5000   -43.4490    51.2600     6.9000     7.8140     8.7950     2.1200 
  120.6250   -43.6300    54.3580     7.0780     8.0030     8.6750     2.1290 
  120.7500   -43.8710    57.2330     7.0740     7.9980     8.6150     2.1380 
  120.8750   -44.1050    58.7780     6.9500     7.8670     8.3440     2.1460 
  121.0000   -44.2770    60.4780     6.8180     7.7270     7.9060     2.1520 
  121.1250   -44.3480    62.6500     6.7320     7.6360     7.5340     2.1490 
  121.2500   -44.3270    63.0300     6.7070     7.6090     7.5000     2.1370 
  121.3750   -44.2310    60.5530     6.7670     7.6730     7.8160     2.1320 
  121.5000   -44.1000    57.4540     6.8890     7.8020     8.3980     2.1400 
  121.6250   -43.9730    55.8050     7.0320     7.9540     9.6200     2.1470 
  121.7500   -43.8870    56.9010     7.1740     8.1040    11.0400     2.1460 
  121.8750   -43.8840    58.7230     7.2650     8.2000    11.8610     2.1440 
  122.0000   -43.9770    59.1550     7.3060     8.2440    12.2760     2.1430 
  122.1250   -44.1660    57.3040     7.3010     8.2390    12.1220     2.1410 
  122.2500   -44.4150    55.3660     7.2750     8.2110    11.4750     2.1310 
  122.3750   -44.6810    54.2120     7.2570     8.1930    10.7030     2.1080 
  122.5000   -44.9300    54.7150     7.2420     8.1770     9.8030     2.0750 
  122.6250   -45.1450    56.8470     7.1940     8.1260     9.2610     2.0500 
  122.7500   -45.3240    58.9380     7.0980     8.0240     9.3570     2.0480 
  122.8750   -45.4560    58.5280     6.9630     7.8800     9.3200     2.0630 
  123.0000   -45.5220    55.3860     6.8130     7.7220     8.8120     2.0780 
  123.1250   -45.4770    52.5730     6.6930     7.5940     8.2430     2.0860 
  123.2500   -45.2880    53.1410     6.6330     7.5310     7.7340     2.0940 
  123.3750   -44.9130    55.7310     6.7380     7.6420     7.6330     2.1100 
  123.5000   -44.3590    57.5960     6.8750     7.7880     8.2390     2.1350 
  123.6250   -43.6290    58.7990     6.8820     7.7950     9.3290     2.1760 
  123.7500   -42.7650    61.5940     6.6570     7.5570     9.4550     2.2260 
  123.8750   -41.7940    65.2810     6.1050     6.9710     7.4600     2.2610 
  124.0000   -40.7620    68.2390     5.4860     6.3150     5.4600     2.2640 
  124.1250   -39.7190    71.1440     4.9130     5.7080     5.3150     2.2400 
  124.2500   -38.7350    73.5330     4.5460     5.3180     5.7020     2.2150 
  124.3750   -37.8830    75.0330     4.4000     5.1640     5.5600     2.1970 
  124.5000   -37.1910    74.5780     4.4380     5.2050     5.3140     2.1930 
  124.6250   -36.6630    73.0060     4.5710     5.3450     5.1500     2.2040 
  124.7500   -36.2470    71.9560     4.6620     5.4420     5.1770     2.2280 
  124.8750   -35.9090    72.4420     4.6710     5.4510     5.4420     2.2500 
  125.0000   -35.6290    72.5780     4.5960     5.3710     5.5730     2.2500 
  125.1250   -35.4110    71.0700     4.4520     5.2190     5.5850     2.2300 
  125.2500   -35.2550    69.5270     4.3190     5.0780     5.6130     2.2120 
  125.3750   -35.1540    69.2420     4.2690     5.0250     5.7760     2.2070 
  125.5000   -35.0900    69.9410     4.3180     5.0770     6.1370     2.2050 
  125.6250   -35.0460    73.0980     4.4360     5.2020     6.4990     2.1930 
  125.7500   -35.0040    75.3950     4.5400     5.3120     7.1580     2.1810 
  125.8750   -34.9390    74.1000     4.5490     5.3220     7.6250     2.1790 
  126.0000   -34.8240    71.0600     4.4290     5.1950     7.0230     2.1960 
  126.1250   -34.6290    72.3690     4.2200     4.9740     6.1080     2.2250 
  126.2500   -34.3550    76.0770     3.9800     4.7180     5.5400     2.2420 
  126.3750   -34.0280    78.8910     3.7820     4.5080     5.4750     2.2380 
  126.5000   -33.7150    81.1500     3.6900     4.4120     5.8680     2.2290 
  126.6250   -33.5130    83.4410     3.7140     4.4370     6.1270     2.2240 
  126.7500   -33.5090    83.4380     3.8420     4.5730     6.1220     2.2130 
  126.8750   -33.7930    79.0090     4.0720     4.8170     6.1790     2.1930 
  127.0000   -34.3590    73.6370     4.3600     5.1220     6.2990     2.1700 
  127.1250   -35.1680    71.9270     4.6690     5.4490     6.4500     2.1500 
