~V
VERS. 2.00: Ver 2.00
~W
STRT.M 50.0000:
STOP.M 226.0000:
STEP.M 0.1250:
NULL. -999.2500:
UWI. F12001:
~C
DEPT.M :
SP.MV :
GR.API :
RI. :
RML.OHMM :
RXO.OHMM :
DEN.GM/CC :
~A
# ...
  178.7500    -1.7440    78.2620    96.4920   102.2630   108.7740     2.2420 
  178.8750    -1.9090    78.2640    76.8240    81.3740    85.6800     2.2330 
  179.0000    -2.0870    78.6930    65.0030    69.0300    55.8310     2.2090 
  179.1250    -2.2850    79.6800    60.7930    64.8780    47.9400     2.1930 
  179.2500    -2.4460    80.6010    63.3200    67.9760    63.1950     2.1990 
  179.3750    -2.5580    80.8030    71.9150    77.6950    74.9990     2.2290 
  179.5000    -2.6290    79.8460    82.6170    89.5930    78.0850     2.2670 
  179.6250    -2.7680    78.7110    91.7200    99.6500    86.8850     2.2870 
  179.7500    -2.8800    76.4440    95.4350   103.8810    93.0360     2.2680 
  179.8750    -2.9910    73.0510    94.0760   102.7430    92.3300     2.2160 
  180.0000    -3.0630    69.7830    90.8600    99.8540    96.1810     2.1710 
  180.1250    -3.0020    66.6220    88.5150    98.0510   100.7180     2.1580 
  180.2500    -2.9310    63.1010    87.8460    98.0580    99.2050     2.1550 
  180.3750    -2.8990    60.3180    88.5370    99.3720    99.8880     2.1430 
  180.5000    -2.9310    59.0820    88.5070    99.4630   103.2460     2.1450 
  180.6250    -2.9550    59.2740    83.6520    93.7260    98.1000     2.1830 
  180.7500    -2.9920    62.1200    73.8160    82.1020    91.5710     2.2250 
  180.8750    -3.0850    68.7630    61.0910    67.2750    76.0860     2.2290 
  181.0000    -3.2060    74.2420    48.9480    53.4390    49.3610     2.2090 
  181.1250    -3.3140    74.7560    41.4660    45.0370    33.6770     2.2060 
  181.2500    -3.3860    72.6070    37.7540    40.9490    30.9560     2.2240 
  181.3750    -3.3840    70.5000    36.7190    39.7260    33.3010     2.2380 
  181.5000    -3.3650    67.3940    37.3740    40.2270    36.4300     2.2420 
  181.6250    -3.3860    64.2970    39.0940    41.7980    36.5730     2.2540 
  181.7500    -3.4260    64.5640    41.1720    43.7500    34.1250     2.2720 
  181.8750    -3.4960    67.1090    43.7180    46.2900    33.7690     2.2760 
  182.0000    -3.5110    68.8500    46.3670    49.0680    38.1710     2.2600 
  182.1250    -3.5310    68.3530    47.8740    50.2680    50.2490     2.2480 
  182.2500    -3.5820    66.5590    45.6250    47.5070    60.4400     2.2660 
  182.3750    -3.6570    64.7580    38.7730    40.0600    56.9370     2.3110 
  182.5000    -3.6770    65.5960    30.0260    30.7130    42.6070     2.3560 
  182.6250    -3.6450    71.4410    21.8390    22.5010    21.8390     2.3680 
  182.7500    -3.5860    78.9990    17.1960    17.7690     9.8810     2.3490 
  182.8750    -3.5140    83.9420    15.4000    16.0150    10.1620     2.3150 
  183.0000    -3.4530    85.0900    15.7360    16.4810    11.8520     2.2870 
  183.1250    -3.4360    84.4350    18.0680    18.9910    13.9460     2.2760 
  183.2500    -3.4030    83.4370    22.1380    23.2660    18.7960     2.2730 
  183.3750    -3.3920    81.6060    27.2820    28.8000    28.8360     2.2630 
  183.5000    -3.4430    78.5640    33.5720    35.5740    34.3590     2.2400 
  183.6250    -3.4860    74.4670    40.0260    42.5030    31.5380     2.2030 
  183.7500    -3.4600    70.6220    44.5730    47.4480    34.7730     2.1620 
  183.8750    -3.3040    69.3400    46.3780    49.1920    42.8960     2.1300 
  184.0000    -3.1040    70.1610    44.0620    46.5050    43.1050     2.1190 
  184.1250    -2.9410    71.7120    38.6770    40.9040    37.4970     2.1310 
  184.2500    -2.7990    71.7020    32.7870    34.9610    32.5420     2.1560 
  184.3750    -2.6450    70.3840    28.3300    31.0830    24.7990     2.1870 
  184.5000    -2.4800    70.4590    27.3300    31.3230    19.8940     2.2180 
  184.6250    -2.3500    74.8370    31.6550    37.4810    32.8610     2.2450 
  184.7500    -2.3000    82.8390    42.3920    51.4600    58.6310     2.2700 
  184.8750    -2.2890    87.6280    63.7000    79.8080    95.2370     2.3210 
  185.0000    -2.2730    85.7730    92.7810   117.3630   127.6870     2.4050 
  185.1250    -2.1510    80.8860   118.2370   150.7460   122.9280     2.4940 
  185.2500    -1.9510    76.1000   130.3800   163.7690    96.9860     2.5560 
  185.3750    -1.7330    71.7920   108.1170   132.6170    77.9350     2.5900 
  185.5000    -1.4900    67.8670    72.0350    86.2210    61.0850     2.6130 
  185.6250    -1.1820    68.4580    36.4430    40.9850    47.1180     2.6020 
  185.7500    -0.8290    71.0080    13.0270    14.9880    37.9370     2.5370 
  185.8750    -0.5690    73.7080     7.4760     8.5200    21.6110     2.4380 
  186.0000    -0.3980    78.2390     5.7040     6.8510     7.6380     2.3390 
  186.1250    -0.2810    85.9930     4.8760     6.0550     5.2110     2.2620 
  186.2500    -0.1810    93.9160     4.7290     5.8140     5.3120     2.2120 
  186.3750     0.0050    99.1790     5.0210     6.0010     5.4290     2.1900 
  186.5000     0.2220   101.3930     5.4170     6.3560     5.4180     2.1780 
  186.6250     0.4170   101.7320     5.7360     6.6380     5.3780     2.1730 
  186.7500     0.5340    99.8800     5.9170     6.7940     5.4430     2.1900 
  186.8750     0.5260    99.1580     6.0660     6.8930     5.4980     2.2350 
  187.0000     0.4490   100.4690     6.1970     7.0090     5.6070     2.2810 
  187.1250     0.2950   102.2700     6.2900     7.1030     5.9100     2.3040 
  187.2500     0.0900   102.6410     6.3510     7.1830     6.2090     2.3020 
  187.3750    -0.0740   102.9960     6.3420     7.2130     6.3570     2.2840 
  187.5000    -0.2050   106.3850     6.2680     7.2040     6.3750     2.2680 
  187.6250    -0.2710   110.6650     6.1550     7.1740     6.3080     2.2640 
  187.7500    -0.2730   112.2400     6.0490     7.1590     6.2070     2.2630 
  187.8750    -0.2830   111.2630     5.9870     7.1810     6.0840     2.2630 
  188.0000    -0.3440   110.9280     5.9740     7.2310     5.9960     2.2660 
  188.1250    -0.4120   113.3900     6.0090     7.3160     6.0060     2.2660 
  188.2500    -0.4360   115.9170     6.0910     7.4530     6.0660     2.2590 
  188.3750    -0.4780   115.7490     6.2390     7.6730     6.0050     2.2510 
  188.5000    -0.5370   114.4630     6.4130     7.9330     6.2440     2.2540 
  188.6250    -0.6390   114.5670     6.5640     8.1580     6.7900     2.2630 
  188.7500    -0.7140   116.0890     6.6070     8.2430     7.0770     2.2650 
  188.8750    -0.6760   114.8840     6.5130     8.1520     6.9260     2.2640 
  189.0000    -0.5540   110.5810     6.3310     7.9460     6.2370     2.2670 
  189.1250    -0.4020   108.2730     6.1260     7.7210     5.6920     2.2760 
  189.2500    -0.2320   109.8410     6.0000     7.6010     5.6700     2.2830 
  189.3750    -0.0790   111.1840     6.0200     7.6660     5.8330     2.2890 
  189.5000     0.0760   110.4450     6.1840     7.8930     6.3510     2.2950 
  189.6250     0.2070   108.5390     6.5260     8.3250     7.1320     2.3080 
  189.7500     0.2320   106.7860     7.1650     9.1620     7.9360     2.3150 
  189.8750     0.1630   106.8870     8.3630    10.8060     9.2170     2.2990 
  190.0000     0.0770   109.0500    10.6350    14.0030    11.7490     2.2630 
  190.1250     0.0580   107.9240    14.1720    19.0850    19.7420     2.2410 
  190.2500     0.1070    99.8150    17.1640    23.2940    68.3060     2.2710 
  190.3750     0.1430    85.9870    17.9800    24.2180   144.2490     2.3620 
  190.5000     0.1920    74.7310    16.5190    21.7620   138.9610     2.4500 
  190.6250     0.2430    72.7200    13.2640    16.8350    58.7750     2.4500 
  190.7500     0.3170    79.5830    10.4360    12.7340    12.1020     2.3610 
  190.8750     0.3330    87.8340     8.6630    10.4450     7.4220     2.2640 
  191.0000     0.3000    92.7510     7.8580     9.6230    10.3450     2.2240 
  191.1250     0.1120    94.9500     7.7710     9.7530    12.5250     2.2450 
  191.2500    -0.1540    94.8930     7.8130     9.9670    10.1120     2.2930 
  191.3750    -0.4640    90.4040     7.7050     9.8520     6.6230     2.3300 
  191.5000    -0.7880    85.8400     7.3810     9.3990     5.6300     2.3250 
