~V
VERS. 2.00: Ver 2.00
~W
STRT.M 50.0000:
STOP.M 178.0000:
STEP.M 0.1250:
NULL. -999.2500:
UWI. F12004:
~C
DEPT.M :
SP.MV :
GR.API :
RI. :
RML.OHMM :
RXO.OHMM :
DEN.GM/CC :
~A
# ...
  114.3750    96.0590    46.2420    36.2980    40.1920    28.3550     2.3960 
  114.5000    95.7830    46.5010    36.8670    40.8010    29.1580     2.4130 
  114.6250    95.5940    45.3780    37.6090    41.6810    30.0300     2.4300 
  114.7500    95.4910    44.4090    38.7410    43.0440    31.3050     2.4580 
  114.8750    95.3980    44.0040    39.8230    44.3210    34.1080     2.4960 
  115.0000    95.4060    42.4920    40.0490    44.5390    38.6850     2.5330 
  115.1250    95.4450    41.0800    38.8380    43.0550    38.5280     2.5490 
  115.2500    95.4330    41.4340    36.6560    40.4180    32.1560     2.5300 
  115.3750    95.4450    43.4260    34.1090    37.4560    24.4970     2.4750 
  115.5000    95.4910    46.4070    32.0720    35.1750    21.5700     2.4120 
  115.6250    95.5350    48.8690    31.0140    34.1330    23.9280     2.3690 
  115.7500    95.5250    49.1420    31.0710    34.3980    25.6270     2.3520 
  115.8750    95.4770    47.6140    32.0390    35.6330    25.6380     2.3640 
  116.0000    95.4570    46.3720    33.3440    37.1560    25.7510     2.3870 
  116.1250    95.5180    45.4120    34.2530    38.1320    26.1640     2.4070 
  116.2500    95.5660    43.8300    34.5590    38.3940    27.1820     2.4180 
  116.3750    95.6400    43.4870    34.3980    38.1600    27.7000     2.4150 
  116.5000    95.7930    45.8680    34.1790    37.9190    26.6490     2.3960 
  116.6250    96.0640    48.5240    34.3110    38.1410    25.7780     2.3690 
  116.7500    96.3930    48.5220    34.9530    38.9760    26.1760     2.3620 
  116.8750    96.7340    46.0070    35.8290    40.0810    28.5050     2.3860 
  117.0000    97.0170    43.8790    36.7050    41.2220    31.3900     2.4160 
  117.1250    97.0800    43.5990    37.2550    41.9930    30.4850     2.4210 
  117.2500    97.0680    44.6120    37.2300    42.1010    27.9440     2.4100 
  117.3750    97.0460    45.3660    36.4360    41.3880    27.5100     2.4150 
  117.5000    97.0240    45.7790    35.4600    40.4120    26.0280     2.4340 
  117.6250    97.0200    47.6240    34.6000    39.5430    22.9740     2.4300 
  117.7500    97.0410    50.0550    34.2560    39.1970    23.2010     2.4070 
  117.8750    97.1580    49.7750    34.7420    39.8200    26.2750     2.4020 
  118.0000    97.3220    47.4280    35.8700    41.2510    28.5780     2.4240 
  118.1250    97.5250    45.0750    37.4400    43.1570    31.0460     2.4680 
  118.2500    97.5250    44.1700    38.2620    44.1220    33.2040     2.5200 
  118.3750    97.7430    43.7300    37.5370    43.1380    33.6300     2.5510 
  118.5000    98.0380    42.4310    35.5250    40.6320    30.0890     2.5410 
  118.6250    98.0800    40.9080    33.0940    37.7350    22.7810     2.4880 
  118.7500    98.0170    39.5340    31.3140    35.6840    19.6670     2.4330 
  118.8750    98.0900    39.5380    30.4500    34.8640    21.4180     2.4050 
  119.0000    98.2170    40.7250    30.6310    35.2560    22.4570     2.3970 
  119.1250    98.3410    43.5500    31.2330    36.0600    23.6900     2.3930 
  119.2500    98.4610    46.1220    31.8690    36.7520    26.0330     2.3910 
  119.3750    98.6780    45.7480    32.1150    36.9520    26.3300     2.4190 
  119.5000    98.8210    43.6470    32.1190    36.9360    26.3540     2.4770 
  119.6250    98.9460    43.3240    32.4580    37.4840    29.2420     2.5490 
  119.7500    99.1090    45.2280    33.2990    38.8030    30.5770     2.6060 
  119.8750    99.1870    45.9000    34.0110    39.8910    29.4920     2.6300 
  120.0000    99.1260    45.1450    33.8680    39.9250    30.2450     2.6320 
  120.1250    98.9620    44.8310    32.6860    38.5310    29.8830     2.6330 
  120.2500    98.7020    44.9640    30.3850    35.7230    26.0910     2.6270 
  120.3750    98.4390    44.5610    27.7000    32.5430    22.6530     2.5820 
  120.5000    98.2750    44.6580    25.3930    29.8830    19.9650     2.5070 
  120.6250    98.2770    46.9580    23.7800    27.9100    17.7830     2.4540 
  120.7500    98.3940    49.2810    22.8980    26.8280    18.3030     2.4470 
  120.8750    98.7110    48.7870    22.7900    26.6630    18.7620     2.4650 
  121.0000    99.0580    46.3400    23.0220    26.8910    17.9710     2.4810 
  121.1250    99.3040    44.6050    23.3810    27.4460    19.0890     2.5100 
  121.2500    99.4140    44.2770    23.6480    28.0010    20.4020     2.5530 
  121.3750    99.4380    44.1880    23.2080    27.5840    20.1060     2.5930 
  121.5000    99.3430    42.9910    21.7800    26.0150    19.4620     2.6140 
  121.6250    99.1870    41.8810    19.8500    23.6700    17.3110     2.6080 
  121.7500    98.9800    42.0200    17.7530    21.0580    13.2040     2.5800 
  121.8750    98.8110    43.4580    16.1880    19.1420    10.7730     2.5340 
  122.0000    98.9330    44.8150    15.2950    18.0260    11.1410     2.4810 
  122.1250    98.9840    44.3100    14.9120    17.4990    12.2540     2.4400 
  122.2500    99.1360    43.1820    14.8830    17.4320    12.5240     2.4210 
  122.3750    99.3530    43.4960    15.0430    17.6110    11.8010     2.4160 
  122.5000    99.6010    44.8270    15.1830    17.6570    11.7050     2.4160 
  122.6250    99.7750    44.5970    15.3000    17.8420    12.3630     2.4140 
  122.7500    99.9840    43.0950    15.5800    18.3140    12.7080     2.4180 
  122.8750   100.1230    42.0670    15.9740    19.0070    14.0620     2.4350 
  123.0000   100.0280    42.5530    16.4060    19.7880    15.4790     2.4580 
  123.1250    99.8020    44.3630    16.4540    19.9320    14.3240     2.4780 
  123.2500    99.5460    45.9270    15.8130    19.1060    12.9680     2.4880 
  123.3750    99.3580    46.4610    14.8770    17.9360    12.3040     2.4870 
  123.5000    99.2480    47.6330    13.9590    16.7470    10.6860     2.4770 
  123.6250    99.2960    50.1990    13.5120    16.1690    10.0440     2.4650 
  123.7500    99.5500    51.7280    13.7020    16.4020    11.9260     2.4670 
  123.8750    99.9280    50.3860    14.3170    17.1840    14.3360     2.4790 
  124.0000   100.0180    47.3240    14.8260    17.7230    15.0500     2.4860 
  124.1250   100.2180    45.4800    14.8680    17.6860    14.1660     2.4810 
  124.2500   100.3640    45.9140    14.3470    16.9000    12.0460     2.4690 
  124.3750   100.4620    48.3650    13.3880    15.6310     9.6570     2.4450 
  124.5000   100.4690    50.2970    12.5490    14.5760     9.6060     2.4150 
  124.6250   100.4210    49.6260    12.0580    13.9770    11.1630     2.3860 
  124.7500   100.4110    48.3010    11.8860    13.7840    11.6870     2.3690 
  124.8750   100.4350    48.1480    11.9420    13.8800    11.1730     2.3710 
  125.0000   100.4080    49.4250    12.0380    14.0070    11.3640     2.3800 
  125.1250   100.2860    50.1640    12.0070    13.9750    12.2300     2.3880 
  125.2500   100.1670    50.0400    11.8210    13.7670    11.3640     2.3900 
  125.3750   100.1570    50.3830    11.6200    13.5450     9.8800     2.3850 
  125.5000   100.1970    50.9880    11.4750    13.4050     9.8120     2.3870 
  125.6250   100.2230    50.9760    11.5730    13.5650    10.5000     2.4000 
  125.7500   100.2650    50.1250    11.8600    13.9680    11.4840     2.4150 
  125.8750   100.2590    51.0040    12.4030    14.6830    12.8760     2.4170 
  126.0000   100.1970    53.6640    13.0180    15.4460    14.5800     2.4090 
  126.1250   100.0310    55.7790    13.6320    16.1730    14.9130     2.4000 
  126.2500    99.8180    56.0290    14.3460    17.0030    13.9440     2.3960 
  126.3750    99.5890    54.9590    14.8780    17.5920    14.8860     2.3980 
  126.5000    99.4790    52.2520    15.1400    17.8970    17.2680     2.4100 
  126.6250    99.4190    48.2220    15.1230    17.9190    16.8210     2.4280 
  126.7500    99.4070    44.5570    14.9060    17.6790    13.4480     2.4360 
  126.8750    99.4290    43.3970    14.2450    16.8750    11.2830     2.4320 
  127.0000    99.4240    43.4590    13.1960    15.5840    11.1050     2.4230 
  127.1250    99.4070    44.0000    11.7280    13.7780    10.2110     2.4090 
