~V
VERS. 2.00: Ver 2.00
~W
STRT.M 50.0000:
STOP.M 213.0000:
STEP.M 0.1250:
NULL. -999.2500:
UWI. F12007:
~C
DEPT.M :
SP.MV :
GR.API :
RI. :
RML.OHMM :
RXO.OHMM :
DEN.GM/CC :
~A
# ...
  101.5000    98.0330    90.2810     3.5270     3.9730     4.2960     2.2580 
  101.6250    97.7160    89.1790     3.5020     3.9510     4.1240     2.2630 
  101.7500    97.3040    88.7670     3.6590     4.1370     4.4190     2.2510 
  101.8750    96.7360    89.5360     4.0870     4.6440     4.9730     2.2160 
  102.0000    95.9410    88.6290     4.7750     5.4560     5.8140     2.1710 
  102.1250    95.0020    84.4470     5.7050     6.5380     6.8820     2.1380 
  102.2500    94.0120    80.3400     6.5820     7.5240     7.4970     2.1210 
  102.3750    93.0000    76.9520     7.2260     8.2080     7.6060     2.1150 
  102.5000    92.4110    74.2000     7.6130     8.5960     7.8350     2.1110 
  102.6250    92.4470    73.3360     7.8920     8.8720     8.2660     2.1030 
  102.7500    92.9060    74.3470     8.2190     9.2220    11.4410     2.0920 
  102.8750    93.4810    74.4080     8.5030     9.5610    16.7310     2.0800 
  103.0000    93.7950    72.2330     8.6680     9.7770    18.0310     2.0770 
  103.1250    93.5900    70.8960     8.6420     9.7860    15.3020     2.0780 
  103.2500    93.0010    71.6920     8.5080     9.6320    11.8460     2.0820 
  103.3750    92.2620    71.7030     8.4000     9.4820     9.2180     2.0890 
  103.5000    91.6210    69.8360     8.5260     9.6380     8.9670     2.0940 
  103.6250    91.4300    68.3620     9.1820    10.4550    10.1730     2.0870 
  103.7500    91.6920    67.1730    10.3180    11.8690    11.1690     2.0730 
  103.8750    92.1760    66.6530    11.5100    13.3430    14.3520     2.0600 
  104.0000    92.6380    66.5650    12.2730    14.2460    19.4140     2.0530 
  104.1250    92.9910    68.6040    12.1210    14.0350    19.5340     2.0520 
  104.2500    93.1670    70.2980    11.2490    12.9330    14.5210     2.0600 
  104.3750    93.2080    70.4600    10.1080    11.4950    10.6480     2.0710 
  104.5000    93.2180    70.2750     9.1050    10.2810     9.2280     2.0750 
  104.6250    93.1960    70.2130     8.7100     9.8660     8.6440     2.0780 
  104.7500    93.1610    70.1340     8.7320     9.9600     9.0960     2.0940 
  104.8750    93.2030    70.6520     8.8090    10.0870    10.8070     2.1400 
  105.0000    93.2660    72.1300     8.7280     9.9720    12.4240     2.2020 
  105.1250    93.3320    74.9730     8.5400     9.6710    12.1800     2.2290 
  105.2500    93.4220    77.6980     8.3230     9.3200    10.5890     2.1970 
  105.3750    93.5320    79.6540     8.2540     9.2350    10.2070     2.1410 
  105.5000    93.5680    78.7640     8.3570     9.4000    11.6980     2.0980 
  105.6250    93.7390    75.6780     8.4020     9.5050    12.8280     2.0730 
  105.7500    94.2530    73.7380     8.2460     9.3290    12.1460     2.0600 
  105.8750    95.1530    74.1910     7.6960     8.6280    11.0250     2.0690 
  106.0000    96.2230    75.7350     6.8620     7.5910     9.7450     2.1140 
  106.1250    97.1260    78.5220     6.1040     6.7050     7.1400     2.1730 
  106.2500    97.5420    82.5610     5.5860     6.1410     5.3140     2.2100 
  106.3750    97.5430    87.8190     5.3810     5.9560     6.2930     2.2050 
  106.5000    97.2190    91.5660     5.4290     6.0570     7.7290     2.1850 
  106.6250    96.6970    91.1130     5.6520     6.3300     8.1700     2.1710 
  106.7500    96.3140    86.8940     5.8830     6.5800     8.6460     2.1640 
  106.8750    96.3160    82.5540     6.0600     6.7380     9.0900     2.1600 
  107.0000    96.5450    80.3450     6.1640     6.8220     9.1790     2.1590 
  107.1250    96.8020    80.6690     6.2970     6.9470     9.2730     2.1560 
  107.2500    97.0230    79.9180     6.4720     7.1280     9.5960     2.1550 
  107.3750    97.0650    77.4590     6.6650     7.3510     9.8890     2.1570 
  107.5000    96.9280    75.7980     6.8290     7.5640     9.9630     2.1560 
  107.6250    96.7230    77.0570     6.8520     7.6180     9.9830     2.1470 
  107.7500    96.4670    79.4200     6.7740     7.5550     9.9050     2.1390 
  107.8750    96.1580    80.3900     6.6700     7.4630     9.6670     2.1410 
  108.0000    95.8800    80.9550     6.7230     7.5550     9.2620     2.1560 
  108.1250    95.5920    81.6450     7.1240     8.0600     9.1230     2.1690 
  108.2500    95.2360    80.9110     8.0520     9.2280     9.9330     2.1610 
  108.3750    94.8000    77.9660     9.6590    11.2350    12.2430     2.1270 
  108.5000    94.3640    72.6950    11.8410    13.8980    15.4380     2.0850 
  108.6250    93.8080    68.2780    14.1740    16.6250    18.3570     2.0580 
  108.7500    93.3780    67.3870    15.8520    18.4460    21.0150     2.0480 
  108.8750    93.4130    69.2160    16.3170    18.7650    23.0240     2.0480 
  109.0000    93.8150    69.9130    15.7420    17.8930    23.1420     2.0440 
  109.1250    94.3860    67.8690    14.2910    16.1070    20.8470     2.0370 
  109.2500    94.7850    65.6360    12.8040    14.3720    16.8640     2.0360 
  109.3750    94.6750    65.5610    11.3760    12.7570    13.4350     2.0460 
  109.5000    94.0860    66.2810    10.3640    11.6610    12.9420     2.0620 
  109.6250    93.3300    66.7790     9.7750    11.0490    13.7840     2.0750 
  109.7500    92.6350    66.5380     9.4380    10.7120    13.0970     2.0740 
  109.8750    92.2890    67.4300     9.3180    10.5780    11.2720     2.0610 
  110.0000    92.4720    69.2160     9.2720    10.4940    10.0520     2.0500 
  110.1250    92.9400    69.7290     9.2400    10.4200     9.8660     2.0560 
  110.2500    93.4760    68.6260     9.2060    10.3520    10.0230     2.0700 
  110.3750    93.9120    67.9860     9.1380    10.2580    10.1120     2.0800 
  110.5000    94.1850    69.1210     9.0160    10.1250    10.0440     2.0840 
  110.6250    94.2560    70.3860     8.8960    10.0220     9.7630     2.0880 
  110.7500    94.2690    69.9200     8.8170     9.9780     9.4250     2.0920 
  110.8750    94.1860    69.6530     8.8150    10.0290     9.3900     2.0900 
  111.0000    94.0080    70.4620     8.8850    10.1670     9.7050     2.0810 
  111.1250    93.8540    71.2560     8.9940    10.3520    10.0080     2.0660 
  111.2500    93.6790    70.9980     9.0990    10.5120    10.1190     2.0550 
  111.3750    93.4470    71.0890     9.1600    10.6260    10.1390     2.0540 
  111.5000    93.2620    71.5830     9.1790    10.6830     9.9830     2.0580 
  111.6250    93.1080    70.8170     9.1910    10.7030     9.8780     2.0630 
  111.7500    92.9740    70.8010     9.3030    10.8250     9.9420     2.0640 
  111.8750    92.9880    70.8370     9.5530    11.0990     9.9970     2.0610 
  112.0000    93.3610    68.1440     9.9760    11.5840    10.5020     2.0540 
  112.1250    94.1190    65.0060    10.4710    12.1910    12.0690     2.0510 
  112.2500    95.0460    65.6870    10.8340    12.6280    13.7820     2.0570 
  112.3750    95.9040    69.0690    10.9380    12.7240    14.4350     2.0700 
  112.5000    96.2940    70.8820    10.7560    12.4580    13.8340     2.0810 
  112.6250    96.0390    70.5800    10.3950    11.9700    11.7000     2.0870 
  112.7500    95.5210    70.7370    10.0110    11.4770     9.3760     2.0870 
  112.8750    94.9650    71.5330     9.6900    11.0950     8.5910     2.0790 
  113.0000    94.6260    71.9130     9.5270    10.9120     8.8810     2.0750 
  113.1250    94.7530    70.7760     9.5210    10.8960     9.3010     2.0830 
  113.2500    95.1650    69.0230     9.5840    10.9210     9.5310     2.0940 
  113.3750    95.5410    69.7080     9.6110    10.8710    10.3070     2.1020 
  113.5000    95.8360    71.5780     9.6390    10.8280    11.3690     2.1030 
  113.6250    95.9120    72.4140     9.7230    10.8640    11.2030     2.0990 
  113.7500    95.8120    71.6860     9.8190    10.9300    10.4110     2.0970 
  113.8750    95.7610    71.5400     9.8640    10.9620    10.4760     2.1060 
  114.0000    95.7440    73.3880     9.9320    11.0570    11.1610     2.1200 
  114.1250    95.6360    75.7600    10.0080    11.2140    10.8750     2.1180 
  114.2500    95.5210    77.0350    10.1460    11.4720     9.9670     2.0920 
