~V
VERS. 2.00: Ver 2.00
~W
STRT.M 50.0000:
STOP.M 193.0000:
STEP.M 0.1250:
NULL. -999.2500:
UWI. F12006:
~C
DEPT.M :
SP.MV :
GR.API :
RI. :
RML.OHMM :
RXO.OHMM :
DEN.GM/CC :
~A
# ...
   62.8750   -54.0240    73.2280    10.5110    11.5370    24.9580     2.5400 
   63.0000   -54.1230    72.6180    11.3210    12.3870    23.0660     2.5030 
   63.1250   -54.1830    70.7520    11.2720    12.3350    15.7720     2.3600 
   63.2500   -54.3300    70.6450    10.4400    11.4630    12.2360     2.2310 
   63.3750   -54.6800    73.5710     9.2270    10.1880    11.7330     2.1690 
   63.5000   -55.2680    77.0190     8.1430     9.0510    11.6940     2.1400 
   63.6250   -56.1000    77.2120     7.4510     8.3230    11.6490     2.1210 
   63.7500   -57.0920    73.3360     7.1130     7.9680    11.5570     2.1130 
   63.8750   -58.1620    68.3780     7.0040     7.8540    11.7150     2.1090 
   64.0000   -59.2170    66.4260     6.9820     7.8310    11.9720     2.1050 
   64.1250   -60.1700    67.5980     6.9890     7.8390    11.9920     2.1030 
   64.2500   -60.9570    66.1250     6.9760     7.8250    11.8760     2.1030 
   64.3750   -61.5160    60.0910     6.9430     7.7910    11.8980     2.1060 
   64.5000   -61.8490    55.5700     6.8870     7.7310    11.6770     2.1130 
   64.6250   -61.9590    57.0370     6.8130     7.6540    11.3770     2.1210 
   64.7500   -61.8900    60.9130     6.7240     7.5600    11.8940     2.1280 
   64.8750   -61.6470    62.6790     6.5810     7.4100    12.5760     2.1400 
   65.0000   -61.2480    63.6420     6.3970     7.2170    12.0730     2.1500 
   65.1250   -60.6870    64.8640     6.1910     7.0010    10.7080     2.1540 
   65.2500   -59.9880    66.2340     5.9910     6.7900     9.7270     2.1510 
   65.3750   -59.1620    67.0950     5.8180     6.6090     9.3760     2.1450 
   65.5000   -58.2440    67.8630     5.6790     6.4630     9.2850     2.1410 
   65.6250   -57.2570    68.1600     5.5510     6.3290     9.2680     2.1490 
   65.7500   -56.2260    67.7170     5.4130     6.1830     9.1900     2.1660 
   65.8750   -55.1480    67.9630     5.3340     6.1010     9.0200     2.1780 
   66.0000   -54.0140    71.0050     5.4160     6.1870     8.7900     2.1860 
   66.1250   -52.8210    76.9190     5.7480     6.5360     8.5080     2.2110 
   66.2500   -51.6000    84.8980     6.3090     7.1240     8.7650     2.2750 
   66.3750   -50.4060    93.2180     6.9570     7.8050    10.8400     2.3540 
   66.5000   -49.2930    98.3260     7.4100     8.2800    12.9910     2.3940 
   66.6250   -48.3250    95.5680     7.3900     8.2600    12.1870     2.3530 
   66.7500   -47.5390    87.4970     6.9100     7.7550     9.7150     2.2610 
   66.8750   -46.9930    81.2510     6.1470     6.9540     6.4910     2.1830 
   67.0000   -46.6900    78.5400     5.4230     6.1940     6.2900     2.1470 
   67.1250   -46.6300    78.1710     4.9230     5.6690     6.4470     2.1360 
   67.2500   -46.7330    78.4020     4.6530     5.3860     6.4170     2.1300 
   67.3750   -46.8960    78.4350     4.4850     5.2090     5.9390     2.1380 
   67.5000   -46.9940    79.0690     4.3720     5.0900     5.0680     2.1560 
   67.6250   -46.9100    79.7410     4.3040     5.0200     4.6690     2.1730 
   67.7500   -46.6270    79.2890     4.3140     5.0300     4.9480     2.1890 
   67.8750   -46.1890    78.8510     4.4050     5.1250     5.4780     2.1940 
   68.0000   -45.7320    80.3890     4.5420     5.2690     5.8880     2.1830 
   68.1250   -45.3910    84.2820     4.6950     5.4300     6.0270     2.1650 
   68.2500   -45.2250    86.3790     4.7750     5.5140     5.9340     2.1480 
   68.3750   -45.2200    83.1180     4.7950     5.5340     5.6450     2.1360 
   68.5000   -45.2680    77.1710     4.7580     5.4960     5.4150     2.1440 
   68.6250   -45.2500    75.4430     4.6850     5.4190     5.4180     2.1800 
   68.7500   -45.0860    79.1170     4.6380     5.3700     5.6070     2.2170 
   68.8750   -44.7440    82.8590     4.6430     5.3750     5.9100     2.2280 
   69.0000   -44.2850    85.5770     4.7190     5.4550     6.2270     2.2220 
   69.1250   -43.7980    90.3110     4.8160     5.5570     6.3300     2.2140 
   69.2500   -43.3820    96.6080     4.8810     5.6250     6.2030     2.2090 
   69.3750   -43.1110    99.4960     4.8920     5.6370     5.9720     2.2110 
   69.5000   -42.9820   100.2380     4.8370     5.5790     5.6940     2.2190 
   69.6250   -42.9580   101.1450     4.7370     5.4740     5.5800     2.2280 
   69.7500   -42.9660   100.8030     4.6040     5.3340     5.7410     2.2340 
   69.8750   -42.9480    97.8160     4.4910     5.2150     5.8010     2.2370 
   70.0000   -42.8820    94.5240     4.4240     5.1460     5.5290     2.2400 
   70.1250   -42.7660    93.4120     4.4130     5.1340     5.3900     2.2400 
   70.2500   -42.6260    92.4500     4.4540     5.1760     5.5520     2.2340 
   70.3750   -42.4930    90.6850     4.4870     5.2110     5.7880     2.2290 
   70.5000   -42.4030    90.6730     4.5160     5.2420     5.8640     2.2310 
   70.6250   -42.4030    92.7730     4.5260     5.2530     5.6270     2.2380 
   70.7500   -42.5130    94.1110     4.5090     5.2350     5.4430     2.2460 
   70.8750   -42.7400    91.7410     4.5340     5.2600     5.4530     2.2450 
   71.0000   -43.0400    86.2910     4.6100     5.3400     5.4770     2.2320 
   71.1250   -43.3740    82.3760     4.7440     5.4820     5.6030     2.2100 
   71.2500   -43.7120    82.3460     4.9320     5.6780     5.8540     2.1900 
   71.3750   -44.0440    82.6760     5.0960     5.8510     6.1140     2.1840 
   71.5000   -44.3700    80.9780     5.1980     5.9570     6.4060     2.1910 
   71.6250   -44.6760    79.0740     5.1590     5.9170     6.6720     2.2030 
   71.7500   -44.9400    79.9690     5.0140     5.7650     6.5700     2.2130 
   71.8750   -45.1190    84.0280     4.8320     5.5740     6.1620     2.2190 
   72.0000   -45.1860    87.4660     4.6710     5.4050     5.9450     2.2250 
   72.1250   -45.1150    88.7680     4.5900     5.3190     5.8310     2.2300 
   72.2500   -44.9220    88.2160     4.5530     5.2810     5.6400     2.2370 
   72.3750   -44.6320    88.2180     4.5580     5.2860     5.6970     2.2440 
   72.5000   -44.2990    90.4530     4.5920     5.3220     5.8470     2.2440 
   72.6250   -43.9670    91.6260     4.6330     5.3650     5.6820     2.2350 
   72.7500   -43.6590    91.6930     4.6750     5.4090     5.4680     2.2280 
   72.8750   -43.3770    90.7250     4.7310     5.4680     5.5550     2.2290 
   73.0000   -43.0980    89.8250     4.7840     5.5240     5.6590     2.2390 
   73.1250   -42.7920    89.2590     4.8230     5.5640     5.5930     2.2470 
   73.2500   -42.4480    88.1780     4.8160     5.5570     5.5430     2.2490 
   73.3750   -42.0670    87.0660     4.7140     5.4490     5.3890     2.2560 
   73.5000   -41.6790    87.3030     4.5420     5.2690     5.0460     2.2770 
   73.6250   -41.3160    91.9580     4.3380     5.0550     4.6730     2.3070 
   73.7500   -41.0080    97.3110     4.1730     4.8820     4.4200     2.3250 
   73.8750   -40.7810    99.9910     4.0990     4.8040     4.4840     2.3230 
   74.0000   -40.6360   101.2290     4.1440     4.8510     4.8180     2.3170 
   74.1250   -40.5730   104.8970     4.3240     5.0400     5.0580     2.3260 
   74.2500   -40.5830   109.6780     4.4920     5.2170     5.2090     2.3440 
   74.3750   -40.6730   109.7840     4.5330     5.2590     6.0470     2.3420 
   74.5000   -40.8470   105.4450     4.4120     5.1330     6.6460     2.3070 
   74.6250   -41.1240   101.7550     4.1940     4.9040     5.6710     2.2660 
   74.7500   -41.4990   103.2480     4.1780     4.8870     4.7070     2.2670 
   74.8750   -41.9870   108.3210     4.7630     5.5010     5.0640     2.3470 
   75.0000   -42.5910   107.0610     6.0190     6.8200    20.2470     2.4710 
   75.1250   -43.3440    95.0590     7.7970     8.6870    57.9530     2.5080 
   75.2500   -44.2530    79.6670     9.5450    10.5220    74.8940     2.3780 
   75.3750   -45.3260    69.1320    10.1230    11.1290    43.2400     2.1740 
   75.5000   -46.5200    64.5950     9.4770    10.4510    14.0500     2.0700 
   75.6250   -47.7730    65.2060     8.0980     9.0030     9.3070     2.0900 
