~V
VERS. 2.00: Ver 2.00
~W
STRT.M 50.0000:
STOP.M 255.0000:
STEP.M 0.1250:
NULL. -999.2500:
UWI. F12008:
~C
DEPT.M :
SP.MV :
GR.API :
RI. :
RML.OHMM :
RXO.OHMM :
DEN.GM/CC :
~A
# ...
  178.7500   -21.7700    56.0890    13.0840    14.3690    12.6740     2.3690 
  178.8750   -21.9530    57.1410    13.0030    14.2830    12.3750     2.3630 
  179.0000   -22.1430    59.3570    12.9190    14.1940    11.4470     2.3690 
  179.1250   -22.3150    61.2850    12.8260    14.0960    10.3590     2.3810 
  179.2500   -22.4570    60.3820    12.7160    13.9790     9.8950     2.3940 
  179.3750   -22.5690    57.1610    12.7220    13.9850    10.7070     2.3960 
  179.5000   -22.6660    56.0080    12.8640    14.1360    12.2290     2.3920 
  179.6250   -22.7580    57.1020    13.1450    14.4340    13.6890     2.3850 
  179.7500   -22.8560    58.0720    13.5150    14.8260    15.2470     2.3800 
  179.8750   -22.9590    57.6320    13.8300    15.1600    16.4450     2.3860 
  180.0000   -23.0580    57.0130    14.0260    15.3670    16.5630     2.3910 
  180.1250   -23.1410    57.6740    14.0900    15.4350    16.0110     2.3890 
  180.2500   -23.1980    58.9670    14.0220    15.3640    15.5320     2.3740 
  180.3750   -23.2270    59.9880    13.8470    15.1780    15.1440     2.3580 
  180.5000   -23.2390    60.6070    13.6860    15.0070    14.8990     2.3560 
  180.6250   -23.2460    60.7520    13.5140    14.8250    14.7380     2.3660 
  180.7500   -23.2580    60.2680    13.3250    14.6250    14.4280     2.3720 
  180.8750   -23.2820    58.9330    13.1100    14.3960    14.8590     2.3660 
  181.0000   -23.3140    58.3830    12.7880    14.0560    14.9010     2.3620 
  181.1250   -23.3480    59.0230    12.2520    13.4880    14.2830     2.3690 
  181.2500   -23.3770    59.1750    11.5480    12.7410    13.9890     2.3870 
  181.3750   -23.3980    58.6290    10.7500    11.8950    12.2640     2.4020 
  181.5000   -23.4130    59.3190    10.0670    11.1710    10.2720     2.3970 
  181.6250   -23.4320    60.7350     9.6470    10.7260     9.6940     2.3710 
  181.7500   -23.4680    61.2320     9.5280    10.6000    10.0250     2.3470 
  181.8750   -23.5260    60.7730     9.7790    10.8660    10.6300     2.3460 
  182.0000   -23.5930    60.7790    10.3870    11.5100    11.4310     2.3620 
  182.1250   -23.6430    60.8910    11.2020    12.3740    12.0570     2.3740 
  182.2500   -23.6520    61.0860    12.0810    13.3060    12.8080     2.3700 
  182.3750   -23.5990    62.0340    12.9170    14.1920    14.6350     2.3570 
  182.5000   -23.4880    61.1170    13.6040    14.9200    15.3810     2.3530 
  182.6250   -23.3330    59.0600    14.1410    15.4900    15.2850     2.3630 
  182.7500   -23.1600    57.7650    14.4740    15.8430    15.3850     2.3760 
  182.8750   -22.9930    59.6130    14.6780    16.0590    15.2680     2.3850 
  183.0000   -22.8470    60.7100    14.8680    16.2610    15.8570     2.3870 
  183.1250   -22.7210    58.9820    15.1990    16.6110    16.3280     2.3850 
  183.2500   -22.6070    57.8850    15.6160    17.0530    16.2380     2.4120 
  183.3750   -22.4960    58.5200    15.9590    17.4170    16.8570     2.4600 
  183.5000   -22.3940    59.5760    15.8540    17.3060    18.6820     2.4850 
  183.6250   -22.3270    59.9800    15.0890    16.4940    20.0490     2.4540 
  183.7500   -22.3230    61.8620    13.8290    15.1590    18.6270     2.3850 
  183.8750   -22.4220    67.0770    12.2760    13.5120    14.9410     2.3070 
  184.0000   -22.6280    73.4150    11.0330    12.1940    12.1530     2.2520 
  184.1250   -22.9410    79.8120    10.3230    11.4430    11.7390     2.2360 
  184.2500   -23.3180    84.0840    10.3020    11.4200    12.3600     2.2390 
  184.3750   -23.7150    85.0410    10.9850    12.1440    13.7340     2.2360 
  184.5000   -24.0850    83.2670    11.9070    13.1220    16.0890     2.2330 
  184.6250   -24.3930    80.5460    12.6440    13.9030    17.6230     2.2500 
  184.7500   -24.6390    80.6470    13.1000    14.3860    17.8670     2.2840 
  184.8750   -24.8320    84.7790    13.1840    14.4750    16.6920     2.3090 
  185.0000   -24.9970    87.5380    13.1840    14.4750    15.5140     2.3020 
  185.1250   -25.1460    85.3690    13.3210    14.6210    17.1130     2.2670 
  185.2500   -25.2810    80.9570    13.7300    15.0530    17.5170     2.2370 
  185.3750   -25.3860    79.7320    14.3690    15.7310    16.3660     2.2240 
  185.5000   -25.4420    81.7120    15.0770    16.4820    16.9880     2.2110 
  185.6250   -25.4280    82.2900    15.4750    16.9030    17.1150     2.1940 
  185.7500   -25.3490    80.1910    15.1340    16.5420    16.1080     2.1890 
  185.8750   -25.2220    78.8920    14.0300    15.3720    15.6130     2.2060 
  186.0000   -25.0820    80.1800    12.5560    13.8100    15.1390     2.2310 
  186.1250   -24.9590    80.8110    11.0550    12.2180    13.3640     2.2560 
  186.2500   -24.8690    80.0570    10.3670    11.4890    11.1340     2.2900 
  186.3750   -24.8150    79.9510    10.8740    12.0270     9.2900     2.3310 
  186.5000   -24.7800    80.2030    12.9810    14.2600    14.9080     2.3520 
  186.6250   -24.7540    77.2630    17.1980    18.7300    35.3190     2.3230 
  186.7500   -24.7330    70.8710    23.7100    25.6330    52.1370     2.2690 
  186.8750   -24.7300    64.3810    31.3440    33.7240    50.9940     2.2320 
  187.0000   -24.7570    60.1520    38.0040    40.7850    46.8160     2.2100 
  187.1250   -24.8250    60.3720    41.4950    44.4850    74.0430     2.1820 
  187.2500   -24.9330    62.3250    41.5000    44.4900   121.4110     2.1570 
  187.3750   -25.0770    62.4520    39.6210    42.4980   141.4160     2.1620 
  187.5000   -25.2430    61.1490    37.7960    40.5640   135.9350     2.1980 
  187.6250   -25.4120    62.9760    37.0180    39.7390    99.9020     2.2370 
  187.7500   -25.5660    67.4750    39.0870    41.9320    67.0390     2.2410 
  187.8750   -25.6930    68.9160    47.0670    50.3910    89.3510     2.2030 
  188.0000   -25.7940    65.8080    63.8180    68.1470   130.3560     2.1560 
  188.1250   -25.8750    62.2610    79.4370    84.7030   158.5990     2.1300 
  188.2500   -25.9450    59.5370    91.6600    97.6590   169.3580     2.1240 
  188.3750   -26.0000    58.8100    93.7230    99.8460   148.2630     2.1210 
  188.5000   -26.0350    59.5430    85.5140    91.1450   109.9250     2.1120 
  188.6250   -26.0350    62.6650    75.1430    80.1510   102.2350     2.1000 
  188.7500   -25.9950    64.9660    64.6900    69.0710   122.2730     2.1030 
  188.8750   -25.9110    65.4990    57.4970    61.4460   115.8690     2.1260 
  189.0000   -25.7850    64.4670    55.2440    59.0580    89.7160     2.1500 
  189.1250   -25.6180    61.4750    55.8120    59.6600    84.9000     2.1550 
  189.2500   -25.4210    58.2600    61.1880    65.3590    93.1350     2.1390 
  189.3750   -25.2110    57.5710    70.5880    75.3240    94.1420     2.1120 
  189.5000   -25.0070    58.5760    79.7060    84.9890    92.2520     2.0910 
  189.6250   -24.8250    60.7730    85.0780    90.6830    92.9910     2.0910 
  189.7500   -24.6630    62.7930    84.3030    89.8610    94.5380     2.1100 
  189.8750   -24.5160    63.6230    81.7230    87.1260    91.5220     2.1410 
  190.0000   -24.3820    62.7740    79.7870    85.0750    81.3100     2.1610 
  190.1250   -24.2630    62.0980    78.8050    84.0330    75.0020     2.1560 
  190.2500   -24.1660    63.5980    78.9780    84.2170    82.4300     2.1410 
  190.3750   -24.0980    63.2660    80.3460    85.6670    89.7740     2.1300 
  190.5000   -24.0600    59.9410    81.9340    87.3500    88.6100     2.1250 
  190.6250   -24.0500    57.8010    82.4780    87.9270    88.5990     2.1170 
  190.7500   -24.0570    59.7610    81.8890    87.3020    87.5630     2.1100 
  190.8750   -24.0770    62.0240    80.7680    86.1140    82.0960     2.1110 
  191.0000   -24.1130    60.6220    80.4360    85.7620    77.0670     2.1170 
  191.1250   -24.1730    58.1580    81.6610    87.0610    76.2060     2.1290 
  191.2500   -24.2660    57.3490    84.5160    90.0870    78.6400     2.1430 
  191.3750   -24.3990    57.2080    88.3970    94.2010    82.1190     2.1480 
  191.5000   -24.5650    56.5910    91.8760    97.8890    87.1760     2.1350 
