~V
VERS. 2.00: Ver 2.00
~W
STRT.M 50.0000:
STOP.M 256.0000:
STEP.M 0.1250:
NULL. -999.2500:
UWI. F12009:
~C
DEPT.M :
SP.MV :
GR.API :
RI. :
RML.OHMM :
RXO.OHMM :
DEN.GM/CC :
~A
# ...
  165.8750     3.0020    55.1670    35.7860    38.0020    28.2080     2.4790 
  166.0000     3.0850    55.3370    36.0400    38.1790    31.2350     2.5410 
  166.1250     3.5960    53.0960    33.7510    35.5240    33.7000     2.5580 
  166.2500     4.3260    51.8610    30.2840    31.5840    32.1760     2.5320 
  166.3750     4.9840    54.8040    26.1560    27.0220    25.7920     2.5020 
  166.5000     5.2390    59.8370    22.9130    23.6790    19.9540     2.4830 
  166.6250     4.9810    61.9080    21.5840    22.3690    19.9670     2.4550 
  166.7500     4.4960    60.2190    21.4230    22.3370    22.6280     2.4160 
  166.8750     3.9250    58.2740    22.8100    23.9570    24.1660     2.3850 
  167.0000     3.5090    57.2190    24.9280    26.2810    25.1370     2.3800 
  167.1250     3.5530    56.1230    27.1780    28.6920    27.2960     2.4110 
  167.2500     3.9090    55.0220    28.8120    30.4000    31.0930     2.4580 
  167.3750     4.3480    55.7220    29.5930    31.1430    33.3360     2.4910 
  167.5000     4.7500    57.5300    29.6600    31.1460    32.7430     2.4900 
  167.6250     4.9670    59.4430    29.1670    30.5840    30.7490     2.4630 
  167.7500     5.0550    60.8830    28.1370    29.5200    28.2550     2.4420 
  167.8750     5.0220    60.5980    27.1650    28.6550    27.9480     2.4310 
  168.0000     4.9100    59.6070    26.7170    28.4080    27.6680     2.4180 
  168.1250     4.7080    60.2770    26.8310    28.7620    24.7840     2.4060 
  168.2500     4.4930    62.5860    27.1730    29.3610    24.3920     2.4190 
  168.3750     4.2980    62.7970    27.5690    30.0510    32.4900     2.4600 
  168.5000     4.0860    60.3590    27.9850    30.7170    43.7450     2.4910 
  168.6250     3.8250    58.9500    28.2010    30.9980    43.2690     2.4840 
  168.7500     3.5940    58.7760    28.0060    30.7360    34.5890     2.4550 
  168.8750     3.3350    57.7120    27.5090    30.0750    31.2050     2.4330 
  169.0000     3.0960    55.6230    27.0220    29.4860    29.9730     2.4400 
  169.1250     3.1010    56.3100    27.3710    29.8950    27.3260     2.4750 
  169.2500     3.5060    60.3310    28.3580    31.0590    26.6290     2.5200 
  169.3750     4.2010    63.7940    29.3110    32.1820    28.4980     2.5580 
  169.5000     4.9540    63.9850    29.5700    32.4930    31.8900     2.5840 
  169.6250     5.3930    60.4450    28.5400    31.2880    34.2630     2.5920 
  169.7500     5.3230    57.0340    26.1500    28.4880    32.0190     2.5740 
  169.8750     4.8420    56.1400    23.0850    24.9790    25.7320     2.5430 
  170.0000     4.2080    56.6100    20.3200    21.9140    19.7060     2.5250 
  170.1250     3.6230    56.8040    18.4890    19.9850    16.4470     2.5170 
  170.2500     3.4310    57.1400    17.7430    19.3110    16.6130     2.5080 
  170.3750     3.6720    57.8060    17.5550    19.2170    17.9610     2.4810 
  170.5000     4.0140    56.8610    17.6120    19.3140    17.9700     2.4400 
  170.6250     4.3210    54.0030    17.7240    19.3830    17.0250     2.4040 
  170.7500     4.5940    51.7690    17.7910    19.3800    15.4270     2.3950 
  170.8750     4.7470    50.9630    17.9040    19.4920    14.5190     2.4170 
  171.0000     4.8380    51.8140    18.2610    19.9610    15.3070     2.4520 
  171.1250     4.8270    54.5060    18.9990    20.8920    16.5140     2.4860 
  171.2500     4.7160    56.0160    19.7920    21.9050    18.1040     2.5110 
  171.3750     4.5300    55.1340    20.2930    22.5720    20.7060     2.5220 
  171.5000     4.3910    54.2650    20.2750    22.6430    22.2000     2.5220 
  171.6250     4.1740    54.4500    19.5520    21.8800    21.1540     2.5160 
  171.7500     3.8650    55.2830    18.4520    20.6530    19.3900     2.5010 
  171.8750     3.5500    56.4930    17.3980    19.4620    17.4800     2.4740 
  172.0000     3.2310    56.6500    16.7210    18.7200    15.5820     2.4480 
  172.1250     2.9040    55.2830    16.9360    19.0580    15.3470     2.4250 
  172.2500     2.7290    54.6970    18.2190    20.7020    17.4600     2.3970 
  172.3750     3.0180    56.3760    20.6260    23.7090    21.3190     2.3740 
  172.5000     3.6040    57.9070    23.2030    26.9250    24.9290     2.3860 
  172.6250     4.2690    58.0840    25.0000    29.1590    27.8030     2.4470 
  172.7500     4.7130    58.0920    25.1700    29.3930    30.6390     2.5130 
  172.8750     4.6150    57.9700    23.5170    27.3680    29.3040     2.5400 
  173.0000     4.0790    58.3040    21.1820    24.5200    22.3140     2.5280 
  173.1250     3.3960    58.2750    18.9010    21.7770    16.6130     2.4900 
  173.2500     2.7260    56.9160    17.3070    19.9150    15.1730     2.4450 
  173.3750     2.3610    55.6700    16.7740    19.4240    15.4910     2.4120 
  173.5000     2.4920    56.1510    17.1830    20.1110    17.1260     2.4040 
  173.6250     2.8620    56.7900    18.3960    21.8130    19.8460     2.4160 
  173.7500     3.2550    56.9520    19.9050    23.8530    21.8610     2.4280 
  173.8750     3.5840    57.2040    21.1250    25.4680    22.6810     2.4500 
  174.0000     3.7910    57.3890    21.5830    26.0250    22.5140     2.4880 
  174.1250     3.8700    56.9770    21.0180    25.1800    21.6920     2.5190 
  174.2500     3.9090    56.3560    19.5740    23.1830    21.4640     2.5080 
  174.3750     3.7740    56.4710    17.9180    20.9560    20.8810     2.4480 
  174.5000     3.4450    58.4920    16.4230    18.9820    17.7470     2.3810 
  174.6250     3.1180    62.2600    15.6410    18.0090    13.6280     2.3420 
  174.7500     2.7870    64.8010    15.4250    17.7660    12.2750     2.3380 
  174.8750     2.4160    64.2780    15.6960    18.1450    13.4910     2.3470 
  175.0000     2.0820    64.0290    16.3830    19.0070    15.0110     2.3460 
  175.1250     1.9380    64.5380    17.2710    20.0680    16.1700     2.3300 
  175.2500     1.7900    65.1550    18.1590    21.1170    16.9450     2.3130 
  175.3750     1.8440    65.4030    18.5380    21.5330    18.2990     2.3170 
  175.5000     2.2380    65.2500    18.2760    21.1780    19.6290     2.3360 
  175.6250     3.0160    64.6120    17.1400    19.7770    19.3340     2.3670 
  175.7500     3.9400    63.3400    15.4990    17.7740    17.5050     2.3940 
  175.8750     4.6760    61.8860    13.8200    15.7520    13.8400     2.4140 
  176.0000     4.9100    61.7760    12.3250    13.9930    10.4180     2.4180 
  176.1250     4.6330    63.3440    11.3350    12.8700     9.4090     2.3930 
  176.2500     4.1470    63.5720    10.8960    12.3980     9.3420     2.3500 
  176.3750     3.5990    61.3860    10.9270    12.4580     9.5450     2.3170 
  176.5000     3.2480    60.1660    11.2820    12.8670    10.1960     2.3110 
  176.6250     3.4310    61.7350    11.9220    13.5910    11.2400     2.3210 
  176.7500     3.8920    61.8890    12.7340    14.5240    12.2690     2.3250 
  176.8750     4.3760    59.2280    13.7170    15.6240    12.5650     2.3280 
  177.0000     4.7740    56.7940    14.4210    16.3650    13.0380     2.3330 
  177.1250     5.0660    56.5030    14.4530    16.3070    14.4040     2.3380 
  177.2500     5.2420    57.5530    13.9110    15.5890    14.6270     2.3420 
  177.3750     5.3270    58.5900    12.9240    14.4130    12.6770     2.3360 
  177.5000     5.3880    59.4170    12.0710    13.4400    11.1130     2.3280 
  177.6250     5.2590    58.7520    11.3670    12.7010    11.1070     2.3310 
  177.7500     5.1300    57.3230    10.9550    12.3270    11.3330     2.3450 
  177.8750     4.9570    56.4640    10.8770    12.3480    11.2790     2.3610 
  178.0000     4.6450    56.4470    11.0950    12.6970    10.6920     2.3710 
  178.1250     4.3250    55.5400    11.4460    13.1440    11.0900     2.3730 
  178.2500     4.0520    53.2990    11.7450    13.5230    13.1210     2.3620 
  178.3750     3.8650    52.5710    11.9330    13.7210    13.8910     2.3370 
  178.5000     3.7300    54.0390    11.9680    13.7010    13.0180     2.3130 
  178.6250     3.8920    56.0310    11.9530    13.6260    12.0780     2.3070 
