~V
VERS. 2.00: Ver 2.00
~W
STRT.M 50.0000:
STOP.M 256.0000:
STEP.M 0.1250:
NULL. -999.2500:
UWI. F12009:
~C
DEPT.M :
SP.MV :
GR.API :
RI. :
RML.OHMM :
RXO.OHMM :
DEN.GM/CC :
~A
# ...
   75.7500   -13.2750    88.2370     4.3690     5.0870     6.0340     2.2100 
   75.8750   -11.7950    90.9070     4.4090     5.1290     5.7180     2.2020 
   76.0000   -10.7970    88.7660     4.4740     5.1970     5.9770     2.1710 
   76.1250   -10.1710    83.1910     4.5160     5.2420     6.7930     2.1460 
   76.2500    -9.6300    80.6780     4.4610     5.1840     6.5300     2.1420 
   76.3750    -9.1540    83.8720     4.3200     5.0360     5.4510     2.1590 
   76.5000    -8.7050    90.0620     4.1780     4.8870     4.8810     2.1800 
   76.6250    -8.3670    97.6260     4.0980     4.8030     5.0540     2.1910 
   76.7500    -8.3490   102.0780     4.1310     4.8380     5.2800     2.1900 
   76.8750    -8.7500   100.5510     4.2380     4.9500     5.5170     2.1750 
   77.0000    -9.4030    95.4710     4.3720     5.0910     5.9010     2.1410 
   77.1250   -10.2000    91.4920     4.5270     5.2530     5.8900     2.1110 
   77.2500   -11.0850    90.9590     4.7110     5.4460     5.4440     2.1110 
   77.3750   -11.6220    90.5320     4.9180     5.6640     5.2210     2.1310 
   77.5000   -11.5560    87.7260     5.0870     5.8410     5.7480     2.1340 
   77.6250   -11.0100    83.4960     5.2210     5.9820     6.4490     2.1170 
   77.7500   -10.3660    81.6560     5.2810     6.0450     6.2270     2.1150 
   77.8750    -9.8780    82.9590     5.2490     6.0120     5.6650     2.1320 
   78.0000    -9.7350    84.6820     5.1470     5.9040     5.6680     2.1460 
   78.1250    -9.9860    84.9790     5.0420     5.7940     5.8030     2.1380 
   78.2500   -10.5700    85.4560     5.0350     5.7870     6.0600     2.1150 
   78.3750   -11.3920    87.7930     5.1250     5.8810     6.5660     2.0920 
   78.5000   -12.0820    88.4990     5.2130     5.9740     6.9250     2.0740 
   78.6250   -12.2850    84.9630     5.2390     6.0010     7.1850     2.0720 
   78.7500   -11.8920    82.6630     5.2400     6.0020     7.1450     2.0890 
   78.8750   -10.9970    85.1240     5.2190     5.9800     6.7440     2.1240 
   79.0000    -9.7290    89.2110     5.1680     5.9260     6.6680     2.1630 
   79.1250    -8.3450    91.9790     5.0750     5.8290     7.4110     2.2010 
   79.2500    -7.1070    95.5020     4.9360     5.6830     7.5910     2.2330 
   79.3750    -6.1950    99.9560     4.7920     5.5320     6.0630     2.2450 
   79.5000    -5.5990   102.3810     4.6570     5.3900     4.9950     2.2370 
   79.6250    -5.3930   101.3550     4.5700     5.2980     5.4580     2.2170 
   79.7500    -5.6120    98.8290     4.5650     5.2930     5.8820     2.1970 
   79.8750    -6.0630    97.5050     4.6730     5.4060     5.4930     2.1810 
   80.0000    -6.6090    96.7210     4.8480     5.5900     5.2970     2.1700 
   80.1250    -7.0750    94.1470     5.0080     5.7580     5.9000     2.1610 
   80.2500    -7.3520    90.0250     5.0970     5.8520     6.4070     2.1570 
   80.3750    -7.5300    87.8840     5.0920     5.8470     6.4590     2.1640 
   80.5000    -7.5550    91.4170     5.0330     5.7850     6.2100     2.1840 
   80.6250    -7.0820    99.7350     4.9640     5.7120     5.7240     2.2120 
   80.7500    -6.0660   106.3030     4.9340     5.6810     5.3480     2.2250 
   80.8750    -4.8270   105.3200     5.0200     5.7720     5.9690     2.2090 
   81.0000    -3.8080   100.9220     5.2070     5.9680     7.0010     2.1850 
   81.1250    -3.3270    95.9510     5.3740     6.1430     6.6260     2.1890 
   81.2500    -3.4490    91.1670     5.4430     6.2150     5.9860     2.2200 
   81.3750    -3.9350    90.3800     5.3830     6.1520     5.8710     2.2440 
   81.5000    -4.4860    95.9720     5.2790     6.0430     5.2880     2.2480 
   81.6250    -5.0630   102.9600     5.2390     6.0010     5.1020     2.2370 
   81.7500    -5.5340   104.7390     5.3460     6.1130     5.4620     2.2190 
   81.8750    -5.7600   101.5090     5.5190     6.2950     5.8860     2.1860 
   82.0000    -5.9340    97.6730     5.7330     6.5200     6.4740     2.1490 
   82.1250    -6.2700    95.2660     6.0220     6.8230     6.6030     2.1290 
   82.2500    -6.7550    92.1300     6.3650     7.1830     6.6170     2.1340 
   82.3750    -7.3770    86.2950     6.8290     7.6700     7.2850     2.1510 
   82.5000    -8.1720    81.5610     7.3100     8.1750     8.3980     2.1670 
   82.6250    -9.0110    81.0640     7.6670     8.5510     9.5510     2.1780 
   82.7500   -10.0510    81.8960     7.8020     8.6920     9.9190     2.1770 
   82.8750   -11.1990    78.9640     7.6340     8.5150     9.3070     2.1510 
   83.0000   -12.2580    73.2680     7.3050     8.1700     8.5610     2.1110 
   83.1250   -13.1080    66.3150     6.9030     7.7480     8.1840     2.0730 
   83.2500   -13.8590    61.7200     6.6060     7.4360     8.1280     2.0480 
   83.3750   -14.4760    62.0500     6.4460     7.2690     8.1840     2.0360 
   83.5000   -14.8420    64.3640     6.3910     7.2110     8.1800     2.0330 
   83.6250   -15.0950    65.5440     6.3950     7.2150     8.2980     2.0390 
   83.7500   -15.2420    64.8560     6.4210     7.2420     8.5260     2.0510 
   83.8750   -15.1030    64.0060     6.4540     7.2760     8.3960     2.0600 
   84.0000   -14.5980    63.1260     6.4760     7.3000     8.2630     2.0610 
   84.1250   -13.8570    63.4690     6.4780     7.3020     8.4570     2.0550 
   84.2500   -13.1640    64.0020     6.4510     7.2730     8.6270     2.0410 
   84.3750   -12.8380    64.0150     6.4110     7.2320     8.7220     2.0240 
   84.5000   -13.0350    63.8260     6.3860     7.2050     8.7010     2.0160 
   84.6250   -13.5700    64.5220     6.3990     7.2190     8.5920     2.0320 
   84.7500   -14.1570    65.4040     6.4500     7.2720     8.5350     2.0560 
   84.8750   -14.6130    64.3710     6.5270     7.3540     8.5490     2.0660 
   85.0000   -14.6620    62.5920     6.5930     7.4220     8.7150     2.0680 
   85.1250   -14.2370    63.9890     6.6280     7.4590     8.7750     2.0740 
   85.2500   -13.6690    68.3150     6.6190     7.4500     8.6040     2.0840 
   85.3750   -13.1400    71.2630     6.5640     7.3920     8.4840     2.0900 
   85.5000   -12.6580    69.9460     6.4930     7.3180     8.4640     2.0910 
   85.6250   -12.3460    68.1510     6.4110     7.2310     8.4480     2.0910 
   85.7500   -12.1290    68.5300     6.3510     7.1690     8.2780     2.0880 
   85.8750   -11.9680    70.2730     6.3180     7.1340     8.0360     2.0840 
   86.0000   -11.8440    70.4970     6.3070     7.1230     7.9690     2.0790 
   86.1250   -11.7680    69.4860     6.3250     7.1410     7.9940     2.0760 
   86.2500   -11.6270    68.2060     6.3770     7.1950     7.6690     2.0730 
   86.3750   -11.4460    67.8610     6.4510     7.2730     7.0900     2.0700 
   86.5000   -11.2270    69.5920     6.4680     7.2920     6.9450     2.0640 
   86.6250   -10.8320    72.4040     6.3620     7.1800     7.2150     2.0690 
   86.7500   -10.2200    74.7030     6.0900     6.8950     7.0920     2.0990 
   86.8750    -9.5100    77.1870     5.7410     6.5290     6.1460     2.1410 
   87.0000    -8.6540    82.8400     5.4540     6.2270     5.2890     2.1740 
   87.1250    -7.5820    89.3580     5.3420     6.1090     5.0550     2.1870 
   87.2500    -6.4870    92.6920     5.4470     6.2200     5.3100     2.1850 
   87.3750    -5.7040    92.5060     5.6770     6.4610     6.1850     2.1670 
   87.5000    -5.3710    90.3960     5.9610     6.7590     7.0090     2.1270 
   87.6250    -5.6730    85.8050     6.0680     6.8710     7.3050     2.0840 
   87.7500    -6.3850    80.2090     5.9520     6.7500     7.6140     2.0670 
   87.8750    -7.0060    77.1000     5.7510     6.5390     7.7570     2.0910 
   88.0000    -7.2670    78.2760     5.7880     6.5770     7.0380     2.1390 
   88.1250    -7.1740    83.6890     6.3770     7.1950     6.1670     2.2000 
   88.2500    -6.7450    87.8020     7.7490     8.6370    10.9950     2.2860 
   88.3750    -6.1970    85.4220     9.9690    10.9680    28.2810     2.4020 
   88.5000    -5.9410    79.9980    12.3650    13.4830    44.7070     2.5030 
