~V
VERS. 2.00: Ver 2.00
~W
STRT.M 50.0000:
STOP.M 226.0000:
STEP.M 0.1250:
NULL. -999.2500:
UWI. F12001:
~C
DEPT.M :
SP.MV :
GR.API :
RI. :
RML.OHMM :
RXO.OHMM :
DEN.GM/CC :
~A
# ...
  204.5000    -0.4490    96.7930     6.3280     7.4790     6.7580     2.2090 
  204.6250    -0.1800    93.3850     6.4520     7.6060     6.9010     2.2110 
  204.7500     0.0730    89.5610     6.6180     7.7860     7.2980     2.2110 
  204.8750     0.1290    87.0220     6.7710     7.9440     7.7980     2.2130 
  205.0000     0.0120    86.9970     6.8540     8.0030     7.9880     2.2230 
  205.1250    -0.1980    89.2370     6.7880     7.8490     7.5410     2.2420 
  205.2500    -0.3780    90.0760     6.5910     7.5310     6.8280     2.2560 
  205.3750    -0.5140    87.9050     6.4060     7.2230     6.3070     2.2530 
  205.5000    -0.6490    84.8330     6.3750     7.1120     6.2340     2.2430 
  205.6250    -0.7370    84.4980     6.6650     7.3970     7.3430     2.2400 
  205.7500    -0.7410    87.1240     7.2400     8.0110     9.3890     2.2490 
  205.8750    -0.6510    90.1990     7.8920     8.6780    11.0920     2.2690 
  206.0000    -0.4460    91.1290     8.3810     9.1310    11.0390     2.2950 
  206.1250    -0.0900    90.5440     8.4350     9.0740     9.1330     2.3080 
  206.2500     0.2290    91.3880     8.0890     8.5980     7.9360     2.2920 
  206.3750     0.4380    91.8690     7.5300     7.9570     7.8100     2.2600 
  206.5000     0.5310    89.9650     6.9740     7.3670     7.5420     2.2380 
  206.6250     0.5210    86.3530     6.6110     7.0240     6.9960     2.2310 
  206.7500     0.5070    83.4760     6.4100     6.8540     6.3350     2.2290 
  206.8750     0.5090    82.4600     6.3440     6.8190     6.3270     2.2290 
  207.0000     0.5650    83.2480     6.4110     6.9160     6.7460     2.2330 
  207.1250     0.6730    86.1290     6.6410     7.1840     7.0520     2.2360 
  207.2500     0.7950    89.7810     6.9340     7.4960     7.8280     2.2390 
  207.3750     0.9170    93.0500     7.3110     7.8800     9.3220     2.2410 
  207.5000     1.0290    94.6130     7.7690     8.3340     9.7900     2.2390 
  207.6250     1.2020    93.8540     8.3890     8.9770     8.7400     2.2410 
  207.7500     1.3310    93.1930     9.3150    10.0350     9.2940     2.2550 
  207.8750     1.3280    92.0750    10.5320    11.4760    12.4290     2.2860 
  208.0000     1.2630    89.9470    11.8060    12.9940    15.6520     2.3210 
  208.1250     1.1140    88.3230    12.5070    13.7900    17.3430     2.3490 
  208.2500     0.9380    89.1970    12.2800    13.4650    16.4620     2.3600 
  208.3750     0.6900    88.7020    11.1750    12.1290    12.7180     2.3450 
  208.5000     0.5310    85.2550     9.5730    10.2810     8.7910     2.3070 
  208.6250     0.5780    82.3700     8.1780     8.7530     7.1170     2.2610 
  208.7500     0.5270    82.7200     7.1650     7.6940     6.8510     2.2330 
  208.8750     0.3100    85.6220     6.5720     7.1250     6.7100     2.2300 
  209.0000    -0.0220    88.4350     6.3520     6.9680     6.6470     2.2340 
  209.1250    -0.1850    89.9950     6.3780     7.0630     6.7710     2.2300 
  209.2500    -0.1980    90.7980     6.4950     7.2310     6.7740     2.2230 
  209.3750    -0.1860    90.5960     6.6310     7.3960     6.7110     2.2190 
  209.5000    -0.1470    89.6630     6.7640     7.5460     6.7120     2.2170 
  209.6250    -0.1610    87.0300     6.8800     7.6600     6.7950     2.2120 
  209.7500    -0.1470    85.2050     6.9770     7.7400     7.1200     2.2090 
  209.8750    -0.0880    86.9980     7.0440     7.7820     7.4980     2.2110 
  210.0000    -0.0390    90.0510     7.1210     7.8390     7.9890     2.2150 
  210.1250    -0.0080    91.3580     7.3110     8.0500     8.2110     2.2130 
  210.2500    -0.0520    93.1820     7.7170     8.5600     8.8430     2.2060 
  210.3750    -0.0760    97.5130     8.2220     9.2030    11.8160     2.2070 
  210.5000    -0.0830    99.7050     8.6630     9.7680    14.3270     2.2220 
  210.6250    -0.0640    96.3250     8.7660     9.9050    13.3690     2.2440 
  210.7500    -0.0220    93.3720     8.4640     9.5440    11.1860     2.2570 
  210.8750     0.0100    94.3970     7.9050     8.8760     9.0310     2.2500 
  211.0000     0.0220    96.8550     7.2700     8.1500     7.3070     2.2290 
  211.1250     0.0210    98.4830     6.7950     7.6580     7.1100     2.2110 
  211.2500    -0.0660    99.7760     6.6150     7.5450     7.4100     2.2080 
  211.3750    -0.1120    98.6600     6.7140     7.7640     7.6120     2.2140 
  211.5000    -0.1270    94.5640     6.9440     8.0950     8.3570     2.2210 
  211.6250    -0.1270    91.0660     7.0990     8.2770     8.6240     2.2280 
  211.7500    -0.1270    91.2880     7.1440     8.2930     7.9300     2.2300 
  211.8750    -0.1270    94.3540     7.0570     8.1250     7.3730     2.2230 
  212.0000    -0.1270    97.3980     6.8790     7.8580     7.6980     2.2150 
  212.1250    -0.1270    98.7480     6.6970     7.6080     8.7070     2.2170 
  212.2500    -0.1270    98.0890     6.5640     7.4490     9.4500     2.2260 
  212.3750    -0.1270    95.2150     6.4830     7.3690     9.6770     2.2330 
  212.5000    -0.1270    92.1650     6.3690     7.2490     9.2270     2.2350 
  212.6250    -0.1270    89.8140     6.1550     7.0110     7.6830     2.2310 
  212.7500    -0.1270    87.2240     5.8200     6.6270     6.2130     2.2300 
  212.8750    -0.1270    83.0100     5.4400     6.1960     5.4240     2.2380 
  213.0000    -0.1270    79.0500     5.0600     5.7660     4.3550     2.2470 
  213.1250    -0.1270    75.8690     4.6900     5.3410     3.3910     2.2280 
  213.2500    -0.1270    72.0070     4.4000     5.0050     3.3310     2.1560 
  213.3750    -0.1270    67.8470     4.2510     4.8340     3.6940     2.0510 
  213.5000    -0.1270    65.1350     4.2500     4.8370     4.2670     1.9900 
  213.6250    -0.1270    63.5200     4.4160     5.0440     5.3470     2.0360 
  213.7500    -0.1270    62.8320     4.7720     5.4840     6.3890     2.1510 
  213.8750    -0.1270    62.4470     5.2190     6.0160     6.8020     2.2700 
  214.0000    -0.1270    62.8700     5.6040     6.4580     6.5570     2.3700 
  214.1250    -0.1270    63.6950     5.7880     6.6440     6.0620     2.4130 
  214.2500    -0.1270    64.5220     5.7200     6.5230     5.9180     2.3870 
  214.3750    -0.1270    64.8000     5.4680     6.2000     5.9510     2.2930 
  214.5000    -0.1270    63.8460     5.1770     5.8580     5.8310     2.1960 
  214.6250    -0.1270    63.1150     4.9400     5.6050     5.7130     2.1580 
  214.7500    -0.1270    63.0450     4.8040     5.4850     5.7330     2.1750 
  214.8750    -0.1270    62.2150     4.7810     5.4980     5.8970     2.2150 
  215.0000    -0.1270    61.3280     4.8110     5.5560     5.9970     2.2510 
  215.1250    -0.1270    61.8670     4.8710     5.6410     5.5610     2.2750 
  215.2500    -0.1270    62.7760     4.9770     5.7770     5.1790     2.2870 
  215.3750    -0.1270    62.1630     5.0850     5.9130     5.8220     2.2950 
  215.5000    -0.1270    61.3720     5.1210     5.9470     6.5960     2.3070 
  215.6250    -0.1270    61.4350     5.0870     5.8830     6.4450     2.3170 
  215.7500    -0.1270    61.1820     5.0170     5.7550     5.8710     2.3050 
  215.8750    -0.1270    59.8800     5.1330     5.8570     5.8460     2.2680 
  216.0000    -0.1270    59.7630     5.3660     6.1130     7.2320     2.2360 
  216.1250    -0.1270    62.0270     5.7960     6.6490     9.5450     2.2310 
  216.2500    -0.1270    64.6850     6.2740     7.2380     9.9180     2.2360 
  216.3750    -0.1270    64.7400     6.7230     7.7810     8.2060     2.2300 
  216.5000    -0.1270    62.1420     6.9560     8.0190     7.3950     2.2240 
  216.6250    -0.1270    60.4540     7.0140     8.0400     7.3930     2.2270 
  216.7500    -0.1270    60.7710     6.9490     7.9210     7.2950     2.2380 
  216.8750    -0.1270    60.8960     6.9300     7.8480     7.8770     2.2440 
  217.0000    -0.1270    60.1770     7.0230     7.9390     8.8880     2.2450 
  217.1250    -0.1270    59.3850     7.1170     8.0330     9.7660     2.2480 
  217.2500    -0.1270    59.2940     7.1350     8.0560    10.7420     2.2550 
