~V
VERS. 2.00: Ver 2.00
~W
STRT.M 50.0000:
STOP.M 178.0000:
STEP.M 0.1250:
NULL. -999.2500:
UWI. F12004:
~C
DEPT.M :
SP.MV :
GR.API :
RI. :
RML.OHMM :
RXO.OHMM :
DEN.GM/CC :
~A
# ...
   88.6250   100.4840    69.4180     6.8980     7.0460     5.9980     2.1970 
   88.7500   100.4990    67.2200     7.7120     7.9850     7.1900     2.1710 
   88.8750   100.2720    63.5500     9.2550     9.7220    10.1010     2.1470 
   89.0000   100.0110    60.4660    11.8100    12.4300    15.3470     2.1250 
   89.1250    99.8230    58.0360    15.6050    16.2310    21.8010     2.1040 
   89.2500    99.7230    54.5360    20.1890    20.6050    26.6160     2.0870 
   89.3750    99.6530    52.3790    24.3740    24.6460    26.9170     2.0800 
   89.5000    99.6110    52.6870    27.3530    27.6970    25.3700     2.0850 
   89.6250    99.6790    53.2380    29.0110    29.7440    28.9940     2.0910 
   89.7500    99.7570    52.2930    30.3190    31.7010    35.7040     2.0950 
   89.8750    99.6650    51.2530    32.6810    34.5000    39.0800     2.0940 
   90.0000    99.5190    51.4340    35.8670    38.1110    41.1370     2.0920 
   90.1250    99.4650    50.5340    39.3100    41.8820    43.8660     2.0890 
   90.2500    99.5060    47.3650    41.9410    44.9030    44.2220     2.0870 
   90.3750    99.6210    44.8540    43.1080    46.5750    41.7050     2.0900 
   90.5000    99.6750    45.6170    43.2630    47.1910    39.4100     2.0970 
   90.6250    99.7130    48.2490    42.9110    47.2070    37.7810     2.1090 
   90.7500    99.7130    49.1770    42.5910    46.8070    37.4060     2.1150 
   90.8750    99.5870    47.6900    42.7380    46.1750    38.7080     2.1050 
   91.0000    99.4110    46.2420    43.1550    46.2870    39.2760     2.0890 
   91.1250    99.1770    46.0020    43.7240    47.0470    38.9630     2.0830 
   91.2500    99.1060    46.8070    44.1960    47.7020    38.9840     2.0810 
   91.3750    99.1090    48.5620    44.4530    48.1150    39.0590     2.0790 
   91.5000    99.1670    49.4680    44.4990    48.3560    38.8260     2.0750 
   91.6250    99.2750    48.4890    44.4220    48.5390    38.5210     2.0750 
   91.7500    99.4310    46.7680    44.3340    48.6850    38.2310     2.0790 
   91.8750    99.6790    45.9430    44.2010    48.7900    38.2750     2.0840 
   92.0000    99.9870    46.0750    44.0500    48.8440    38.3790     2.0890 
   92.1250   100.3210    46.8860    43.9110    48.5890    37.9630     2.0940 
   92.2500   100.6320    47.7070    43.8030    47.7260    37.7890     2.0980 
   92.3750   100.8860    47.8230    43.6190    47.2130    37.9720     2.0920 
   92.5000   101.1330    47.6540    43.3050    47.2670    37.7980     2.0850 
   92.6250   101.3570    48.2600    42.7940    47.2950    36.6850     2.0850 
   92.7500   101.5500    48.7160    42.1350    47.1490    35.2000     2.0890 
   92.8750   101.5620    47.4480    41.4710    46.6140    34.5440     2.0860 
   93.0000   101.5780    45.4870    40.8280    45.7670    34.4380     2.0780 
   93.1250   101.7130    45.5430    40.3500    44.8830    34.6620     2.0750 
   93.2500   101.9400    47.0980    40.0030    44.4610    34.9080     2.0770 
   93.3750   102.0780    49.4640    39.6880    44.7690    34.7490     2.0830 
   93.5000   102.2590    50.9210    39.3520    45.3220    34.6340     2.0890 
   93.6250   102.3730    50.5780    38.9990    45.7520    34.0150     2.0930 
   93.7500   102.3640    48.0990    38.7010    45.8910    33.0620     2.0920 
   93.8750   102.1710    45.9830    38.5660    45.7250    33.6980     2.0920 
   94.0000   101.8250    46.4450    38.6700    45.5280    35.4320     2.0960 
   94.1250   101.6100    47.8820    39.0520    45.6400    35.8560     2.0980 
   94.2500   101.3640    48.2250    39.5420    46.1240    34.8090     2.0970 
   94.3750   101.1910    47.8580    39.6010    46.9190    34.2650     2.0950 
   94.5000   101.1810    47.6680    39.6090    47.8300    33.9430     2.0950 
   94.6250   101.2220    48.0650    39.2030    47.2520    29.3550     2.1080 
   94.7500   101.0380    48.2470    34.8360    44.9360    23.3780     2.1680 
   94.8750   101.0110    49.5250    27.8040    34.6660    30.1890     2.2790 
   95.0000   100.9500    53.6350    19.2560    23.7740    35.9440     2.3710 
   95.1250   100.6250    59.7060    11.9090    14.4920    20.5700     2.3710 
   95.2500   100.1570    65.3550     8.4120    10.1470     6.6170     2.3050 
   95.3750    99.6800    68.3830     6.9690     8.4540     5.6840     2.2350 
   95.5000    98.9770    69.7210     6.3660     7.7440     6.1560     2.2020 
   95.6250    98.4330    69.9010     6.3770     7.8740     6.1410     2.2090 
   95.7500    98.1050    69.8310     6.7810     8.5000     6.6890     2.2560 
   95.8750    97.9090    70.8310     7.1950     9.0630     7.6150     2.3420 
   96.0000    97.8410    71.4890     7.4120     9.2060     8.4230     2.4300 
   96.1250    97.9360    70.6580     7.3960     9.0130     8.1310     2.4450 
   96.2500    98.2550    69.5700     7.2090     8.6920     6.6260     2.3750 
   96.3750    98.6850    71.0710     6.8440     8.2170     5.6040     2.2810 
   96.5000    99.2960    73.1490     6.4320     7.7710     5.4030     2.2310 
   96.6250   100.0040    72.7240     6.0940     7.3590     5.2640     2.2340 
   96.7500   100.4310    72.2430     5.9210     7.1110     5.0450     2.2530 
   96.8750   100.5810    72.3590     5.9190     7.0930     4.9770     2.2880 
   97.0000   100.6010    72.3310     6.0540     7.2690     5.3290     2.3350 
   97.1250   100.5010    72.5450     6.2770     7.5600     5.7370     2.3700 
   97.2500   100.4450    74.7990     6.4620     7.8140     5.8470     2.3740 
   97.3750   100.3700    77.1500     6.3780     7.7000     5.5720     2.3550 
   97.5000   100.3030    76.9010     6.0490     7.2870     4.8470     2.3340 
   97.6250   100.0840    76.4330     5.4630     6.5600     4.0590     2.3160 
   97.7500    99.5190    76.4080     4.8460     5.7900     3.6450     2.3020 
   97.8750    99.0110    76.1960     4.4080     5.2590     3.4950     2.3020 
   98.0000    98.4550    75.6110     4.1860     4.9680     3.3490     2.3090 
   98.1250    97.9870    76.2620     4.2130     5.0030     3.4980     2.2790 
   98.2500    97.6000    77.1220     4.4090     5.2510     3.6710     2.1920 
   98.3750    97.3220    77.2400     4.7380     5.6910     4.0140     2.1070 
   98.5000    97.3150    77.4450     5.1460     6.2110     4.5120     2.1110 
   98.6250    97.4240    78.2330     5.6270     6.8010     4.6380     2.2100 
   98.7500    97.6680    77.6230     6.1770     7.4590     4.7670     2.3040 
   98.8750    98.0510    75.8340     6.6510     7.9960     4.9020     2.3210 
   99.0000    98.4580    75.5730     6.9580     8.3340     5.6850     2.2810 
   99.1250    98.9040    77.2570     7.0840     8.4450     6.0590     2.2450 
   99.2500    99.5190    77.2120     7.0140     8.3180     5.4820     2.2350 
   99.3750   100.1230    74.0830     6.7950     8.0090     5.4090     2.2350 
   99.5000   100.6380    71.7900     6.5920     7.7470     5.9060     2.2270 
   99.6250   100.7710    72.4600     6.6150     7.7780     5.7550     2.2150 
   99.7500   100.5910    74.8230     6.8540     8.0810     5.6490     2.2090 
   99.8750   100.2430    76.3620     7.0660     8.3390     6.9680     2.1980 
  100.0000    99.9530    76.5310     7.0380     8.2870     8.1710     2.1830 
  100.1250    99.7110    75.5800     6.7230     7.8640     6.9550     2.1850 
  100.2500    99.6040    75.0470     6.3800     7.3980     5.0490     2.2190 
  100.3750    99.7720    75.1450     6.2210     7.1770     5.0780     2.2840 
  100.5000    99.9360    74.5240     6.2240     7.1920     6.8750     2.3530 
  100.6250    99.8550    73.2830     6.2750     7.2710     8.7690     2.3980 
  100.7500    99.6180    73.1670     6.2720     7.2460     8.4390     2.3980 
  100.8750    99.4110    75.2560     6.1020     6.9650     5.9010     2.3590 
  101.0000    99.2920    78.5600     5.7720     6.4590     4.4080     2.3140 
  101.1250    99.3650    80.4660     5.5030     6.0380     4.6290     2.2910 
  101.2500    99.4680    79.4140     5.5190     5.9730     5.0940     2.2820 
  101.3750    99.5110    77.4220     6.0020     6.4200     5.8590     2.2640 
