~V
VERS. 2.00: Ver 2.00
~W
STRT.M 50.0000:
STOP.M 213.0000:
STEP.M 0.1250:
NULL. -999.2500:
UWI. F12007:
~C
DEPT.M :
SP.MV :
GR.API :
RI. :
RML.OHMM :
RXO.OHMM :
DEN.GM/CC :
~A
# ...
  114.3750    95.2950    76.6070    10.2640    11.7150    10.5970     2.0640 
  114.5000    94.9140    75.3070    10.2670    11.7720    11.7540     2.0580 
  114.6250    94.6140    73.6400    10.1620    11.6260    11.2200     2.0690 
  114.7500    94.4730    71.6560    10.0090    11.3620    10.1690     2.0750 
  114.8750    94.3660    70.4790    10.0050    11.2640     9.8310     2.0720 
  115.0000    94.4360    69.8490    10.5960    11.9210    10.3440     2.0730 
  115.1250    94.8820    70.2600    12.6120    14.3440    11.9860     2.1040 
  115.2500    95.7720    70.1470    16.0700    18.6360    16.9250     2.1850 
  115.3750    97.0280    68.0530    20.0480    23.4170    30.6690     2.3100 
  115.5000    98.3010    64.2320    22.3520    26.0080    50.8670     2.4190 
  115.6250    99.1620    62.1800    21.3260    24.4950    68.2260     2.4590 
  115.7500    99.4950    65.3770    17.5380    19.7010    61.9610     2.4330 
  115.8750    99.4510    73.7950    12.6560    13.9250    30.6610     2.3780 
  116.0000    99.2230    83.9480     8.5650     9.3160    10.7130     2.3250 
  116.1250    99.0790    90.1820     6.2990     6.9150     8.2740     2.2820 
  116.2500    99.2980    92.9960     5.0910     5.7150     7.3070     2.2470 
  116.3750    99.7930    94.9600     4.7080     5.4120     6.4690     2.2260 
  116.5000   100.3090    95.5800     4.6200     5.4210     6.1530     2.2230 
  116.6250   100.7560    94.5150     4.7160     5.5820     6.3130     2.2260 
  116.7500   101.0820    93.0300     4.8330     5.7180     6.3600     2.2200 
  116.8750   101.2160    93.0130     4.8850     5.7330     6.2900     2.2060 
  117.0000   101.2070    92.9920     4.8700     5.6530     6.3130     2.2040 
  117.1250   101.0990    93.2270     4.8240     5.5350     5.9940     2.2270 
  117.2500   100.9360    94.4670     4.8110     5.4650     5.6290     2.2470 
  117.3750   100.7710    95.6670     4.9840     5.6540     5.9970     2.2380 
  117.5000   100.6680    96.4400     5.3920     6.1510     6.4540     2.2330 
  117.6250   100.5120    96.7860     6.0020     6.9340     6.6700     2.2660 
  117.7500   100.2580    95.2150     6.6560     7.7980     7.6970     2.3100 
  117.8750   100.0100    91.6700     7.1060     8.3930     9.2260     2.3030 
  118.0000    99.7630    88.5760     7.1160     8.4110     9.3090     2.2450 
  118.1250    99.5130    88.4710     6.7070     7.8820     8.2690     2.1880 
  118.2500    99.5490    91.7090     6.0970     7.1250     7.1410     2.1760 
  118.3750   100.0200    96.6910     5.5760     6.5300     6.1040     2.2060 
  118.5000   100.6950   100.1990     5.3210     6.3080     6.1010     2.2450 
  118.6250   101.3330   100.7440     5.3410     6.4470     6.9780     2.2780 
  118.7500   101.6380   100.0680     5.4380     6.6380     7.7530     2.2980 
  118.8750   101.3500    99.0740     5.4960     6.7290     7.4200     2.2950 
  119.0000   100.7830    96.7870     5.4770     6.6640     6.3150     2.2670 
  119.1250   100.1090    94.9010     5.3950     6.4920     5.8380     2.2310 
  119.2500    99.5800    95.7310     5.4090     6.4480     5.9840     2.2110 
  119.3750    99.5240    97.5340     5.6170     6.6520     6.3730     2.2200 
  119.5000    99.8610    96.3460     6.1700     7.2680     7.3180     2.2480 
  119.6250   100.3370    92.8270     7.0320     8.2460     9.3260     2.2740 
  119.7500   100.7700    90.7250     8.1730     9.5530    10.6040     2.2900 
  119.8750   101.1340    87.9510     9.0600    10.5200    10.3650     2.3160 
  120.0000   101.3530    82.7190     9.2970    10.7100    11.7980     2.3660 
  120.1250   101.4380    78.8890     8.7270     9.9250    13.3840     2.4060 
  120.2500   101.5500    79.5040     7.4820     8.3960    10.9700     2.3990 
  120.3750   101.5900    84.8370     6.3320     7.0610     6.9940     2.3410 
  120.5000   101.5060    91.6400     5.5020     6.1720     5.1760     2.2740 
  120.6250   101.3600    97.8060     5.1780     5.9580     5.3130     2.2270 
  120.7500   101.1900    99.1920     5.1120     5.9920     7.2100     2.2060 
  120.8750   100.9140    97.1130     5.0720     5.9000     9.0800     2.2010 
  121.0000   100.7150    96.7890     5.0350     5.6870     8.0890     2.2000 
  121.1250   100.5410    97.9020     5.2160     5.6600     6.3150     2.2080 
  121.2500   100.3560    99.4890     5.8300     6.2200     6.0780     2.2140 
  121.3750   100.3970    98.9560     7.4280     8.0320    10.4510     2.1980 
  121.5000   100.8210    93.9330    10.6340    11.6950    21.0980     2.1610 
  121.6250   101.4920    83.3760    15.5270    17.1890    30.4130     2.1230 
  121.7500   102.1940    74.0680    17.8630    19.3870    33.9320     2.0960 
  121.8750   102.6260    71.7120    17.3620    18.4810    34.6510     2.0830 
  122.0000   102.5870    74.0650    13.7680    14.1370    29.7950     2.0970 
  122.1250   102.1790    79.9230     8.9380     8.8730    17.7860     2.1440 
  122.2500   101.6280    90.1420     6.2300     6.1530     7.7080     2.2050 
  122.3750   101.1360    99.6750     4.7010     4.6860     4.6120     2.2420 
  122.5000   100.9530   103.8530     4.1330     4.2050     4.5340     2.2400 
  122.6250   101.1780   103.8560     4.3340     4.5230     4.5510     2.2200 
  122.7500   101.5160   105.5930     5.0340     5.3670     4.7440     2.2170 
  122.8750   101.8230   107.7730     6.1550     6.5660     5.7300     2.2340 
  123.0000   102.0920   105.1570     7.4610     7.9210     8.6030     2.2370 
  123.1250   102.2790    96.0030     8.9780     9.4220    13.1150     2.2060 
  123.2500   102.2750    86.4550    10.4670    10.8260    14.0430     2.1680 
  123.3750   102.2010    83.1930    12.0310    12.3350    12.3480     2.1440 
  123.5000   102.0040    84.2330    14.0190    14.3510    14.5370     2.1280 
  123.6250   101.7700    83.2940    16.1650    16.6240    18.4030     2.1060 
  123.7500   101.5840    77.2850    17.8370    18.4180    21.8390     2.0840 
  123.8750   101.3340    72.8100    18.2190    18.8470    23.4660     2.0750 
  124.0000   101.0140    74.4350    17.1900    17.7150    19.8640     2.0800 
  124.1250   100.7070    78.7220    15.5140    15.9340    15.0890     2.0900 
  124.2500   100.4000    80.7260    14.5290    15.0050    13.6030     2.1010 
  124.3750   100.0560    79.5840    15.1110    15.8010    16.6480     2.1080 
  124.5000    99.8850    77.7720    17.4440    18.5210    24.4290     2.1070 
  124.6250   100.1460    75.7800    21.2220    22.7890    32.5030     2.0930 
  124.7500   100.7320    73.1450    25.1620    26.9760    37.2550     2.0750 
  124.8750   101.4500    71.2390    28.3360    30.1520    40.3000     2.0650 
  125.0000   101.9840    70.9150    29.7860    31.2750    41.9330     2.0660 
  125.1250   101.9530    71.5130    29.6750    30.6850    38.6970     2.0720 
  125.2500   101.4580    72.8160    28.6470    29.3040    33.6790     2.0720 
  125.3750   100.7830    73.7200    27.4970    27.8560    31.1570     2.0610 
  125.5000   100.1730    74.1370    26.5780    26.5940    28.4330     2.0500 
  125.6250    99.9100    74.0980    25.8790    25.6720    26.1940     2.0440 
  125.7500   100.0680    74.3360    25.3840    24.9830    34.1360     2.0440 
  125.8750   100.4750    74.5870    24.7810    24.3120    45.9360     2.0450 
  126.0000   100.9020    73.2070    24.1230    23.6620    39.9990     2.0500 
  126.1250   101.3160    72.1670    23.4630    22.9920    26.4060     2.0550 
  126.2500   101.5970    72.4070    22.7600    22.3270    23.3530     2.0570 
  126.3750   101.7630    73.7930    21.6820    21.2100    24.1250     2.0620 
  126.5000   101.8510    74.5300    19.9110    19.4090    23.8600     2.0730 
  126.6250   101.8750    75.1990    18.1550    17.6240    23.4950     2.0880 
  126.7500   101.7630    76.7580    16.8760    16.3350    20.0160     2.1020 
  126.8750   101.6580    78.0290    17.1960    16.7230    15.8350     2.1100 
  127.0000   101.5600    76.3390    19.7260    19.3780    19.7900     2.1060 
  127.1250   101.3390    71.9500    25.7490    26.0410    31.1250     2.0950 
