~V
VERS. 2.00: Ver 2.00
~W
STRT.M 50.0000:
STOP.M 178.0000:
STEP.M 0.1250:
NULL. -999.2500:
UWI. F12004:
~C
DEPT.M :
SP.MV :
GR.API :
RI. :
RML.OHMM :
RXO.OHMM :
DEN.GM/CC :
~A
# ...
  153.0000    98.8380    58.3530     5.9830     6.0630     4.3710     2.3300 
  153.1250    98.8900    62.2440     5.3440     5.5230     4.8590     2.2590 
  153.2500    98.9870    65.6280     5.3570     5.6020     5.3450     2.2620 
  153.3750    99.0120    68.6330     5.7200     5.9840     5.2880     2.2730 
  153.5000    98.9800    70.1900     6.1030     6.3440     5.1350     2.2740 
  153.6250    98.8850    69.6930     6.3010     6.5110     5.5180     2.2730 
  153.7500    98.9120    68.1220     6.3300     6.5310     5.7560     2.2660 
  153.8750    98.6800    66.9370     6.2200     6.4570     5.5490     2.2530 
  154.0000    98.7800    65.5210     6.0550     6.3440     5.3750     2.2420 
  154.1250    98.7610    63.2420     5.8400     6.1800     5.2620     2.2320 
  154.2500    98.5830    59.5620     5.6320     6.0290     4.9210     2.2170 
  154.3750    98.5600    56.4980     5.4270     5.7990     4.4030     2.2010 
  154.5000    98.6610    56.7550     5.2330     5.4450     4.0980     2.1990 
  154.6250    98.8170    60.2640     5.0950     5.2530     4.1090     2.2130 
  154.7500    99.0920    63.6180     5.0270     5.2870     4.4200     2.2340 
  154.8750    99.4280    64.2110     5.0700     5.4190     4.7590     2.2480 
  155.0000    99.8860    64.5750     5.1460     5.5460     4.8620     2.2480 
  155.1250   100.3790    65.4180     5.1820     5.6000     5.1620     2.2360 
  155.2500   100.7090    65.3040     5.1260     5.5430     5.2170     2.2160 
  155.3750   100.7090    64.9930     4.9420     5.3680     4.7600     2.2010 
  155.5000   100.5130    65.6500     4.6850     5.1870     4.5220     2.1990 
  155.6250   100.2720    64.7290     4.4110     4.8300     4.0150     2.2060 
  155.7500   100.2990    60.8710     4.1790     4.6230     3.3180     2.2120 
  155.8750   100.5640    57.9460     4.0150     4.5030     3.2140     2.2230 
  156.0000   100.7370    59.2970     3.9400     4.4730     3.3210     2.2440 
  156.1250   101.1810    61.6440     3.9760     4.5630     3.3250     2.2780 
  156.2500   101.7170    61.8710     4.1210     4.7540     3.4200     2.3270 
  156.3750   102.2930    62.0790     4.3910     5.0870     3.7130     2.3660 
  156.5000   102.7580    64.5520     4.7450     5.5200     4.2760     2.3530 
  156.6250   102.9610    69.1450     5.1090     5.9510     5.0810     2.2910 
  156.7500   102.8220    72.0040     5.4470     6.3460     5.4310     2.2400 
  156.8750   102.3560    71.1400     5.6990     6.6250     5.2650     2.2290 
  157.0000   101.7840    68.2920     5.8690     6.8050     5.5570     2.2310 
  157.1250   101.2380    66.2470     5.9690     6.9200     6.2630     2.2300 
  157.2500   100.5980    66.4390     6.0300     7.0040     6.5920     2.2330 
  157.3750   100.2280    66.9000     6.0500     7.0530     6.5190     2.2360 
  157.5000    99.9700    66.1650     6.0130     7.0430     6.5840     2.2350 
  157.6250    99.6410    64.8390     5.9040     6.9470     6.6810     2.2320 
  157.7500    99.3800    64.4170     5.7140     6.7320     6.2750     2.2340 
  157.8750    99.1410    65.4380     5.4320     6.3970     5.5900     2.2420 
  158.0000    99.0110    65.4520     5.1120     6.0000     4.9540     2.2480 
  158.1250    99.1110    63.3260     4.7750     5.5970     4.3560     2.2450 
  158.2500    99.2010    60.4480     4.4990     5.2830     3.8610     2.2420 
  158.3750    99.4110    58.8300     4.2930     5.0490     3.5190     2.2410 
  158.5000    99.6010    59.3200     4.1800     4.9360     3.3900     2.2340 
  158.6250    99.7740    61.1030     4.1590     4.9020     3.3130     2.2200 
  158.7500    99.9330    63.6120     4.2350     4.9690     3.3820     2.2100 
  158.8750   100.1940    65.8000     4.3600     5.0660     3.7780     2.2100 
  159.0000   100.4890    65.3420     4.4840     5.1640     4.4600     2.2090 
  159.1250   100.5200    62.9320     4.5890     5.2560     4.9200     2.2040 
  159.2500   100.3230    60.9830     4.6310     5.2890     4.5650     2.1980 
  159.3750   100.0890    59.9470     4.6120     5.2760     3.9740     2.1840 
  159.5000   100.1600    58.8660     4.5420     5.2090     3.7750     2.1690 
  159.6250    99.9310    57.9530     4.4540     5.1070     3.7060     2.1590 
  159.7500    99.6850    56.6030     4.3660     4.9980     3.4340     2.1600 
  159.8750    99.6740    53.6390     4.2920     4.8900     3.2150     2.1810 
  160.0000    99.9160    50.1540     4.2080     4.7690     3.3710     2.2120 
  160.1250   100.0380    48.8570     4.1260     4.6710     3.7960     2.2400 
  160.2500   100.1670    49.2430     4.0330     4.5420     4.0350     2.2520 
  160.3750   100.3820    50.5910     3.9050     4.3850     3.8570     2.2400 
  160.5000   100.5430    52.0020     3.7640     4.2130     3.3040     2.1990 
  160.6250   100.7690    52.5160     3.6380     4.0710     2.5110     2.1420 
  160.7500   101.0210    52.1970     3.5700     3.9970     2.1420     2.1130 
  160.8750   101.3670    50.7360     3.5590     3.9910     2.3340     2.1460 
  161.0000   101.7670    49.3400     3.6180     4.0630     2.6750     2.2120 
  161.1250   101.9790    48.4310     3.7370     4.1910     3.3900     2.2710 
  161.2500   101.7980    47.5600     3.9120     4.3760     4.5850     2.3040 
  161.3750   101.3740    47.0490     4.0990     4.5660     5.2200     2.3270 
  161.5000   101.1270    46.4490     4.2860     4.7550     4.7410     2.3540 
  161.6250   100.9940    46.0920     4.4330     4.9160     4.2310     2.3660 
  161.7500   100.8650    45.0980     4.5370     5.0350     4.2480     2.3580 
  161.8750   100.8080    43.7080     4.5630     5.0440     4.2350     2.3400 
  162.0000   100.8760    43.4440     4.5170     4.9690     3.9880     2.3240 
  162.1250   100.8500    44.4980     4.4360     4.8650     3.8640     2.3120 
  162.2500   100.8450    45.1610     4.3510     4.7620     3.8970     2.3000 
  162.3750   100.7960    44.0580     4.2930     4.6910     3.8590     2.2950 
  162.5000   100.5740    43.0690     4.2580     4.6410     3.7850     2.2860 
  162.6250   100.2330    44.0700     4.2370     4.6000     3.8570     2.2670 
  162.7500    99.9770    45.6790     4.2300     4.5670     4.1350     2.2430 
  162.8750    99.8210    46.2370     4.2570     4.5710     4.2530     2.2340 
  163.0000    99.6480    46.3970     4.3340     4.6210     4.1990     2.2400 
  163.1250    99.6940    46.5170     4.4400     4.6970     4.5120     2.2380 
  163.2500   100.0620    46.8950     4.5550     4.7780     4.8500     2.2170 
  163.3750   100.2530    47.5470     4.6490     4.8600     4.5950     2.1910 
  163.5000   100.4960    48.5740     4.7200     4.9590     4.1840     2.1750 
  163.6250   101.2210    50.0850     4.7820     5.0960     4.2350     2.1680 
  163.7500   102.2180    52.5150     4.8280     5.2500     4.7460     2.1730 
  163.8750   102.7630    54.5500     4.8790     5.3600     5.2660     2.1920 
  164.0000   102.8970    55.7410     4.9360     5.4680     5.2250     2.2130 
  164.1250   103.0000    56.9570     5.0360     5.6480     4.8240     2.2320 
  164.2500   102.9580    58.4410     5.1460     5.8800     4.7100     2.2520 
  164.3750   102.9410    58.6330     5.2980     6.0990     5.2270     2.2700 
  164.5000   102.9410    58.0560     5.4930     6.2690     6.1220     2.2700 
  164.6250   102.9410    58.7590     5.7120     6.4250     6.5160     2.2510 
  164.7500   102.9410    59.9820     5.9080     6.5540     6.5950     2.2360 
  164.8750   102.9410    59.4470     5.9710     6.5920     6.8980     2.2400 
  165.0000   102.9410    57.2150     5.8810     6.4960     6.6120     2.2530 
  165.1250   102.9410    55.2930     5.6510     6.2770     5.4580     2.2590 
  165.2500   102.9410    55.3640     5.3880     6.0470     4.6200     2.2560 
  165.3750   102.9410    57.1020     5.2020     5.7960     4.7220     2.2500 
  165.5000   102.9410    59.0860     5.1600     5.6940     5.2850     2.2490 
  165.6250   102.9410    60.2230     5.2860     5.8250     5.7990     2.2510 
  165.7500   102.9410    60.7410     5.5450     6.1060     6.1520     2.2530 
