~V
VERS. 2.00: Ver 2.00
~W
STRT.M 50.0000:
STOP.M 300.0000:
STEP.M 0.1250:
NULL. -999.2500:
UWI. F12002:
~C
DEPT.M :
SP.MV :
GR.API :
RI. :
RML.OHMM :
RXO.OHMM :
DEN.GM/CC :
~A
# ...
  127.2500   -36.0880    71.9120     4.9160     5.7100     6.7940     2.1380 
  127.3750   -36.9720    70.8450     5.0570     5.8610     7.6100     2.1370 
  127.5000   -37.6950    68.0100     5.1130     5.9190     8.4710     2.1460 
  127.6250   -38.1550    66.5880     5.1180     5.9250     7.9950     2.1580 
  127.7500   -38.3510    68.5770     5.0970     5.9030     6.9690     2.1630 
  127.8750   -38.2940    72.4110     5.0450     5.8470     6.8780     2.1580 
  128.0000   -38.0600    74.6710     4.9540     5.7510     7.2130     2.1500 
  128.1250   -37.6990    74.7110     4.7880     5.5750     7.4540     2.1520 
  128.2500   -37.2610    75.8000     4.5680     5.3420     6.9590     2.1690 
  128.3750   -36.7580    79.6520     4.3100     5.0680     6.0120     2.1890 
  128.5000   -36.2070    83.8610     4.0980     4.8440     5.4600     2.1980 
  128.6250   -35.6280    86.6700     4.0230     4.7640     5.1630     2.1880 
  128.7500   -35.0670    89.2890     4.1240     4.8710     5.3440     2.1720 
  128.8750   -34.5930    92.4670     4.4110     5.1750     5.7040     2.1620 
  129.0000   -34.2540    96.1460     4.7540     5.5390     5.6780     2.1520 
  129.1250   -34.0900    96.8630     4.9640     5.7620     5.9800     2.1400 
  129.2500   -34.0750    93.0590     4.9420     5.7390     7.1790     2.1390 
  129.3750   -34.1730    88.0960     4.6810     5.4610     8.6210     2.1620 
  129.5000   -34.3240    87.2370     4.3510     5.1120     8.1620     2.1960 
  129.6250   -34.5020    89.3350     4.1270     4.8750     5.7040     2.2100 
  129.7500   -34.7250    87.8500     4.1020     4.8480     4.9800     2.1880 
  129.8750   -35.0690    80.4570     4.4120     5.1770     6.5290     2.1470 
  130.0000   -35.5940    72.5990     4.9860     5.7850     7.6200     2.1120 
  130.1250   -36.3260    68.2790     5.6390     6.4770     7.7360     2.0960 
  130.2500   -37.1560    65.4190     6.0870     6.9530     7.6070     2.0920 
  130.3750   -37.8950    63.9700     6.0130     6.8740     7.5920     2.1030 
  130.5000   -38.3540    66.9450     5.5750     6.4100     7.4420     2.1340 
  130.6250   -38.3700    73.3830     4.9800     5.7790     6.2340     2.1830 
  130.7500   -37.9540    79.2360     4.4680     5.2360     4.5950     2.2270 
  130.8750   -37.1530    83.6700     4.1510     4.9000     4.0040     2.2400 
  131.0000   -36.1440    87.6780     4.0390     4.7810     4.1800     2.2260 
  131.1250   -35.0910    87.5860     4.0590     4.8030     4.4640     2.2090 
  131.2500   -34.1510    83.1830     4.1650     4.9150     4.7690     2.2020 
  131.3750   -33.4390    79.9650     4.2500     5.0050     5.0530     2.1990 
  131.5000   -32.9700    82.3010     4.2660     5.0220     5.3630     2.1990 
  131.6250   -32.7310    88.5060     4.2230     4.9760     5.6520     2.2140 
  131.7500   -32.6320    92.6850     4.1220     4.8700     5.6500     2.2410 
  131.8750   -32.5840    93.0720     4.0130     4.7540     5.3880     2.2450 
  132.0000   -32.5010    92.2850     3.9440     4.6800     5.0430     2.2200 
  132.1250   -32.3330    90.6980     4.1350     4.8830     4.7850     2.1930 
  132.2500   -32.1000    87.7840     4.7630     5.5490     4.9850     2.1960 
  132.3750   -31.8630    83.2140     5.6450     6.4830     8.0460     2.2290 
  132.5000   -31.6920    77.7850     6.4760     7.3650    14.9830     2.2580 
  132.6250   -31.6410    74.5030     6.8820     7.7950    19.5030     2.2540 
  132.7500   -31.7070    76.2750     6.5560     7.4490    15.7180     2.2270 
  132.8750   -31.8650    81.6170     5.8210     6.6710     8.4980     2.2070 
  133.0000   -32.0560    84.2560     5.0110     5.8110     5.3410     2.2060 
  133.1250   -32.2280    83.0240     4.4230     5.1880     5.0910     2.2060 
  133.2500   -32.3500    82.1530     4.2560     5.0110     4.9390     2.1980 
  133.3750   -32.4190    83.0090     4.2840     5.0410     5.2780     2.1890 
  133.5000   -32.4670    83.8120     4.3260     5.0850     5.6310     2.1890 
  133.6250   -32.5280    85.1100     4.2830     5.0400     5.3060     2.2060 
  133.7500   -32.6270    89.5920     4.1640     4.9140     4.7810     2.2340 
  133.8750   -32.7870    93.7940     4.0680     4.8120     4.5370     2.2550 
  134.0000   -33.0270    93.8200     4.0620     4.8060     4.6370     2.2520 
  134.1250   -33.3990    90.2550     4.2420     4.9960     5.2180     2.2200 
  134.2500   -33.9470    87.0350     4.5490     5.3220     5.8720     2.1850 
  134.3750   -34.7330    85.2440     4.9590     5.7570     6.1560     2.1690 
  134.5000   -35.7430    81.0540     5.3540     6.1750     6.3810     2.1570 
  134.6250   -36.9350    74.9050     5.6820     6.5230     6.6030     2.1340 
  134.7500   -38.1930    70.1700     5.9110     6.7660     6.5020     2.1110 
  134.8750   -39.3940    68.5580     6.0110     6.8710     6.1970     2.1000 
  135.0000   -40.4430    67.0310     6.0080     6.8680     6.0680     2.0940 
  135.1250   -41.2710    64.2830     5.9260     6.7820     6.1040     2.0910 
  135.2500   -41.8800    63.3870     5.8220     6.6720     6.1530     2.0910 
  135.3750   -42.2800    65.4130     5.7500     6.5950     6.3130     2.0880 
  135.5000   -42.5340    68.0020     5.7430     6.5880     6.4810     2.0840 
  135.6250   -42.6880    69.9900     5.7880     6.6350     6.6120     2.0840 
  135.7500   -42.7960    71.5950     5.8550     6.7070     6.7360     2.0870 
  135.8750   -42.8910    72.4920     5.9380     6.7940     6.6680     2.0870 
  136.0000   -42.9910    72.2820     6.0100     6.8700     6.4950     2.0870 
  136.1250   -43.0960    72.8830     6.0580     6.9210     6.4080     2.0880 
  136.2500   -43.1910    72.9310     6.0630     6.9270     6.3420     2.0900 
  136.3750   -43.2490    70.3140     6.0310     6.8930     6.3370     2.0910 
  136.5000   -43.2520    66.0780     5.9720     6.8300     6.4750     2.0920 
  136.6250   -43.1890    64.2660     5.9150     6.7700     6.4250     2.0880 
  136.7500   -43.0720    66.6930     5.8880     6.7410     6.2130     2.0850 
  136.8750   -42.9140    69.2110     5.8840     6.7370     6.2900     2.0850 
  137.0000   -42.7260    69.2590     5.8360     6.6870     6.6660     2.0880 
  137.1250   -42.5060    67.6830     5.6790     6.5190     6.9510     2.1000 
  137.2500   -42.2450    68.5510     5.4340     6.2600     6.4970     2.1280 
  137.3750   -41.9260    73.8210     5.1600     5.9690     5.4700     2.1660 
  137.5000   -41.5620    79.6050     4.9490     5.7460     4.9160     2.1840 
  137.6250   -41.1840    81.4750     4.8690     5.6610     5.0080     2.1700 
  137.7500   -40.8480    79.1400     4.8840     5.6770     5.2720     2.1430 
  137.8750   -40.6060    76.1360     4.9830     5.7820     5.3920     2.1260 
  138.0000   -40.4630    73.8410     5.1080     5.9150     5.3320     2.1220 
  138.1250   -40.3900    73.2860     5.2030     6.0160     5.3130     2.1210 
  138.2500   -40.3080    75.1120     5.2590     6.0740     5.4030     2.1200 
  138.3750   -40.1270    77.6280     5.2480     6.0630     5.6680     2.1230 
  138.5000   -39.7870    77.3220     5.1650     5.9750     5.8890     2.1340 
  138.6250   -39.2370    74.5080     5.0110     5.8110     5.7120     2.1570 
  138.7500   -38.4940    73.2710     4.8110     5.5990     5.2310     2.1840 
  138.8750   -37.5780    77.6070     4.5770     5.3510     4.7480     2.2010 
  139.0000   -36.5530    84.8780     4.3530     5.1140     4.5690     2.1980 
  139.1250   -35.4850    89.6530     4.1560     4.9060     4.7910     2.1890 
  139.2500   -34.4580    90.3700     4.0050     4.7460     5.2540     2.1980 
  139.3750   -33.5670    89.8110     3.9400     4.6760     5.6210     2.2300 
  139.5000   -32.8640    90.7640     3.9620     4.7000     5.5920     2.2640 
  139.6250   -32.3960    90.7550     4.0450     4.7880     5.4240     2.2710 
  139.7500   -32.1350    89.4730     4.1630     4.9130     5.3440     2.2510 
  139.8750   -32.0500    86.7350     4.2630     5.0190     5.2120     2.2300 
  140.0000   -32.0610    84.1250     4.2920     5.0490     5.1550     2.2310 
