~V
VERS. 2.00: Ver 2.00
~W
STRT.M 50.0000:
STOP.M 247.0000:
STEP.M 0.1250:
NULL. -999.2500:
UWI. F12010:
~C
DEPT.M :
SP.MV :
GR.API :
RI. :
RML.OHMM :
RXO.OHMM :
DEN.GM/CC :
~A
# ...
   75.7500   -22.8980    62.7800     4.7450     5.4820     5.1180     2.0580 
   75.8750   -23.1290    64.1410     4.7180     5.4540     5.1270     2.0650 
   76.0000   -23.2680    65.2860     4.5870     5.3160     5.1970     2.0750 
   76.1250   -22.9660    67.4950     4.3000     5.0150     5.0850     2.1000 
   76.2500   -22.1080    73.1060     3.9470     4.6450     4.7780     2.1480 
   76.3750   -21.0780    83.5950     3.7440     4.4310     4.5410     2.2080 
   76.5000   -20.1620    93.4390     3.8620     4.5550     4.4520     2.2560 
   76.6250   -19.3330    97.3060     4.4090     5.1300     5.3730     2.2860 
   76.7500   -18.6400    94.5010     5.3160     6.0820     8.5630     2.3020 
   76.8750   -18.2290    88.5550     6.3270     7.1430    10.7250     2.2920 
   77.0000   -18.0830    83.5630     6.9980     7.8480     8.6310     2.2520 
   77.1250   -18.2210    81.1600     7.0310     7.8820     5.9790     2.2030 
   77.2500   -18.4670    79.8830     6.6300     7.4620     5.3110     2.1690 
   77.3750   -18.7840    78.5910     6.0650     6.8690     5.3170     2.1440 
   77.5000   -19.1080    77.6780     5.7130     6.4990     5.3540     2.1230 
   77.6250   -19.3690    76.7820     5.6170     6.3970     5.3490     2.1100 
   77.7500   -19.5620    75.7030     5.6230     6.4040     5.3810     2.1050 
   77.8750   -19.7740    74.2770     5.7120     6.4980     5.4440     2.1020 
   78.0000   -20.0570    73.9200     5.8510     6.6440     5.4600     2.1050 
   78.1250   -20.0810    73.1230     5.9830     6.7820     5.5440     2.1070 
   78.2500   -19.6570    71.4810     6.0080     6.8090     5.6280     2.1050 
   78.3750   -18.8160    70.3920     5.8970     6.6910     5.4870     2.1080 
   78.5000   -17.8220    72.7330     5.6790     6.4620     5.2020     2.1280 
   78.6250   -17.1630    78.5480     5.4130     6.1840     4.9180     2.1540 
   78.7500   -17.1580    83.1460     5.1990     5.9590     4.8790     2.1640 
   78.8750   -17.6170    84.1220     5.0630     5.8160     5.1460     2.1570 
   79.0000   -18.3110    83.2260     5.0300     5.7820     5.4200     2.1510 
   79.1250   -19.1890    81.7700     5.0620     5.8150     5.5220     2.1530 
   79.2500   -19.8400    79.5710     5.1300     5.8860     5.4230     2.1510 
   79.3750   -19.9600    78.5340     5.1960     5.9560     5.2060     2.1420 
   79.5000   -19.7720    79.3530     5.2510     6.0140     5.0040     2.1320 
   79.6250   -19.5740    80.1160     5.2890     6.0530     4.9080     2.1240 
   79.7500   -19.4190    80.0250     5.3140     6.0800     4.9540     2.1230 
   79.8750   -19.2530    79.9110     5.3160     6.0820     5.0830     2.1270 
   80.0000   -19.1820    80.8550     5.2990     6.0640     5.1510     2.1270 
   80.1250   -19.0960    82.3370     5.2950     6.0600     5.1020     2.1190 
   80.2500   -19.0600    83.4750     5.3600     6.1280     5.0590     2.1080 
   80.3750   -19.0670    84.0070     5.5500     6.3270     5.1200     2.0990 
   80.5000   -19.0870    82.8420     5.8530     6.6460     5.3010     2.0980 
   80.6250   -19.1210    79.2960     6.1920     7.0020     5.6110     2.1130 
   80.7500   -19.3250    74.4700     6.4640     7.2870     5.7710     2.1310 
   80.8750   -19.4720    69.9900     6.5790     7.4080     5.5760     2.1290 
   81.0000   -19.6060    66.5320     6.5000     7.3250     5.4450     2.1090 
   81.1250   -19.9150    64.9810     6.2990     7.1140     5.5640     2.0980 
   81.2500   -20.0870    64.2860     6.0860     6.8900     5.5840     2.1010 
   81.3750   -19.7670    63.9660     5.9320     6.7290     5.4520     2.1060 
   81.5000   -18.9820    64.3760     5.8600     6.6530     5.3260     2.1060 
   81.6250   -18.0480    66.9040     5.7920     6.5810     5.2070     2.1000 
   81.7500   -17.4020    68.8460     5.6730     6.4560     5.1280     2.0870 
   81.8750   -17.4410    69.8120     5.5380     6.3150     5.1100     2.0740 
   82.0000   -18.0900    72.2630     5.4400     6.2120     5.0740     2.0770 
   82.1250   -18.7230    76.0700     5.3930     6.1630     4.9880     2.0920 
   82.2500   -19.0940    76.5450     5.4290     6.2010     4.8970     2.1030 
   82.3750   -19.0600    72.5830     5.5120     6.2880     4.8480     2.1070 
   82.5000   -18.6700    68.1820     5.6050     6.3860     4.8550     2.1110 
   82.6250   -18.1580    65.1920     5.6710     6.4550     4.8550     2.1140 
   82.7500   -17.6460    62.7030     5.7830     6.5730     4.8080     2.1090 
   82.8750   -17.2610    60.0440     6.0350     6.8360     4.8270     2.1040 
   83.0000   -17.2360    59.2590     6.3360     7.1520     6.2710     2.1040 
   83.1250   -17.3970    60.7220     6.6320     7.4640    11.6680     2.1040 
   83.2500   -17.4490    61.4340     6.7380     7.5750    15.0640     2.0980 
   83.3750   -17.6310    61.1200     6.5740     7.4020    10.6310     2.0930 
   83.5000   -17.9920    61.6630     6.2320     7.0430     6.1020     2.0950 
   83.6250   -18.4090    64.7310     5.8170     6.6080     5.2330     2.0960 
   83.7500   -18.9210    67.8500     5.4910     6.2650     5.0580     2.0900 
   83.8750   -19.4870    69.9590     5.3580     6.1260     5.0680     2.0860 
   84.0000   -19.8060    70.8440     5.4070     6.1770     5.1130     2.0880 
   84.1250   -19.7500    70.4420     5.5500     6.3280     5.1540     2.0910 
   84.2500   -19.6300    68.6010     5.6910     6.4750     5.1790     2.0890 
   84.3750   -19.4310    65.8210     5.7840     6.5730     5.1860     2.0900 
   84.5000   -18.9750    64.1530     5.8180     6.6090     5.1310     2.0930 
   84.6250   -18.3600    63.9910     5.7740     6.5630     5.0370     2.0870 
   84.7500   -17.5340    64.7520     5.6400     6.4220     4.9270     2.0810 
   84.8750   -16.8920    65.7150     5.4260     6.1970     4.8410     2.0950 
   85.0000   -16.6930    67.5290     5.1410     5.8980     4.7740     2.1300 
   85.1250   -16.9560    71.1180     4.8430     5.5850     4.5720     2.1680 
   85.2500   -17.4900    76.2490     4.5780     5.3070     4.3920     2.1890 
   85.3750   -18.0380    81.8450     4.3840     5.1030     4.4240     2.1930 
   85.5000   -18.2730    86.0340     4.2810     4.9950     4.4970     2.1890 
   85.6250   -18.1220    89.5030     4.2680     4.9810     4.5160     2.1880 
   85.7500   -17.6050    92.9390     4.3050     5.0210     4.5420     2.1860 
   85.8750   -16.9120    93.8000     4.3420     5.0600     4.5350     2.1780 
   86.0000   -16.2150    91.6750     4.3690     5.0870     4.4560     2.1710 
   86.1250   -15.8790    89.2930     4.3720     5.0900     4.4100     2.1730 
   86.2500   -15.8320    87.9850     4.3660     5.0840     4.4260     2.1790 
   86.3750   -15.7640    87.0340     4.3490     5.0660     4.4130     2.1850 
   86.5000   -15.7030    86.6000     4.3340     5.0510     4.3580     2.1890 
   86.6250   -15.6150    87.9520     4.3360     5.0530     4.3000     2.1950 
   86.7500   -15.4390    88.9640     4.3490     5.0670     4.2560     2.2060 
   86.8750   -15.2540    87.6540     4.3640     5.0820     4.2430     2.2170 
   87.0000   -15.0490    86.3570     4.3680     5.0860     4.2560     2.2180 
   87.1250   -14.8640    87.8660     4.3500     5.0670     4.2330     2.2080 
   87.2500   -14.7440    90.6670     4.3150     5.0300     4.1010     2.2010 
   87.3750   -14.8570    91.9490     4.2720     4.9860     3.9330     2.2040 
   87.5000   -15.0550    92.1900     4.2780     4.9920     3.8670     2.2110 
   87.6250   -14.9270    92.0990     4.3240     5.0400     3.9680     2.2110 
   87.7500   -14.5300    90.3850     4.3470     5.0650     4.1910     2.2060 
   87.8750   -14.2300    86.5420     4.2990     5.0140     4.3630     2.2090 
   88.0000   -13.9130    83.9800     4.1430     4.8500     4.1940     2.2230 
   88.1250   -13.8640    85.5110     3.8890     4.5840     3.7600     2.2360 
   88.2500   -14.1400    90.8540     3.6430     4.3250     3.5440     2.2420 
   88.3750   -14.7230    97.1210     3.4940     4.1690     3.5330     2.2410 
   88.5000   -15.5470   100.1520     3.4640     4.1380     3.6060     2.2380 
