~V
VERS. 2.00: Ver 2.00
~W
STRT.M 50.0000:
STOP.M 247.0000:
STEP.M 0.1250:
NULL. -999.2500:
UWI. F12010:
~C
DEPT.M :
SP.MV :
GR.API :
RI. :
RML.OHMM :
RXO.OHMM :
DEN.GM/CC :
~A
# ...
  153.0000    -4.7240    58.0910    16.5490    17.8770    12.5360     2.1080 
  153.1250    -4.7100    60.2540    15.5740    16.8530    12.6380     2.1380 
  153.2500    -4.8590    60.5560    14.9030    16.1490    11.7510     2.2240 
  153.3750    -5.1370    60.6820    14.4550    15.6780    11.9690     2.3300 
  153.5000    -5.5440    61.8990    14.0810    15.2850    14.0610     2.4170 
  153.6250    -5.7560    63.0980    13.8850    15.0790    14.2810     2.4580 
  153.7500    -5.4320    64.8730    14.0840    15.2880    12.1120     2.4590 
  153.8750    -4.5350    66.1750    14.7370    15.9740    11.9130     2.4550 
  154.0000    -3.5270    63.7370    15.7550    17.0420    16.2090     2.4730 
  154.1250    -2.6330    58.6500    17.1110    18.4660    19.7810     2.4970 
  154.2500    -2.1570    54.6370    18.3590    19.7770    18.1940     2.4990 
  154.3750    -2.3140    53.6650    19.2140    20.6750    15.2560     2.4820 
  154.5000    -2.8820    53.7090    19.5850    21.0640    13.8190     2.4790 
  154.6250    -3.7270    51.8440    19.6530    21.1350    13.8250     2.5050 
  154.7500    -4.4010    49.0110    20.0250    21.5260    15.5220     2.5410 
  154.8750    -4.4730    48.9420    20.5410    22.0680    17.7660     2.5620 
  155.0000    -4.3810    52.1420    20.7540    22.2920    18.7110     2.5500 
  155.1250    -4.5130    54.4370    20.2780    21.7910    17.2340     2.5080 
  155.2500    -4.8590    54.6580    19.3340    20.8010    14.4470     2.4630 
  155.3750    -5.2760    54.9410    18.1850    19.5940    13.3180     2.4410 
  155.5000    -5.8120    55.4420    17.1980    18.5580    13.4270     2.4380 
  155.6250    -6.4480    55.5350    16.6630    17.9960    12.7460     2.4290 
  155.7500    -7.0730    55.3180    16.5120    17.8370    12.8210     2.4170 
  155.8750    -7.6300    55.5550    16.7210    18.0570    13.4890     2.4100 
  156.0000    -8.0060    55.2450    17.3420    18.7090    14.3690     2.4060 
  156.1250    -8.3500    54.1450    18.6220    20.0540    15.8930     2.4130 
  156.2500    -8.7550    52.0760    20.0490    21.5520    17.0670     2.4520 
  156.3750    -9.2280    50.2360    21.1520    22.7100    19.1090     2.5170 
  156.5000    -9.6230    50.2310    21.6730    23.2560    19.7500     2.5600 
  156.6250    -9.9640    51.9730    21.2380    22.8000    17.6910     2.5550 
  156.7500   -10.2470    53.7850    20.2040    21.7140    16.0990     2.5320 
  156.8750   -10.3630    55.9740    18.9560    20.4040    15.2980     2.5170 
  157.0000   -10.2740    58.6050    17.6390    19.0210    15.0180     2.5070 
  157.1250    -9.9080    58.7170    16.7930    18.1320    14.9690     2.4890 
  157.2500    -9.5280    55.3300    16.2470    17.5590    14.3980     2.4620 
  157.3750    -9.5330    51.3680    15.8010    17.0910    13.5030     2.4350 
  157.5000   -10.1120    51.0100    15.3750    16.6440    13.5670     2.4170 
  157.6250   -11.1220    54.0080    15.2710    16.5350    14.2050     2.4140 
  157.7500   -12.1900    57.1880    15.5370    16.8140    13.7790     2.4150 
  157.8750   -12.9180    58.3740    16.1010    17.4060    13.3720     2.4200 
  158.0000   -13.0990    57.2120    16.8370    18.1790    14.8110     2.4400 
  158.1250   -12.7700    55.3240    17.4400    18.8120    16.8010     2.4690 
  158.2500   -12.4000    54.4320    17.6730    19.0560    16.8790     2.4850 
  158.3750   -12.0440    54.9030    17.6760    19.0590    15.6080     2.4840 
  158.5000   -11.8170    56.0320    17.6590    19.0420    14.4910     2.4830 
  158.6250   -11.6340    55.6780    17.5530    18.9310    14.6730     2.4920 
  158.7500   -11.3870    54.8270    17.3570    18.7240    17.9190     2.4970 
  158.8750   -11.0150    55.8000    17.1820    18.5410    19.6510     2.4830 
  159.0000   -10.7860    59.0220    17.1870    18.5460    16.0330     2.4560 
  159.1250   -10.5070    61.5500    17.1520    18.5090    13.4100     2.4400 
  159.2500   -10.2640    61.4490    17.0750    18.4290    15.8070     2.4560 
  159.3750   -10.2420    60.2580    16.7310    18.0680    19.1920     2.4890 
  159.5000   -10.1960    60.1130    16.2010    17.5110    19.1550     2.4970 
  159.6250   -10.2150    61.0980    15.7360    17.0230    16.4970     2.4640 
  159.7500   -10.4130    60.8740    15.1970    16.4560    13.0050     2.4210 
  159.8750   -10.7540    58.9490    14.6520    15.8840    10.2350     2.4040 
  160.0000   -11.2370    56.7160    14.2480    15.4610    10.1780     2.4150 
  160.1250   -11.4710    56.3000    14.1670    15.3760    11.4450     2.4240 
  160.2500   -11.3590    57.4590    14.2110    15.4210    11.3760     2.4070 
  160.3750   -10.8220    58.5630    14.3410    15.5580    10.2150     2.3780 
  160.5000   -10.6810    58.5530    14.4090    15.6300     9.8200     2.3650 
  160.6250   -11.2710    57.0830    14.4090    15.6290    10.9610     2.3720 
  160.7500   -11.9560    56.7630    14.3880    15.6070    11.9380     2.3830 
  160.8750   -12.6780    57.5170    14.2990    15.5140    10.7230     2.3880 
  161.0000   -13.4820    57.1340    14.2630    15.4760     9.6570     2.3920 
  161.1250   -13.9480    55.8630    14.4540    15.6770    10.3520     2.4000 
  161.2500   -13.8990    55.2040    14.8250    16.0670    11.0330     2.4150 
  161.3750   -13.3240    55.1220    15.5000    16.7740    11.4890     2.4290 
  161.5000   -12.5060    54.0620    16.3400    17.6570    12.0150     2.4420 
  161.6250   -11.5710    52.9630    17.2620    18.6250    12.7620     2.4570 
  161.7500   -10.8680    53.0860    18.1430    19.5500    13.6210     2.4750 
  161.8750   -10.7290    53.6930    18.5910    20.0210    13.8540     2.4910 
  162.0000   -10.8470    53.7260    18.0410    19.4430    14.2670     2.5000 
  162.1250   -11.1970    54.9710    16.5090    17.8350    13.6320     2.4950 
  162.2500   -11.4540    57.8510    14.5490    15.7770    10.3140     2.4810 
  162.3750   -11.5970    60.6600    12.8680    14.0110     7.3640     2.4610 
  162.5000   -11.7700    60.3020    11.9440    13.0410     6.8910     2.4390 
  162.6250   -11.8610    57.5580    11.9390    13.0360     7.9570     2.4230 
  162.7500   -11.9700    55.3800    12.5940    13.7240     9.0950     2.4190 
  162.8750   -12.1290    55.8870    13.6000    14.7800     9.7820     2.4310 
  163.0000   -12.3090    57.2060    14.3800    15.5990    10.7940     2.4450 
  163.1250   -12.1920    56.9940    14.4520    15.6750    11.2700     2.4470 
  163.2500   -11.6310    53.9330    13.9670    15.1650     9.8630     2.4430 
  163.3750   -10.8680    50.6280    13.3190    14.4850     8.2110     2.4380 
  163.5000   -10.0440    50.8360    12.8670    14.0110     8.2350     2.4340 
  163.6250    -9.3840    54.6310    13.0820    14.2360     9.7280     2.4370 
  163.7500    -9.2330    57.1520    13.8760    15.0700    12.1130     2.4600 
  163.8750    -9.4440    56.7390    15.3600    16.6280    14.8610     2.5000 
  164.0000    -9.6500    55.5000    17.0190    18.3700    16.1130     2.5330 
  164.1250    -9.8120    54.0260    18.5120    19.9370    14.8540     2.5450 
  164.2500    -9.7120    51.3080    19.6380    21.1200    13.7820     2.5440 
  164.3750    -9.2590    49.7620    19.9880    21.4870    14.6200     2.5420 
  164.5000    -8.6470    50.4690    19.7950    21.2840    15.6160     2.5440 
  164.6250    -8.1920    51.3140    19.1480    20.6060    16.1100     2.5460 
  164.7500    -7.8260    51.9700    18.3160    19.7320    15.4990     2.5410 
  164.8750    -7.6700    51.5770    17.4960    18.8700    13.6100     2.5350 
  165.0000    -7.8360    50.3340    16.7670    18.1050    12.7290     2.5340 
  165.1250    -8.0030    48.8400    16.2560    17.5690    12.7330     2.5370 
  165.2500    -8.2910    48.2400    16.0510    17.3540    12.4270     2.5360 
  165.3750    -8.6690    48.6960    16.0590    17.3620    12.3310     2.5260 
  165.5000    -9.0230    49.9350    16.1960    17.5060    12.5640     2.5050 
  165.6250    -9.2840    52.8880    16.3390    17.6560    12.8840     2.4870 
  165.7500    -9.5660    54.7160    16.5300    17.8560    13.0510     2.4810 
