~V
VERS. 2.00: Ver 2.00
~W
STRT.M 50.0000:
STOP.M 226.0000:
STEP.M 0.1250:
NULL. -999.2500:
UWI. F12001:
~C
DEPT.M :
SP.MV :
GR.API :
RI. :
RML.OHMM :
RXO.OHMM :
DEN.GM/CC :
~A
# ...
  101.5000    -8.1500    72.8280     6.0040     6.7000     5.0560     2.0830 
  101.6250    -7.9840    70.8120     6.0410     6.7160     5.0210     2.0820 
  101.7500    -7.8890    68.8870     6.0830     6.7410     6.0950     2.0980 
  101.8750    -7.8240    69.2690     6.1320     6.7910     7.1260     2.1310 
  102.0000    -7.8000    69.5550     6.1740     6.8270     6.2730     2.1520 
  102.1250    -7.8560    69.4430     6.0980     6.7240     5.1190     2.1410 
  102.2500    -7.9090    70.6210     5.8440     6.4150     4.9020     2.1190 
  102.3750    -8.0450    72.6490     5.3820     5.8610     4.8730     2.1140 
  102.5000    -8.2550    75.8800     4.8290     5.2170     4.6420     2.1330 
  102.6250    -8.5410    80.0250     4.3560     4.6780     4.2460     2.1640 
  102.7500    -8.9360    85.5320     4.0350     4.3180     3.9910     2.1940 
  102.8750    -9.3060    87.8520     3.9860     4.2880     3.8400     2.2150 
  103.0000    -9.4180    86.2550     4.2360     4.6230     3.7270     2.2220 
  103.1250    -9.3200    83.8190     4.7820     5.3080     4.1370     2.2040 
  103.2500    -9.1130    83.7940     5.5890     6.2960     4.9870     2.1590 
  103.3750    -8.8990    84.6280     6.5930     7.4820     5.4660     2.1090 
  103.5000    -8.6450    81.9720     7.5460     8.5590     5.5770     2.0740 
  103.6250    -8.2650    75.8880     8.2730     9.3300     5.7610     2.0600 
  103.7500    -7.7700    71.6370     8.6300     9.6560     5.9200     2.0610 
  103.8750    -7.1710    70.7170     8.6410     9.5860     5.8410     2.0690 
  104.0000    -6.4710    71.0490     8.5460     9.4910     5.6550     2.0770 
  104.1250    -5.6570    71.9820     8.4390     9.3970     5.6230     2.0790 
  104.2500    -4.7080    73.0760     8.3510     9.3350     5.7820     2.0810 
  104.3750    -3.7700    73.6470     8.2660     9.2860     5.9640     2.0820 
  104.5000    -3.1110    72.6830     8.1810     9.2360     5.8590     2.0770 
  104.6250    -2.8430    70.4700     8.1240     9.2940     5.5710     2.0690 
  104.7500    -2.7680    65.3630     8.1290     9.4540     5.6620     2.0660 
  104.8750    -2.7070    59.0060     8.1850     9.5140     6.1620     2.0730 
  105.0000    -2.7180    56.2720     8.2880     9.5020     6.6570     2.0810 
  105.1250    -2.7700    59.9100     8.3980     9.4810     7.0370     2.0790 
  105.2500    -2.8330    65.2040     8.4910     9.4470     7.0350     2.0680 
  105.3750    -2.9620    66.2410     8.5540     9.4070     6.5940     2.0570 
  105.5000    -3.0460    64.8090     8.5900     9.3830     6.4200     2.0500 
  105.6250    -3.0480    64.3290     8.5970     9.3620     6.3920     2.0500 
  105.7500    -3.0230    65.1420     8.5280     9.2420     5.9490     2.0580 
  105.8750    -2.8550    65.0270     8.1650     8.8200     5.2800     2.0690 
  106.0000    -2.6500    64.4980     7.4240     8.0030     4.8400     2.0730 
  106.1250    -2.5550    66.1430     6.3340     6.8330     4.7350     2.0760 
  106.2500    -2.5920    72.4100     5.1660     5.5940     4.3810     2.1020 
  106.3750    -2.7900    81.4740     4.2610     4.6250     3.7020     2.1530 
  106.5000    -3.1040    89.2190     3.7560     4.1200     3.3240     2.2010 
  106.6250    -3.5350    94.8420     3.8280     4.2330     3.3920     2.2290 
  106.7500    -3.9820   100.5950     4.3930     4.9680     4.1120     2.2550 
  106.8750    -4.3690   104.2850     5.6150     6.4030     7.8440     2.3020 
  107.0000    -4.7250   101.8460     7.4010     8.3390    14.7550     2.3640 
  107.1250    -5.0170    92.9510     9.3600    10.3050    17.5390     2.3930 
  107.2500    -5.2230    83.0860    10.8080    11.7030    13.2690     2.3530 
  107.3750    -5.2080    76.8340    11.3210    12.1790     8.7840     2.2610 
  107.5000    -4.8440    75.2420    11.1470    12.0330     7.4280     2.1790 
  107.6250    -4.1770    76.6000    10.8250    11.7960     7.3000     2.1410 
  107.7500    -3.4160    76.7300    10.8760    11.8930     7.3250     2.1310 
  107.8750    -2.6140    74.0210    11.2960    12.4000     7.2090     2.1290 
  108.0000    -1.7580    72.3420    11.8780    13.1320     7.2040     2.1240 
  108.1250    -0.9310    73.3350    12.5330    13.8190     7.4840     2.1170 
  108.2500    -0.2020    72.9560    13.1170    14.1750     7.7120     2.1080 
  108.3750     0.3820    69.4300    13.4260    14.2860     7.8450     2.0970 
  108.5000     0.8120    67.4090    13.4170    14.2180     7.8020     2.0870 
  108.6250     1.2340    68.8660    13.1060    13.8620     7.3490     2.0780 
  108.7500     1.7480    68.4580    12.6220    13.3360     6.4980     2.0720 
  108.8750     2.2060    64.1870    12.0900    12.7800     5.7080     2.0700 
  109.0000     2.5790    60.3670    11.6020    12.3180     5.4700     2.0720 
  109.1250     2.9200    61.1930    11.2650    12.0190     5.5320     2.0730 
  109.2500     3.2470    65.1210    11.1820    11.9760     5.5080     2.0690 
  109.3750     3.5150    67.0690    11.3430    12.2450     5.5080     2.0640 
  109.5000     3.6540    64.8160    11.6960    12.7000     5.6090     2.0650 
  109.6250     3.5050    61.1670    12.1250    13.2160     5.6870     2.0760 
  109.7500     3.0880    60.7720    12.5430    13.6820     5.7050     2.0880 
  109.8750     2.5250    64.3610    12.8810    14.0490     5.9200     2.0890 
  110.0000     2.0600    68.3980    13.1990    14.4200     6.3260     2.0820 
  110.1250     1.8110    69.2420    13.5400    14.9000     6.5660     2.0740 
  110.2500     1.7040    67.6410    13.8810    15.2950     6.9280     2.0650 
  110.3750     1.6890    66.3260    14.2110    15.6520     7.8680     2.0570 
  110.5000     1.8330    65.6430    14.3970    15.8670     8.5860     2.0560 
  110.6250     2.0380    64.7080    14.3680    15.8320     8.9840     2.0630 
  110.7500     2.1380    63.9410    14.1430    15.5760     9.0110     2.0680 
  110.8750     2.0260    63.7170    13.7960    15.1810     7.9260     2.0680 
  111.0000     1.8160    63.3350    13.4790    14.8160     7.0360     2.0660 
  111.1250     1.5110    63.6310    13.2990    14.6550     7.0030     2.0650 
  111.2500     1.1040    65.9150    13.3850    14.8120     7.0100     2.0630 
  111.3750     0.6240    69.1380    13.8050    15.2570     6.6170     2.0650 
  111.5000     0.1580    71.0180    14.0620    15.5850     6.2060     2.0790 
  111.6250    -0.2220    71.8540    13.2730    15.0810     6.9900     2.1160 
  111.7500    -0.4800    71.3960    11.6360    14.0040     9.7350     2.1730 
  111.8750    -0.5610    71.5360     9.2800    10.4750    11.2830     2.2290 
  112.0000    -0.5240    75.1510     7.2260     8.0140     8.6030     2.2590 
  112.1250    -0.5020    83.5620     5.9050     6.4880     5.3140     2.2490 
  112.2500    -0.5580    91.2440     5.0870     5.5950     4.4030     2.2150 
  112.3750    -0.7020    93.8990     4.7200     5.2530     4.5070     2.1820 
  112.5000    -0.9750    93.6300     4.6380     5.2200     4.5230     2.1600 
  112.6250    -1.4780    95.2450     4.6910     5.2870     4.4380     2.1500 
  112.7500    -2.1070    98.2850     4.7640     5.3470     4.3410     2.1500 
  112.8750    -2.8820    98.9010     4.8920     5.4730     4.2890     2.1600 
  113.0000    -3.7110    95.4550     5.1470     5.7650     4.2320     2.1700 
  113.1250    -4.2890    90.6270     5.4610     6.1360     4.6030     2.1720 
  113.2500    -4.5490    87.7130     5.7370     6.4670     5.3790     2.1620 
  113.3750    -4.5760    86.6830     5.8620     6.5960     5.2950     2.1410 
  113.5000    -4.5050    86.4890     5.7890     6.4620     4.6010     2.1210 
  113.6250    -4.3890    88.5450     5.6240     6.2290     4.4000     2.1130 
  113.7500    -4.2980    90.8350     5.5350     6.1000     5.2770     2.1280 
  113.8750    -4.2060    89.7770     5.5950     6.1730     7.5860     2.1800 
  114.0000    -4.1760    86.1900     5.7960     6.4100     8.3390     2.2620 
  114.1250    -4.1810    82.6720     6.0570     6.6780     6.2090     2.3390 
  114.2500    -4.1690    81.2390     6.2880     6.9010     4.8690     2.3570 
