~V
VERS. 2.00: Ver 2.00
~W
STRT.M 50.0000:
STOP.M 256.0000:
STEP.M 0.1250:
NULL. -999.2500:
UWI. F12009:
~C
DEPT.M :
SP.MV :
GR.API :
RI. :
RML.OHMM :
RXO.OHMM :
DEN.GM/CC :
~A
# ...
  243.1250     7.8390    82.5590     9.8500    10.4390    13.1260     2.3630 
  243.2500     7.8390    83.5560     9.5120    10.0600    10.7210     2.3860 
  243.3750     7.8390    84.9590     8.9820     9.4900     9.6820     2.3810 
  243.5000     7.8390    85.6430     8.3870     8.8700     8.7140     2.3720 
  243.6250     7.8390    85.2460     7.8420     8.3030     8.8510     2.3700 
  243.7500     7.8390    82.5820     7.4030     7.8510     8.9550     2.3570 
  243.8750     7.8390    78.1780     7.1250     7.5760     8.2440     2.3330 
  244.0000     7.8390    74.9620     7.0480     7.5100     8.1540     2.3210 
  244.1250     7.8390    74.1660     7.1830     7.6770     9.1010     2.3220 
  244.2500     7.8390    74.3070     7.4090     7.9340     9.8390     2.3210 
  244.3750     7.8390    74.6310     7.7310     8.2740    10.4480     2.3270 
  244.5000     7.8390    75.0710     8.1020     8.6670    10.4590     2.3510 
  244.6250     7.8390    75.7630     8.4500     9.0160     9.6730     2.3770 
  244.7500     7.8390    76.0180     8.6820     9.2550     9.1030     2.3880 
  244.8750     7.8390    76.3560     8.8260     9.4390     8.6330     2.3930 
  245.0000     7.8390    76.2390     9.0190     9.6980     8.5070     2.3970 
  245.1250     7.8390    75.0830     9.1940     9.9460     8.9040     2.3820 
  245.2500     7.8390    74.1550     9.2130    10.0080     8.6580     2.3480 
  245.3750     7.8390    74.7320     8.9380     9.7170     8.0720     2.3230 
  245.5000     7.8390    76.2280     8.5860     9.3220     8.5960     2.3260 
  245.6250     7.8390    76.3740     8.2850     8.9450     9.1700     2.3450 
  245.7500     7.8390    75.3190     8.0370     8.6250     8.7000     2.3550 
  245.8750     7.8390    74.1450     8.0660     8.6380     8.0850     2.3520 
  246.0000     7.8390    73.9920     8.3760     9.0210     9.8130     2.3590 
  246.1250     7.8390    74.8030     9.1360     9.9290    13.5500     2.3770 
  246.2500     7.8390    74.7420     9.7770    10.7020    14.5400     2.3940 
  246.3750     7.8390    73.4160    10.1480    11.1880    15.2120     2.3970 
  246.5000     7.8390    73.1570    10.1110    11.2580    15.5890     2.3840 
  246.6250     7.8390    75.4000    10.0030    11.2480    10.8250     2.3620 
  246.7500     7.8390    78.2870    10.0140    11.3210     6.4060     2.3400 
  246.8750     7.8390    79.5630    10.0130    11.3360     5.5080     2.3180 
  247.0000     7.8390    78.9460    10.0170    11.3040     5.4150     2.3020 
  247.1250     7.8390    76.2300    10.0170    11.2960     5.7310     2.2950 
  247.2500     7.8390    73.2470    10.0180    11.2810     6.2040     2.2950 
  247.3750     7.8390    72.4350    10.0180    11.2640     6.5730     2.2870 
  247.5000     7.8390    73.8610    10.0170    11.2520     6.9880     2.2710 
  247.6250     7.8390    75.7890    10.0180    11.2410     7.0860     2.2650 
  247.7500     7.8390    76.7630    10.0200    11.2410     6.7350     2.2860 
  247.8750     7.8390    76.9160    10.0210    11.2410     6.5570     2.3250 
  248.0000     7.8390    77.1030    10.0220    11.2410     6.6780     2.3490 
  248.1250     7.8390    77.1980    10.0200    11.2410     6.6730     2.3480 
  248.2500     7.8390    77.2840    10.0170    11.2360     6.5370     2.3410 
  248.3750     7.8390    77.2070    10.0170    11.2380     6.7490     2.3370 
  248.5000     7.8390    77.2180    10.0160    11.2400     6.9570     2.3370 
  248.6250     7.8390    77.2140    10.0160    11.2410     6.3120     2.3370 
  248.7500     7.8390    77.2140    10.0160    11.2430     5.4330     2.3200 
  248.8750     7.8390    77.2140    10.0160    11.2440     5.1900     2.2730 
  249.0000     7.8390    77.2140    10.0150    11.2440     5.2120     2.2300 
  249.1250     7.8390    77.2140    10.0140    11.2430     5.4210     2.2290 
  249.2500     7.8390    77.2140    10.0150    11.2440     5.5920     2.2560 
  249.3750     7.8390    77.2140    10.0160    11.2460     5.3210     2.2720 
  249.5000     7.8390    77.2140    10.0180    11.2490     4.9480     2.2670 
  249.6250     7.8390    77.2140    10.0200    11.2520     5.0190     2.2530 
  249.7500     7.8390    77.2140    10.0200    11.2530     5.5190     2.2460 
  249.8750     7.8390    77.2140    10.0200    11.2540     6.3050     2.2520 
  250.0000     7.8390    77.2140    10.0220    11.2560     6.9740     2.2670 
  250.1250     7.8390    77.2140    10.0220    11.2560     6.7800     2.2840 
  250.2500     7.8390    77.2140    10.0230    11.2560     6.5200     2.2950 
  250.3750     7.8390    77.2140    10.0240    11.2530     6.6100     2.2980 
  250.5000     7.8390    77.2140    10.0240    11.2490     6.1230     2.2950 
  250.6250     7.8390    77.2140    10.0220    11.2460     5.4750     2.2860 
  250.7500     7.8390    77.2140    10.0230    11.2440     5.2650     2.2780 
  250.8750     7.8390    77.2140    10.0230    11.2440     5.0800     2.2740 
  251.0000     7.8390    77.2140    10.0230    11.2440     4.8480     2.2600 
  251.1250     7.8390    77.2140    10.0230    11.2440     4.9990     2.2360 
  251.2500     7.8390    77.2140    10.0230    11.2440     5.4170     2.2290 
  251.3750     7.8390    77.2140    10.0230    11.2440     5.5400     2.2480 
  251.5000     7.8390    77.2140    10.0230    11.2440     5.4140     2.2520 
  251.6250     7.8390    77.2140    10.0230    11.2440     5.3620     2.2190 
  251.7500     7.8390    77.2140    10.0230    11.2440     5.3560     2.1780 
  251.8750     7.8390    77.2140    10.0230    11.2440     5.7730     2.1610 
  252.0000     7.8390    77.2140    10.0230    11.2440     6.7450     2.1580 
  252.1250     7.8390    77.2140    10.0230    11.2440     7.4750     2.1560 
  252.2500     7.8390    77.2140    10.0230    11.2440     7.6610     2.1550 
  252.3750     7.8390    77.2140    10.0230    11.2440     7.6610     2.1540 
  252.5000     7.8390    77.2140    10.0230    11.2440     7.6600     2.1570 
  252.6250     7.8390    77.2140    10.0230    11.2440     7.6600     2.1630 
  252.7500     7.8390    77.2140    10.0230    11.2440     7.6600     2.1630 
  252.8750     7.8390    77.2140    10.0230    11.2440     7.6600     2.1570 
  253.0000     7.8390    77.2140    10.0230    11.2440     7.6600     2.1540 
  253.1250     7.8390    77.2140    10.0230    11.2440     7.6600     2.1560 
  253.2500     7.8390    77.2140    10.0230    11.2440     7.6600     2.1580 
  253.3750     7.8390    77.2140    10.0230    11.2440     7.6600     2.1590 
  253.5000     7.8390    77.2140    10.0230    11.2440     7.6590     2.1610 
  253.6250     7.8390    77.2140    10.0230    11.2440     7.6590     2.1600 
  253.7500     7.8390    77.2140    10.0230    11.2440     7.6600     2.1580 
  253.8750     7.8390    77.2140    10.0230    11.2440     7.6600     2.1570 
  254.0000     7.8390    77.2140    10.0230    11.2440     7.6600     2.1540 
  254.1250     7.8390    77.2140    10.0230    11.2440     7.6590     2.1530 
  254.2500     7.8390    77.2140    10.0230    11.2440     7.6600     2.1590 
  254.3750     7.8390    77.2140    10.0230    11.2440     7.6600     2.1660 
  254.5000     7.8390    77.2140    10.0230    11.2440     7.6590     2.1670 
  254.6250     7.8390    77.2140    10.0230    11.2440     7.6590     2.1620 
  254.7500     7.8390    77.2140    10.0230    11.2440     7.6590     2.1580 
  254.8750     7.8390    77.2140    10.0230    11.2440     7.6590     2.1550 
  255.0000     7.8390    77.2140    10.0230    11.2440     7.6590     2.1500 
  255.1250     7.8390    77.2140    10.0230    11.2440     7.6590     2.1490 
  255.2500     7.8390    77.2140    10.0230    11.2440     7.6590     2.1500 
  255.3750     7.8390    77.2140    10.0230    11.2440     7.6590     2.1510 
  255.5000     7.8390    77.2140    10.0230    11.2440     7.6580     2.1540 
  255.6250     7.8390    77.2140    10.0230    11.2440     7.6580     2.1580 
  255.7500     7.8390    77.2140    10.0230    11.2440     7.6580     2.1620 
  255.8750     7.8390    77.2140    10.0230    11.2440     7.6580     2.1590 
