~V
VERS. 2.00: Ver 2.00
~W
STRT.M 50.0000:
STOP.M 300.0000:
STEP.M 0.1250:
NULL. -999.2500:
UWI. F12002:
~C
DEPT.M :
SP.MV :
GR.API :
RI. :
RML.OHMM :
RXO.OHMM :
DEN.GM/CC :
~A
# ...
  191.6250   -35.7970    45.2290    29.6890    31.9700    40.0750     2.5940 
  191.7500   -35.9220    45.9200    27.3410    29.4810    34.5220     2.5480 
  191.8750   -36.0950    46.7510    25.0440    27.0470    27.0020     2.4790 
  192.0000   -36.2830    46.4990    23.5560    25.4690    24.6790     2.4310 
  192.1250   -36.4540    46.6240    23.1120    24.9990    25.5940     2.4310 
  192.2500   -36.5760    47.5030    23.5570    25.4710    24.9760     2.4630 
  192.3750   -36.6040    47.5250    25.0110    27.0120    25.5380     2.5040 
  192.5000   -36.5160    46.3940    26.9690    29.0880    29.9440     2.5370 
  192.6250   -36.2890    45.0430    29.0890    31.3340    32.9080     2.5540 
  192.7500   -35.9550    44.1310    30.5100    32.8400    37.2940     2.5490 
  192.8750   -35.5520    44.4100    30.2330    32.5470    42.7830     2.5370 
  193.0000   -35.1370    44.8590    28.6330    30.8510    42.1310     2.5370 
  193.1250   -34.7560    45.0510    26.3560    28.4370    37.1870     2.5450 
  193.2500   -34.4280    44.3460    24.6350    26.6130    29.5200     2.5440 
  193.3750   -34.1690    43.9360    24.1140    26.0610    25.6460     2.5410 
  193.5000   -33.9750    43.9050    24.6190    26.5960    28.6230     2.5460 
  193.6250   -33.8400    44.2040    26.3270    28.4060    32.6810     2.5680 
  193.7500   -33.7340    44.5620    28.3480    30.5490    36.7190     2.5780 
  193.8750   -33.6330    45.2350    29.9500    32.2470    39.7070     2.5760 
  194.0000   -33.5290    46.6380    30.4140    32.7380    38.1730     2.5600 
  194.1250   -33.4360    47.1750    29.8340    32.1240    32.4770     2.5410 
  194.2500   -33.3790    44.8710    29.0130    31.2540    28.6150     2.5330 
  194.3750   -33.3860    41.3610    28.4240    30.6290    28.8390     2.5390 
  194.5000   -33.4590    39.7980    28.3040    30.5030    30.7930     2.5520 
  194.6250   -33.5930    40.3810    28.4550    30.6620    33.7490     2.5590 
  194.7500   -33.7640    41.6290    28.4510    30.6580    36.1940     2.5600 
  194.8750   -33.9560    43.3490    27.6690    29.8290    35.5560     2.5470 
  195.0000   -34.1580    45.5370    26.3570    28.4380    31.9540     2.5110 
  195.1250   -34.3760    46.6410    24.9190    26.9140    27.4590     2.4640 
  195.2500   -34.6150    47.2960    23.8020    25.7300    24.2300     2.4370 
  195.3750   -34.8770    48.6600    23.0260    24.9070    23.9610     2.4510 
  195.5000   -35.1420    49.3360    22.3640    24.2060    25.8440     2.4810 
  195.6250   -35.3750    47.6170    21.8650    23.6770    25.2220     2.4950 
  195.7500   -35.5390    44.9420    21.5630    23.3570    21.8530     2.4820 
  195.8750   -35.5970    42.9750    21.4950    23.2850    22.1730     2.4650 
  196.0000   -35.5510    42.7870    21.8440    23.6540    25.4660     2.4710 
  196.1250   -35.4120    43.9430    22.9740    24.8530    27.4410     2.4990 
  196.2500   -35.2170    44.9200    24.8210    26.8110    28.2690     2.5230 
  196.3750   -34.9920    45.4080    26.7790    28.8860    29.5940     2.5390 
  196.5000   -34.7620    45.4660    28.0520    30.2360    32.6430     2.5460 
  196.6250   -34.5540    45.8000    28.1930    30.3850    35.0260     2.5470 
  196.7500   -34.3900    45.9630    27.3340    29.4740    33.5680     2.5450 
  196.8750   -34.3020    48.1510    25.7260    27.7700    29.5360     2.5360 
  197.0000   -34.3000    52.0400    23.8330    25.7630    29.3770     2.5140 
  197.1250   -34.3920    53.5080    22.1980    24.0300    31.5940     2.4750 
  197.2500   -34.5570    51.5730    21.2300    23.0040    28.0510     2.4420 
  197.3750   -34.7670    48.5260    20.8760    22.6280    23.7800     2.4440 
  197.5000   -34.9740    47.3570    20.7850    22.5320    25.1550     2.4770 
  197.6250   -35.1270    47.7270    20.8050    22.5540    27.4120     2.5150 
  197.7500   -35.1920    48.1660    20.8830    22.6360    25.5910     2.5290 
  197.8750   -35.1480    48.6990    20.8530    22.6040    22.2590     2.5280 
  198.0000   -35.0240    49.7880    20.4650    22.1930    23.6170     2.5330 
  198.1250   -34.8600    50.3680    19.9550    21.6520    27.9890     2.5380 
  198.2500   -34.7120    50.7580    19.5440    21.2170    26.7920     2.5330 
  198.3750   -34.6270    51.9510    19.3040    20.9620    22.7250     2.5220 
  198.5000   -34.6300    54.3120    19.3180    20.9770    25.0780     2.5170 
  198.6250   -34.7400    55.6680    19.7470    21.4320    26.9890     2.5190 
  198.7500   -34.9460    54.2790    20.4570    22.1840    23.9990     2.5080 
  198.8750   -35.2340    50.9440    21.2990    23.0770    25.4890     2.4820 
  199.0000   -35.5550    48.4330    21.9270    23.7420    28.3520     2.4590 
  199.1250   -35.8470    49.8720    22.0090    23.8290    25.5350     2.4530 
  199.2500   -36.0480    52.5400    21.8930    23.7060    22.8420     2.4480 
  199.3750   -36.1040    52.5070    21.7830    23.5900    23.5620     2.4380 
  199.5000   -36.0130    50.2980    21.3030    23.0810    24.3680     2.4400 
  199.6250   -35.7790    47.6080    20.2450    21.9600    23.9940     2.4550 
  199.7500   -35.4470    47.0180    18.8370    20.4670    24.0710     2.4600 
  199.8750   -35.0530    48.3620    17.2500    18.7850    22.1600     2.4380 
  200.0000   -34.6430    49.2860    15.7380    17.1820    17.5370     2.4100 
  200.1250   -34.2550    47.8420    14.5650    15.9390    17.0260     2.4020 
  200.2500   -33.9170    45.5690    13.6850    15.0060    18.8400     2.4050 
  200.3750   -33.6590    45.5170    13.2280    14.5220    16.8230     2.4040 
  200.5000   -33.4950    46.9970    13.2300    14.5240    14.0540     2.3960 
  200.6250   -33.4510    49.5780    13.4550    14.7620    13.7060     2.3910 
  200.7500   -33.5200    52.3450    13.7200    15.0430    14.8190     2.3920 
  200.8750   -33.6830    52.4570    14.0530    15.3960    16.3080     2.3940 
  201.0000   -33.8830    51.0060    14.3310    15.6910    16.7370     2.3940 
  201.1250   -34.0460    50.3480    14.4610    15.8290    15.9970     2.3940 
  201.2500   -34.1090    50.8960    14.3500    15.7110    15.3480     2.3940 
  201.3750   -34.0320    50.8540    14.1710    15.5210    15.1950     2.3990 
  201.5000   -33.8360    49.3860    14.2080    15.5610    15.4230     2.4120 
  201.6250   -33.5680    48.9600    14.5200    15.8910    15.8750     2.4310 
  201.7500   -33.2960    49.4160    15.0330    16.4350    16.7390     2.4430 
  201.8750   -33.0700    49.4800    15.5690    17.0030    18.1510     2.4390 
  202.0000   -32.9070    48.9930    16.0470    17.5100    19.0380     2.4230 
  202.1250   -32.8040    48.9460    16.4070    17.8920    18.5200     2.4070 
  202.2500   -32.7370    49.4440    16.5960    18.0910    17.7830     2.3980 
  202.3750   -32.6890    48.4590    16.5780    18.0730    17.9690     2.4030 
  202.5000   -32.6470    46.9350    16.4290    17.9140    18.2940     2.4130 
  202.6250   -32.6100    45.5300    16.2050    17.6780    17.8650     2.4200 
  202.7500   -32.5830    44.9640    15.9940    17.4530    17.2290     2.4250 
  202.8750   -32.5720    45.9390    15.8380    17.2880    16.9410     2.4340 
  203.0000   -32.5760    45.3240    15.8000    17.2480    17.5900     2.4490 
  203.1250   -32.5980    42.7040    16.0550    17.5180    19.2910     2.4680 
  203.2500   -32.6420    40.6970    16.7180    18.2210    20.3700     2.4840 
  203.3750   -32.7180    42.0080    17.7670    19.3330    19.9140     2.4940 
  203.5000   -32.8360    43.1490    19.1100    20.7560    20.3420     2.4960 
  203.6250   -33.0140    42.5760    20.2990    22.0170    23.8610     2.4940 
  203.7500   -33.2560    43.0020    20.7450    22.4900    28.7440     2.4920 
  203.8750   -33.5610    44.3740    20.4110    22.1350    30.4070     2.4780 
  204.0000   -33.9020    46.5890    19.3530    21.0140    25.7670     2.4480 
  204.1250   -34.2450    50.2540    18.0540    19.6370    20.4950     2.4130 
  204.2500   -34.5480    53.6370    16.9480    18.4650    19.5460     2.3970 
  204.3750   -34.7770    53.8060    16.2550    17.7310    19.5440     2.3930 
