~V
VERS. 2.00: Ver 2.00
~W
STRT.M 50.0000:
STOP.M 255.0000:
STEP.M 0.1250:
NULL. -999.2500:
UWI. F12008:
~C
DEPT.M :
SP.MV :
GR.API :
RI. :
RML.OHMM :
RXO.OHMM :
DEN.GM/CC :
~A
# ...
  127.2500   -21.4880    70.8050     9.8350    10.9250    10.5410     2.1350 
  127.3750   -21.5320    65.9560     9.7030    10.7850    10.0910     2.1300 
  127.5000   -21.6320    60.5840     9.4590    10.5270     9.9400     2.1260 
  127.6250   -21.7770    59.8260     8.9580     9.9950    10.1440     2.1240 
  127.7500   -21.9500    63.9190     8.2590     9.2550    10.0410     2.1380 
  127.8750   -22.1390    66.8660     7.3160     8.2550     9.5190     2.1780 
  128.0000   -22.3350    68.5760     6.3370     7.2180     8.5580     2.2280 
  128.1250   -22.5380    73.6000     5.5330     6.3650     7.3600     2.2560 
  128.2500   -22.7440    81.8730     4.9810     5.7800     6.2010     2.2580 
  128.3750   -22.9490    87.8410     4.9190     5.7150     6.3950     2.2440 
  128.5000   -23.1490    88.2720     5.4090     6.2330     6.7180     2.2230 
  128.6250   -23.3400    86.2950     6.6240     7.5220     8.9950     2.1950 
  128.7500   -23.5240    82.1580     8.1890     9.1810    10.3440     2.1690 
  128.8750   -23.7090    75.0730     9.8620    10.9540    10.6950     2.1560 
  129.0000   -23.9100    66.4960    10.9290    12.0850    10.7800     2.1480 
  129.1250   -24.1460    62.9820    11.1100    12.2760    10.8080     2.1360 
  129.2500   -24.4230    65.6280    10.6610    11.8000    10.6190     2.1210 
  129.3750   -24.7220    68.9590     9.9540    11.0510    10.6570     2.1120 
  129.5000   -25.0000    68.1240     9.4900    10.5590    10.6980     2.1110 
  129.6250   -25.1940    65.5380     9.3670    10.4290    10.7300     2.1120 
  129.7500   -25.2690    66.0840     9.4740    10.5430    10.7690     2.1090 
  129.8750   -25.2000    68.4960     9.6670    10.7470    10.7850     2.1060 
  130.0000   -25.0120    67.3840     9.8540    10.9460    11.0370     2.1120 
  130.1250   -24.7310    61.8010    10.0250    11.1270    11.1620     2.1240 
  130.2500   -24.4030    58.7470    10.2240    11.3370    10.9330     2.1310 
  130.3750   -24.0630    63.1640    10.4700    11.5980    11.2150     2.1300 
  130.5000   -23.7320    69.6060    10.7540    11.8990    12.1380     2.1250 
  130.6250   -23.4120    71.4670    11.0730    12.2380    12.7110     2.1180 
  130.7500   -23.0960    68.5800    11.4070    12.5920    12.7910     2.1140 
  130.8750   -22.7790    65.3830    11.7100    12.9130    12.6520     2.1190 
  131.0000   -22.4740    64.2720    11.9780    13.1970    12.6140     2.1340 
  131.1250   -22.2140    65.4930    12.1610    13.3910    12.9610     2.1540 
  131.2500   -22.0220    68.3770    12.2900    13.5270    13.2390     2.1690 
  131.3750   -21.9130    71.3810    12.3370    13.5770    13.2240     2.1710 
  131.5000   -21.8680    72.9700    12.2180    13.4510    12.9650     2.1610 
  131.6250   -21.8700    73.8410    11.8690    13.0810    12.6850     2.1480 
  131.7500   -21.9030    75.7050    11.3750    12.5570    12.6750     2.1360 
  131.8750   -21.9690    75.9580    10.8110    11.9590    12.1630     2.1250 
  132.0000   -22.0710    71.4980    10.3530    11.4740    11.1790     2.1140 
  132.1250   -22.2160    64.1800    10.2620    11.3780    10.8490     2.1060 
  132.2500   -22.3920    60.2210    10.8660    12.0180    10.9400     2.1040 
  132.3750   -22.5840    59.9500    12.6860    13.9470    11.0190     2.1140 
  132.5000   -22.7720    60.0900    14.5970    15.9730    10.9930     2.1700 
  132.6250   -22.9450    60.7300    15.1490    16.5580    20.7440     2.2910 
  132.7500   -23.1140    64.7690    13.6960    15.0180    42.5790     2.3880 
  132.8750   -23.3030    73.3550    10.4910    11.6200    44.0160     2.3680 
  133.0000   -23.5230    83.5010     7.3910     8.3340    17.4400     2.2810 
  133.1250   -23.7710    91.5860     5.3630     6.1850     6.6440     2.2410 
  133.2500   -24.0200    95.1550     4.4780     5.2470     5.9690     2.2660 
  133.3750   -24.2440    93.9270     4.3240     5.0830     5.7040     2.2910 
  133.5000   -24.4370    92.7330     4.4130     5.1780     5.9670     2.2830 
  133.6250   -24.6140    94.6820     4.6650     5.4450     6.3080     2.2550 
  133.7500   -24.8050    98.3930     4.9660     5.7640     6.4940     2.2290 
  133.8750   -25.0390    99.1930     5.2930     6.1100     6.6290     2.2090 
  134.0000   -25.3200    96.6590     5.5680     6.4020     6.7690     2.2090 
  134.1250   -25.6350    94.6580     5.7630     6.6090     7.2690     2.2380 
  134.2500   -25.9460    94.9570     5.9060     6.7600     8.6230     2.2590 
  134.3750   -26.2130    96.1170     6.0190     6.8810     8.9970     2.2310 
  134.5000   -26.4200    98.2070     6.1910     7.0630     7.7580     2.1790 
  134.6250   -26.5670    99.6850     6.4980     7.3870     7.1410     2.1700 
  134.7500   -26.6840    98.8930     6.9430     7.8600     7.6290     2.2200 
  134.8750   -26.7900    95.9600     7.4080     8.3530    11.8770     2.2820 
  135.0000   -26.8850    94.1370     7.6490     8.6080    17.3040     2.2910 
  135.1250   -26.9420    94.0160     7.3970     8.3410    15.3950     2.2470 
  135.2500   -26.9270    92.7090     6.8000     7.7080     9.9420     2.2140 
  135.3750   -26.8100    91.6220     6.0420     6.9040     7.3860     2.2260 
  135.5000   -26.6010    94.0450     5.4570     6.2840     6.3940     2.2440 
  135.6250   -26.3190    98.9770     5.1990     6.0110     6.2520     2.2250 
  135.7500   -26.0100   100.6730     5.2400     6.0540     7.0550     2.1900 
  135.8750   -25.7210    97.0440     5.5590     6.3930     7.8160     2.1720 
  136.0000   -25.4910    91.6430     5.9330     6.7880     7.8370     2.1760 
  136.1250   -25.3530    88.8750     6.2310     7.1040     7.5480     2.1790 
  136.2500   -25.2990    87.0610     6.3460     7.2260     7.4210     2.1730 
  136.3750   -25.3070    84.6780     6.2420     7.1170     7.2350     2.1750 
  136.5000   -25.3300    82.2300     6.0570     6.9200     7.0000     2.2000 
  136.6250   -25.3360    81.7030     5.9540     6.8120     6.9110     2.2460 
  136.7500   -25.3180    83.2540     5.9550     6.8120     6.8820     2.2920 
  136.8750   -25.2900    86.0960     6.0000     6.8600     7.6240     2.3290 
  137.0000   -25.2760    89.4370     6.0440     6.9070    10.4080     2.3490 
  137.1250   -25.2970    91.5070     5.9620     6.8190    11.7830     2.3410 
  137.2500   -25.3580    91.3760     5.7890     6.6360     9.0650     2.3090 
  137.3750   -25.4530    89.6300     5.6620     6.5020     6.8990     2.2680 
  137.5000   -25.5550    87.0970     5.7240     6.5680     7.3940     2.2300 
  137.6250   -25.6330    84.9750     6.0990     6.9650     8.6060     2.1930 
  137.7500   -25.6680    83.2780     6.4910     7.3800    10.7250     2.1590 
  137.8750   -25.6500    81.2250     6.6920     7.5930    14.7870     2.1480 
  138.0000   -25.5960    80.0360     6.7890     7.6960    16.1470     2.1700 
  138.1250   -25.5250    82.0940     6.8380     7.7480    11.4550     2.2010 
  138.2500   -25.4590    84.9270     7.2250     8.1580     9.2600     2.1980 
  138.3750   -25.4090    84.2100     8.4930     9.5030    14.3310     2.1620 
  138.5000   -25.3670    79.4430    10.9270    12.0830    21.2180     2.1290 
  138.6250   -25.3120    74.2050    13.8530    15.1840    28.0290     2.1090 
  138.7500   -25.2230    71.7960    15.2350    16.6490    30.8520     2.0950 
  138.8750   -25.0940    72.1090    14.1960    15.5480    26.5500     2.1120 
  139.0000   -24.9480    73.8290    11.1460    12.3150    19.8090     2.1810 
  139.1250   -24.8160    77.7030     7.9360     8.9120    12.2040     2.2660 
  139.2500   -24.7230    85.4280     5.8050     6.6530     6.7230     2.3100 
  139.3750   -24.6790    94.5100     4.7390     5.5230     5.4880     2.3030 
  139.5000   -24.6710    99.1850     4.3170     5.0760     5.5140     2.2850 
  139.6250   -24.6740    97.3990     4.3900     5.1540     5.7440     2.2760 
  139.7500   -24.6660    94.6400     4.6500     5.4290     5.8870     2.2680 
  139.8750   -24.6310    94.5680     4.8890     5.6820     5.8360     2.2650 
  140.0000   -24.5680    97.5760     5.0020     5.8020     5.9370     2.2740 
