~V
VERS. 2.00: Ver 2.00
~W
STRT.M 50.0000:
STOP.M 178.0000:
STEP.M 0.1250:
NULL. -999.2500:
UWI. F12004:
~C
DEPT.M :
SP.MV :
GR.API :
RI. :
RML.OHMM :
RXO.OHMM :
DEN.GM/CC :
~A
# ...
   75.7500    96.0640    49.9450    12.3110    13.3440     8.9840     2.0950 
   75.8750    96.4400    49.7690    12.3710    13.2340    10.4730     2.1030 
   76.0000    96.6000    52.7350    11.7070    12.4560     9.9630     2.1330 
   76.1250    96.6510    59.8980    10.2430    10.9540     7.0640     2.1770 
   76.2500    96.6610    67.4180     8.5410     9.2410     4.9280     2.2180 
   76.3750    96.7180    69.9060     7.2360     7.8380     4.3250     2.2400 
   76.5000    96.6880    68.2770     6.3760     6.9240     4.2580     2.2400 
   76.6250    96.4900    66.7820     5.9560     6.5030     4.7560     2.2210 
   76.7500    96.0100    66.4710     5.8930     6.4010     5.3890     2.2110 
   76.8750    95.4350    67.5490     5.9070     6.3910     5.2830     2.2350 
   77.0000    95.1960    70.7810     5.8070     6.2700     4.8320     2.2820 
   77.1250    95.1980    76.0590     5.5160     5.9600     4.5190     2.3090 
   77.2500    94.9820    79.5970     5.0980     5.5440     3.9790     2.3020 
   77.3750    94.7640    78.3660     4.7310     5.1750     3.5490     2.2830 
   77.5000    94.6740    76.0110     4.5390     4.9610     3.4230     2.2760 
   77.6250    94.8910    74.4980     4.5120     4.9240     3.5520     2.2760 
   77.7500    95.1990    73.7580     4.5820     5.0160     3.8990     2.2730 
   77.8750    95.2620    73.3210     4.7720     5.1930     4.1530     2.2650 
   78.0000    95.3820    73.2700     4.9380     5.3390     4.2340     2.2550 
   78.1250    95.3660    73.2000     4.9670     5.3420     4.1690     2.2430 
   78.2500    95.4400    73.7790     4.8400     5.2070     4.0850     2.2370 
   78.3750    95.3930    74.9510     4.6580     5.0180     3.8570     2.2430 
   78.5000    95.3820    75.2150     4.5250     4.8730     3.5370     2.2600 
   78.6250    95.4130    75.2990     4.4980     4.8550     3.8190     2.2780 
   78.7500    95.4810    76.5430     4.6230     5.0040     4.8360     2.2950 
   78.8750    95.5590    76.6130     4.9350     5.3120     5.2580     2.3010 
   79.0000    95.3520    72.7940     5.2660     5.6580     4.6750     2.2780 
   79.1250    95.1040    66.7080     5.5280     5.9520     4.3890     2.2290 
   79.2500    95.0230    62.6130     5.7390     6.1910     4.3600     2.2010 
   79.3750    95.1840    63.4500     5.9360     6.3950     4.3820     2.2400 
   79.5000    95.8060    65.6420     6.0960     6.5590     6.3490     2.3300 
   79.6250    96.4010    66.2860     6.1820     6.6250     8.8320     2.4200 
   79.7500    96.6780    66.5080     6.0940     6.5390     7.9210     2.4560 
   79.8750    96.7490    68.7390     5.8570     6.3130     5.4710     2.4150 
   80.0000    96.6540    71.4920     5.6080     6.0700     4.4470     2.3320 
   80.1250    96.6540    73.2700     5.4720     5.9830     4.3940     2.2600 
   80.2500    96.8680    73.2110     5.6130     6.2100     4.6750     2.2210 
   80.3750    97.2270    70.2500     6.1140     6.7970     4.8940     2.2070 
   80.5000    97.6310    66.5510     6.7490     7.4630     4.7300     2.2020 
   80.6250    97.9170    66.0400     7.0910     7.8110     4.2560     2.2040 
   80.7500    98.2750    67.6600     6.9360     7.6510     3.7910     2.2100 
   80.8750    98.6700    68.1530     6.3780     7.0300     3.5130     2.2250 
   81.0000    99.1460    68.9480     5.6360     6.2580     3.5480     2.2430 
   81.1250    99.3770    72.2780     5.0610     5.6300     3.8370     2.2560 
   81.2500    99.4240    75.6290     4.7460     5.2710     3.9750     2.2570 
   81.3750    99.4430    76.5700     4.6680     5.1720     3.9980     2.2560 
   81.5000    99.5740    76.6320     4.7310     5.2030     4.1080     2.2580 
   81.6250    99.8010    77.5230     4.7860     5.2480     4.0890     2.2660 
   81.7500    99.8650    78.2600     4.8000     5.2670     4.0640     2.2720 
   81.8750    99.8280    78.2940     4.8150     5.2790     4.2230     2.2710 
   82.0000    99.8890    78.9460     4.8580     5.2980     4.3640     2.2630 
   82.1250    99.5500    79.4100     4.9040     5.3080     4.4240     2.2510 
   82.2500    99.0680    77.6030     4.9460     5.3010     4.4090     2.2430 
   82.3750    98.7120    75.2070     4.9890     5.2920     4.2560     2.2480 
   82.5000    98.4950    75.5910     5.0390     5.3210     4.0940     2.2670 
   82.6250    98.4480    77.3730     5.1800     5.4600     4.1840     2.2840 
   82.7500    98.5630    77.9970     5.4330     5.7320     4.5300     2.2770 
   82.8750    98.7220    76.2450     5.7910     6.0850     4.8390     2.2440 
   83.0000    98.7940    72.5190     6.1010     6.3910     4.8610     2.1960 
   83.1250    98.9110    67.6920     6.2490     6.5130     4.5950     2.1580 
   83.2500    99.1770    65.0230     6.1840     6.3790     4.3000     2.1510 
   83.3750    99.5260    65.4390     5.8020     5.9980     4.1100     2.1730 
   83.5000    99.9020    66.6340     5.3760     5.5950     4.0860     2.1990 
   83.6250   100.2590    66.9210     5.2120     5.5000     3.9910     2.2140 
   83.7500   100.5090    67.0190     5.5620     6.0250     5.5560     2.2150 
   83.8750   100.4090    65.6190     6.7940     7.6480    12.7400     2.1830 
   84.0000   100.1700    62.5410     9.3520    10.5590    20.5850     2.1200 
   84.1250    99.9530    59.5140    13.1800    13.9310    23.3620     2.0630 
   84.2500    99.7260    58.9100    15.2210    15.9620    23.0180     2.0440 
   84.3750    99.7060    59.9830    15.0180    15.4700    18.3870     2.0660 
   84.5000    99.7910    61.7850    12.2670    12.8630    11.2020     2.1100 
   84.6250    99.7960    65.1110     8.7750     9.7150     6.2790     2.1550 
   84.7500    99.7020    67.9690     6.9310     7.6670     4.6380     2.1870 
   84.8750    99.4900    67.0020     6.4030     7.0350     5.0380     2.2320 
   85.0000    99.1330    62.7690     6.6520     7.2690     7.2700     2.3210 
   85.1250    98.6670    60.5510     7.2290     7.8510     9.8810     2.4140 
   85.2500    98.2850    62.9830     7.6240     8.2190     9.1710     2.4270 
   85.3750    98.0830    68.1420     7.4160     8.0450     6.4970     2.3440 
   85.5000    98.0610    72.5860     6.8900     7.5270     5.0260     2.2590 
   85.6250    98.3260    74.0500     6.4630     7.1410     4.5150     2.2400 
   85.7500    98.8310    73.2960     6.6250     7.3140     5.8430     2.2520 
   85.8750    99.2010    71.9990     7.4130     8.1370    11.7010     2.2270 
   86.0000    99.3530    70.1970     8.3790     9.1620    17.4530     2.1680 
   86.1250    99.3700    67.6610     8.9280     9.7600    15.2420     2.1290 
   86.2500    99.4650    67.0290     8.6060     9.6190     8.6510     2.1470 
   86.3750    99.6070    69.6570     7.5510     8.6850     5.0560     2.1910 
   86.5000    99.5800    73.7960     6.2550     7.3210     4.2280     2.2220 
   86.6250    99.3450    76.9650     5.2920     6.1890     4.0030     2.2310 
   86.7500    98.9670    79.4850     4.8700     5.5760     4.0100     2.2300 
   86.8750    98.5610    80.1240     4.7880     5.3430     4.1570     2.2260 
   87.0000    98.2850    78.0650     4.7830     5.2680     4.2200     2.2230 
   87.1250    98.3510    75.8580     4.9180     5.3540     3.9470     2.2330 
   87.2500    98.7970    75.3580     5.2710     5.6490     3.5840     2.2510 
   87.3750    99.3960    74.7940     5.8320     6.1500     3.8660     2.2500 
   87.5000    99.7740    72.0240     6.4240     6.7550     4.8790     2.2240 
   87.6250    99.5620    68.3520     7.0900     7.3360     5.4220     2.2020 
   87.7500    99.5630    66.4020     7.5290     7.6840     4.8710     2.2030 
   87.8750    99.7140    66.9900     7.5610     7.6520     4.6770     2.2130 
   88.0000    99.9430    68.2030     7.2930     7.3300     5.2420     2.2170 
   88.1250   100.0350    69.4240     6.8330     6.8970     5.4250     2.2200 
   88.2500   100.0860    70.2970     6.5150     6.5840     5.5110     2.2280 
   88.3750   100.1690    70.3780     6.4560     6.4950     5.6660     2.2310 
   88.5000   100.3030    70.3340     6.5470     6.6080     5.6290     2.2200 
