~V
VERS. 2.00: Ver 2.00
~W
STRT.M 50.0000:
STOP.M 213.0000:
STEP.M 0.1250:
NULL. -999.2500:
UWI. F12007:
~C
DEPT.M :
SP.MV :
GR.API :
RI. :
RML.OHMM :
RXO.OHMM :
DEN.GM/CC :
~A
# ...
  204.5000    99.4200    81.1860     6.3560     7.8310     6.6800     2.3300 
  204.6250    99.4200    81.8740     6.5670     8.1290     7.0230     2.3050 
  204.7500    99.4200    82.7100     6.7050     8.2730     7.4310     2.2880 
  204.8750    99.4200    83.8550     6.7300     8.2740     7.4490     2.3050 
  205.0000    99.4200    85.1480     6.7450     8.1910     7.1820     2.3300 
  205.1250    99.4200    86.0970     6.7570     8.1460     6.7470     2.3280 
  205.2500    99.4200    86.3820     6.7590     8.1410     6.1950     2.3140 
  205.3750    99.4200    86.3260     6.7580     8.1350     5.7990     2.3090 
  205.5000    99.4200    86.3160     6.7580     8.1240     5.8570     2.3120 
  205.6250    99.4200    86.3160     6.7560     8.1150     6.6200     2.3070 
  205.7500    99.4200    86.3160     6.7550     8.1050     7.3580     2.2910 
  205.8750    99.4200    86.3160     6.7550     8.0970     7.3280     2.2880 
  206.0000    99.4200    86.3160     6.7550     8.0980     7.0740     2.3060 
  206.1250    99.4200    86.3160     6.7550     8.1000     6.7890     2.3330 
  206.2500    99.4200    86.3160     6.7550     8.1010     6.2850     2.3500 
  206.3750    99.4200    86.3160     6.7550     8.1080     5.7820     2.3450 
  206.5000    99.4200    86.3160     6.7550     8.1080     5.2310     2.3330 
  206.6250    99.4200    86.3160     6.7560     8.1100     4.7300     2.3290 
  206.7500    99.4200    86.3160     6.7560     8.1100     5.1310     2.3320 
  206.8750    99.4200    86.3160     6.7570     8.1100     6.6540     2.3300 
  207.0000    99.4200    86.3160     6.7560     8.1130     7.3040     2.3120 
  207.1250    99.4200    86.3160     6.7560     8.1120     6.4710     2.2900 
  207.2500    99.4200    86.3160     6.7550     8.1130     6.6430     2.2860 
  207.3750    99.4200    86.3160     6.7550     8.1120     7.6080     2.3030 
  207.5000    99.4200    86.3160     6.7550     8.1140     7.2330     2.3220 
  207.6250    99.4200    86.3160     6.7550     8.1150     6.2310     2.3360 
  207.7500    99.4200    86.3160     6.7550     8.1170     6.2020     2.3440 
  207.8750    99.4200    86.3160     6.7550     8.1170     6.8590     2.3260 
  208.0000    99.4200    86.3160     6.7550     8.1170     7.4090     2.2830 
  208.1250    99.4200    86.3160     6.7550     8.1170     7.9790     2.2580 
  208.2500    99.4200    86.3160     6.7550     8.1170     8.6770     2.2750 
  208.3750    99.4200    86.3160     6.7550     8.1170     8.6420     2.3150 
  208.5000    99.4200    86.3160     6.7550     8.1170     7.7700     2.3440 
  208.6250    99.4200    86.3160     6.7550     8.1170     7.4300     2.3370 
  208.7500    99.4200    86.3160     6.7550     8.1170     7.1800     2.3020 
  208.8750    99.4200    86.3160     6.7550     8.1170     6.4230     2.2740 
  209.0000    99.4200    86.3160     6.7550     8.1170     6.4600     2.2770 
  209.1250    99.4200    86.3160     6.7550     8.1170     6.9680     2.2890 
  209.2500    99.4200    86.3160     6.7550     8.1170     6.9940     2.2920 
  209.3750    99.4200    86.3160     6.7550     8.1170     7.1540     2.2780 
  209.5000    99.4200    86.3160     6.7550     8.1170     7.4260     2.2280 
  209.6250    99.4200    86.3160     6.7550     8.1170     7.2080     2.1680 
  209.7500    99.4200    86.3160     6.7550     8.1170     6.5140     2.1530 
  209.8750    99.4200    86.3160     6.7550     8.1170     5.8260     2.1900 
  210.0000    99.4200    86.3160     6.7550     8.1170     5.7100     2.2200 
  210.1250    99.4200    86.3160     6.7550     8.1170     5.9330     2.2220 
  210.2500    99.4200    86.3160     6.7550     8.1170     6.0560     2.2210 
  210.3750    99.4200    86.3160     6.7550     8.1170     6.0810     2.2210 
  210.5000    99.4200    86.3160     6.7550     8.1170     6.0810     2.2230 
  210.6250    99.4200    86.3160     6.7550     8.1170     6.0810     2.2310 
  210.7500    99.4200    86.3160     6.7550     8.1170     6.0810     2.2350 
  210.8750    99.4200    86.3160     6.7550     8.1170     6.0810     2.2290 
  211.0000    99.4200    86.3160     6.7550     8.1170     6.0820     2.2230 
  211.1250    99.4200    86.3160     6.7550     8.1170     6.0820     2.2250 
  211.2500    99.4200    86.3160     6.7550     8.1170     6.0820     2.2290 
  211.3750    99.4200    86.3160     6.7550     8.1170     6.0830     2.2310 
  211.5000    99.4200    86.3160     6.7550     8.1170     6.0830     2.2310 
  211.6250    99.4200    86.3160     6.7550     8.1170     6.0830     2.2290 
  211.7500    99.4200    86.3160     6.7550     8.1170     6.0840     2.2260 
  211.8750    99.4200    86.3160     6.7550     8.1170     6.0840     2.2270 
  212.0000    99.4200    86.3160     6.7550     8.1170     6.0830     2.2290 
  212.1250    99.4200    86.3160     6.7550     8.1170     6.0840     2.2270 
  212.2500    99.4200    86.3160     6.7550     8.1170     6.0840     2.2240 
  212.3750    99.4200    86.3160     6.7550     8.1170     6.0850     2.2250 
  212.5000    99.4200    86.3160     6.7550     8.1170     6.0850     2.2280 
  212.6250    99.4200    86.3160     6.7550     8.1170     6.0850     2.2300 
  212.7500    99.4200    86.3160     6.7550     8.1170     6.0860     2.2340 
  212.8750    99.4200    86.3160     6.7550     8.1170     6.0890     2.2380 
  213.0000    99.4200    86.3160     6.7550     8.1170     6.0930     2.2380 
