~V
VERS. 2.00: Ver 2.00
~W
STRT.M 50.0000:
STOP.M 247.0000:
STEP.M 0.1250:
NULL. -999.2500:
UWI. F12010:
~C
DEPT.M :
SP.MV :
GR.API :
RI. :
RML.OHMM :
RXO.OHMM :
DEN.GM/CC :
~A
# ...
  178.7500    -8.3480    40.1290     3.5520     4.2290     3.4300     2.3060 
  178.8750    -8.8010    39.6050     3.4720     4.1450     3.5230     2.2950 
  179.0000    -8.8570    39.7160     3.4400     4.1120     3.6190     2.2830 
  179.1250    -8.2300    41.0040     3.4680     4.1420     3.6760     2.2890 
  179.2500    -7.2600    43.0010     3.5230     4.1990     3.8640     2.3060 
  179.3750    -6.3700    46.3280     3.5780     4.2570     3.9790     2.3180 
  179.5000    -6.0090    49.3170     3.5960     4.2750     3.8460     2.3210 
  179.6250    -6.3260    49.3550     3.5760     4.2550     3.8540     2.3280 
  179.7500    -6.8800    47.2870     3.5160     4.1920     4.1300     2.3320 
  179.8750    -7.5090    44.6920     3.4460     4.1190     4.3700     2.3140 
  180.0000    -7.8700    43.0230     3.3760     4.0440     4.4730     2.2920 
  180.1250    -7.6450    41.6780     3.3290     3.9950     4.4570     2.2950 
  180.2500    -7.0730    41.1730     3.3090     3.9740     4.3440     2.3200 
  180.3750    -6.5260    42.2600     3.3110     3.9760     4.2850     2.3270 
  180.5000    -6.1100    44.0410     3.3450     4.0130     4.3370     2.3100 
  180.6250    -5.8510    45.7260     3.3960     4.0660     4.4210     2.2950 
  180.7500    -5.6560    46.1740     3.4550     4.1280     4.4960     2.2950 
  180.8750    -5.5370    45.2020     3.4970     4.1720     4.4750     2.3050 
  181.0000    -5.6090    44.4580     3.5120     4.1870     4.3350     2.3210 
  181.1250    -5.7760    44.4820     3.4950     4.1700     4.3420     2.3380 
  181.2500    -5.8150    44.0420     3.4500     4.1230     4.5980     2.3380 
  181.3750    -5.7340    43.6730     3.3830     4.0520     4.7630     2.3160 
  181.5000    -5.7510    44.3950     3.3030     3.9680     4.7900     2.3020 
  181.6250    -5.8050    46.2410     3.2290     3.8900     4.8320     2.3030 
  181.7500    -5.8290    47.9910     3.1710     3.8290     4.8490     2.3010 
  181.8750    -5.9820    49.1920     3.1400     3.7970     4.8580     2.2960 
  182.0000    -6.1140    49.9940     3.1300     3.7870     4.8650     2.2980 
  182.1250    -5.8780    50.2170     3.1350     3.7920     4.7810     2.3040 
  182.2500    -5.2220    51.1070     3.1470     3.8050     4.6500     2.3050 
  182.3750    -4.1950    52.2490     3.1510     3.8080     4.6000     2.3070 
  182.5000    -3.1710    53.3270     3.1490     3.8070     4.6070     2.3200 
  182.6250    -2.5180    54.7950     3.1830     3.8420     4.5040     2.3360 
  182.7500    -2.5400    57.9670     3.3090     3.9750     4.3430     2.3450 
  182.8750    -2.9790    63.7100     3.5580     4.2360     4.5460     2.3450 
  183.0000    -3.6320    70.2900     3.8220     4.5130     5.2840     2.3380 
  183.1250    -4.2080    74.1180     4.0460     4.7480     5.8780     2.3290 
  183.2500    -4.3100    72.1390     4.1270     4.8340     5.6530     2.3190 
  183.3750    -3.9590    65.6530     4.0080     4.7080     5.0380     2.3110 
  183.5000    -3.5610    58.8950     3.7740     4.4620     4.5700     2.3070 
  183.6250    -3.1160    54.3050     3.5010     4.1760     4.3640     2.3100 
  183.7500    -2.7980    51.6900     3.2930     3.9580     4.4630     2.3170 
  183.8750    -2.7370    52.3860     3.2400     3.9020     4.5870     2.3220 
  184.0000    -2.8590    56.3370     3.2840     3.9480     4.5690     2.3220 
  184.1250    -3.1100    61.6430     3.4230     4.0940     4.7140     2.3200 
  184.2500    -3.4450    66.5090     3.6520     4.3350     5.0100     2.3140 
  184.3750    -3.8060    71.5990     3.8900     4.5850     5.1180     2.3010 
  184.5000    -4.2350    76.1410     4.1780     4.8870     5.1290     2.2850 
  184.6250    -4.7490    78.6780     4.4310     5.1530     5.5040     2.2710 
  184.7500    -5.3950    79.0690     4.6580     5.3910     6.1770     2.2580 
  184.8750    -5.9750    79.2190     4.8650     5.6080     6.4920     2.2460 
  185.0000    -6.5440    79.7490     4.9850     5.7340     6.4280     2.2390 
  185.1250    -7.1280    79.6430     5.1060     5.8620     6.3330     2.2350 
  185.2500    -7.4530    78.6880     5.3060     6.0720     6.2790     2.2360 
  185.3750    -7.3090    77.4700     5.7130     6.4990     6.7610     2.2390 
  185.5000    -6.7550    77.9460     6.3150     7.1310     8.1660     2.2390 
  185.6250    -6.0410    79.2890     7.0270     7.8780    10.1760     2.2410 
  185.7500    -5.5780    81.2640     7.8250     8.7170    11.7200     2.2460 
  185.8750    -5.6750    82.8350     8.6160     9.5470    11.5480     2.2530 
  186.0000    -6.2050    82.3390     9.3830    10.3520    11.1280     2.2620 
  186.1250    -6.8460    79.6470     9.9940    10.9940    12.3590     2.2660 
  186.2500    -7.4330    76.2850    10.6230    11.6540    14.4470     2.2560 
  186.3750    -7.5480    73.0160    11.7060    12.7910    16.1330     2.2490 
  186.5000    -7.2460    69.6700    13.2660    14.4300    17.0220     2.2790 
  186.6250    -6.9820    66.0730    15.4050    16.6750    20.8870     2.3520 
  186.7500    -6.7210    62.3800    17.8930    19.2880    26.2020     2.4150 
  186.8750    -6.4560    59.9040    20.6580    22.1910    26.1730     2.4030 
  187.0000    -6.1440    60.3360    22.5580    24.1860    23.8800     2.3120 
  187.1250    -5.9930    62.7580    23.7490    25.4370    22.7980     2.1940 
  187.2500    -5.8900    65.1170    24.2890    26.0030    20.3160     2.1180 
  187.3750    -5.9750    67.2150    24.4730    26.1970    18.8400     2.0940 
  187.5000    -6.1510    68.1050    25.6640    27.4470    20.6690     2.0840 
  187.6250    -6.2490    68.5700    28.2150    30.1260    20.9280     2.0760 
  187.7500    -6.4050    69.6320    31.6100    33.6910    19.8330     2.0800 
  187.8750    -6.6610    71.4470    35.5730    37.8510    19.2660     2.0890 
  188.0000    -7.0090    72.1890    40.0270    42.5280    16.7260     2.0860 
  188.1250    -7.3380    72.7000    44.5020    47.2270    13.7710     2.0740 
  188.2500    -7.6460    72.7730    48.7070    51.6420    15.7980     2.0560 
  188.3750    -7.7110    71.6460    50.5890    53.6190    21.6130     2.0520 
  188.5000    -7.0730    71.4730    49.3060    52.2710    22.7070     2.0830 
  188.6250    -5.7900    73.4130    45.5340    48.3110    19.0580     2.1460 
  188.7500    -4.3030    75.1190    41.1920    43.7520    16.5870     2.1850 
  188.8750    -3.1150    74.9700    37.6300    40.0120    14.9130     2.1730 
  189.0000    -2.5430    73.1200    34.8980    37.1430    12.6790     2.1430 
  189.1250    -2.5520    71.4180    33.5430    35.7210    12.7890     2.1270 
  189.2500    -2.9370    70.7410    33.3820    35.5510    14.7990     2.1250 
  189.3750    -3.6500    71.2620    34.4620    36.6850    14.0570     2.1240 
  189.5000    -4.2390    71.5590    36.2860    38.6000    11.0680     2.1170 
  189.6250    -4.3570    71.7180    37.7250    40.1110     9.3070     2.1020 
  189.7500    -4.1060    73.4590    37.2650    39.6280     9.5300     2.1000 
  189.8750    -3.7200    74.1610    35.1380    37.3950     9.9660     2.1380 
  190.0000    -3.2320    72.5720    31.4200    33.4910     9.2930     2.1970 
  190.1250    -2.5480    70.4950    27.5050    29.3800     8.8400     2.2430 
  190.2500    -2.0040    68.5570    25.0890    26.8430     9.1380     2.2870 
  190.3750    -1.9430    65.7000    24.7140    26.4500    11.0060     2.3520 
  190.5000    -2.0180    62.0860    26.5090    28.3340    13.3720     2.3980 
  190.6250    -2.0770    59.8120    30.0000    32.0000    12.3290     2.3520 
  190.7500    -1.8990    58.3050    34.3680    36.5870    12.8880     2.2390 
  190.8750    -1.7070    56.9860    38.1950    40.6050    20.8180     2.1450 
  191.0000    -1.6960    56.2440    41.0960    43.6510    29.1660     2.1070 
  191.1250    -1.8260    56.0340    43.0780    45.7320    32.5050     2.1020 
  191.2500    -2.0450    56.0640    43.9820    46.6810    33.6950     2.1010 
  191.3750    -2.2310    56.1240    44.2920    47.0070    32.0580     2.1020 
  191.5000    -2.0240    56.5190    43.7310    46.4180    26.1520     2.1040 
