~V
VERS. 2.00: Ver 2.00
~W
STRT.M 50.0000:
STOP.M 300.0000:
STEP.M 0.1250:
NULL. -999.2500:
UWI. F12002:
~C
DEPT.M :
SP.MV :
GR.API :
RI. :
RML.OHMM :
RXO.OHMM :
DEN.GM/CC :
~A
# ...
  153.0000   -42.8160    70.2290     5.9920     6.8520     7.7550     2.1360 
  153.1250   -42.9840    66.8280     6.1500     7.0190     8.1860     2.1280 
  153.2500   -43.1830    64.7590     6.2930     7.1710     8.6520     2.1200 
  153.3750   -43.4270    65.7010     6.4090     7.2940     8.9020     2.1200 
  153.5000   -43.7130    67.2190     6.5060     7.3960     8.8700     2.1230 
  153.6250   -44.0250    66.5670     6.6370     7.5350     8.8580     2.1200 
  153.7500   -44.3240    63.3240     6.8030     7.7110     9.0840     2.1110 
  153.8750   -44.5610    59.9880     6.9830     7.9010     9.3570     2.1050 
  154.0000   -44.6940    58.7340     7.1530     8.0820     9.3160     2.1040 
  154.1250   -44.6780    59.8540     7.1540     8.0830     8.7230     2.1000 
  154.2500   -44.4980    61.6280     6.8620     7.7730     8.0980     2.0960 
  154.3750   -44.1210    63.4820     6.2720     7.1480     7.9710     2.1090 
  154.5000   -43.5560    68.0940     5.5140     6.3450     7.3370     2.1500 
  154.6250   -42.7980    74.3330     4.8720     5.6650     5.7780     2.2110 
  154.7500   -41.9050    78.6080     4.4750     5.2440     4.8370     2.2600 
  154.8750   -40.9590    78.8780     4.4060     5.1700     4.9270     2.2650 
  155.0000   -40.1000    77.2790     4.6220     5.3990     5.3790     2.2290 
  155.1250   -39.5080    74.9880     5.0330     5.8350     6.0750     2.1830 
  155.2500   -39.2870    71.8510     5.5670     6.4010     6.7540     2.1610 
  155.3750   -39.4960    70.7040     6.0660     6.9300     7.2520     2.1680 
  155.5000   -40.0230    71.7610     6.4050     7.2890     7.8310     2.1860 
  155.6250   -40.7280    74.3960     6.5390     7.4310     8.3000     2.1900 
  155.7500   -41.4420    76.0730     6.5550     7.4480     8.3420     2.1690 
  155.8750   -42.0490    74.8800     6.7450     7.6490     8.3060     2.1500 
  156.0000   -42.5110    71.3240     7.2930     8.2310     8.7540     2.1770 
  156.1250   -42.8200    68.3830     8.3470     9.3480    12.4980     2.2800 
  156.2500   -43.0230    70.5010     9.5440    10.6160    20.3470     2.4060 
  156.3750   -43.1740    76.8010    10.3870    11.5100    29.4330     2.4570 
  156.5000   -43.3450    79.8970    10.4980    11.6280    29.6880     2.3900 
  156.6250   -43.6090    76.6520     9.7600    10.8460    17.8080     2.2610 
  156.7500   -43.9930    71.0370     8.5830     9.5980    10.0050     2.1650 
  156.8750   -44.4910    66.4820     7.5120     8.4630     9.7860     2.1330 
  157.0000   -45.0290    63.3500     6.9250     7.8400     9.7050     2.1240 
  157.1250   -45.5130    60.9260     6.7710     7.6770     9.3430     2.1140 
  157.2500   -45.8720    59.6620     6.8900     7.8030     8.9060     2.1080 
  157.3750   -46.0570    59.4610     7.0500     7.9730     8.7150     2.1080 
  157.5000   -46.0840    60.4280     7.1960     8.1280     8.8000     2.1150 
  157.6250   -45.9560    63.0620     7.3320     8.2720     9.0160     2.1280 
  157.7500   -45.7030    66.2190     7.4660     8.4140     9.1610     2.1340 
  157.8750   -45.3230    67.6260     7.5390     8.4910     9.1480     2.1280 
  158.0000   -44.8350    66.7460     7.4000     8.3440     9.1440     2.1250 
  158.1250   -44.2430    67.0380     7.0750     7.9990     9.3340     2.1430 
  158.2500   -43.5820    71.0590     6.5850     7.4800     8.6910     2.1710 
  158.3750   -42.8910    74.9280     6.1000     6.9660     6.9590     2.1860 
  158.5000   -42.2270    75.8780     5.8280     6.6780     6.1040     2.1760 
  158.6250   -41.6510    75.4330     5.8840     6.7370     6.4910     2.1480 
  158.7500   -41.1990    75.4600     6.2130     7.0860     7.0280     2.1240 
  158.8750   -40.8880    74.8490     6.5890     7.4840     7.4200     2.1190 
  159.0000   -40.6730    73.4290     6.7420     7.6460     7.9110     2.1390 
  159.1250   -40.4900    73.2840     6.5040     7.3940     8.0230     2.1850 
  159.2500   -40.2620    74.8940     6.0200     6.8810     6.9720     2.2250 
  159.3750   -39.9340    76.6810     5.6530     6.4920     5.9740     2.2390 
  159.5000   -39.5120    78.5330     5.5540     6.3870     6.1110     2.2590 
  159.6250   -39.0250    80.0690     5.6610     6.5000     9.1040     2.3180 
  159.7500   -38.5260    81.6810     5.8100     6.6580    13.9880     2.3740 
  159.8750   -38.0420    81.9570     5.7550     6.6000    13.3240     2.3690 
  160.0000   -37.5780    82.6120     5.3630     6.1850     7.8130     2.3150 
  160.1250   -37.1360    85.7190     4.8450     5.6360     5.0590     2.2620 
  160.2500   -36.7230    89.9660     4.3720     5.1340     5.0120     2.2400 
  160.3750   -36.3570    92.6090     4.1460     4.8950     5.0490     2.2420 
  160.5000   -36.0360    91.1640     4.2080     4.9600     5.1510     2.2490 
  160.6250   -35.7450    86.2070     4.3990     5.1630     5.4510     2.2460 
  160.7500   -35.4580    81.1980     4.5860     5.3610     5.9790     2.2330 
  160.8750   -35.1670    80.7490     4.7130     5.4950     6.3890     2.2240 
  161.0000   -34.8760    82.7460     4.7600     5.5460     6.1990     2.2260 
  161.1250   -34.5970    84.0260     4.7090     5.4920     5.7440     2.2340 
  161.2500   -34.3350    83.9660     4.5920     5.3670     5.3660     2.2330 
  161.3750   -34.0830    82.6280     4.4370     5.2030     5.2950     2.2180 
  161.5000   -33.8260    80.6790     4.2830     5.0400     5.4440     2.2110 
  161.6250   -33.5440    79.7280     4.1520     4.9010     5.3570     2.2270 
  161.7500   -33.9840    81.7290     4.1050     4.8520     5.1370     2.2550 
  161.8750   -33.9840    84.4010     4.1620     4.9120     5.1370     2.2740 
  162.0000   -33.8510    86.3590     4.2880     5.0450     5.3570     2.2750 
  162.1250   -33.5860    87.5670     4.4340     5.2000     5.5750     2.2610 
  162.2500   -33.4530    87.8820     4.5520     5.3250     5.7020     2.2470 
  162.3750   -33.1870    86.7910     4.6000     5.3760     5.7190     2.2390 
  162.5000   -33.1870    85.3710     4.5910     5.3660     5.7670     2.2380 
  162.6250   -33.1870    83.9000     4.5600     5.3340     5.8480     2.2430 
  162.7500   -33.1870    82.5210     4.5100     5.2810     5.8120     2.2460 
  162.8750   -33.1870    84.4460     4.4340     5.2000     5.9210     2.2380 
  163.0000   -33.1870    89.4040     4.3310     5.0900     5.9980     2.2320 
  163.1250   -33.1870    91.3900     4.2020     4.9540     5.6640     2.2390 
  163.2500   -33.1870    87.1800     4.0980     4.8440     5.4470     2.2480 
  163.3750   -33.1870    82.6750     4.1290     4.8760     5.7750     2.2470 
  163.5000   -33.1870    82.3180     4.3540     5.1160     6.1440     2.2540 
  163.6250   -33.1870    82.6570     4.8550     5.6460     7.0800     2.2910 
  163.7500   -33.1870    79.2910     5.7530     6.5980     9.8130     2.3570 
  163.8750   -33.1870    73.4970     7.0790     8.0030    12.2610     2.4300 
  164.0000   -33.9840    69.7830     8.4110     9.4150    13.1550     2.4900 
  164.1250   -34.3820    69.3580     9.2350    10.2890    14.4110     2.5010 
  164.2500   -34.3820    68.0070     9.3000    10.3580    13.7830     2.4360 
  164.3750   -35.1790    65.5240     8.5940     9.6090    10.0360     2.3190 
  164.5000   -35.1790    66.5000     7.6140     8.5700     7.5720     2.2390 
  164.6250   -35.2790    72.5590     6.7260     7.6300     7.6780     2.2480 
  164.7500   -35.5780    78.6880     6.0180     6.8800     8.1470     2.2860 
  164.8750   -35.5780    81.7410     5.5370     6.3690     7.7140     2.2920 
  165.0000   -35.5780    83.3420     5.2000     6.0120     6.7310     2.2760 
  165.1250   -35.5780    84.0090     4.9590     5.7570     6.1010     2.2620 
  165.2500   -35.5780    82.9750     4.8230     5.6120     5.8980     2.2510 
  165.3750   -35.5780    81.4560     4.9540     5.7510     6.3340     2.2360 
  165.5000   -35.5780    81.6550     5.4160     6.2410     6.7290     2.2230 
  165.6250   -35.5780    81.4010     6.0390     6.9010     6.8720     2.2150 
  165.7500   -35.5780    78.9820     6.7200     7.6230     7.8840     2.1960 
