~V
VERS. 2.00: Ver 2.00
~W
STRT.M 50.0000:
STOP.M 226.0000:
STEP.M 0.1250:
NULL. -999.2500:
UWI. F12001:
~C
DEPT.M :
SP.MV :
GR.API :
RI. :
RML.OHMM :
RXO.OHMM :
DEN.GM/CC :
~A
# ...
   62.8750    -3.6530    84.5630     5.5020     6.5320     4.8400     2.3470 
   63.0000    -4.0910    87.5880     5.3350     6.3930     4.6920     2.2610 
   63.1250    -4.5010    87.3050     5.1830     6.2870     5.1640     2.1820 
   63.2500    -4.8330    82.5810     5.2460     6.4720     5.6630     2.1480 
   63.3750    -5.0690    76.3750     5.4390     6.7800     5.8920     2.1380 
   63.5000    -5.2780    72.4680     5.5680     6.9410     5.7140     2.1250 
   63.6250    -5.6130    71.6440     5.5870     6.9090     5.3930     2.1110 
   63.7500    -6.1460    73.7960     5.6820     6.9510     5.2490     2.1010 
   63.8750    -6.7420    77.2520     6.0630     7.3700     5.3300     2.1010 
   64.0000    -7.3320    79.3220     6.8530     8.3660     5.6900     2.1100 
   64.1250    -7.9360    77.1410     8.3990    10.4080     6.3870     2.1240 
   64.2500    -8.4110    71.2680    10.8270    13.5430    11.1820     2.1390 
   64.3750    -8.6360    65.7920    13.9670    17.5000    26.1830     2.1860 
   64.5000    -8.7800    62.9630    16.1240    20.0890    47.1760     2.2820 
   64.6250    -8.8580    62.2000    16.1260    19.8660    64.2750     2.4010 
   64.7500    -8.8690    61.0630    14.4000    17.5750    63.6080     2.4850 
   64.8750    -8.7530    59.2440    11.6480    14.0580    39.4300     2.5020 
   65.0000    -8.5530    61.5740     9.5580    11.5130    15.4080     2.4520 
   65.1250    -8.3680    70.2090     8.1060     9.8940     9.7060     2.3580 
   65.2500    -8.2410    80.7810     7.1330     8.8920    12.9710     2.2930 
   65.3750    -8.1560    87.0500     6.5600     8.4070    12.3220     2.3000 
   65.5000    -8.1290    87.0780     6.1660     8.1160     7.7710     2.3170 
   65.6250    -8.2040    82.3630     5.8660     7.8540     5.3830     2.2680 
   65.7500    -8.3500    76.1130     5.6500     7.6690     5.0650     2.1800 
   65.8750    -8.5190    71.3840     5.6150     7.6280     4.8840     2.1190 
   66.0000    -8.6070    69.6190     5.7320     7.7330     4.8880     2.1000 
   66.1250    -8.6290    68.8990     5.8610     7.8740     5.0100     2.0990 
   66.2500    -8.7530    66.9170     5.9340     7.9700     4.9810     2.0970 
   66.3750    -8.9350    64.9640     5.9620     8.0130     4.9480     2.0930 
   66.5000    -9.0480    66.2380     5.9590     7.9540     5.0330     2.0880 
   66.6250    -8.9720    70.4620     5.9290     7.8010     5.0500     2.0850 
   66.7500    -8.8310    73.0730     5.8820     7.6180     4.9770     2.0850 
   66.8750    -8.5570    70.7290     5.8340     7.4710     5.0490     2.0840 
   67.0000    -8.2820    68.4370     5.7920     7.3850     5.2030     2.0800 
   67.1250    -8.0530    70.8720     5.7760     7.3750     5.1870     2.0800 
   67.2500    -7.8310    75.1380     5.8040     7.4310     5.1030     2.0850 
   67.3750    -7.6070    76.8400     5.9040     7.6280     5.0070     2.0890 
   67.5000    -7.5120    75.8090     6.0720     7.9390     4.9320     2.0850 
   67.6250    -7.6190    74.5530     6.2070     8.2720     4.9920     2.0800 
   67.7500    -7.7460    71.8860     6.1960     8.3780     5.1810     2.0790 
   67.8750    -7.7600    68.9400     5.8250     7.9000     5.3110     2.0810 
   68.0000    -7.6890    69.5620     5.1480     6.9260     4.8430     2.0890 
   68.1250    -7.5190    75.4290     4.2800     5.6340     3.9410     2.1160 
   68.2500    -7.3660    83.5900     3.4830     4.4790     3.3750     2.1600 
   68.3750    -7.2770    91.4240     2.9890     3.7840     3.0880     2.2000 
   68.5000    -7.2440    97.6910     2.8780     3.6540     2.8260     2.2210 
   68.6250    -7.2410    99.4910     3.1370     4.0480     3.0140     2.2160 
   68.7500    -7.2310    95.2000     3.7270     4.9340     3.7430     2.1840 
   68.8750    -7.2320    86.3770     4.5270     6.0770     4.4780     2.1350 
   69.0000    -7.2210    77.9360     5.3520     7.1770     4.8920     2.0990 
   69.1250    -7.2090    72.7540     6.0530     8.0810     4.9470     2.0920 
   69.2500    -7.0820    70.1220     6.3340     8.3780     4.9420     2.1000 
   69.3750    -6.9140    68.5830     6.0440     7.9480     5.1790     2.1060 
   69.5000    -6.8040    67.4480     5.3560     7.0160     5.3680     2.1100 
   69.6250    -6.7090    68.7450     4.4700     5.8110     4.6710     2.1150 
   69.7500    -6.6540    71.9680     3.6980     4.7650     3.4450     2.1330 
   69.8750    -6.7050    78.0870     3.1820     4.1060     2.9400     2.1660 
   70.0000    -6.9220    85.6140     2.9450     3.8540     3.0580     2.2080 
   70.1250    -7.2100    91.4560     2.9870     4.0350     3.4330     2.2420 
   70.2500    -7.4070    91.3210     3.2400     4.5170     3.9800     2.2500 
   70.3750    -7.4580    86.0210     3.6070     5.1210     4.3210     2.2210 
   70.5000    -7.4000    83.4400     3.9380     5.6170     4.4080     2.1710 
   70.6250    -7.4100    86.6820     4.1420     5.8760     4.3580     2.1390 
   70.7500    -7.4920    91.0260     4.2540     5.9860     4.3480     2.1360 
   70.8750    -7.5940    90.5890     4.2960     6.0300     4.4440     2.1360 
   71.0000    -7.7560    87.2200     4.3430     6.0950     4.4880     2.1270 
   71.1250    -7.9020    85.6350     4.3210     6.0390     4.5740     2.1230 
   71.2500    -8.0450    86.1240     4.2300     5.8810     4.5630     2.1350 
   71.3750    -8.2070    88.1700     4.0610     5.6130     4.1600     2.1500 
   71.5000    -8.3430    90.6120     3.8810     5.3590     3.7630     2.1630 
   71.6250    -8.3400    93.7880     3.7640     5.2440     3.8070     2.1710 
   71.7500    -8.2650    94.0380     3.7310     5.2640     4.0930     2.1730 
   71.8750    -8.1630    91.6540     3.7840     5.4280     4.3160     2.1690 
   72.0000    -8.1060    90.5170     3.8710     5.6410     4.2900     2.1650 
   72.1250    -7.9550    92.0180     3.9420     5.7990     3.9890     2.1630 
   72.2500    -7.5120    92.3050     3.9510     5.8430     3.7230     2.1670 
   72.3750    -6.8070    89.3210     3.8980     5.7630     3.9020     2.1750 
   72.5000    -6.0240    86.0860     3.8090     5.6230     4.1670     2.1730 
   72.6250    -5.4440    85.3590     3.7300     5.4930     3.8950     2.1620 
   72.7500    -5.1730    85.1820     3.6950     5.4340     3.4030     2.1590 
   72.8750    -5.1560    85.2160     3.7300     5.4980     3.3950     2.1720 
   73.0000    -5.2470    86.5890     3.8070     5.6300     4.1020     2.1820 
   73.1250    -5.3840    88.3850     3.9100     5.8070     4.7070     2.1750 
   73.2500    -5.5180    87.1820     3.9690     5.8770     4.5550     2.1580 
   73.3750    -5.6880    82.8060     3.9490     5.7900     4.1210     2.1470 
   73.5000    -5.8980    80.5990     3.8690     5.5950     3.8710     2.1500 
   73.6250    -6.0370    83.0770     3.7810     5.4300     3.7760     2.1580 
   73.7500    -6.0240    87.9790     3.8110     5.5050     3.7150     2.1650 
   73.8750    -5.9630    90.1930     3.9320     5.7340     3.8590     2.1720 
   74.0000    -5.8950    88.4050     4.0700     5.9800     4.2930     2.1780 
   74.1250    -5.7630    85.2490     4.1340     6.0590     4.6250     2.1720 
   74.2500    -5.5420    84.1930     4.0660     5.9040     4.4430     2.1590 
   74.3750    -5.2200    86.8050     3.8840     5.5770     3.8970     2.1590 
   74.5000    -4.8740    92.3050     3.6560     5.1920     3.4340     2.1800 
   74.6250    -4.6380    97.8040     3.4590     4.8830     3.2960     2.2070 
   74.7500    -4.5720   100.2120     3.3320     4.7010     3.4240     2.2200 
   74.8750    -4.6740   100.1010     3.3080     4.6890     3.5170     2.2190 
   75.0000    -4.8500   101.8050     3.3460     4.7670     3.5160     2.2150 
   75.1250    -4.9830   106.0300     3.3980     4.8640     3.5320     2.2170 
   75.2500    -5.0130   109.5010     3.4440     4.9350     3.6320     2.2240 
   75.3750    -4.9640   110.2450     3.4770     4.9620     3.7670     2.2220 
   75.5000    -4.9150   109.1380     3.5490     5.0470     3.6500     2.2140 
   75.6250    -4.9880   104.4770     3.6890     5.2330     3.5020     2.2090 
