~V
VERS. 2.00: Ver 2.00
~W
STRT.M 50.0000:
STOP.M 226.0000:
STEP.M 0.1250:
NULL. -999.2500:
UWI. F12001:
~C
DEPT.M :
SP.MV :
GR.API :
RI. :
RML.OHMM :
RXO.OHMM :
DEN.GM/CC :
~A
# ...
  140.1250    -4.5150    49.9900    32.9010    36.6010    30.8850     2.5120 
  140.2500    -4.4910    50.6130    32.0010    35.7620    32.6270     2.4920 
  140.3750    -4.4820    53.7230    31.0900    34.9390    33.1560     2.4920 
  140.5000    -4.5050    57.7980    30.1030    33.9040    32.1430     2.5040 
  140.6250    -4.5590    58.1280    28.7240    32.1980    30.0820     2.5240 
  140.7500    -4.6840    54.4620    26.9810    30.0300    26.1980     2.5360 
  140.8750    -4.8030    51.5950    25.3670    28.1270    23.1360     2.5110 
  141.0000    -4.8570    52.4210    24.4010    27.0580    20.4030     2.4500 
  141.1250    -4.8830    54.3500    24.0450    26.7780    18.2180     2.3930 
  141.2500    -4.9220    55.3550    24.1570    27.0610    19.3610     2.3830 
  141.3750    -4.9710    54.1120    24.4640    27.5200    22.3860     2.4250 
  141.5000    -5.0270    52.4100    24.6440    27.7460    22.7660     2.4840 
  141.6250    -5.0890    52.0600    24.4830    27.4840    20.8770     2.5200 
  141.7500    -5.1860    54.1680    23.9860    26.8160    18.9850     2.5150 
  141.8750    -5.3250    56.2240    23.2090    25.8810    17.7270     2.4790 
  142.0000    -5.4470    58.6520    22.4670    25.0040    17.6180     2.4430 
  142.1250    -5.4880    61.6930    22.0240    24.4820    17.7220     2.4230 
  142.2500    -5.4300    63.6210    21.9260    24.3570    17.7340     2.4230 
  142.3750    -5.2930    62.1170    22.3040    24.8130    18.3440     2.4560 
  142.5000    -5.1490    59.4700    23.1010    25.8100    19.0560     2.5030 
  142.6250    -5.0950    57.0610    24.0600    27.0600    20.4370     2.5290 
  142.7500    -5.1150    53.6450    24.9480    28.2950    22.2260     2.5240 
  142.8750    -5.1560    49.4760    25.1580    28.7060    23.0940     2.5180 
  143.0000    -5.2130    47.8890    24.6450    28.2640    22.6720     2.5260 
  143.1250    -5.3400    50.4470    23.4800    27.0460    19.9980     2.5290 
  143.2500    -5.4680    53.1130    22.0690    25.5100    16.9540     2.5130 
  143.3750    -5.5590    52.9770    20.7360    24.0820    15.6100     2.4950 
  143.5000    -5.5180    51.7200    19.5370    22.8110    15.2780     2.4940 
  143.6250    -5.4320    51.6000    18.4170    21.6110    15.8950     2.5020 
  143.7500    -5.4060    52.7430    17.4890    20.6670    15.7120     2.5060 
  143.8750    -5.3570    54.3300    17.0340    20.3030    14.1250     2.5140 
  144.0000    -5.2740    56.0220    17.2730    20.7280    13.5690     2.5370 
  144.1250    -5.1950    57.1060    18.0820    21.7840    16.4930     2.5630 
  144.2500    -5.1080    56.4150    19.2330    23.1530    22.9150     2.5670 
  144.3750    -5.1050    55.0830    20.4670    24.4390    26.4890     2.5380 
  144.5000    -5.1520    54.2280    21.3450    25.1280    23.7980     2.4950 
  144.6250    -5.1950    52.6490    21.4730    24.9640    20.7550     2.4550 
  144.7500    -5.1420    50.8770    21.0610    24.3120    22.2770     2.4210 
  144.8750    -5.0320    51.7740    20.3290    23.5840    24.5000     2.3890 
  145.0000    -4.9280    55.5620    19.8080    23.3000    21.7340     2.3800 
  145.1250    -4.8110    57.3260    19.5640    23.4070    16.9960     2.4160 
  145.2500    -4.6370    55.8300    19.4570    23.6650    15.3990     2.4730 
  145.3750    -4.4720    53.9770    19.5050    24.0440    16.1990     2.5080 
  145.5000    -4.3080    54.6860    19.6030    24.3580    16.3230     2.5120 
  145.6250    -4.0940    56.1010    19.6950    24.5220    17.1060     2.4960 
  145.7500    -3.8740    56.6600    19.6450    24.4130    18.1310     2.4720 
  145.8750    -3.5960    57.1480    19.3510    23.8900    16.4680     2.4510 
  146.0000    -3.2430    59.2310    18.9740    23.1950    15.0060     2.4500 
  146.1250    -2.8650    61.6170    18.7090    22.6030    15.3400     2.4640 
  146.2500    -2.5820    60.2170    18.7380    22.3820    15.6420     2.4700 
  146.3750    -2.3900    56.3530    19.2600    22.7960    15.8670     2.4530 
  146.5000    -2.2630    55.7280    20.1380    23.7020    17.9100     2.4260 
  146.6250    -2.1700    58.9940    21.2200    24.9210    20.7950     2.4040 
  146.7500    -2.0770    60.7210    22.3960    26.2440    21.9170     2.3990 
  146.8750    -1.9800    59.8120    22.9240    26.7700    21.4570     2.4130 
  147.0000    -1.9550    58.8340    22.3830    25.9540    21.7200     2.4310 
  147.1250    -2.0330    59.4440    20.6570    23.7120    20.8150     2.4350 
  147.2500    -2.1210    61.1060    18.4360    20.9740    16.1890     2.4230 
  147.3750    -2.2680    61.6740    16.7080    18.8770    12.7990     2.4070 
  147.5000    -2.4120    60.0840    15.9380    17.9770    12.4600     2.3980 
  147.6250    -2.5210    58.9740    16.1070    18.2150    13.4960     2.3950 
  147.7500    -2.6840    60.1920    16.7220    18.9850    15.6260     2.3920 
  147.8750    -2.9450    61.2190    17.3220    19.7040    17.9260     2.3880 
  148.0000    -3.3080    59.1890    17.3180    19.6310    17.9160     2.3940 
  148.1250    -3.6870    57.6080    16.5750    18.6720    14.0830     2.4110 
  148.2500    -4.0200    58.9280    15.5660    17.4410    10.4330     2.4190 
  148.3750    -4.1590    61.6110    14.6750    16.3960     9.8590     2.4070 
  148.5000    -4.1420    61.7840    14.0780    15.7520    11.9070     2.3830 
  148.6250    -4.0260    58.9330    13.7100    15.3850    14.6020     2.3700 
  148.7500    -3.8740    55.2000    13.3910    15.0330    13.7050     2.3710 
  148.8750    -3.7420    52.1830    13.0180    14.5850     9.9430     2.3720 
  149.0000    -3.6430    50.4060    12.6170    14.1390     8.5100     2.3650 
  149.1250    -3.5300    49.1280    12.3810    13.9580     9.3420     2.3510 
  149.2500    -3.4640    48.8470    12.3740    14.0900    10.3900     2.3410 
  149.3750    -3.4670    51.7090    12.7830    14.6990    11.4670     2.3350 
  149.5000    -3.5210    56.2890    13.4190    15.4560    11.8630     2.3320 
  149.6250    -3.5860    58.2930    13.9500    16.0190    12.8570     2.3330 
  149.7500    -3.6570    57.9970    14.4660    16.5760    15.1870     2.3450 
  149.8750    -3.7080    58.1440    14.8750    17.0390    15.9950     2.3720 
  150.0000    -3.6980    60.2770    15.2210    17.4370    15.5910     2.3990 
  150.1250    -3.6470    62.1660    15.5120    17.7490    17.2680     2.4050 
  150.2500    -3.5650    63.2280    15.8120    18.1040    19.0440     2.3910 
  150.3750    -3.4230    63.0830    16.1530    18.5190    17.8660     2.3770 
  150.5000    -3.2740    63.0650    16.7230    19.2700    15.6640     2.3830 
  150.6250    -3.1350    63.6760    17.5580    20.3620    15.0280     2.4020 
  150.7500    -2.9720    63.1710    18.1990    21.1970    15.7860     2.4110 
  150.8750    -2.8360    61.7910    18.3270    21.3920    17.9570     2.4050 
  151.0000    -2.6900    60.8350    17.6310    20.4650    19.6070     2.3980 
  151.1250    -2.5330    60.1390    15.9560    18.3140    16.3960     2.4020 
  151.2500    -2.3950    59.5690    13.9270    15.7580    11.4510     2.4070 
  151.3750    -2.3340    60.5890    12.0870    13.5410     9.4020     2.3980 
  151.5000    -2.3070    61.7590    10.8690    12.2050     8.7010     2.3780 
  151.6250    -2.3460    60.3820    10.4980    11.8740     8.3740     2.3580 
  151.7500    -2.4400    59.1180    10.7120    12.2090     8.8730     2.3500 
  151.8750    -2.6360    59.8240    11.5250    13.2020    10.0400     2.3530 
  152.0000    -2.8670    60.2460    12.5160    14.3400    10.8210     2.3580 
  152.1250    -3.0550    59.1570    13.5760    15.5600    11.7920     2.3580 
  152.2500    -3.1480    59.6550    14.5060    16.6230    13.8730     2.3480 
  152.3750    -3.1550    60.3270    15.2370    17.4540    14.8200     2.3350 
  152.5000    -3.1240    58.0220    15.8270    18.1760    15.1340     2.3320 
  152.6250    -3.1450    54.0360    16.4220    18.9320    16.6800     2.3390 
  152.7500    -3.2530    53.1060    17.1680    19.8680    17.0600     2.3450 
  152.8750    -3.4010    56.9090    17.8820    20.8140    16.4040     2.3440 
