~V
VERS. 2.00: Ver 2.00
~W
STRT.M 50.0000:
STOP.M 213.0000:
STEP.M 0.1250:
NULL. -999.2500:
UWI. F12007:
~C
DEPT.M :
SP.MV :
GR.API :
RI. :
RML.OHMM :
RXO.OHMM :
DEN.GM/CC :
~A
# ...
   62.8750    78.9430    71.5680     7.3910     8.7690    10.7470     2.0990 
   63.0000    78.9840    72.5490     7.2320     8.3480    10.0810     2.0920 
   63.1250    79.0310    73.1150     6.9760     7.8940    10.3580     2.0870 
   63.2500    79.1190    71.7420     6.8200     7.7030    10.7010     2.0980 
   63.3750    79.2800    70.5830     6.9950     8.1050     9.7800     2.1170 
   63.5000    79.5020    70.7730     7.6390     9.0740     8.6560     2.1430 
   63.6250    79.6940    72.3290     8.6360    10.4450    16.9200     2.1970 
   63.7500    79.9470    71.9240     9.6000    11.7380    30.2860     2.2690 
   63.8750    80.2130    69.2370     9.9350    12.1750    28.0290     2.3020 
   64.0000    80.3500    66.2000     9.3040    11.4880    16.5430     2.2650 
   64.1250    80.5810    66.8680     8.1180    10.0820    10.9040     2.1950 
   64.2500    81.2010    70.6260     6.6660     8.3160     9.3450     2.1620 
   64.3750    82.3370    76.2940     5.6900     7.2100     7.6420     2.1770 
   64.5000    83.8220    84.5280     5.0890     6.5200     5.6140     2.1950 
   64.6250    85.2620    94.0050     4.7550     6.1240     4.8780     2.1990 
   64.7500    86.0090    99.1100     4.7060     6.0400     4.9010     2.2000 
   64.8750    85.7530    98.6020     4.8740     6.2210     5.1000     2.1960 
   65.0000    84.8190    96.7970     5.2530     6.7110     5.4790     2.1740 
   65.1250    83.5140    95.6440     5.7840     7.4720     6.1170     2.1410 
   65.2500    82.1850    92.5310     6.3530     8.4080     7.3430     2.1150 
   65.3750    81.1200    86.6690     6.9020     9.3280     8.8340     2.0950 
   65.5000    80.2590    78.8850     7.2610     9.9780     9.5720     2.0760 
   65.6250    79.5110    72.2730     7.3940    10.2250     9.5670     2.0680 
   65.7500    78.9800    71.2770     7.3160    10.1040     9.1980     2.0750 
   65.8750    78.7160    73.8710     7.0800     9.7980     8.7400     2.0900 
   66.0000    78.5360    75.4060     6.8230     9.4730     8.7660     2.0980 
   66.1250    78.2770    75.3940     6.6020     9.2210     8.8300     2.0930 
   66.2500    77.9220    75.8950     6.4350     9.0080     8.5550     2.0790 
   66.3750    77.4120    74.8930     6.3540     8.8950     8.6310     2.0380 
   66.5000    76.9080    70.3660     6.3890     8.9090     8.9820     1.9590 
   66.6250    76.5470    65.4870     6.5220     8.9960     8.7510     1.8810 
   66.7500    76.2780    65.1370     6.7020     9.1520     8.4530     1.8790 
   66.8750    76.1270    69.4340     6.8620     9.2590     9.0630     1.9620 
   67.0000    76.2130    72.7760     6.9350     9.2960     9.7040     2.0440 
   67.1250    76.4610    71.4470     6.9000     9.2410     9.3630     2.0780 
   67.2500    76.8100    67.9120     6.7630     9.1130     8.7710     2.0800 
   67.3750    77.4190    66.8730     6.4380     8.7930     8.6300     2.0670 
   67.5000    78.5260    71.0320     6.0120     8.3240     8.4410     2.0620 
   67.6250    80.1650    77.8050     5.4920     7.6990     7.3930     2.0950 
   67.7500    82.1170    84.7520     4.9200     6.9330     5.8140     2.1560 
   67.8750    83.9850    94.8170     4.4330     6.2440     4.8100     2.2060 
   68.0000    85.2840   107.1260     4.0250     5.6780     4.4880     2.2310 
   68.1250    85.9160   114.2400     3.8080     5.3980     4.3780     2.2410 
   68.2500    86.0230   114.3260     3.7570     5.3460     4.3350     2.2430 
   68.3750    85.8140   113.8340     3.8670     5.4930     4.3650     2.2380 
   68.5000    85.6800   115.3640     4.0760     5.7460     4.5010     2.2390 
   68.6250    85.9330   115.4290     4.3480     6.0920     4.7340     2.2460 
   68.7500    86.4370   113.4680     4.6300     6.4570     4.9040     2.2460 
   68.8750    86.9250   111.1010     4.8700     6.7590     5.1630     2.2260 
   69.0000    87.2470   107.5650     5.0620     6.9860     5.4700     2.1970 
   69.1250    87.2890   101.7810     5.2270     7.1610     5.6420     2.1820 
   69.2500    87.0670    95.6520     5.3910     7.3400     5.8620     2.1840 
   69.3750    86.6470    92.1880     5.5370     7.4840     6.0380     2.1840 
   69.5000    86.0980    89.3620     5.6460     7.6150     6.4970     2.1730 
   69.6250    85.3800    85.3010     5.7170     7.7340     6.9870     2.1590 
   69.7500    84.6630    81.4940     5.7630     7.8260     6.6680     2.1530 
   69.8750    84.0990    82.0970     5.7800     7.8680     6.3310     2.1550 
   70.0000    83.6800    85.4820     5.8820     8.0100     6.6020     2.1520 
   70.1250    83.3100    86.1340     6.1580     8.3790     6.9630     2.1450 
   70.2500    82.9750    83.6080     6.8420     9.4190     6.9760     2.1530 
   70.3750    82.5860    79.9490     7.7940    10.9150     7.6340     2.2010 
   70.5000    82.3270    77.9310     8.9290    12.6700     9.6690     2.2690 
   70.6250    82.3370    76.6290     9.8110    13.9570    10.5630     2.2950 
   70.7500    82.6290    75.3460     9.9250    14.0010     9.5470     2.2530 
   70.8750    83.2000    73.7420     9.3850    13.0080     8.6510     2.1800 
   71.0000    83.8700    73.6830     8.2990    11.3150     8.0330     2.1340 
   71.1250    84.3240    74.3810     7.1160     9.6220     7.3850     2.1280 
   71.2500    84.4260    74.5850     6.2760     8.4940     6.9300     2.1340 
   71.3750    84.2550    74.6470     5.6740     7.7190     6.4610     2.1400 
   71.5000    83.9610    75.8040     5.3800     7.3450     6.1600     2.1450 
   71.6250    83.5780    77.0580     5.4560     7.4760     6.2920     2.1410 
   71.7500    83.2730    77.2170     5.9370     8.1670     6.8990     2.1270 
   71.8750    82.9830    75.2460     6.7180     9.1950     8.0250     2.1120 
   72.0000    82.5780    71.0960     7.6650    10.3810     9.2310     2.0930 
   72.1250    82.0900    66.7170     8.6310    11.4860    10.0970     2.0630 
   72.2500    81.7640    66.2380     9.4020    12.3380     9.8970     2.0430 
   72.3750    81.6010    69.0850     9.8470    12.8860     8.6470     2.0650 
   72.5000    81.5200    70.6650     9.7860    12.8670     8.1330     2.1080 
   72.6250    81.4400    69.7940     9.3260    12.4190     8.9410     2.1280 
   72.7500    81.3160    68.8900     8.6580    11.5770     9.5230     2.1150 
   72.8750    81.0810    68.9320     7.9300    10.4860     8.8210     2.0950 
   73.0000    80.8450    67.9830     7.3160     9.4790     7.8710     2.0840 
   73.1250    80.5370    65.6780     6.8550     8.7170     8.3300     2.0830 
   73.2500    80.1300    64.6950     6.6280     8.3810     9.6200     2.0860 
   73.3750    79.7230    67.3460     6.6460     8.4280    10.1940     2.0910 
   73.5000    79.3900    71.0700     6.7260     8.6110    10.3570     2.0980 
   73.6250    79.0340    72.9270     6.7810     8.8290    10.3650     2.1030 
   73.7500    78.7390    71.6960     6.7960     9.0400     9.5800     2.0990 
   73.8750    78.7630    70.1440     6.7700     9.1290     8.5750     2.0900 
   74.0000    79.1430    69.1970     6.7240     9.0560     8.6160     2.0860 
   74.1250    79.7690    68.7780     6.6440     8.9260     9.0050     2.0860 
   74.2500    80.4450    68.3780     6.5680     8.8040     8.7110     2.0870 
   74.3750    80.7940    66.8880     6.4960     8.7120     8.4540     2.0890 
   74.5000    80.7370    64.2780     6.4520     8.6500     8.6280     2.0910 
   74.6250    80.4200    62.5140     6.4420     8.5480     8.8540     2.0950 
   74.7500    80.0650    64.3570     6.5110     8.5910     8.9370     2.0990 
   74.8750    79.9380    68.3230     6.6640     8.7930     8.8210     2.1100 
   75.0000    80.2920    72.4370     6.8250     9.0410     8.6860     2.1330 
   75.1250    81.0880    74.1970     6.8450     9.1760     9.4280     2.1530 
   75.2500    82.0290    73.6500     6.6920     9.1030    10.5720     2.1480 
   75.3750    82.9030    72.8160     6.3570     8.6980     9.8930     2.1240 
   75.5000    83.6630    76.4380     5.9340     8.1230     7.9330     2.1130 
   75.6250    84.2770    84.2160     5.5700     7.5360     6.8730     2.1210 
