~V
VERS. 2.00: Ver 2.00
~W
STRT.M 50.0000:
STOP.M 213.0000:
STEP.M 0.1250:
NULL. -999.2500:
UWI. F12007:
~C
DEPT.M :
SP.MV :
GR.API :
RI. :
RML.OHMM :
RXO.OHMM :
DEN.GM/CC :
~A
# ...
   75.7500    84.7040    90.1810     5.3080     7.0720     6.6830     2.1280 
   75.8750    84.8870    88.8300     5.1950     6.8920     6.7440     2.1260 
   76.0000    84.8260    83.8690     5.1900     6.8010     6.8690     2.1200 
   76.1250    84.6280    80.0210     5.2080     6.6670     6.8760     2.1170 
   76.2500    84.4900    79.1160     5.2120     6.5070     6.8620     2.1200 
   76.3750    84.3410    79.7090     5.2070     6.3110     6.9190     2.1250 
   76.5000    84.1720    80.3510     5.2150     6.2150     7.0070     2.1230 
   76.6250    84.0430    81.3970     5.2310     6.1850     6.9590     2.1180 
   76.7500    83.9340    84.3440     5.2510     6.1610     6.7730     2.1200 
   76.8750    83.7870    88.1140     5.2690     6.1380     6.6290     2.1250 
   77.0000    83.8120    90.2390     5.2800     6.0930     6.6000     2.1260 
   77.1250    84.3120    90.8780     5.2730     6.0330     6.6760     2.1260 
   77.2500    85.1410    92.7480     5.2620     5.9810     6.6740     2.1250 
   77.3750    86.1130    96.4890     5.2460     5.9370     6.4790     2.1180 
   77.5000    86.8980   100.7420     5.2490     5.9350     6.2860     2.1100 
   77.6250    87.1100   107.9670     5.2980     5.9890     6.1600     2.1100 
   77.7500    86.8370   118.7210     5.4010     6.1080     6.3250     2.1190 
   77.8750    86.3600   130.8610     5.5270     6.2910     7.1960     2.1260 
   78.0000    85.7860   139.7510     5.6540     6.4590     7.7220     2.1200 
   78.1250    85.4410   138.6280     5.7580     6.5830     7.1040     2.1050 
   78.2500    85.4630   126.7700     5.8360     6.6320     6.4410     2.0880 
   78.3750    85.7230   108.2080     5.9260     6.6280     6.3080     2.0740 
   78.5000    86.1150    92.8900     6.0390     6.6410     6.6940     2.0680 
   78.6250    86.5470    85.8980     6.1400     6.6390     7.3790     2.0730 
   78.7500    86.9790    83.7280     6.1800     6.6170     7.7570     2.0840 
   78.8750    87.4220    82.0890     6.1110     6.5470     7.9120     2.0950 
   79.0000    87.8980    82.2050     5.8850     6.3580     7.7160     2.1050 
   79.1250    88.5070    87.4510     5.4960     5.9880     7.2490     2.1210 
   79.2500    89.1700    95.6270     5.0470     5.5270     7.0500     2.1490 
   79.3750    89.9170   101.1560     4.5900     5.0450     6.3830     2.1820 
   79.5000    90.6510   102.2840     4.2770     4.7340     5.3140     2.2020 
   79.6250    91.0450    99.1860     4.1230     4.6170     4.8780     2.2060 
   79.7500    91.2250    94.3620     4.0920     4.6000     5.1740     2.2090 
   79.8750    91.3060    90.7830     4.1340     4.6370     5.6580     2.2090 
   80.0000    91.2550    90.5920     4.2290     4.7200     5.6750     2.2040 
   80.1250    91.0570    91.9630     4.3310     4.8340     5.3840     2.1970 
   80.2500    91.0820    90.9610     4.4160     4.9640     5.2590     2.1960 
   80.3750    91.4670    87.2620     4.4900     5.1090     5.3970     2.1960 
   80.5000    92.0720    85.1100     4.5650     5.2520     5.5070     2.1970 
   80.6250    92.6300    87.3890     4.5890     5.2990     5.2380     2.2010 
   80.7500    92.8450    90.3490     4.5430     5.2110     4.9930     2.2000 
   80.8750    92.4880    90.1950     4.4550     5.0450     5.1730     2.1920 
   81.0000    91.7870    88.5230     4.3700     4.8860     5.3040     2.1840 
   81.1250    90.9240    89.1410     4.3850     4.8700     5.2220     2.1860 
   81.2500    90.1800    90.6170     4.4950     5.0080     5.2440     2.1800 
   81.3750    89.8660    90.3360     4.6900     5.2560     5.5660     2.1580 
   81.5000    89.9870    88.3810     4.9200     5.5330     6.0220     2.1340 
   81.6250    90.2480    86.8030     5.0650     5.6860     5.9990     2.1310 
   81.7500    90.6010    85.4160     5.0690     5.6630     5.3780     2.1450 
   81.8750    91.1480    84.2090     4.8910     5.4390     4.7010     2.1660 
   82.0000    91.7370    85.2250     4.6480     5.1750     4.4080     2.1810 
   82.1250    92.2280    87.4860     4.4400     4.9600     4.3910     2.1900 
   82.2500    92.6050    90.0750     4.2950     4.7980     4.3000     2.1980 
   82.3750    92.7880    93.7590     4.2340     4.7060     4.2140     2.2050 
   82.5000    92.7610    98.0560     4.2640     4.7240     4.3210     2.2070 
   82.6250    92.6180    98.6040     4.4000     4.8780     4.7270     2.2020 
   82.7500    92.3400    94.2660     4.6060     5.1220     5.3060     2.1960 
   82.8750    91.8670    89.6000     4.8590     5.4290     5.6600     2.1900 
   83.0000    91.2990    89.1690     5.0870     5.6930     6.0140     2.1890 
   83.1250    90.7650    92.3550     5.2400     5.8700     6.1580     2.2120 
   83.2500    90.3120    94.8620     5.3420     6.0170     5.8920     2.2420 
   83.3750    90.0440    95.1450     5.4270     6.1630     5.8620     2.2380 
   83.5000    90.0950    94.8190     5.5760     6.3960     6.0760     2.1910 
   83.6250    90.3720    95.2420     5.7700     6.7250     6.4630     2.1460 
   83.7500    90.5970    94.5420     6.0210     7.0830     6.8250     2.1300 
   83.8750    90.6260    90.1190     6.3460     7.5350     6.9300     2.1350 
   84.0000    90.3700    83.7930     6.7310     8.0690     6.8790     2.1510 
   84.1250    89.7310    79.6870     7.2140     8.7200     6.7160     2.1700 
   84.2500    88.9560    79.3900     7.7110     9.4320     6.9240     2.1770 
   84.3750    88.1370    81.4320     8.0730     9.9070     7.6710     2.1640 
   84.5000    87.4610    82.3110     8.2030    10.0290     8.1700     2.1360 
   84.6250    87.1590    78.6940     7.9890     9.6240     8.1480     2.1070 
   84.7500    87.2640    73.7120     7.5790     8.9660     7.9280     2.0870 
   84.8750    87.5590    72.3820     7.1190     8.2940     7.4260     2.0800 
   85.0000    87.8640    76.4000     6.7590     7.7840     7.0900     2.0800 
   85.1250    88.1340    80.7130     6.5710     7.5140     7.4860     2.0860 
   85.2500    88.2130    82.4410     6.5250     7.4350     8.2510     2.0950 
   85.3750    88.1590    81.5110     6.6150     7.5410     8.9510     2.1000 
   85.5000    88.0130    79.4930     6.7780     7.7390     8.9840     2.0940 
   85.6250    87.7250    77.7980     6.9500     7.9420     8.1340     2.0790 
   85.7500    87.3280    75.6230     7.1100     8.0980     7.8550     2.0610 
   85.8750    86.9960    72.0730     7.1600     8.0950     8.5890     2.0520 
   86.0000    86.7990    69.2850     7.0620     7.9220     9.0610     2.0540 
   86.1250    86.8130    69.2760     6.7630     7.5650     9.1350     2.0610 
   86.2500    87.2060    73.1340     6.3380     7.0900     8.7880     2.0740 
   86.3750    88.0150    80.0890     5.8440     6.5660     7.5760     2.1030 
   86.5000    89.0480    87.8060     5.3620     6.0430     6.4690     2.1380 
   86.6250    90.3330    93.6440     4.9830     5.6360     6.1880     2.1570 
   86.7500    91.7980    97.6730     4.7170     5.3480     5.8960     2.1630 
   86.8750    93.2220    99.4390     4.6170     5.2320     5.3760     2.1700 
   87.0000    94.4860    98.9600     4.6200     5.2170     5.1970     2.1710 
   87.1250    95.3780    98.9940     4.6540     5.2310     5.4260     2.1600 
   87.2500    95.6360   101.3170     4.6770     5.2460     5.7520     2.1510 
   87.3750    95.2850   104.1380     4.6790     5.2240     5.6770     2.1610 
   87.5000    94.7370   103.9120     4.6540     5.1490     5.2860     2.1830 
   87.6250    94.2420   102.9780     4.6320     5.0490     5.1490     2.1960 
   87.7500    94.0220   102.3520     4.5970     4.9340     5.2470     2.1950 
   87.8750    94.2640   101.9950     4.5420     4.8300     5.3480     2.1870 
   88.0000    94.7340   101.8950     4.4680     4.7190     5.5640     2.1870 
   88.1250    95.2390   103.0840     4.4000     4.6290     5.5410     2.1990 
   88.2500    95.6830   104.4880     4.3700     4.5910     4.9170     2.2100 
   88.3750    96.0310   104.7830     4.3880     4.6270     4.6770     2.2080 
   88.5000    96.2530   103.8920     4.4600     4.7320     5.6620     2.1970 
