~V
VERS. 2.00: Ver 2.00
~W
STRT.M 50.0000:
STOP.M 255.0000:
STEP.M 0.1250:
NULL. -999.2500:
UWI. F12008:
~C
DEPT.M :
SP.MV :
GR.API :
RI. :
RML.OHMM :
RXO.OHMM :
DEN.GM/CC :
~A
# ...
   62.8750   -68.9870    69.8090     4.9980     5.7970     7.6490     2.0910 
   63.0000   -69.9390    72.7640     4.9290     5.7250     7.5440     2.0830 
   63.1250   -70.7000    71.2400     4.8820     5.6750     7.3420     2.0790 
   63.2500   -71.3290    67.1460     4.8300     5.6200     7.2900     2.0730 
   63.3750   -71.8500    63.9440     4.7690     5.5550     7.3590     2.0680 
   63.5000   -72.2920    62.4550     4.7160     5.4990     7.3150     2.0740 
   63.6250   -72.6600    64.1260     4.6760     5.4560     7.2110     2.0880 
   63.7500   -72.9670    67.9080     4.6580     5.4370     7.4000     2.1010 
   63.8750   -73.2170    70.3980     4.6650     5.4450     7.7570     2.1040 
   64.0000   -73.4160    70.7330     4.6810     5.4620     8.2440     2.0980 
   64.1250   -73.5620    70.6350     4.7040     5.4860     8.9450     2.0940 
   64.2500   -73.6530    69.6670     4.7240     5.5070     8.7880     2.1000 
   64.3750   -73.6760    66.4450     4.7470     5.5310     7.8740     2.1060 
   64.5000   -73.6260    63.5310     4.7520     5.5380     8.0450     2.1060 
   64.6250   -73.4810    63.2630     4.7350     5.5190    16.4930     2.1010 
   64.7500   -73.2310    64.3290     4.6980     5.4800    25.9690     2.0980 
   64.8750   -72.8520    65.7120     4.6540     5.4340    19.8560     2.0960 
   65.0000   -72.3410    65.5870     4.6370     5.4150    10.2750     2.0970 
   65.1250   -71.6870    63.7170     4.6510     5.4310     8.3210     2.1060 
   65.2500   -70.9220    63.7200     4.7080     5.4900     8.1360     2.1190 
   65.3750   -70.0810    67.5160     4.8250     5.6140     7.9460     2.1210 
   65.5000   -69.2140    69.7390     4.9760     5.7740     7.8640     2.1110 
   65.6250   -68.3390    68.4850     5.1280     5.9350     7.8820     2.0960 
   65.7500   -67.4240    67.2400     5.1670     5.9770     7.8560     2.0940 
   65.8750   -66.3650    66.7600     5.0390     5.8410     7.8340     2.1170 
   66.0000   -65.0400    67.8940     4.7820     5.5690     7.5160     2.1560 
   66.1250   -63.2800    73.2990     4.4060     5.1710     6.4100     2.1970 
   66.2500   -61.0320    82.2480     4.0620     4.8060     5.2610     2.2310 
   66.3750   -58.2880    90.6000     3.8060     4.5350     4.7230     2.2560 
   66.5000   -55.2550    95.6910     3.6660     4.3860     4.3710     2.2640 
   66.6250   -52.2230    96.4420     3.6600     4.3800     4.3320     2.2470 
   66.7500   -49.5090    94.8540     3.7320     4.4560     4.7070     2.2400 
   66.8750   -47.3930    94.4620     3.8720     4.6040     4.9190     2.2630 
   67.0000   -45.9080    98.0330     3.9990     4.7390     4.7200     2.2820 
   67.1250   -45.0310   103.2140     4.0770     4.8210     4.5950     2.2680 
   67.2500   -44.5650   105.1000     4.0960     4.8420     4.8500     2.2430 
   67.3750   -44.3920   103.5250     4.1330     4.8810     4.9420     2.2360 
   67.5000   -44.4110   104.1680     4.2560     5.0110     4.7520     2.2520 
   67.6250   -44.6300   106.8900     4.4820     5.2510     5.1910     2.2860 
   67.7500   -45.0690   104.8880     4.7920     5.5790     7.3210     2.3080 
   67.8750   -45.8030    96.4670     5.1270     5.9340     9.0350     2.2740 
   68.0000   -46.8550    89.0810     5.4350     6.2610     7.9440     2.2020 
   68.1250   -48.2700    85.5670     5.5920     6.4280     6.6750     2.1440 
   68.2500   -49.9900    82.3820     5.6050     6.4420     6.8050     2.1100 
   68.3750   -51.9210    76.0590     5.5240     6.3550     6.8780     2.0830 
   68.5000   -53.8640    70.3390     5.4550     6.2820     6.6960     2.0640 
   68.6250   -55.5690    67.2910     5.4600     6.2870     6.8030     2.0680 
   68.7500   -56.8240    66.7520     5.4560     6.2830     7.0530     2.0850 
   68.8750   -57.4130    66.2960     5.3940     6.2180     7.1960     2.0880 
   69.0000   -57.3190    66.5710     5.2570     6.0730     7.1330     2.0720 
   69.1250   -56.5400    70.8840     5.0470     5.8500     6.5170     2.0570 
   69.2500   -55.2790    79.3910     4.8340     5.6240     5.6350     2.0790 
   69.3750   -53.7140    89.0780     4.6730     5.4540     5.2400     2.1340 
   69.5000   -52.0620    95.9220     4.6040     5.3800     5.2030     2.1730 
   69.6250   -50.4820    99.1590     4.6800     5.4610     5.1960     2.1730 
   69.7500   -49.0680    99.7830     4.8960     5.6900     5.5030     2.1650 
   69.8750   -47.8980    98.3960     5.1690     5.9790     5.8790     2.1700 
   70.0000   -46.9790    96.7910     5.3630     6.1850     6.3820     2.1790 
   70.1250   -46.3150    95.7740     5.3770     6.1990     7.3020     2.1920 
   70.2500   -45.8130    93.9020     5.2320     6.0460     7.1200     2.2170 
   70.3750   -45.3520    93.9760     4.9250     5.7210     5.7900     2.2480 
   70.5000   -44.7910    99.2350     4.5590     5.3330     5.0190     2.2690 
   70.6250   -44.0250   105.8310     4.2770     5.0340     4.7630     2.2790 
   70.7500   -43.0770   107.9790     4.2250     4.9780     4.6450     2.2910 
   70.8750   -42.0440   108.9550     4.4410     5.2070     4.6010     2.3220 
   71.0000   -41.0770   111.7100     4.7990     5.5870     8.3760     2.3530 
   71.1250   -40.3170   112.0170     5.1780     5.9890    13.6140     2.3390 
   71.2500   -39.8190   106.2030     5.4710     6.2990    11.7210     2.2810 
   71.3750   -39.6260    97.8130     5.8310     6.6800     7.9520     2.2210 
   71.5000   -39.6920    91.0390     6.2950     7.1730     7.6010     2.2020 
   71.6250   -39.9860    86.0350     7.1210     8.0480     7.9680     2.2430 
   71.7500   -40.4190    82.9290     8.7000     9.7220    12.9640     2.3250 
   71.8750   -40.9340    79.4430    10.8060    11.9550    20.7730     2.3970 
   72.0000   -41.4970    72.2550    12.6140    13.8710    29.0300     2.3930 
   72.1250   -42.1420    64.6460    12.8460    14.1170    26.6660     2.2980 
   72.2500   -42.9190    63.6060    11.6050    12.8010    16.9530     2.1890 
   72.3750   -43.8810    68.8220     9.5960    10.6720    11.5900     2.1260 
   72.5000   -44.9900    71.5130     7.8880     8.8610    10.7930     2.1080 
   72.6250   -46.1570    70.2500     7.1590     8.0890    10.7250     2.1080 
   72.7500   -47.2510    69.9930     6.9070     7.8220    10.6710     2.1130 
   72.8750   -48.1510    71.3520     6.9720     7.8900    10.6790     2.1210 
   73.0000   -48.8140    71.0790     7.1040     8.0310    10.7000     2.1230 
   73.1250   -49.2260    72.3500     7.2390     8.1730    10.3950     2.1170 
   73.2500   -49.4520    75.5730     7.3400     8.2810     9.9760     2.1100 
   73.3750   -49.5520    76.7410     7.4160     8.3610     9.9530     2.1070 
   73.5000   -49.6060    75.0520     7.4690     8.4170    10.2120     2.1100 
   73.6250   -49.6700    72.9190     7.4960     8.4460    10.3740     2.1130 
   73.7500   -49.7680    71.6150     7.4730     8.4210    10.4310     2.1110 
   73.8750   -49.8970    70.2260     7.3840     8.3270    10.4120     2.1070 
   74.0000   -50.0330    69.7950     7.2310     8.1640    10.3190     2.1030 
   74.1250   -50.1520    70.0840     7.0080     7.9280    10.1800     2.0980 
   74.2500   -50.2460    70.3510     6.7790     7.6850     9.8580     2.0900 
   74.3750   -50.3240    71.0080     6.5930     7.4880     9.4670     2.0950 
   74.5000   -50.4040    72.6500     6.5300     7.4220     9.0350     2.1000 
   74.6250   -50.5090    73.7890     6.5740     7.4680     8.7460     2.0650 
   74.7500   -50.6480    72.5360     6.6790     7.5790     8.7200     2.0060 
   74.8750   -50.8170    68.3070     6.7930     7.7000     8.7270     1.9830 
   75.0000   -50.9930    64.2290     6.8470     7.7580     9.2270     2.0130 
   75.1250   -51.1590    63.6550     6.7920     7.7000     9.8920     2.0490 
   75.2500   -51.3180    65.7470     6.6800     7.5810     9.9180     2.0630 
   75.3750   -51.5110    68.5900     6.5370     7.4300     9.7100     2.0640 
   75.5000   -51.7910    70.2820     6.4570     7.3450     9.6190     2.0700 
   75.6250   -52.2060    69.9840     6.4630     7.3510     9.4680     2.0770 
