~V
VERS. 2.00: Ver 2.00
~W
STRT.M 50.0000:
STOP.M 300.0000:
STEP.M 0.1250:
NULL. -999.2500:
UWI. F12002:
~C
DEPT.M :
SP.MV :
GR.API :
RI. :
RML.OHMM :
RXO.OHMM :
DEN.GM/CC :
~A
# ...
  256.0000   -30.8610    51.2280    64.1600    68.5100    84.6940     2.1420 
  256.1250   -30.9130    52.6580    56.7490    60.6540    69.8420     2.1550 
  256.2500   -30.9170    53.6470    50.9540    54.5110    52.1030     2.1710 
  256.3750   -30.8840    53.6030    49.2590    52.7150    51.1930     2.1750 
  256.5000   -30.8360    53.9030    49.2400    52.6940    68.7290     2.1730 
  256.6250   -30.7910    54.6800    49.5180    52.9890    84.0030     2.1750 
  256.7500   -30.7600    55.5730    50.1470    53.6550    81.3170     2.1840 
  256.8750   -30.7440    56.2560    50.8070    54.3560    61.0030     2.1900 
  257.0000   -30.7390    55.6190    52.3500    55.9910    52.8160     2.1880 
  257.1250   -30.7460    54.4130    55.9110    59.7660    73.9520     2.1800 
  257.2500   -30.7750    54.0920    62.8090    67.0780    90.3040     2.1690 
  257.3750   -30.8410    54.3420    74.0550    78.9980    87.3220     2.1600 
  257.5000   -30.9450    53.5560    85.6500    91.2890    86.8340     2.1540 
  257.6250   -31.0820    51.2980    96.5600   102.8540    96.2300     2.1520 
  257.7500   -31.2250    48.9600   103.4930   110.2020   106.7960     2.1530 
  257.8750   -31.3480    47.0500   104.2430   110.9980   111.6670     2.1560 
  258.0000   -31.4280    45.9620    99.2650   105.7210   108.1690     2.1560 
  258.1250   -31.4480    45.3330    88.9990    94.8390    92.3970     2.1520 
  258.2500   -31.4140    45.6690    75.6510    80.6900    72.6590     2.1490 
  258.3750   -31.3320    48.1860    63.4580    67.7660    61.1300     2.1490 
  258.5000   -31.2210    51.9030    53.6690    57.3900    55.0170     2.1530 
  258.6250   -31.0980    54.4050    46.1920    49.4640    49.1040     2.1590 
  258.7500   -30.9740    55.3920    41.6550    44.6550    45.9630     2.1670 
  258.8750   -30.8520    56.5450    38.6230    41.4410    43.4430     2.1730 
  259.0000   -30.7290    58.2610    36.8250    39.5340    39.6790     2.1800 
  259.1250   -30.5980    58.8920    37.1770    39.9070    38.4170     2.1830 
  259.2500   -30.4630    58.3580    40.3920    43.3150    38.2740     2.1790 
  259.3750   -30.3340    58.2140    48.0000    51.3800    55.6420     2.1710 
  259.5000   -30.2240    57.7650    60.3170    64.4360    99.0820     2.1670 
  259.6250   -30.1510    54.7660    77.3730    82.5150   139.4040     2.1650 
  259.7500   -30.1250    50.1970    95.9850   102.2440   160.0380     2.1610 
  259.8750   -30.1540    47.6410   107.3610   114.3030   157.8200     2.1570 
  260.0000   -30.2270    48.6630   110.6440   117.7830   139.2470     2.1550 
  260.1250   -30.3250    50.8350   103.8460   110.5770   126.4220     2.1550 
  260.2500   -30.4200    52.2810    94.9100   101.1050   116.9960     2.1610 
  260.3750   -30.4900    52.0020    88.3350    94.1350   108.2440     2.1710 
  260.5000   -30.5310    52.1160    85.4210    91.0470   110.1520     2.1750 
  260.6250   -30.5480    52.5730    85.9030    91.5570   114.5810     2.1760 
  260.7500   -30.5630    52.9710    88.4710    94.2800   114.3270     2.1750 
  260.8750   -30.8900    52.4020    90.6960    96.6380   113.4730     2.1700 
  261.0000   -30.7970    51.8080    90.0780    95.9820   113.2330     2.1570 
  261.1250   -30.7970    51.8750    85.6110    91.2470   111.1930     2.1460 
  261.2500   -30.7970    51.2360    78.6120    83.8290   101.5060     2.1430 
  261.3750   -30.7970    49.6670    72.0260    76.8480    82.6180     2.1480 
  261.5000   -30.7970    48.5490    67.5450    72.0980    68.3140     2.1630 
  261.6250   -30.3980    50.9380    64.5840    68.9590    72.0930     2.1820 
  261.7500   -30.1170    55.3030    63.2110    67.5040    91.3580     2.1880 
  261.8750   -29.8800    56.9220    61.4840    65.6730   105.8770     2.1840 
  262.0000   -29.5390    55.3500    58.4680    62.4760   119.5650     2.2030 
  262.1250   -29.1080    54.6490    54.9240    58.7190   120.0220     2.2620 
  262.2500   -28.6040    57.8700    50.7930    54.3410    77.3520     2.3370 
  262.3750   -28.0330    62.8800    47.9150    51.2900    42.2170     2.3950 
  262.5000   -27.4030    65.1300    45.8490    49.1000    42.6410     2.4200 
  262.6250   -26.7190    67.5860    41.8400    44.8510    46.6620     2.4210 
  262.7500   -26.0060    74.0630    35.0370    37.6390    46.6600     2.4140 
  262.8750   -25.2910    81.0420    26.8120    28.9210    43.1130     2.3960 
  263.0000   -24.5940    83.0200    18.0660    19.6490    31.0430     2.3540 
  263.1250   -23.9390    80.1720    12.5770    13.8310    15.1490     2.3020 
  263.2500   -23.3800    78.1780     9.4410    10.5070     7.7240     2.2620 
  263.3750   -23.0090    77.9040     8.3040     9.3030     8.2380     2.2470 
  263.5000   -22.8340    78.9890     8.4100     9.4140    10.6530     2.2450 
  263.6250   -22.8140    81.6490     9.4410    10.5070    13.8330     2.2470 
  263.7500   -22.8650    83.2360    10.7210    11.8640    14.9050     2.2460 
  263.8750   -22.9530    81.5850    12.0200    13.2410    18.3620     2.2460 
  264.0000   -23.0810    79.2530    13.0360    14.3180    27.3050     2.2540 
  264.1250   -23.2720    79.3680    13.8170    15.1460    28.0190     2.2700 
  264.2500   -23.5390    81.3800    13.7900    15.1180    19.5330     2.2890 
  264.3750   -23.8830    82.1290    12.7400    14.0040    16.2100     2.3020 
  264.5000   -24.2670    79.6690    10.9040    12.0590    17.7060     2.3040 
  264.6250   -24.6580    75.5690     8.6260     9.6440    17.7850     2.2920 
  264.7500   -25.0520    71.7440     6.8470     7.7580    14.2220     2.2690 
  264.8750   -25.4730    69.8620     5.5590     6.3930     8.2860     2.2530 
  265.0000   -25.9600    69.5300     4.7770     5.5640     5.5090     2.2530 
  265.1250   -26.5920    68.8190     4.5150     5.2860     6.0080     2.2660 
  265.2500   -27.4160    67.1340     4.5220     5.2940     6.6560     2.2730 
  265.3750   -28.4470    64.3420     4.7080     5.4910     6.6270     2.2710 
  265.5000   -29.6010    60.9950     4.9020     5.6970     6.0950     2.2780 
  265.6250   -30.7930    57.1830     5.0600     5.8640     5.8450     2.2940 
  265.7500   -31.9570    55.6050     5.1680     5.9780     6.3600     2.3010 
  265.8750   -33.0130    57.0460     5.1870     5.9990     7.6000     2.2990 
  266.0000   -33.9030    57.0590     5.0790     5.8840     7.9300     2.3140 
  266.1250   -34.5960    53.1210     4.8730     5.6660     6.7960     2.3480 
  266.2500   -35.1480    47.8900     4.6190     5.3960     5.7620     2.3720 
  266.3750   -35.6060    44.3360     4.3890     5.1520     5.4690     2.3690 
  266.5000   -35.9950    43.3660     4.2500     5.0050     5.6150     2.3470 
  266.6250   -36.2940    45.5470     4.2290     4.9830     5.8410     2.3190 
  266.7500   -36.5090    49.2870     4.3480     5.1090     5.7290     2.2970 
  266.8750   -36.6480    51.6590     4.6970     5.4780     5.4230     2.2910 
  267.0000   -36.7430    52.9670     5.2380     6.0530     5.9220     2.3000 
  267.1250   -36.8340    54.7940     5.7830     6.6300     7.4030     2.3160 
  267.2500   -36.9630    56.6070     6.1220     6.9900     8.9450     2.3300 
  267.3750   -37.1690    56.7810     6.0760     6.9400    10.4330     2.3290 
  267.5000   -37.4610    55.6150     5.6690     6.5090    10.4590     2.3180 
  267.6250   -37.8540    54.0790     5.0970     5.9030     8.0590     2.3150 
  267.7500   -38.3320    51.5210     4.5960     5.3720     6.1270     2.3150 
  267.8750   -38.8630    50.9290     4.3170     5.0760     5.7860     2.3010 
  268.0000   -39.3850    53.9380     4.2430     4.9980     5.7960     2.2770 
  268.1250   -39.8390    56.8550     4.2880     5.0450     6.1450     2.2680 
  268.2500   -40.2000    56.1090     4.3190     5.0780     6.6100     2.2740 
  268.3750   -40.4540    52.5880     4.2760     5.0320     6.3980     2.2860 
  268.5000   -40.6200    50.3440     4.1880     4.9390     5.5760     2.2990 
  268.6250   -40.6950    47.9480     4.0820     4.8270     5.0240     2.3090 
  268.7500   -40.6770    44.0190     4.0000     4.7400     5.0000     2.3130 
