~V
VERS. 2.00: Ver 2.00
~W
STRT.M 50.0000:
STOP.M 226.0000:
STEP.M 0.1250:
NULL. -999.2500:
UWI. F12001:
~C
DEPT.M :
SP.MV :
GR.API :
RI. :
RML.OHMM :
RXO.OHMM :
DEN.GM/CC :
~A
# ...
  127.2500    -4.7620   101.0000     4.4500     5.7110     4.2030     2.2280 
  127.3750    -4.6930   100.4660     4.3080     5.5260     4.0590     2.2380 
  127.5000    -4.6570   101.0100     4.3230     5.5590     4.2530     2.2420 
  127.6250    -4.5660   100.8280     4.5910     5.9800     4.7530     2.2360 
  127.7500    -4.5050   100.1610     5.0310     6.6580     5.1730     2.2240 
  127.8750    -4.5180    97.7200     5.5240     7.4070     5.6950     2.2290 
  128.0000    -4.5660    93.4850     5.9490     8.0520     6.8060     2.2650 
  128.1250    -4.5960    87.5790     6.1580     8.3520     7.3780     2.3160 
  128.2500    -4.5860    83.1710     6.1470     8.3040     6.5280     2.3400 
  128.3750    -4.5500    84.0040     5.9060     7.9310     5.5080     2.3200 
  128.5000    -4.5180    88.8160     5.5020     7.3260     5.0520     2.2800 
  128.6250    -4.5590    93.4380     5.0800     6.7040     4.7980     2.2460 
  128.7500    -4.5860    94.7900     4.8290     6.3480     4.6180     2.2280 
  128.8750    -4.5880    96.3760     4.8120     6.3220     4.5130     2.2280 
  129.0000    -4.5520    98.8070     4.9020     6.4380     5.2060     2.2270 
  129.1250    -4.5420    97.8140     5.1150     6.7320     6.9790     2.2130 
  129.2500    -4.5620    92.4640     5.5100     7.2580     7.3990     2.2000 
  129.3750    -4.5720    89.5210     5.8960     7.7530     5.7450     2.2100 
  129.5000    -4.5180    90.4590     6.1310     8.0570     5.8530     2.2390 
  129.6250    -4.4620    92.3780     6.1320     8.0470     7.8000     2.2650 
  129.7500    -4.4370    93.7270     5.8900     7.6730     7.4830     2.2710 
  129.8750    -4.4570    94.8730     5.4580     7.0040     5.5900     2.2600 
  130.0000    -4.4940    95.4480     4.9510     6.2170     4.5990     2.2450 
  130.1250    -4.5180    94.7960     4.4330     5.4270     4.1450     2.2410 
  130.2500    -4.6200    93.1980     4.0590     4.8970     3.9930     2.2520 
  130.3750    -4.9420    92.2840     4.0570     4.9000     4.1410     2.2630 
  130.5000    -5.3350    94.3810     4.3270     5.2440     4.2550     2.2650 
  130.6250    -5.7120    98.5870     4.7470     5.7760     4.6100     2.2510 
  130.7500    -6.0200   100.2230     5.3060     6.4620     5.2390     2.2310 
  130.8750    -6.2020    98.4520     5.7970     7.0190     6.1300     2.2320 
  131.0000    -6.2580    95.8360     6.0480     7.2290     7.2400     2.2720 
  131.1250    -6.2370    90.8130     5.9850     6.9010     7.0880     2.3310 
  131.2500    -6.1390    84.5280     5.4850     6.2140     5.4870     2.3590 
  131.3750    -5.9800    85.2320     4.8530     5.4600     4.5100     2.3270 
  131.5000    -5.8240    93.9020     4.3380     4.9140     4.4440     2.2710 
  131.6250    -5.6220   101.9850     4.2980     4.9540     4.0120     2.2330 
  131.7500    -5.4340   102.8020     4.8830     5.6180     4.1060     2.2150 
  131.8750    -5.2670    98.1350     5.8140     6.6640     8.5430     2.1940 
  132.0000    -5.0710    94.6800     6.7840     7.6070    14.4370     2.1560 
  132.1250    -4.7570    92.7350     7.2600     8.0150    13.3010     2.1250 
  132.2500    -4.3420    91.8890     7.0560     7.8470     7.7660     2.1360 
  132.3750    -3.9010    93.0750     6.3930     7.1920     4.9670     2.1840 
  132.5000    -3.4030    98.1500     5.7290     6.5160     4.7220     2.2270 
  132.6250    -2.9110   104.2810     5.5270     6.3620     5.0010     2.2370 
  132.7500    -2.4800   106.0920     5.9500     6.9350     5.2660     2.2280 
  132.8750    -2.2550   102.9960     7.1170     8.1440     7.5450     2.2130 
  133.0000    -2.2670    96.5380     9.2820    10.7430    11.4860     2.1900 
  133.1250    -2.5020    88.9150    12.6690    14.7040    14.1960     2.1590 
  133.2500    -2.7650    82.3590    16.8060    19.4480    18.2360     2.1300 
  133.3750    -2.8670    78.6480    21.8340    25.1680    24.8480     2.1070 
  133.5000    -2.7990    75.9700    27.4160    31.6290    31.3880     2.0930 
  133.6250    -2.7400    73.4850    33.4690    38.4610    39.1470     2.0920 
  133.7500    -2.7280    73.3740    38.9950    44.5670    49.5260     2.0910 
  133.8750    -2.6990    74.0870    42.6190    48.3390    54.7680     2.0770 
  134.0000    -2.6460    71.5530    43.7950    49.4370    48.6900     2.0570 
  134.1250    -2.7240    67.1090    43.3040    48.9680    39.6990     2.0510 
  134.2500    -2.9450    67.5600    42.0160    47.6550    32.9520     2.0650 
  134.3750    -3.2040    72.3730    40.2240    45.6900    29.5110     2.1020 
  134.5000    -3.4330    73.5530    38.5480    43.7540    40.1400     2.1750 
  134.6250    -3.5310    68.4310    37.6120    42.5190    51.9250     2.2790 
  134.7500    -3.5790    62.7430    37.1120    41.7520    43.4210     2.3760 
  134.8750    -3.6620    60.3430    36.8290    41.2900    36.3980     2.4440 
  135.0000    -3.7590    60.0510    36.6580    40.9650    43.8660     2.4970 
  135.1250    -3.8480    60.2840    36.2620    40.2250    44.0390     2.5280 
  135.2500    -3.9250    59.7490    35.3380    38.7100    34.8950     2.5180 
  135.3750    -4.0110    57.9300    34.0490    36.8080    30.5410     2.4730 
  135.5000    -4.1450    55.5930    32.2230    34.3840    30.6990     2.4310 
  135.6250    -4.3330    53.8610    30.6330    32.6430    29.0900     2.4070 
  135.7500    -4.5760    54.2440    30.0970    32.1590    27.2600     2.4040 
  135.8750    -4.7130    57.8380    30.3820    32.5250    28.2370     2.4260 
  136.0000    -4.6640    63.1360    31.4100    33.6680    28.1620     2.4460 
  136.1250    -4.5300    64.3340    33.0400    35.3510    26.4070     2.4470 
  136.2500    -4.3520    61.1730    35.0180    37.3200    27.4670     2.4370 
  136.3750    -4.1370    58.2410    37.0950    39.5150    33.2330     2.4270 
  136.5000    -3.8640    56.5780    39.2230    41.8280    36.8830     2.4160 
  136.6250    -3.6010    53.4710    41.1390    44.3400    36.3270     2.4070 
  136.7500    -3.4470    50.9870    42.6240    45.5340    41.5460     2.4190 
  136.8750    -3.4430    53.8260    43.3250    46.2000    46.1940     2.4580 
  137.0000    -3.4640    59.5510    42.7440    45.7540    42.8240     2.5020 
  137.1250    -3.4570    61.8480    41.2570    44.2000    42.0950     2.5190 
  137.2500    -3.4130    60.9680    39.0250    41.9900    42.4550     2.5050 
  137.3750    -3.3180    60.4500    36.6990    39.8010    37.3830     2.4730 
  137.5000    -3.2770    61.7900    34.9650    38.0500    32.8430     2.4380 
  137.6250    -3.2400    63.7260    34.0580    36.6260    30.0290     2.4100 
  137.7500    -3.2360    64.7980    33.8560    35.8390    30.7460     2.3980 
  137.8750    -3.2630    65.5520    33.9730    35.8470    32.4620     2.3990 
  138.0000    -3.3580    66.8480    33.9950    35.9580    30.2900     2.3990 
  138.1250    -3.5570    67.7440    33.9250    36.0490    29.5430     2.4000 
  138.2500    -3.7520    67.5200    34.1100    36.3660    28.7840     2.3990 
  138.3750    -3.9400    66.4370    34.6220    37.0740    26.3380     2.3880 
  138.5000    -3.9890    65.2480    35.4670    38.1360    28.8740     2.3770 
  138.6250    -3.9620    63.8800    36.5380    39.3460    32.8750     2.3880 
  138.7500    -3.9520    62.5580    37.3820    40.2890    30.5690     2.4140 
  138.8750    -4.0030    62.2660    37.7200    40.5450    29.4630     2.4320 
  139.0000    -4.0160    62.2150    37.1590    39.9460    31.3200     2.4390 
  139.1250    -4.0990    59.7670    35.7710    38.6860    29.4980     2.4450 
  139.2500    -4.2810    57.2060    34.3800    37.5410    28.0260     2.4470 
  139.3750    -4.4960    58.0350    33.8480    37.2060    27.8440     2.4340 
  139.5000    -4.6540    60.3510    34.1650    37.5940    27.2710     2.4130 
  139.6250    -4.6980    58.9100    34.6370    38.1930    31.1670     2.4130 
  139.7500    -4.6370    54.0270    34.8290    38.5300    38.3360     2.4530 
  139.8750    -4.5550    50.0340    34.5410    38.4000    40.8210     2.5100 
  140.0000    -4.5250    49.3080    33.7750    37.5100    35.2890     2.5320 
