~V
VERS. 2.00: Ver 2.00
~W
STRT.M 50.0000:
STOP.M 247.0000:
STEP.M 0.1250:
NULL. -999.2500:
UWI. F12010:
~C
DEPT.M :
SP.MV :
GR.API :
RI. :
RML.OHMM :
RXO.OHMM :
DEN.GM/CC :
~A
# ...
  191.6250    -1.7360    57.7000    42.1850    44.7940    20.9120     2.1010 
  191.7500    -1.2450    59.3490    40.1920    42.7010    19.6140     2.0980 
  191.8750    -0.4440    60.8810    38.3730    40.7910    21.0370     2.0970 
  192.0000     0.3020    60.5260    36.9090    39.2550    23.0610     2.1000 
  192.1250     0.5370    59.3580    36.0550    38.3580    22.7380     2.1020 
  192.2500     0.2980    58.4760    35.5300    37.8070    20.2310     2.1000 
  192.3750    -0.2210    57.8650    35.0780    37.3310    18.7790     2.0980 
  192.5000    -0.7560    57.2120    34.7870    37.0260    19.2580     2.1020 
  192.6250    -1.0120    57.4380    34.7810    37.0200    19.7650     2.1110 
  192.7500    -0.8440    59.1040    35.0390    37.2900    18.7790     2.1160 
  192.8750    -0.3410    60.1040    35.5460    37.8230    17.4540     2.1180 
  193.0000     0.2610    60.3320    36.0860    38.3900    17.6390     2.1170 
  193.1250     0.6250    60.4480    36.5380    38.8650    20.2360     2.1120 
  193.2500     0.7830    61.1970    36.6270    38.9580    23.9930     2.1090 
  193.3750     0.7200    61.6600    36.5170    38.8430    25.4610     2.1120 
  193.5000     0.5320    61.3830    36.2850    38.5990    26.3790     2.1170 
  193.6250     0.4200    61.1700    36.1210    38.4280    29.2430     2.1120 
  193.7500     0.1080    60.9460    36.2340    38.5460    32.1320     2.1010 
  193.8750    -0.3870    59.6930    36.5560    38.8840    34.7110     2.0950 
  194.0000    -0.7830    56.9590    36.8760    39.2190    35.5330     2.0990 
  194.1250    -1.2410    54.5240    36.9420    39.2890    34.7020     2.1080 
  194.2500    -1.6580    54.4720    36.6540    38.9870    35.4550     2.1160 
  194.3750    -1.9460    57.3800    36.1410    38.4490    36.4910     2.1210 
  194.5000    -2.4110    60.7030    35.8590    38.1520    34.5380     2.1230 
  194.6250    -2.8770    62.1870    35.9250    38.2210    32.1960     2.1270 
  194.7500    -2.8420    62.1210    36.5360    38.8620    33.3010     2.1340 
  194.8750    -2.1920    61.0960    37.6640    40.0480    36.4660     2.1430 
  195.0000    -1.4820    59.7630    39.2350    41.6970    39.9850     2.1490 
  195.1250    -1.0060    57.5400    40.8320    43.3730    43.5500     2.1440 
  195.2500    -0.9190    55.5250    42.0810    44.6850    44.4690     2.1290 
  195.3750    -1.2620    55.5000    42.5280    45.1540    42.3960     2.1150 
  195.5000    -1.9800    56.4280    42.0140    44.6150    41.0560     2.1100 
  195.6250    -2.8430    56.5720    40.3210    42.8370    39.8320     2.1090 
  195.7500    -3.4790    57.4690    37.3300    39.6960    36.5200     2.1130 
  195.8750    -3.6180    59.5830    33.7900    35.9800    30.7850     2.1200 
  196.0000    -3.3910    61.5390    30.5950    32.6240    23.4380     2.1270 
  196.1250    -2.9760    61.3010    28.9620    30.9100    18.5150     2.1420 
  196.2500    -2.6040    60.0440    29.4010    31.3720    24.4090     2.1980 
  196.3750    -2.3450    58.6190    32.0240    34.1250    40.1850     2.3220 
  196.5000    -2.2450    57.2140    36.1390    38.4460    45.9230     2.4690 
  196.6250    -2.2020    55.8860    39.5200    41.9960    38.4970     2.5680 
  196.7500    -2.2860    54.2750    40.7470    43.2850    31.0080     2.5920 
  196.8750    -2.3970    53.2340    39.0110    41.4610    22.9550     2.5380 
  197.0000    -2.4350    53.9630    35.5290    37.8050    16.0350     2.4200 
  197.1250    -2.5090    55.5280    32.0860    34.1900    14.1280     2.2770 
  197.2500    -2.6890    56.4300    30.2670    32.2800    14.8480     2.1770 
  197.3750    -2.8540    56.3740    30.4780    32.5020    18.4950     2.1470 
  197.5000    -2.9500    56.6760    32.4500    34.5730    22.3740     2.1480 
  197.6250    -3.1450    57.9770    35.4440    37.7160    21.8650     2.1480 
  197.7500    -3.2820    60.7160    38.4570    40.8800    20.5730     2.1420 
  197.8750    -3.0080    64.3080    40.6180    43.1490    19.9520     2.1310 
  198.0000    -2.4080    65.5760    41.9730    44.5710    18.4500     2.1250 
  198.1250    -1.6090    63.1060    42.6250    45.2570    18.1640     2.1340 
  198.2500    -0.8850    59.0680    42.8420    45.4840    17.6560     2.1490 
  198.3750    -0.4360    57.4160    43.1530    45.8110    17.2500     2.1520 
  198.5000    -0.4070    58.3060    43.4860    46.1600    18.8300     2.1360 
  198.6250    -0.8070    58.4000    44.0270    46.7290    18.3370     2.1160 
  198.7500    -1.3500    55.8170    45.0430    47.7950    16.0890     2.1120 
  198.8750    -1.8570    53.2680    46.8070    49.6470    15.1120     2.1230 
  199.0000    -1.9530    52.9920    48.9230    51.8690    15.1550     2.1340 
  199.1250    -1.6350    54.0460    51.0160    54.0670    16.6370     2.1400 
  199.2500    -1.2040    56.2150    52.8610    56.0040    17.5860     2.1450 
  199.3750    -0.9050    59.4620    54.5080    57.7330    17.8510     2.1510 
  199.5000    -0.5900    61.2680    56.5600    59.8880    19.1040     2.1530 
  199.6250    -0.2260    60.2870    59.2360    62.6980    20.3750     2.1530 
  199.7500    -0.0580    59.3200    63.0510    66.7030    23.1640     2.1550 
  199.8750    -0.1090    59.6330    68.4600    72.3830    33.1220     2.1510 
  200.0000    -0.1760    58.7290    75.0610    79.3140    50.0580     2.1400 
  200.1250    -0.2900    56.8630    81.0940    85.6490    65.4390     2.1260 
  200.2500    -0.2990    56.2670    84.3230    89.0390    73.6680     2.1250 
  200.3750    -0.4240    56.8810    82.8760    87.5200    73.7830     2.1400 
  200.5000    -0.8610    57.7880    76.6910    81.0250    63.3700     2.1570 
  200.6250    -1.3260    58.5560    67.6360    71.5180    45.7020     2.1640 
  200.7500    -1.8820    59.6020    58.1300    61.5370    35.0280     2.1600 
  200.8750    -2.5400    60.0680    49.6920    52.6760    33.0370     2.1560 
  201.0000    -3.1570    60.5730    44.1900    46.8990    30.6640     2.1520 
  201.1250    -3.1160    61.7160    41.7540    44.3420    28.3660     2.1460 
  201.2500    -2.5740    62.7400    42.1670    44.7760    30.0550     2.1410 
  201.3750    -2.2310    62.0970    45.7660    48.5540    36.9080     2.1450 
  201.5000    -2.0110    60.2110    51.7620    54.8500    41.8710     2.1510 
  201.6250    -1.8360    59.9770    59.7770    63.2660    40.8640     2.1520 
  201.7500    -1.9400    61.4800    67.4030    71.2730    37.1300     2.1510 
  201.8750    -2.6430    62.0890    73.2910    77.4560    32.5580     2.1450 
  202.0000    -3.7300    60.2750    76.1360    80.4420    34.4590     2.1360 
  202.1250    -4.7930    58.5940    76.3130    80.6290    45.4950     2.1270 
  202.2500    -5.4150    57.2350    75.5690    79.8470    59.3440     2.1250 
  202.3750    -5.6200    56.2080    74.7040    78.9390    66.5920     2.1290 
  202.5000    -5.4460    57.6710    74.9490    79.1960    66.1870     2.1350 
  202.6250    -5.1970    61.3120    78.4930    82.9180    68.3680     2.1380 
  202.7500    -5.4150    62.5920    86.1980    91.0070    65.1220     2.1370 
  202.8750    -5.7650    60.2050    99.9020   105.3970    48.4760     2.1370 
  203.0000    -5.9440    57.7880   118.2840   124.6980    35.2450     2.1430 
  203.1250    -6.4050    56.5530   137.0260   144.3770    40.7200     2.1470 
  203.2500    -7.0230    56.3360   148.0580   155.9600    55.6510     2.1520 
  203.3750    -7.5530    57.9640   142.6970   150.3320    61.2100     2.1880 
  203.5000    -7.9140    61.0680   126.5550   133.3820    61.4290     2.2580 
  203.6250    -8.3840    63.9390   104.5380   110.2650    74.2270     2.3210 
  203.7500    -9.0710    65.3030    85.4170    90.1880    85.7970     2.3290 
  203.8750    -9.4860    64.6590    74.2750    78.4890    73.2940     2.2840 
  204.0000    -9.8510    62.7720    67.2940    71.1590    63.2060     2.2390 
  204.1250   -10.2340    61.4300    64.6050    68.3350    64.8990     2.2220 
  204.2500   -10.0510    62.3710    63.9950    67.6950    64.3860     2.2170 
  204.3750    -9.4660    64.6470    64.9170    68.6630    66.0420     2.2030 
