~V
VERS. 2.00: Ver 2.00
~W
STRT.M 50.0000:
STOP.M 255.0000:
STEP.M 0.1250:
NULL. -999.2500:
UWI. F12008:
~C
DEPT.M :
SP.MV :
GR.API :
RI. :
RML.OHMM :
RXO.OHMM :
DEN.GM/CC :
~A
# ...
  153.0000   -28.1790    86.3550     7.1460     8.0750     7.9220     2.3600 
  153.1250   -28.1080    90.5300     7.6780     8.6390     7.9640     2.3680 
  153.2500   -28.0060    91.4690     9.4070    10.4710    12.7010     2.4010 
  153.3750   -27.8920    85.5740    13.5510    14.8650    23.4990     2.4610 
  153.5000   -27.7880    74.8290    20.2800    21.9970    29.5640     2.5120 
  153.6250   -27.7120    65.0400    28.5410    30.7540    30.3470     2.5350 
  153.7500   -27.6680    59.3380    35.5530    38.1860    32.7410     2.5420 
  153.8750   -27.6500    55.3680    39.7460    42.6310    38.3720     2.5450 
  154.0000   -27.6410    52.5410    41.1740    44.1450    42.8470     2.5410 
  154.1250   -27.6280    51.1270    41.4290    44.4150    43.4830     2.5280 
  154.2500   -27.6080    51.6890    41.3100    44.2890    44.4910     2.5150 
  154.3750   -27.5920    53.6480    40.8740    43.8270    46.6000     2.5070 
  154.5000   -27.5920    56.0970    40.4110    43.3360    48.9480     2.5020 
  154.6250   -27.6150    56.9740    40.4390    43.3650    48.7820     2.5000 
  154.7500   -27.6570    55.8760    40.5260    43.4580    44.0910     2.5040 
  154.8750   -27.7060    54.9450    40.1430    43.0510    43.7070     2.5100 
  155.0000   -27.7450    55.8550    39.2780    42.1350    47.5420     2.5050 
  155.1250   -27.7550    58.3130    38.2640    41.0600    47.6600     2.4770 
  155.2500   -27.7210    59.3140    37.2120    39.9450    44.4460     2.4450 
  155.3750   -27.6290    58.0460    36.2540    38.9290    39.1350     2.4360 
  155.5000   -27.4890    55.5070    35.3910    38.0140    37.3540     2.4500 
  155.6250   -27.3200    53.6330    34.6110    37.1880    35.0350     2.4660 
  155.7500   -27.1600    53.5160    34.1230    36.6700    30.0720     2.4790 
  155.8750   -27.0430    54.7560    33.8500    36.3810    30.4820     2.4940 
  156.0000   -26.9790    55.8200    33.7290    36.2520    30.6080     2.4950 
  156.1250   -26.9600    55.2080    33.9100    36.4440    28.6250     2.4760 
  156.2500   -26.9590    54.8000    34.3880    36.9520    30.7140     2.4650 
  156.3750   -26.9600    54.1350    35.1460    37.7550    36.3900     2.4880 
  156.5000   -26.9570    52.5230    35.8360    38.4860    39.1830     2.5250 
  156.6250   -26.9590    50.7620    36.4110    39.0960    37.3950     2.5440 
  156.7500   -26.9740    50.3360    36.8200    39.5300    36.7860     2.5300 
  156.8750   -27.0140    49.9250    37.0810    39.8060    35.0040     2.4950 
  157.0000   -27.0740    48.9820    37.1200    39.8480    31.9010     2.4720 
  157.1250   -27.1430    49.7240    36.9910    39.7110    32.3620     2.4660 
  157.2500   -27.2010    52.2850    36.9710    39.6890    32.6000     2.4530 
  157.3750   -27.2320    54.5700    37.1760    39.9070    29.9680     2.4320 
  157.5000   -27.2310    55.6810    37.9140    40.6890    27.9640     2.4260 
  157.6250   -27.2000    55.4870    38.8270    41.6560    29.1350     2.4490 
  157.7500   -27.1480    54.2200    39.4920    42.3610    33.6030     2.4720 
  157.8750   -27.0810    51.2130    39.5570    42.4300    37.5990     2.4700 
  158.0000   -27.0060    47.9390    38.8280    41.6570    35.8800     2.4540 
  158.1250   -26.9250    46.3580    37.5040    40.2540    30.4350     2.4550 
  158.2500   -26.8370    47.2690    36.2290    38.9030    26.3540     2.4790 
  158.3750   -26.7320    49.3680    35.5400    38.1720    25.0860     2.5020 
  158.5000   -26.6040    51.0340    35.4600    38.0880    26.4500     2.5100 
  158.6250   -26.4460    52.9750    35.9400    38.5960    30.1230     2.5050 
  158.7500   -26.2660    55.2550    36.5010    39.1910    32.2950     2.4860 
  158.8750   -26.0760    56.7020    36.9680    39.6860    32.8010     2.4530 
  159.0000   -25.8920    56.0200    37.2360    39.9700    34.3180     2.4250 
  159.1250   -25.7270    54.5790    37.3970    40.1410    34.5920     2.4180 
  159.2500   -25.5800    54.2430    37.7680    40.5340    34.5070     2.4280 
  159.3750   -25.4440    53.4540    38.3730    41.1760    34.0470     2.4410 
  159.5000   -25.3070    52.9880    39.0540    41.8980    35.3210     2.4500 
  159.6250   -25.1600    52.6550    39.7170    42.6000    40.6260     2.4520 
  159.7500   -25.0140    52.4210    40.1540    43.0630    42.6250     2.4560 
  159.8750   -24.8900    53.0740    40.1360    43.0450    40.5930     2.4700 
  160.0000   -24.8090    55.7540    39.6270    42.5050    41.6420     2.4870 
  160.1250   -24.7960    58.5560    38.8120    41.6410    44.6830     2.4940 
  160.2500   -24.8490    58.1440    37.6730    40.4330    41.3620     2.4810 
  160.3750   -24.9600    56.4700    36.4550    39.1430    36.0030     2.4560 
  160.5000   -25.1000    57.9080    35.0240    37.6250    36.2330     2.4420 
  160.6250   -25.2420    60.8620    33.5340    36.0460    35.9230     2.4390 
  160.7500   -25.3640    61.8420    32.4420    34.8890    32.4480     2.4330 
  160.8750   -25.4420    60.7980    31.9610    34.3790    28.7420     2.4300 
  161.0000   -25.4620    61.1120    32.1620    34.5910    29.1840     2.4410 
  161.1250   -25.4030    60.7130    32.8030    35.2710    34.7270     2.4620 
  161.2500   -25.2750    57.3680    33.5230    36.0350    38.4810     2.4790 
  161.3750   -25.1000    54.1380    34.0260    36.5680    38.5320     2.4770 
  161.5000   -24.9190    54.5320    33.9870    36.5260    35.9330     2.4570 
  161.6250   -24.7600    55.5440    33.6890    36.2100    33.5070     2.4450 
  161.7500   -24.6290    54.3210    33.5260    36.0370    36.3440     2.4570 
  161.8750   -24.5150    52.9610    33.7500    36.2750    38.9150     2.4860 
  162.0000   -24.4080    53.9210    34.2970    36.8550    38.2800     2.5210 
  162.1250   -24.3120    55.3730    34.9000    37.4940    40.0330     2.5570 
  162.2500   -24.2380    54.6840    35.2280    37.8420    41.8290     2.5820 
  162.3750   -24.1950    53.8770    35.0930    37.6980    40.6950     2.5890 
  162.5000   -24.1820    54.6920    34.6410    37.2200    38.2140     2.5930 
  162.6250   -24.1910    55.6780    33.7210    36.2440    35.6670     2.5980 
  162.7500   -24.2060    54.5790    32.5760    35.0300    33.5660     2.6030 
  162.8750   -24.2160    53.6230    31.1320    33.5000    31.5410     2.6140 
  163.0000   -24.2180    55.1160    29.1680    31.4180    29.9000     2.6210 
  163.1250   -24.2180    56.1410    26.7600    28.8660    34.8250     2.6000 
  163.2500   -24.2210    53.8850    24.0910    26.0360    43.3640     2.5600 
  163.3750   -24.2320    51.7380    21.5740    23.3690    38.5760     2.5310 
  163.5000   -24.2510    52.8000    19.6660    21.3460    25.7010     2.5220 
  163.6250   -24.2830    55.4660    18.4650    20.0720    18.8790     2.5060 
  163.7500   -24.3260    55.1250    17.9460    19.5230    17.3810     2.4740 
  163.8750   -24.3790    52.7380    18.2010    19.7930    18.9000     2.4440 
  164.0000   -24.4330    50.4580    19.0110    20.6520    20.2960     2.4240 
  164.1250   -24.4850    49.8930    20.0620    21.7650    20.0730     2.4140 
  164.2500   -24.5340    50.0220    21.0180    22.7800    20.1120     2.4180 
  164.3750   -24.5870    51.1630    21.6190    23.4160    21.9110     2.4410 
  164.5000   -24.6490    51.6050    21.7350    23.5390    23.4320     2.4530 
  164.6250   -24.7200    50.7840    21.5630    23.3570    22.3110     2.4450 
  164.7500   -24.7910    50.2240    21.3870    23.1700    20.7250     2.4420 
  164.8750   -24.8470    51.0370    21.4030    23.1870    20.1850     2.4530 
  165.0000   -24.8740    51.6560    21.6770    23.4770    20.7930     2.4690 
  165.1250   -24.8620    51.2150    22.1360    23.9640    24.5100     2.4790 
  165.2500   -24.8210    50.2730    22.4910    24.3400    27.2600     2.4750 
  165.3750   -24.7590    49.3900    22.5240    24.3760    27.0930     2.4670 
  165.5000   -24.6880    50.2130    22.2860    24.1230    27.9500     2.4740 
  165.6250   -24.6170    52.7610    21.7090    23.5110    25.6330     2.5110 
  165.7500   -24.5520    55.3710    21.0150    22.7760    20.6360     2.5630 
