~V
VERS. 2.00: Ver 2.00
~W
STRT.M 50.0000:
STOP.M 213.0000:
STEP.M 0.1250:
NULL. -999.2500:
UWI. F12007:
~C
DEPT.M :
SP.MV :
GR.API :
RI. :
RML.OHMM :
RXO.OHMM :
DEN.GM/CC :
~A
   50.0000   223.7150    45.6500     0.1280     0.2530    49.9790     2.4140 
   50.1250   226.4920    46.8930     0.1180     0.2900    49.9750     2.4120 
   50.2500   229.5950    49.0700     0.1050     0.3070    49.9700     2.4090 
   50.3750   232.6800    48.3100     0.0960     0.3050    49.9700     2.4140 
   50.5000   235.9420    44.3460     0.0900     0.2800    49.9750     2.4280 
   50.6250   239.2450    42.0030     0.0840     0.2640    49.9780     2.4400 
   50.7500   242.0630    43.3730     0.0810     0.2450    49.9780     2.4420 
   50.8750   243.8430    44.7440     0.0870     0.2270    49.9780     2.4300 
   51.0000   244.1210    44.7960     0.0970     0.2120    49.9780     2.4200 
   51.1250   242.3190    44.5600     0.1000     0.2010    49.9780     2.4190 
   51.2500   239.1910    44.2740     0.0990     0.2120    49.9790     2.4130 
   51.3750   236.1150    43.5990     0.0950     0.2520    49.9800     2.3890 
   51.5000   233.8300    43.7660     0.1030     0.2890    49.9790     2.3430 
   51.6250   232.7570    45.0600     0.1170     0.3210    49.9790     2.2770 
   51.7500   232.4530    46.5640     0.1280     0.3130    49.9820     2.2230 
   51.8750   232.2140    48.8040     0.1320     0.2790    49.9810     2.2100 
   52.0000   231.6940    52.5170     0.1140     0.2440    49.9750     2.2400 
   52.1250   231.0460    56.2660     0.0980     0.2130    49.9760     2.2920 
   52.2500   230.3680    57.0630     0.0850     0.2040    49.9810     2.3450 
   52.3750   229.8880    52.7850     0.0810     0.2070    49.9810     2.3860 
   52.5000   229.8290    48.2210     0.0830     0.2110    49.9790     2.4040 
   52.6250   230.0460    46.6820     0.0830     0.2110    49.9770     2.4010 
   52.7500   230.2320    47.5840     0.0900     0.2060    49.9760     2.3900 
   52.8750   230.3050    48.9060     0.0950     0.1940    49.9750     2.3860 
   53.0000   230.2080    50.3810     0.1000     0.1820    49.9760     2.3880 
   53.1250   229.8590    51.8630     0.1060     0.1730    49.9780     2.3820 
   53.2500   229.3000    52.2240     0.1060     0.1690    49.9800     2.3700 
   53.3750   228.7080    51.6630     0.1090     0.1710    49.9800     2.3710 
   53.5000   228.1600    51.2910     0.1140     0.1730    49.9800     2.3920 
   53.6250   227.6690    51.6850     0.1240     0.1730    49.9810     2.4290 
   53.7500   227.3130    52.2780     0.1380     0.1760    49.9810     2.4590 
   53.8750   226.9460    52.5360     0.1490     0.1850    49.9830     2.4730 
   54.0000   226.4720    53.8010     0.1600     0.1900    48.0160     2.4770 
   54.1250   225.9190    56.8590     0.1640     0.1910    34.2110     2.4730 
   54.2500   225.3390    60.5830     0.1710     0.1820    12.4430     2.4680 
   54.3750   224.7590    62.8040     0.1800     0.1690     1.4800     2.4420 
   54.5000   224.2640    63.3500     0.1830     0.1840     2.1890     2.3640 
   54.6250   223.9180    64.0300     0.2010     0.2670     4.2640     2.2270 
   54.7500   223.5320    64.4770     0.2480     0.3120     2.8480     2.1080 
   54.8750   222.7060    62.3910     0.2610     0.3200     0.7900     2.0770 
   55.0000   221.0770    58.7040     0.2400     0.2650     0.4520     2.0980 
   55.1250   218.2130    55.6060     0.1700     0.1370     0.3280     2.1380 
   55.2500   214.2780    53.3080     0.0860     0.1010     0.2480     2.2000 
   55.3750   209.3680    51.4040     0.0410     0.0780     0.2730     2.2640 
   55.5000   203.2990    51.5460     0.0360     0.0760     0.9230     2.2850 
   55.6250   195.5200    55.0760     0.0730     0.1100     2.9800     2.2070 
   55.7500   185.9880    60.3880     0.1750     0.2000     5.3030     2.0150 
   55.8750   174.7020    65.2410     0.5050     0.5660     5.5280     1.8010 
   56.0000   162.1170    68.4190     1.2290     1.4690     4.4880     1.7170 
   56.1250   149.3520    71.6870     2.4780     3.2470     5.2590     1.8160 
   56.2500   137.7430    76.9560     3.8060     4.9140     7.0290     1.9610 
   56.3750   128.3190    82.9400     4.8690     6.0130     7.6420     2.0490 
   56.5000   120.7820    85.9810     5.4640     6.2510     7.4960     2.0880 
   56.6250   114.7200    84.9000     5.6960     5.8740     7.2790     2.0920 
   56.7500   109.7520    81.7940     5.9320     5.6960     7.1950     2.0830 
   56.8750   105.8000    79.0060     6.1840     5.6620     7.2410     2.0840 
   57.0000   102.5910    77.8640     6.3870     5.7010     7.2110     2.0990 
   57.1250    99.8660    79.1810     6.5400     5.7800     7.1090     2.1110 
   57.2500    97.4160    80.3140     6.6750     5.9230     7.0560     2.1090 
   57.3750    95.2560    80.5270     6.8700     6.2200     7.3040     2.0980 
   57.5000    93.2050    79.3060     7.1020     6.5820     8.0240     2.0840 
   57.6250    91.2520    76.6240     7.3020     6.9000     8.7410     2.0690 
   57.7500    89.7160    71.6280     7.4110     7.1070     9.0970     2.0560 
   57.8750    88.8200    66.9360     7.3930     7.1560     9.1300     2.0540 
   58.0000    88.5050    64.5580     7.3410     7.1860     8.8580     2.0590 
   58.1250    88.4900    66.2140     7.3790     7.3510     8.6090     2.0740 
   58.2500    88.3590    69.0230     7.4940     7.5860     8.6780     2.1160 
   58.3750    87.8250    71.6030     7.6800     7.9040     8.5570     2.1930 
   58.5000    87.0330    75.3710     7.8480     8.1640     8.1720     2.2660 
   58.6250    86.1380    80.8520     7.9090     8.2810     8.3190     2.2650 
   58.7500    85.2290    84.3170     7.8190     8.2270     8.8610     2.2010 
   58.8750    84.5480    82.4420     7.6050     8.0680     9.2290     2.1300 
   59.0000    84.2330    79.6320     7.3830     7.9530     9.4010     2.0960 
   59.1250    84.0900    79.5990     7.2450     7.9780     9.3700     2.0900 
   59.2500    83.8930    78.6000     7.2300     8.0990     9.2880     2.0870 
   59.3750    83.6090    75.9000     7.2180     8.1800     9.4820     2.0840 
   59.5000    83.2660    75.4080     7.1690     8.1530     9.8040     2.0800 
   59.6250    82.8930    77.4180     7.1080     8.0400     9.7560     2.0830 
   59.7500    82.5540    78.4100     7.0560     7.8540     9.3550     2.0870 
   59.8750    82.1780    76.1300     7.0410     7.6410     9.1560     2.0840 
   60.0000    81.7610    72.7930     7.0400     7.4370     9.1730     2.0710 
   60.1250    81.3100    69.6850     7.0450     7.3250     8.9950     2.0630 
   60.2500    80.8650    67.5150     7.0430     7.3080     8.9580     2.0660 
   60.3750    80.4230    67.0920     7.0080     7.2850     9.2750     2.0730 
   60.5000    80.0920    68.1500     6.9480     7.2080     9.3040     2.0740 
   60.6250    79.9860    70.3580     6.8820     7.1120     8.9230     2.0740 
   60.7500    79.9160    73.4180     6.8290     7.0270     8.7510     2.0750 
   60.8750    79.9020    75.1150     6.8080     7.0010     9.0580     2.0720 
   61.0000    80.0920    75.4240     6.8210     7.0450     9.4430     2.0640 
   61.1250    80.5300    76.2420     6.8640     7.1390     9.4410     2.0600 
   61.2500    81.0620    77.8610     6.9240     7.2980     9.3240     2.0650 
   61.3750    81.5130    77.4900     6.9870     7.4650     9.2420     2.0710 
   61.5000    81.5610    75.1340     7.0510     7.6470     9.1230     2.0710 
   61.6250    80.9720    73.7780     7.1170     7.9290     9.2960     2.0660 
   61.7500    80.0210    73.8370     7.1750     8.2360     9.3980     2.0630 
   61.8750    78.9160    73.0630     7.2240     8.5360     9.2240     2.0610 
   62.0000    77.9530    70.5460     7.2390     8.7420     9.2230     2.0570 
   62.1250    77.5560    69.4590     7.2240     8.7640     9.2610     2.0550 
   62.2500    77.6850    69.8760     7.2200     8.7490     9.2630     2.0570 
   62.3750    78.0310    70.5790     7.2830     8.8030     9.3940     2.0640 
   62.5000    78.3940    71.2590     7.3610     8.9210     9.5750     2.0710 
   62.6250    78.7060    71.1620     7.4190     9.0030    10.1050     2.0830 
   62.7500    78.8780    71.2460     7.4490     9.0020    10.8750     2.0970 
