~V
VERS. 2.00: Ver 2.00
~W
STRT.M 50.0000:
STOP.M 247.0000:
STEP.M 0.1250:
NULL. -999.2500:
UWI. F12010:
~C
DEPT.M :
SP.MV :
GR.API :
RI. :
RML.OHMM :
RXO.OHMM :
DEN.GM/CC :
~A
# ...
  114.3750   -14.4350    90.0730     4.1040     4.8090     4.1990     2.1610 
  114.5000   -14.5570    89.1910     4.3370     5.0540     4.0860     2.1580 
  114.6250   -14.7050    85.5410     4.5720     5.3000     4.3480     2.1540 
  114.7500   -14.7030    80.2850     4.8430     5.5850     4.9120     2.1370 
  114.8750   -14.7160    76.7180     5.1140     5.8700     5.3440     2.1240 
  115.0000   -14.6990    77.0030     5.3160     6.0820     5.5240     2.1250 
  115.1250   -14.6210    79.4030     5.3280     6.0940     5.4980     2.1340 
  115.2500   -14.6320    79.5770     5.1130     5.8680     5.1870     2.1480 
  115.3750   -14.6940    78.7440     4.7330     5.4690     4.7040     2.1620 
  115.5000   -14.7100    82.3040     4.3070     5.0220     4.2940     2.1760 
  115.6250   -14.7030    89.6190     3.9420     4.6390     4.1210     2.1900 
  115.7500   -14.7160    93.8010     3.7220     4.4080     4.0330     2.2010 
  115.8750   -14.4720    92.0820     3.6730     4.3570     3.9260     2.2100 
  116.0000   -13.9700    88.8660     3.7830     4.4720     3.8390     2.2140 
  116.1250   -13.3620    86.9340     3.9760     4.6740     3.8240     2.2010 
  116.2500   -12.8110    84.8880     4.2230     4.9340     4.1150     2.1670 
  116.3750   -12.7120    80.7860     4.3860     5.1050     4.4350     2.1290 
  116.5000   -13.2450    76.3490     4.4060     5.1270     4.5550     2.1170 
  116.6250   -14.0060    77.3500     4.2230     4.9340     4.5150     2.1440 
  116.7500   -14.6350    84.1260     3.8580     4.5510     4.1620     2.1860 
  116.8750   -14.9660    92.4650     3.4650     4.1380     3.7610     2.2140 
  117.0000   -14.9640    98.0690     3.1830     3.8420     3.5400     2.2240 
  117.1250   -14.8280   100.5700     3.2290     3.8900     3.4360     2.2380 
  117.2500   -14.7060    99.1290     3.5470     4.2250     4.0440     2.2850 
  117.3750   -14.6990    94.7180     4.2390     4.9510     5.4500     2.3610 
  117.5000   -14.6040    89.0120     5.1580     5.9160     7.5770     2.4360 
  117.6250   -14.6760    82.3490     6.0180     6.8190    10.7060     2.4880 
  117.7500   -14.9740    75.5590     6.5270     7.3530    11.8390     2.5000 
  117.8750   -15.2250    72.1100     6.4090     7.2300     8.9590     2.4380 
  118.0000   -15.5130    70.7040     5.7690     6.5570     5.6460     2.3110 
  118.1250   -15.8150    69.1930     5.0060     5.7570     4.4950     2.1890 
  118.2500   -15.8790    67.6220     4.4800     5.2040     4.2800     2.1370 
  118.3750   -15.9050    68.6610     4.2800     4.9940     4.1020     2.1500 
  118.5000   -16.1980    70.6210     4.3330     5.0500     4.1660     2.1820 
  118.6250   -16.5320    71.3740     4.4140     5.1350     4.2650     2.1890 
  118.7500   -16.8320    70.8410     4.3800     5.0990     4.2320     2.1650 
  118.8750   -16.8140    69.8760     4.2170     4.9270     4.0410     2.1490 
  119.0000   -16.4150    68.9460     3.9830     4.6820     3.6780     2.1780 
  119.1250   -15.7300    69.4480     3.7520     4.4400     3.4340     2.2280 
  119.2500   -15.0390    72.4280     3.6050     4.2860     3.5070     2.2460 
  119.3750   -14.3930    76.0810     3.5530     4.2310     3.8270     2.2210 
  119.5000   -14.0990    76.9860     3.6000     4.2800     4.0590     2.1950 
  119.6250   -14.4740    76.4560     3.6910     4.3750     3.9120     2.1960 
  119.7500   -15.3610    77.5810     3.7990     4.4890     3.8130     2.2120 
  119.8750   -16.1070    78.3620     3.9420     4.6390     4.0150     2.2150 
  120.0000   -16.4970    76.5060     4.1920     4.9010     4.1360     2.1920 
  120.1250   -16.5760    74.2210     4.4760     5.2000     4.1500     2.1710 
  120.2500   -16.3340    73.7720     4.6910     5.4250     4.1460     2.1950 
  120.3750   -15.8680    73.3950     4.7290     5.4650     4.0190     2.2610 
  120.5000   -15.2790    72.2030     4.5900     5.3200     3.8970     2.3010 
  120.6250   -14.7420    72.8290     4.3840     5.1030     3.9180     2.2800 
  120.7500   -14.4420    75.7330     4.2040     4.9150     3.9500     2.2370 
  120.8750   -14.4770    78.8250     4.1250     4.8310     3.8930     2.2070 
  121.0000   -14.5670    81.0120     4.1030     4.8080     3.8790     2.1850 
  121.1250   -14.7030    82.1400     4.0950     4.7990     4.0410     2.1690 
  121.2500   -14.8960    81.3210     4.0270     4.7280     4.1350     2.1740 
  121.3750   -14.9350    80.1500     3.8740     4.5680     4.0230     2.2010 
  121.5000   -14.9570    80.5110     3.7220     4.4080     3.9720     2.2280 
  121.6250   -14.9330    81.7590     3.6380     4.3200     3.9410     2.2420 
  121.7500   -14.8110    82.7660     3.6480     4.3310     3.8790     2.2410 
  121.8750   -14.8130    82.8680     3.7370     4.4240     4.0070     2.2290 
  122.0000   -14.9940    82.9600     3.8350     4.5270     4.2580     2.2160 
  122.1250   -15.2050    83.1530     3.8800     4.5740     4.4230     2.2150 
  122.2500   -15.2490    83.1340     3.8410     4.5330     4.4110     2.2250 
  122.3750   -15.0110    81.8140     3.7480     4.4360     4.2500     2.2350 
  122.5000   -14.5770    80.6300     3.6540     4.3370     4.0260     2.2430 
  122.6250   -14.2720    81.7380     3.6060     4.2860     3.8940     2.2560 
  122.7500   -14.3870    83.2610     3.6400     4.3220     4.0770     2.2700 
  122.8750   -15.0610    82.2500     3.7700     4.4590     4.3460     2.2730 
  123.0000   -15.8620    79.8450     4.0560     4.7590     4.2950     2.2600 
  123.1250   -16.4970    79.2910     4.5660     5.2940     4.1720     2.2290 
  123.2500   -16.7950    79.2680     5.2180     5.9780     4.4360     2.1960 
  123.3750   -16.5220    77.4860     5.9260     6.7220     5.1350     2.1950 
  123.5000   -15.9950    72.0860     6.4930     7.3180     6.0290     2.2270 
  123.6250   -15.3640    64.8120     6.8100     7.6500     6.3510     2.2370 
  123.7500   -14.7880    59.5560     6.8620     7.7050     5.7290     2.1990 
  123.8750   -14.4350    59.9050     6.7870     7.6270     5.1400     2.1480 
  124.0000   -14.2010    64.0520     6.8580     7.7010     5.1890     2.1280 
  124.1250   -14.0980    67.7360     7.1600     8.0180     6.3400     2.1350 
  124.2500   -14.1370    67.6450     7.6130     8.4940    10.0230     2.1480 
  124.3750   -14.2570    65.2310     8.0710     8.9740    12.5590     2.1640 
  124.5000   -14.3160    64.0330     8.2300     9.1420     9.8910     2.1790 
  124.6250   -14.4450    67.4160     8.0090     8.9100     6.7110     2.1860 
  124.7500   -14.7370    73.2350     7.6190     8.5000     5.9850     2.1810 
  124.8750   -15.0610    75.1810     7.1420     7.9990     5.8090     2.1610 
  125.0000   -15.3200    71.1270     6.8190     7.6600     5.5990     2.1380 
  125.1250   -15.5400    65.0960     6.6120     7.4430     5.4700     2.1240 
  125.2500   -15.6660    62.0740     6.4750     7.2980     5.4510     2.1210 
  125.3750   -15.4840    61.0880     6.4170     7.2370     5.3990     2.1190 
  125.5000   -14.9270    59.5320     6.4210     7.2420     5.3210     2.1160 
  125.6250   -14.2550    58.7570     6.4320     7.2540     5.3340     2.1180 
  125.7500   -13.6890    61.1570     6.4090     7.2300     5.3900     2.1180 
  125.8750   -13.5620    63.6510     6.3080     7.1240     5.3640     2.1140 
  126.0000   -13.8590    63.9410     6.1620     6.9700     5.2020     2.1070 
  126.1250   -14.2300    63.7810     6.0110     6.8120     5.0340     2.1040 
  126.2500   -14.6760    63.9170     5.8910     6.6850     4.9600     2.1000 
  126.3750   -15.1520    63.1460     5.8540     6.6460     4.8850     2.0950 
  126.5000   -15.2110    61.9750     5.8750     6.6690     4.7720     2.0920 
  126.6250   -14.8160    63.0390     5.9340     6.7300     4.6820     2.0900 
  126.7500   -14.2080    64.6140     5.9820     6.7810     4.6440     2.0850 
  126.8750   -13.5670    64.0980     5.9960     6.7960     4.6590     2.0860 
  127.0000   -13.1190    61.8940     5.9810     6.7800     4.6920     2.1010 
  127.1250   -13.1520    60.3950     5.9350     6.7310     4.7270     2.1190 
