~V
VERS. 2.00: Ver 2.00
~W
STRT.M 50.0000:
STOP.M 226.0000:
STEP.M 0.1250:
NULL. -999.2500:
UWI. F12001:
~C
DEPT.M :
SP.MV :
GR.API :
RI. :
RML.OHMM :
RXO.OHMM :
DEN.GM/CC :
~A
   50.0000    36.1750    43.0470     0.0840     0.4490     4.3080     2.2690 
   50.1250    36.2040    42.4420     0.0820     0.4210     3.9110     2.2660 
   50.2500    35.5750    43.7120     0.0800     0.3790     3.9220     2.2810 
   50.3750    34.5650    46.5600     0.0790     0.3390     4.7560     2.3000 
   50.5000    33.5370    48.9060     0.0790     0.2870     6.9300     2.2930 
   50.6250    32.4710    50.6560     0.0790     0.2870     7.9900     2.2630 
   50.7500    31.2620    51.7780     0.0800     0.2790     7.4600     2.2440 
   50.8750    29.9480    52.1270     0.0810     0.2780     9.1030     2.2470 
   51.0000    28.6100    50.6770     0.0820     0.2570     9.4840     2.2540 
   51.1250    27.4150    47.4340     0.0830     0.2830     5.3930     2.2510 
   51.2500    26.4810    44.3620     0.0820     0.2880     1.9310     2.2440 
   51.3750    25.8320    41.5030     0.0840     0.2970     1.3180     2.2380 
   51.5000    25.3350    39.0470     0.0900     0.2960     2.2730     2.2420 
   51.6250    24.9940    38.6290     0.1020     0.2600     6.4790     2.2540 
   51.7500    24.8260    40.1780     0.1160     0.2550     9.2700     2.2730 
   51.8750    24.8350    41.0510     0.1220     0.2560     5.0300     2.2890 
   52.0000    24.8840    39.9410     0.1220     0.2470     1.8890     2.2850 
   52.1250    24.9840    39.3710     0.1210     0.2410     2.6760     2.2660 
   52.2500    25.1210    40.3150     0.1190     0.2310     2.7830     2.2570 
   52.3750    25.3760    41.9320     0.1160     0.2170     2.5270     2.2630 
   52.5000    25.6840    43.4700     0.1150     0.2090     2.5730     2.2690 
   52.6250    25.9860    43.2640     0.1140     0.2020     2.4720     2.2620 
   52.7500    26.3390    41.4980     0.1150     0.2000     2.3050     2.2510 
   52.8750    26.6930    40.3410     0.1180     0.2000     2.3390     2.2440 
   53.0000    27.0510    41.1640     0.1300     0.1980     2.1390     2.2450 
   53.1250    27.5120    41.0300     0.1390     0.1980     1.9490     2.2470 
   53.2500    28.0540    38.9590     0.1400     0.1980     2.1320     2.2430 
   53.3750    28.5930    37.6090     0.1330     0.1960     2.5690     2.2360 
   53.5000    29.1290    36.7940     0.1220     0.1930     2.9170     2.2390 
   53.6250    29.7230    35.4960     0.1200     0.1870     3.1270     2.2600 
   53.7500    30.3630    34.5820     0.1300     0.1830     3.9060     2.2940 
   53.8750    30.9690    35.0690     0.1360     0.1780     9.3440     2.3200 
   54.0000    31.6150    35.6310     0.1320     0.1720    19.8470     2.3270 
   54.1250    32.3730    35.7620     0.1200     0.1650    24.3300     2.3150 
   54.2500    33.2860    36.1910     0.1030     0.1540    21.5070     2.3040 
   54.3750    34.3870    36.8140     0.0940     0.1410    16.8780     2.3000 
   54.5000    35.7040    36.8600     0.1000     0.1270     8.4590     2.2940 
   54.6250    37.3320    37.1920     0.1150     0.1190     1.6800     2.2860 
   54.7500    39.1120    36.9660     0.1560     0.1370     0.2720     2.2880 
   54.8750    40.9580    35.8550     0.1920     0.1570     0.2390     2.3230 
   55.0000    43.0420    35.8100     0.2220     0.1720     0.2160     2.3840 
   55.1250    45.4040    39.0060     0.2530     0.1810     0.2100     2.4440 
   55.2500    47.9820    43.4780     0.2700     0.1760     0.2220     2.4800 
   55.3750    50.8540    46.6010     0.2820     0.1810     0.2610     2.4940 
   55.5000    54.0250    46.3330     0.2680     0.1720     0.3260     2.4980 
   55.6250    57.5580    44.6600     0.2100     0.1450     0.3950     2.4980 
   55.7500    61.2410    43.7630     0.1400     0.1000     0.5060     2.4970 
   55.8750    64.6420    43.4370     0.0790     0.0570     0.6620     2.4930 
   56.0000    67.3470    43.2960     0.0500     0.0350     0.7320     2.4760 
   56.1250    69.0900    43.6260     0.0560     0.0390     0.8910     2.4350 
   56.2500    70.0630    45.0280     0.1180     0.0880     1.1920     2.3800 
   56.3750    70.3570    45.9820     0.2760     0.2390     1.5450     2.3080 
   56.5000    69.9450    47.0100     0.6700     0.6130     2.2130     2.1600 
   56.6250    68.6770    48.8940     1.5190     1.8240     2.8880     1.8980 
   56.7500    66.4560    49.8400     2.3190     3.0610     2.8490     1.6300 
   56.8750    62.8990    51.7410     3.0430     4.1120     2.7870     1.5220 
   57.0000    57.7210    55.6680     3.6840     4.7080     3.6190     1.6110 
   57.1250    50.4420    60.4030     4.1670     4.7390     4.3840     1.8090 
   57.2500    41.1460    64.2700     4.7500     4.8760     4.4710     1.9830 
   57.3750    30.1450    66.9200     5.1380     5.0650     4.5650     2.0640 
   57.5000    19.5770    69.6360     5.2680     5.2540     4.7460     2.0730 
   57.6250    12.2560    70.2360     5.2820     5.4700     4.7390     2.0600 
   57.7500     8.1430    68.3970     5.3010     5.6320     4.6960     2.0500 
   57.8750     5.5390    65.9470     5.3420     5.7070     4.7000     2.0470 
   58.0000     3.4060    64.5770     5.4260     5.5830     4.7550     2.0520 
   58.1250     1.5580    63.4240     5.5300     5.3970     4.9330     2.0630 
   58.2500     0.0730    61.9120     5.6220     5.2390     5.0940     2.0710 
   58.3750    -1.0580    61.8170     5.7090     5.1850     5.0670     2.0730 
   58.5000    -2.0090    63.1180     5.7580     5.3300     5.0500     2.0760 
   58.6250    -2.7900    63.2860     5.7960     5.5110     5.2610     2.0810 
   58.7500    -3.4500    63.6080     5.8110     5.6490     5.4950     2.0830 
   58.8750    -4.0150    65.8160     5.7900     5.7100     5.4330     2.0810 
   59.0000    -4.4940    68.4330     5.7290     5.6590     5.1760     2.0790 
   59.1250    -4.8330    69.2470     5.6120     5.5380     5.0380     2.0740 
   59.2500    -5.0570    69.4740     5.4650     5.4240     5.0750     2.0650 
   59.3750    -5.2980    70.4010     5.3300     5.3450     5.1110     2.0660 
   59.5000    -5.5010    71.1530     5.2580     5.3300     5.1060     2.0800 
   59.6250    -5.6200    69.6530     5.2990     5.4380     5.0300     2.0960 
   59.7500    -5.7790    66.8680     5.4160     5.6030     4.8920     2.0970 
   59.8750    -5.9520    64.4050     5.5890     5.8010     4.7470     2.0820 
   60.0000    -6.1520    63.7540     5.7760     5.9470     4.5980     2.0640 
   60.1250    -6.3220    65.2540     5.8950     5.9700     4.5770     2.0550 
   60.2500    -6.3800    66.5620     5.8730     5.8140     4.5990     2.0540 
   60.3750    -6.4000    65.8680     5.6190     5.4530     4.5460     2.0570 
   60.5000    -6.3630    64.6810     5.1870     4.9980     4.4350     2.0600 
   60.6250    -6.2970    68.4060     4.6640     4.4970     4.1150     2.0800 
   60.7500    -6.3020    80.1130     4.1550     4.0700     3.6560     2.1260 
   60.8750    -6.3100    96.0590     3.7330     3.7430     3.3280     2.1880 
   61.0000    -6.2950   107.9390     3.4360     3.5220     3.1310     2.2370 
   61.1250    -6.2270   113.9640     3.2850     3.4000     3.0040     2.2570 
   61.2500    -6.0370   118.8560     3.2360     3.3420     2.9860     2.2610 
   61.3750    -5.7070   122.9820     3.2680     3.3480     3.0010     2.2600 
   61.5000    -5.2060   123.7280     3.3490     3.4260     2.9740     2.2510 
   61.6250    -4.5400   118.8480     3.5000     3.6050     3.0250     2.2230 
   61.7500    -3.7620   111.8290     3.7230     3.9240     3.3650     2.1920 
   61.8750    -3.1130   107.1070     4.0050     4.3000     3.9380     2.1780 
   62.0000    -2.7310   106.0150     4.2480     4.6300     4.4070     2.1810 
   62.1250    -2.5510   103.3310     4.5380     5.0270     5.3280     2.1800 
   62.2500    -2.5010    96.2840     4.9640     5.5430     5.9550     2.1720 
   62.3750    -2.6060    89.6840     5.3840     6.0790     6.2890     2.1800 
   62.5000    -2.7750    86.7800     5.6740     6.4790     9.3550     2.2290 
   62.6250    -3.0070    84.8110     5.8100     6.7350    11.1570     2.3120 
   62.7500    -3.2670    83.2130     5.7230     6.7160     7.7770     2.3710 
