~V
VERS. 2.00: Ver 2.00
~W
STRT.M 50.0000:
STOP.M 213.0000:
STEP.M 0.1250:
NULL. -999.2500:
UWI. F12007:
~C
DEPT.M :
SP.MV :
GR.API :
RI. :
RML.OHMM :
RXO.OHMM :
DEN.GM/CC :
~A
# ...
  165.8750   101.1440    82.4130    28.6750    29.7430    25.6890     2.4490 
  166.0000   101.2750    75.7340    32.2880    33.8710    33.5140     2.3940 
  166.1250   100.7490    71.4040    38.6990    41.0860    46.2270     2.3120 
  166.2500    99.9020    70.5380    48.3370    51.4910    85.0400     2.2580 
  166.3750    98.9300    70.6240    62.0210    66.3880   140.2320     2.2290 
  166.5000    98.0230    69.7830    82.0150    88.6580   150.2210     2.1900 
  166.6250    97.2470    66.7920   107.7970   116.0280   131.8780     2.1450 
  166.7500    96.7110    64.5810   124.7660   131.8380   142.8150     2.1160 
  166.8750    96.3570    65.3180   125.6430   130.6630   172.1660     2.1080 
  167.0000    96.1450    66.9610   111.6460   113.4000   167.4810     2.1150 
  167.1250    95.9450    66.2770    93.2630    94.1860   123.2490     2.1460 
  167.2500    95.6530    64.7410    83.1670    84.6000   125.2210     2.2030 
  167.3750    95.2630    66.1720    81.7330    83.5580   192.8050     2.2540 
  167.5000    94.8050    68.2590    86.2530    88.5850   196.9770     2.2650 
  167.6250    94.2530    68.5180    96.0890    98.0350   114.5930     2.2330 
  167.7500    93.6760    67.1030   103.1620   103.7660    60.5510     2.1910 
  167.8750    93.1390    65.8140   102.8620   101.8020    66.2480     2.1650 
  168.0000    92.5740    65.3430    96.0810    93.1710    90.7770     2.1510 
  168.1250    92.0380    65.1700    85.9940    82.3610    98.8360     2.1520 
  168.2500    91.5500    65.0630    78.9430    74.9940    85.6570     2.1800 
  168.3750    91.1430    65.0400    74.2990    70.2640    72.6310     2.2320 
  168.5000    90.7190    66.3340    71.1710    67.2270    70.6660     2.2760 
  168.6250    90.5400    69.4450    70.0090    66.1870    72.6290     2.2860 
  168.7500    90.7260    71.9330    70.6760    66.9270    68.4030     2.2700 
  168.8750    91.2410    73.2920    72.7230    69.0070    66.0210     2.2430 
  169.0000    91.8350    72.9400    76.9630    73.3010    78.7800     2.2180 
  169.1250    92.1300    71.5640    83.9590    80.3510   101.0700     2.2100 
  169.2500    91.8920    71.6700    93.3490    89.6820   112.5900     2.2130 
  169.3750    91.2090    73.5330   103.7540    99.9520   101.9070     2.2120 
  169.5000    90.4210    75.3910   112.7300   108.6460    89.3530     2.2060 
  169.6250    89.6920    76.7280   118.6770   114.2750    99.0750     2.1980 
  169.7500    89.3630    79.7080   120.8790   116.1860   125.7860     2.1950 
  169.8750    89.5820    83.3230   119.8120   115.1360   152.1460     2.2030 
  170.0000    90.0440    84.2700   117.8550   113.6220   165.8380     2.2200 
  170.1250    90.4480    83.9500   117.0900   113.4190   162.5950     2.2390 
  170.2500    90.7670    85.2710   117.9150   114.7430   151.0010     2.2520 
  170.3750    90.8990    87.6080   119.9660   117.1190   143.5500     2.2520 
  170.5000    90.8720    89.2680   122.9320   120.3440   136.3800     2.2270 
  170.6250    90.7670    89.1930   126.7390   124.3430   130.3920     2.1900 
  170.7500    90.6110    88.2150   131.2030   129.0880   149.0400     2.1660 
  170.8750    90.3480    88.7650   137.3780   135.6050   171.6150     2.1550 
  171.0000    90.1090    93.8060   145.9290   144.5840   162.0090     2.1440 
  171.1250    89.8630   100.9730   157.6810   156.7970   166.6120     2.1420 
  171.2500    89.4920   103.4060   173.0560   172.3800   208.8300     2.1680 
  171.3750    89.0950   100.2000   190.0630   189.2290   242.5370     2.2120 
  171.5000    88.7560    96.9880   205.4290   203.8540   257.6430     2.2300 
  171.6250    88.4100    95.7830   214.9930   211.9190   276.8030     2.1930 
  171.7500    88.2740    94.8060   215.0600   210.1340   285.1930     2.1390 
  171.8750    88.5860    93.4530   204.5250   197.8010   271.1600     2.1130 
  172.0000    89.2880    92.4560   186.0920   178.2040   249.7670     2.1160 
  172.1250    90.1630    91.7610   165.3030   157.0540   201.1050     2.1270 
  172.2500    90.9090    91.8410   145.1540   137.1540   146.3490     2.1340 
  172.3750    91.2090    92.2730   130.2850   122.9860   127.0720     2.1400 
  172.5000    91.0960    92.5880   120.3260   113.8430   131.2580     2.1440 
  172.6250    90.7920    94.4840   114.6720   108.9350   131.5540     2.1450 
  172.7500    90.4550    97.8000   112.4410   107.1940   121.5900     2.1510 
  172.8750    90.3630    98.7050   112.4000   107.5680   120.0270     2.1710 
  173.0000    90.7120    94.3000   114.0610   109.7250   121.8310     2.2020 
  173.1250    91.3010    86.4740   117.4600   113.7560   120.6620     2.2270 
  173.2500    91.9260    80.8320   122.1990   119.2960   132.8990     2.2220 
  173.3750    92.4570    77.6550   127.3280   125.3010   156.0100     2.1970 
  173.5000    92.8050    77.2060   132.4250   131.1560   180.4010     2.1970 
  173.6250    92.9710    79.3370   137.6150   136.8130   189.7980     2.2350 
  173.7500    93.0960    85.2940   143.5150   142.7680   176.6960     2.2750 
  173.8750    93.1440    93.1510   150.3390   149.2280   160.9800     2.3050 
  174.0000    93.1200    98.3860   155.4330   153.5030   147.4580     2.3430 
  174.1250    93.1390    97.6240   154.8330   151.4590   165.2010     2.3740 
  174.2500    93.1670    92.3970   147.9090   142.7840   187.4260     2.3590 
  174.3750    93.1000    86.1070   135.2150   128.5420   148.7090     2.2980 
  174.5000    93.0010    80.7570   120.6470   113.2780   103.5500     2.2290 
  174.6250    92.9570    77.5970   108.5440   101.3580    91.3550     2.1840 
  174.7500    92.8860    76.8240    97.1210    90.2040    87.8370     2.1640 
  174.8750    92.9060    77.6040    84.8360    77.4440    91.0290     2.1600 
  175.0000    93.3000    78.5220    68.5360    61.3020    97.3340     2.1630 
  175.1250    94.0980    78.2550    50.6960    44.4010    85.9140     2.1770 
  175.2500    95.0900    77.4090    36.3210    31.5930    55.0430     2.2040 
  175.3750    95.9610    76.5350    27.6780    24.7320    28.2890     2.2300 
  175.5000    96.3750    75.6460    26.1670    23.6990    20.3000     2.2410 
  175.6250    96.1730    75.2250    29.8090    27.6690    34.1920     2.2380 
  175.7500    95.6090    75.4710    38.6350    36.7850    60.7450     2.2310 
  175.8750    94.9390    76.2590    51.4440    49.4470    93.5690     2.2230 
  176.0000    94.4290    76.0430    62.9520    60.4440   118.7690     2.2290 
  176.1250    94.4810    74.2580    67.8050    64.7090   108.5070     2.2630 
  176.2500    94.9480    71.5110    66.4850    63.1740    77.4490     2.3030 
  176.3750    95.5140    68.5180    61.6140    58.8770    59.7550     2.3130 
  176.5000    96.0700    66.2650    57.6070    55.7130    53.5490     2.2930 
  176.6250    96.5110    66.0610    54.8970    53.9310    52.9310     2.2650 
  176.7500    96.7850    66.5330    53.8670    54.0300    57.4480     2.2430 
  176.8750    96.9300    65.9290    54.6610    56.0910    57.8300     2.2420 
  177.0000    97.0670    64.5690    57.3920    60.2830    61.8930     2.2750 
  177.1250    97.1650    63.9440    62.7090    67.2510    80.7890     2.3410 
  177.2500    97.2330    64.3730    69.6280    76.0780    95.4780     2.4290 
  177.3750    97.2910    64.8110    77.7210    85.9120    97.1530     2.5210 
  177.5000    97.2740    65.7000    82.5890    91.2230    93.6750     2.5840 
  177.6250    97.1670    67.6810    79.6020    87.6640    98.5820     2.6030 
  177.7500    97.1550    71.2990    71.5720    78.5340   148.7770     2.5830 
  177.8750    97.0750    75.7500    61.4260    67.5930   173.0220     2.5450 
  178.0000    96.9920    77.9730    53.2370    58.7340   104.7730     2.5140 
  178.1250    97.2380    75.7720    46.3080    51.0640    56.5880     2.5190 
  178.2500    97.8540    70.1090    36.9350    40.6030    62.0900     2.5590 
  178.3750    98.6950    64.4710    26.3040    28.8410    82.5740     2.5830 
  178.5000    99.4780    63.2440    17.2330    19.1540    92.2440     2.5440 
  178.6250    99.8130    69.4190    11.3910    12.7120    51.2950     2.4590 
