~V
VERS. 2.00: Ver 2.00
~W
STRT.M 50.0000:
STOP.M 256.0000:
STEP.M 0.1250:
NULL. -999.2500:
UWI. F12009:
~C
DEPT.M :
SP.MV :
GR.API :
RI. :
RML.OHMM :
RXO.OHMM :
DEN.GM/CC :
~A
# ...
  140.1250    -4.0050    68.2050     7.6360     8.5180     8.4110     2.1050 
  140.2500    -4.0420    68.9590     7.6610     8.5440     8.6040     2.1040 
  140.3750    -4.0440    68.4660     7.6500     8.5330     8.6250     2.1020 
  140.5000    -3.9950    67.6540     7.5620     8.4400     8.3870     2.1010 
  140.6250    -3.8450    69.5810     7.3240     8.1900     8.3070     2.1050 
  140.7500    -3.3400    73.6080     6.9500     7.7980     8.3270     2.1210 
  140.8750    -2.3720    75.6230     6.4970     7.3220     7.5820     2.1470 
  141.0000    -1.1500    75.4240     6.1360     6.9430     6.5150     2.1700 
  141.1250     0.0860    76.0850     6.1250     6.9310     6.5330     2.1670 
  141.2500     0.8680    77.8580     6.6390     7.4710     7.3280     2.1610 
  141.3750     1.0340    78.0260     8.0360     8.9380    11.2130     2.2030 
  141.5000     0.9020    75.6670    10.1830    11.1930    19.1270     2.3020 
  141.6250     0.7030    72.9340    12.1090    13.2140    26.0890     2.4100 
  141.7500     0.7250    71.9130    12.4170    13.5380    29.9130     2.4790 
  141.8750     1.1710    73.6010    11.1630    12.2210    26.5290     2.4920 
  142.0000     1.8140    78.1020     8.8260     9.7670    15.8530     2.4500 
  142.1250     2.4070    86.0900     6.8710     7.7150     8.1530     2.3640 
  142.2500     2.8240    95.3880     5.8000     6.5900     6.0550     2.2710 
  142.3750     2.9600    98.1590     5.3140     6.0790     5.8310     2.2060 
  142.5000     2.8310    94.6900     5.2060     5.9660     6.0080     2.1660 
  142.6250     2.6020    91.1640     5.2200     5.9800     5.9240     2.1460 
  142.7500     2.4310    91.7040     5.1920     5.8350     5.6960     2.1520 
  142.8750     2.4170    92.1860     5.0510     5.6330     5.3680     2.1820 
  143.0000     2.5260    92.4810     4.8460     5.3770     5.0350     2.2090 
  143.1250     2.7360    96.3130     4.6580     5.1760     4.9670     2.2170 
  143.2500     2.8010   100.8360     4.5370     5.0640     5.0570     2.2090 
  143.3750     2.6240   102.1100     4.5110     5.0660     4.9600     2.2030 
  143.5000     2.3800   101.5110     4.5280     5.1050     4.7590     2.2030 
  143.6250     2.1340   100.1870     4.5710     5.1750     4.8870     2.2020 
  143.7500     1.8780    98.2680     4.6200     5.2540     5.1770     2.1950 
  143.8750     1.8950    95.4600     4.6430     5.3100     5.1840     2.1920 
  144.0000     2.3020    93.1900     4.6440     5.3310     5.1280     2.1910 
  144.1250     3.0630    90.9510     4.6150     5.3010     5.1120     2.1940 
  144.2500     3.9130    90.5730     4.5610     5.2290     5.0180     2.2030 
  144.3750     4.4450    93.0330     4.5070     5.1470     4.8600     2.2170 
  144.5000     4.4590    96.5070     4.4580     5.0740     4.8230     2.2170 
  144.6250     4.0910    99.4200     4.4390     5.0430     4.9230     2.2020 
  144.7500     3.5500   100.6010     4.5090     5.1220     4.8860     2.1910 
  144.8750     2.9530    98.2520     4.6930     5.3510     4.9190     2.1920 
  145.0000     2.7630    93.9780     4.9290     5.6540     5.1870     2.1890 
  145.1250     2.9020    91.9950     5.1650     5.9530     5.6250     2.1690 
  145.2500     3.1700    93.4650     5.3070     6.1250     5.9020     2.1450 
  145.3750     3.3990    94.7970     5.2580     6.0290     5.6300     2.1340 
  145.5000     3.6480    94.3310     5.0800     5.7740     5.3540     2.1370 
  145.6250     3.8920    94.4670     4.8500     5.4630     5.2950     2.1590 
  145.7500     4.1090    96.7910     4.6610     5.2250     5.0060     2.2030 
  145.8750     4.2500    97.3950     4.6010     5.1760     4.9400     2.2540 
  146.0000     4.2790    95.1850     4.6510     5.2510     5.2640     2.2750 
  146.1250     4.1930    93.9850     4.7420     5.3730     5.4020     2.2510 
  146.2500     4.1160    96.5610     4.8510     5.5040     5.4120     2.2160 
  146.3750     3.9690   100.2960     4.9490     5.6080     5.3050     2.2140 
  146.5000     3.7030   100.3560     5.0290     5.7060     5.1120     2.2410 
  146.6250     3.5010    97.6240     5.1440     5.8570     5.1480     2.2560 
  146.7500     3.2790    95.5630     5.2980     6.0700     5.2030     2.2370 
  146.8750     2.9770    93.6630     5.4820     6.3310     5.3560     2.2010 
  147.0000     2.8450    91.1920     5.7060     6.6280     5.7500     2.1780 
  147.1250     3.1650    90.1370     5.8580     6.8190     5.9520     2.1670 
  147.2500     3.8820    90.8720     5.9390     6.9080     6.5450     2.1630 
  147.3750     4.7270    90.8530     6.0700     7.0400     7.4410     2.1730 
  147.5000     5.3400    89.2140     6.2590     7.2340     7.2220     2.2080 
  147.6250     5.3840    87.7380     6.6030     7.6280     7.0310     2.2610 
  147.7500     5.0110    85.3260     7.3040     8.4800     9.0200     2.3140 
  147.8750     4.4230    81.4810     8.5970    10.0790    11.8230     2.3590 
  148.0000     3.8350    80.5090     9.9400    11.7120    14.6790     2.4090 
  148.1250     3.6020    82.1640    10.8550    12.7770    17.7110     2.4600 
  148.2500     3.8450    83.2200    10.7130    12.4820    18.4080     2.4810 
  148.3750     4.2760    82.7950     9.4010    10.7850    16.1380     2.4430 
  148.5000     4.7270    83.9250     7.8230     8.8350    11.8200     2.3570 
  148.6250     5.0980    87.2420     6.3450     7.0880     7.9870     2.2700 
  148.7500     5.3170    91.4330     5.3560     6.0150     6.6170     2.2200 
  148.8750     5.3890    94.6170     4.8740     5.5690     5.9810     2.2120 
  149.0000     5.3230    96.4390     4.8100     5.5950     5.5090     2.2200 
  149.1250     5.1710    96.0080     4.9590     5.8170     5.8040     2.2380 
  149.2500     4.9130    94.1340     5.1310     6.0120     7.5020     2.2790 
  149.3750     4.6130    94.6840     5.2290     6.0780     9.2510     2.3240 
  149.5000     4.3230    99.5340     5.2290     5.9960     8.1730     2.3280 
  149.6250     4.0040   103.8230     5.1350     5.8120     6.2140     2.2810 
  149.7500     3.7400   102.2150     5.0190     5.6160     5.7320     2.2290 
  149.8750     3.4990    97.4490     4.9370     5.4810     5.5180     2.2060 
  150.0000     3.1840    95.2000     4.9330     5.4500     5.3480     2.2000 
  150.1250     3.0110    95.3120     5.0030     5.4750     5.2730     2.2010 
  150.2500     3.2410    95.3590     5.0130     5.4260     5.2130     2.2080 
  150.3750     3.8480    94.2010     4.9490     5.2910     5.6030     2.2210 
  150.5000     4.6820    92.3580     4.8020     5.0660     5.7650     2.2280 
  150.6250     5.3350    92.1170     4.6160     4.8290     5.2700     2.2310 
  150.7500     5.5230    93.9710     4.4540     4.6360     4.8420     2.2430 
  150.8750     5.2010    97.6610     4.3430     4.5210     4.7890     2.2610 
  151.0000     4.6790   100.8820     4.3210     4.5340     4.7830     2.2680 
  151.1250     4.1110   100.9140     4.3780     4.6390     4.6750     2.2630 
  151.2500     3.8010    98.7990     4.4420     4.7500     4.5070     2.2590 
  151.3750     3.9920    97.7740     4.4300     4.7690     4.4680     2.2560 
  151.5000     4.4250   100.7920     4.2950     4.6440     4.6450     2.2470 
  151.6250     4.8450   103.9080     4.0450     4.3570     4.6490     2.2490 
  151.7500     5.1500   104.5220     3.7450     3.9870     4.3750     2.2700 
  151.8750     5.3100   102.6550     3.6160     3.7980     4.0300     2.2920 
  152.0000     5.3130   100.1760     3.8260     4.0020     3.8610     2.2960 
  152.1250     5.2370    96.6370     4.8460     5.2180     4.8300     2.3050 
  152.2500     5.0960    90.1340     7.1280     7.8330    13.7460     2.3580 
  152.3750     4.8440    79.9870    12.0110    13.6700    30.7420     2.4560 
  152.5000     4.5570    69.2460    18.7950    21.3840    46.1520     2.5450 
  152.6250     4.3210    61.7750    21.3830    23.6930    54.7990     2.5770 
  152.7500     4.0350    59.7200    20.3180    22.0930    46.9960     2.5560 
  152.8750     3.6750    63.4270    15.0410    15.3700    25.5310     2.4890 
