~V
VERS. 2.00: Ver 2.00
~W
STRT.M 50.0000:
STOP.M 226.0000:
STEP.M 0.1250:
NULL. -999.2500:
UWI. F12001:
~C
DEPT.M :
SP.MV :
GR.API :
RI. :
RML.OHMM :
RXO.OHMM :
DEN.GM/CC :
~A
# ...
   75.7500    -5.2610    97.1450     3.8860     5.5080     3.7440     2.2040 
   75.8750    -5.6590    89.0470     4.1290     5.8420     4.1840     2.1830 
   76.0000    -6.0910    81.7990     4.4920     6.3600     4.4360     2.1460 
   76.1250    -6.4830    76.1390     5.0490     7.1540     4.5100     2.1150 
   76.2500    -6.7970    72.3700     5.6000     7.9520     6.3110     2.1130 
   76.3750    -6.9700    70.8900     6.0210     8.5030    10.5210     2.1650 
   76.5000    -7.1560    70.2950     6.2940     8.7560    11.9260     2.2490 
   76.6250    -7.3600    70.0840     6.3180     8.5790     8.4620     2.2980 
   76.7500    -7.5970    69.9950     6.1550     8.1640     5.3240     2.2670 
   76.8750    -7.9160    69.0420     5.8910     7.7130     4.7210     2.1810 
   77.0000    -8.2180    67.1280     5.5540     7.2520     4.8930     2.1080 
   77.1250    -8.4820    65.1460     5.2530     6.8210     4.9950     2.0800 
   77.2500    -8.6550    66.0120     4.9870     6.4000     5.0180     2.0790 
   77.3750    -8.7920    71.5980     4.7170     5.9240     4.6310     2.0930 
   77.5000    -8.9470    78.0830     4.4990     5.5370     4.0380     2.1200 
   77.6250    -9.1010    81.8050     4.4530     5.4500     4.0320     2.1470 
   77.7500    -9.0890    82.2390     4.6160     5.6740     4.4060     2.1540 
   77.8750    -8.9700    80.5590     4.9310     6.0780     4.6950     2.1370 
   78.0000    -8.9060    77.7870     5.2290     6.4300     4.9090     2.1180 
   78.1250    -8.9280    76.5340     5.4210     6.6200     4.8770     2.1080 
   78.2500    -8.9160    77.0630     5.4370     6.5700     4.6700     2.1010 
   78.3750    -8.8920    76.8980     5.3350     6.4070     4.6760     2.0960 
   78.5000    -8.9090    75.6870     5.2320     6.2550     4.8490     2.0960 
   78.6250    -8.9260    73.2660     5.1580     6.1380     4.8950     2.0950 
   78.7500    -8.9230    71.0240     5.0970     6.0350     4.7700     2.0890 
   78.8750    -8.8790    70.2480     5.0730     5.9850     4.5690     2.0840 
   79.0000    -8.8040    72.6370     5.0780     5.9690     4.4540     2.0840 
   79.1250    -8.6680    77.4820     5.0680     5.9430     4.4420     2.0830 
   79.2500    -8.4890    79.8170     4.9960     5.8570     4.4020     2.0750 
   79.3750    -8.2680    78.0830     4.8330     5.6720     4.1790     2.0640 
   79.5000    -7.9700    75.7450     4.5900     5.3800     3.9100     2.0690 
   79.6250    -7.6550    79.8040     4.2640     5.0020     3.9450     2.0990 
   79.7500    -7.3630    89.5260     3.9490     4.6310     4.0840     2.1400 
   79.8750    -7.0930   100.4510     3.6840     4.3110     4.0200     2.1700 
   80.0000    -6.8370   107.3980     3.5370     4.1320     3.8730     2.1900 
   80.1250    -6.4070   109.0680     3.5680     4.1430     3.8300     2.2080 
   80.2500    -5.8270   107.5680     3.7590     4.3210     3.8670     2.2180 
   80.3750    -5.2690   105.2380     4.0200     4.5900     4.2190     2.2080 
   80.5000    -4.8640   102.1790     4.3050     4.8690     5.8570     2.2000 
   80.6250    -4.5270    99.2580     4.4700     5.0150     7.0950     2.2220 
   80.7500    -4.1350    98.0830     4.5200     4.9790     5.8270     2.2540 
   80.8750    -3.7600    98.1690     4.4540     4.7990     4.2530     2.2560 
   81.0000    -3.4910    98.2740     4.3340     4.5920     3.8490     2.2270 
   81.1250    -3.3280    98.8670     4.2820     4.5290     4.0790     2.1940 
   81.2500    -3.2700   101.7860     4.2950     4.5920     4.3400     2.1700 
   81.3750    -3.3190   104.6780     4.3260     4.6860     4.2740     2.1510 
   81.5000    -3.3990   104.8940     4.2810     4.6740     4.2170     2.1390 
   81.6250    -3.4160   105.2470     4.1470     4.5500     4.0230     2.1440 
   81.7500    -3.3960   107.2000     4.0210     4.4290     3.6890     2.1630 
   81.8750    -3.3650   110.3980     3.9490     4.3600     3.5290     2.1860 
   82.0000    -3.3040   111.9910     3.9780     4.4070     4.0260     2.1990 
   82.1250    -3.2180   111.9530     4.2120     4.6920     4.9200     2.2140 
   82.2500    -3.1750   110.0890     4.6140     5.1570     4.8920     2.2440 
   82.3750    -3.1820   104.1840     5.1920     5.8030     5.2040     2.2700 
   82.5000    -3.2160    96.4860     5.8710     6.5700     6.4040     2.2660 
   82.6250    -3.2130    92.6370     6.6040     7.4110     6.4520     2.2440 
   82.7500    -3.1520    93.7810     7.1450     7.9860     9.7710     2.2380 
   82.8750    -2.9960    93.9390     7.3420     8.1460    14.9020     2.2590 
   83.0000    -2.8800    87.2480     7.1850     7.8620    12.3260     2.2730 
   83.1250    -2.8110    76.4190     6.7600     7.2960     6.7880     2.2340 
   83.2500    -2.8460    67.9110     6.4080     6.8920     5.0700     2.1510 
   83.3750    -2.9940    64.9150     6.2110     6.7020     4.7790     2.0790 
   83.5000    -3.1750    65.6150     6.1610     6.6850     4.5800     2.0510 
   83.6250    -3.4470    66.9640     6.2390     6.7960     4.6080     2.0530 
   83.7500    -3.7420    67.0570     6.3550     6.9240     4.7220     2.0580 
   83.8750    -4.0670    65.4270     6.4860     7.0730     4.7780     2.0630 
   84.0000    -4.2880    63.5300     6.6090     7.2330     4.7610     2.0630 
   84.1250    -4.3160    63.3920     6.7230     7.3790     4.8170     2.0620 
   84.2500    -4.2230    65.1020     6.8050     7.4680     5.0150     2.0660 
   84.3750    -4.1250    68.5890     6.8190     7.4650     5.0900     2.0710 
   84.5000    -4.0260    73.0800     6.7800     7.4100     4.9970     2.0700 
   84.6250    -3.7860    75.0170     6.6900     7.3340     4.9010     2.0630 
   84.7500    -3.5380    71.6470     6.5910     7.2830     4.8540     2.0580 
   84.8750    -3.3310    66.1400     6.5190     7.2790     4.8600     2.0580 
   85.0000    -3.1890    64.8160     6.4730     7.3040     4.8670     2.0630 
   85.1250    -3.1140    66.9930     6.4540     7.3130     4.8870     2.0670 
   85.2500    -3.0740    66.1080     6.4510     7.3060     4.8380     2.0700 
   85.3750    -3.0940    62.2670     6.4680     7.3050     4.6940     2.0680 
   85.5000    -3.2600    60.4990     6.4910     7.3200     4.8200     2.0630 
   85.6250    -3.5420    62.0260     6.5200     7.3660     5.1360     2.0550 
   85.7500    -3.9790    62.3590     6.5390     7.3940     5.0460     2.0520 
   85.8750    -4.4960    62.2900     6.5400     7.4090     4.8530     2.0610 
   86.0000    -4.9930    64.7200     6.5330     7.4210     4.9390     2.0730 
   86.1250    -5.4010    68.5240     6.5110     7.4110     4.9790     2.0780 
   86.2500    -5.7690    71.2680     6.4560     7.3680     4.9400     2.0720 
   86.3750    -6.1420    72.3260     6.3390     7.2540     4.9370     2.0630 
   86.5000    -6.4810    72.1100     6.1820     7.0880     4.9530     2.0610 
   86.6250    -6.7660    70.2530     5.9690     6.8410     4.9080     2.0680 
   86.7500    -7.0140    69.8920     5.6910     6.5030     4.8080     2.0820 
   86.8750    -7.1880    74.5810     5.4050     6.1540     4.7860     2.1060 
   87.0000    -7.2140    82.2610     5.1450     5.8370     4.6230     2.1370 
   87.1250    -7.0920    88.9880     4.9110     5.5540     4.4020     2.1620 
   87.2500    -6.9120    93.1340     4.7560     5.3750     4.5820     2.1630 
   87.3750    -6.7730    94.4340     4.6700     5.2830     4.7480     2.1470 
   87.5000    -6.6980    93.3340     4.6490     5.2660     4.5960     2.1430 
   87.6250    -6.7580    91.1850     4.6970     5.3300     4.6520     2.1670 
   87.7500    -6.9430    90.9780     4.7610     5.4030     4.9560     2.1910 
   87.8750    -7.1540    93.9100     4.7890     5.4300     5.3760     2.1920 
   88.0000    -7.2310    96.4210     4.7610     5.3930     5.5250     2.1870 
   88.1250    -7.0580    98.1790     4.6610     5.2590     5.0210     2.1940 
   88.2500    -6.8200   100.8250     4.5040     5.0540     4.5920     2.2050 
   88.3750    -6.5660   103.7210     4.3460     4.8310     4.4730     2.2140 
   88.5000    -6.3800   105.2370     4.2490     4.6890     4.3610     2.2260 
