~V
VERS. 2.00: Ver 2.00
~W
STRT.M 50.0000:
STOP.M 247.0000:
STEP.M 0.1250:
NULL. -999.2500:
UWI. F12010:
~C
DEPT.M :
SP.MV :
GR.API :
RI. :
RML.OHMM :
RXO.OHMM :
DEN.GM/CC :
~A
# ...
  230.2500    -8.1620    74.9380     5.3020     6.0670     5.6090     2.2730 
  230.3750    -8.0430    73.4850     5.1380     5.8950     5.4510     2.2490 
  230.5000    -7.7480    71.1190     4.9460     5.6930     5.1030     2.2320 
  230.6250    -7.4600    69.3330     4.7700     5.5080     4.6720     2.2360 
  230.7500    -7.2770    69.7800     4.6720     5.4060     4.6940     2.2500 
  230.8750    -7.2630    72.3500     4.6980     5.4330     5.0980     2.2630 
  231.0000    -7.2670    73.9070     4.8280     5.5690     5.5010     2.2700 
  231.1250    -7.2160    72.1710     5.0410     5.7930     5.5100     2.2700 
  231.2500    -7.2290    70.5880     5.2810     6.0450     5.5980     2.2610 
  231.3750    -7.3110    71.1780     5.5040     6.2790     6.2370     2.2490 
  231.5000    -7.2970    73.5420     5.6770     6.4610     6.7490     2.2460 
  231.6250    -7.3680    74.3130     5.8140     6.6050     6.8500     2.2650 
  231.7500    -7.5280    73.3530     5.8740     6.6670     6.5630     2.3000 
  231.8750    -7.6260    73.0500     5.8720     6.6660     5.8540     2.3230 
  232.0000    -7.6460    73.8970     5.8070     6.5970     5.9310     2.3200 
  232.1250    -7.6460    74.7570     5.6950     6.4800     6.5590     2.2970 
  232.2500    -7.6460    74.7450     5.6050     6.3850     6.0990     2.2810 
  232.3750    -7.6460    74.7990     5.5510     6.3290     5.4340     2.2850 
  232.5000    -7.6460    74.6990     5.5510     6.3280     5.4270     2.3020 
  232.6250    -7.6460    75.0260     5.5730     6.3520     5.6730     2.3160 
  232.7500    -7.6460    76.2800     5.6180     6.3990     5.9470     2.3190 
  232.8750    -7.6460    77.5690     5.6730     6.4560     6.3120     2.3230 
  233.0000    -7.6460    77.4490     5.7290     6.5150     6.6100     2.3310 
  233.1250    -7.6460    74.2770     5.8120     6.6020     6.3160     2.3350 
  233.2500    -7.6460    70.0100     5.9020     6.6970     5.9510     2.3320 
  233.3750    -7.6460    66.9010     5.9970     6.7970     6.0760     2.3360 
  233.5000    -7.6460    65.3470     6.0740     6.8780     6.3970     2.3480 
  233.6250    -7.6460    64.8110     6.1110     6.9170     6.5020     2.3520 
  233.7500    -7.6460    66.5470     6.1530     6.9610     6.1410     2.3460 
  233.8750    -7.6460    72.6210     6.2020     7.0120     5.6590     2.3470 
  234.0000    -7.6460    78.3240     6.2880     7.1020     5.5930     2.3570 
  234.1250    -7.6460    79.9450     6.4800     7.3040     5.8080     2.3570 
  234.2500    -7.6460    77.9140     6.7430     7.5800     6.0910     2.3530 
  234.3750    -7.6460    75.1920     7.0500     7.9030     7.3450     2.3640 
  234.5000    -7.6460    72.6400     7.3280     8.1950     9.0590     2.3870 
  234.6250    -7.6460    71.3130     7.5540     8.4310     9.3430     2.4080 
  234.7500    -7.6460    71.3050     7.6970     8.5820     8.5670     2.4250 
  234.8750    -7.6460    71.8280     7.7740     8.6630     8.0630     2.4290 
  235.0000    -7.6460    72.0340     7.7870     8.6760     9.1660     2.4180 
  235.1250    -7.6460    70.9050     7.7210     8.6070    10.4590     2.4050 
  235.2500    -7.6460    68.9700     7.6350     8.5170     9.4980     2.3950 
  235.3750    -7.6460    67.7300     7.5560     8.4340     7.8640     2.3820 
  235.5000    -7.6460    68.6770     7.4620     8.3350     7.1340     2.3750 
  235.6250    -7.6460    70.8980     7.3370     8.2040     7.3340     2.3780 
  235.7500    -7.6460    71.1840     7.1830     8.0420     8.0310     2.3770 
  235.8750    -7.6460    69.5970     7.0290     7.8800     7.7190     2.3610 
  236.0000    -7.6460    67.8540     6.9230     7.7690     6.7980     2.3520 
  236.1250    -7.6460    67.2910     6.9090     7.7540     7.0160     2.3660 
  236.2500    -7.6460    67.6690     6.9820     7.8310     7.7260     2.3830 
  236.3750    -7.6460    68.6680     7.1460     8.0030     7.8150     2.3810 
  236.5000    -7.6460    70.4250     7.3550     8.2230     7.8260     2.3720 
  236.6250    -7.6460    70.3080     7.5540     8.4310     8.0380     2.3760 
  236.7500    -7.6460    68.2270     7.7060     8.5920     7.9600     2.3880 
  236.8750    -7.6460    65.8280     7.8040     8.6940     7.8340     2.3930 
  237.0000    -7.6460    65.3530     7.8130     8.7040     7.7960     2.3890 
  237.1250    -7.6460    66.7040     7.7020     8.5870     7.9230     2.3830 
  237.2500    -7.6460    68.4180     7.4580     8.3310     8.4400     2.3790 
  237.3750    -7.6460    69.2540     7.1510     8.0080     8.7860     2.3720 
  237.5000    -7.6460    69.2090     6.8880     7.7330     8.3690     2.3620 
  237.6250    -7.6460    68.9410     6.7110     7.5470     7.5700     2.3540 
  237.7500    -7.6460    69.1330     6.6090     7.4400     7.4380     2.3480 
  237.8750    -7.6460    69.6280     6.6000     7.4300     7.4640     2.3330 
  238.0000    -7.6460    69.9070     6.6860     7.5200     6.8560     2.3080 
  238.1250    -7.6460    68.9110     6.8080     7.6490     8.5600     2.2930 
  238.2500    -7.6460    67.6230     6.9310     7.7780    18.3280     2.3060 
  238.3750    -7.6460    67.8640     6.9860     7.8350    25.4400     2.3390 
  238.5000    -7.6460    69.3550     6.9910     7.8410    17.4520     2.3690 
  238.6250    -7.6460    69.0830     6.9910     7.8400     8.4300     2.3770 
  238.7500    -7.6460    66.7110     6.9920     7.8420     6.9270     2.3800 
  238.8750    -7.6460    64.6370     6.9930     7.8420    12.8230     2.3950 
  239.0000    -7.6460    64.1670     6.9930     7.8420    18.8610     2.4120 
  239.1250    -7.6460    64.2560     6.9930     7.8420    13.4410     2.4170 
  239.2500    -7.6460    64.2750     6.9930     7.8420     8.9220     2.4160 
  239.3750    -7.6460    64.2750     6.9930     7.8420    11.1690     2.4210 
  239.5000    -7.6460    64.2750     6.9920     7.8420    11.5110     2.4310 
  239.6250    -7.6460    64.2750     6.9910     7.8410    10.1330     2.4310 
  239.7500    -7.6460    64.2750     6.9920     7.8410     9.6180     2.4200 
  239.8750    -7.6460    64.2750     6.9950     7.8440    14.3960     2.4090 
  240.0000    -7.6460    64.2750     6.9970     7.8470    36.8720     2.4090 
  240.1250    -7.6460    64.2750     6.9980     7.8480    49.7270     2.4190 
  240.2500    -7.6460    64.2750     6.9980     7.8470    26.9250     2.4300 
  240.3750    -7.6460    64.2750     6.9950     7.8450     9.1080     2.4340 
  240.5000    -7.6460    64.2750     6.9940     7.8440    10.8170     2.4360 
  240.6250    -7.6460    64.2750     6.9940     7.8430    14.4420     2.4430 
  240.7500    -7.6460    64.2750     6.9970     7.8470    15.3900     2.4510 
  240.8750    -7.6460    64.2750     6.9980     7.8480    12.4520     2.4450 
  241.0000    -7.6460    64.2750     6.9980     7.8470     9.4340     2.4220 
  241.1250    -7.6460    64.2750     6.9950     7.8450     7.0670     2.3970 
  241.2500    -7.6460    64.2750     6.9910     7.8410     6.2700     2.3910 
  241.3750    -7.6460    64.2750     6.9900     7.8400     8.2240     2.4060 
  241.5000    -7.6460    64.2750     6.9900     7.8390     9.7590     2.4240 
  241.6250    -7.6460    64.2750     6.9900     7.8390     9.1080     2.4310 
  241.7500    -7.6460    64.2750     6.9900     7.8390     8.2080     2.4320 
  241.8750    -7.6460    64.2750     6.9900     7.8390     7.9760     2.4310 
  242.0000    -7.6460    64.2750     6.9900     7.8390     8.7760     2.4260 
  242.1250    -7.6460    64.2750     6.9900     7.8390     9.8460     2.4150 
  242.2500    -7.6460    64.2750     6.9900     7.8390     9.2080     2.4000 
  242.3750    -7.6460    64.2750     6.9900     7.8390     7.7010     2.3880 
  242.5000    -7.6460    64.2750     6.9900     7.8390     7.3010     2.3680 
  242.6250    -7.6460    64.2750     6.9900     7.8390     7.5070     2.3410 
  242.7500    -7.6460    64.2750     6.9900     7.8390     6.7330     2.3230 
  242.8750    -7.6460    64.2750     6.9900     7.8390     6.1940     2.3320 
  243.0000    -7.6460    64.2750     6.9900     7.8390     7.2720     2.3560 
