~V
VERS. 2.00: Ver 2.00
~W
STRT.M 50.0000:
STOP.M 213.0000:
STEP.M 0.1250:
NULL. -999.2500:
UWI. F12007:
~C
DEPT.M :
SP.MV :
GR.API :
RI. :
RML.OHMM :
RXO.OHMM :
DEN.GM/CC :
~A
# ...
  140.1250    98.1620    57.3200    39.2150    40.7730    46.9770     2.4870 
  140.2500    97.9990    56.8450    37.6640    38.9670    43.0430     2.4680 
  140.3750    98.2660    57.5170    36.4480    37.6650    36.0410     2.4400 
  140.5000    98.8540    58.0070    36.5620    37.9210    34.9810     2.4090 
  140.6250    99.5150    59.0640    38.3500    40.0330    44.5350     2.3960 
  140.7500    99.9250    60.4140    40.8550    42.9200    48.8600     2.3990 
  140.8750    99.7750    60.3050    43.8470    46.2460    45.4820     2.4030 
  141.0000    99.1960    59.4350    46.0250    48.5600    46.6180     2.4090 
  141.1250    98.5110    59.0510    47.2810    49.8170    56.1120     2.4250 
  141.2500    97.8980    60.1620    47.6030    49.9870    59.9180     2.4500 
  141.3750    97.6260    60.8870    46.8610    49.0290    51.5350     2.4740 
  141.5000    97.8330    60.8520    45.9380    47.9350    48.5920     2.4820 
  141.6250    98.3110    60.5310    45.1470    47.0770    59.8910     2.4750 
  141.7500    98.7760    61.0380    44.6770    46.5800    63.7940     2.4690 
  141.8750    99.2010    61.6770    44.2610    46.1090    57.3510     2.4770 
  142.0000    99.4440    60.9250    43.6970    45.4720    55.9130     2.4800 
  142.1250    99.5610    59.3290    42.6960    44.3160    49.9220     2.4600 
  142.2500    99.5220    58.5720    41.4860    43.0260    40.3930     2.4370 
  142.3750    99.3590    58.1480    40.7970    42.3140    37.8600     2.4270 
  142.5000    99.1690    57.9200    40.6170    42.1390    38.5480     2.4220 
  142.6250    98.9980    60.4360    41.0770    42.7000    40.6760     2.4090 
  142.7500    98.8030    64.6700    41.9000    43.6450    43.8080     2.4010 
  142.8750    98.4940    66.2930    42.5730    44.4090    49.0460     2.4100 
  143.0000    98.2160    64.2190    42.8740    44.7870    52.1840     2.4120 
  143.1250    97.9420    62.3390    42.7000    44.6100    46.9350     2.3970 
  143.2500    97.6430    61.6170    42.0310    43.9360    41.5910     2.3890 
  143.3750    97.4910    60.8960    41.6370    43.5960    42.4950     2.4150 
  143.5000    97.7250    61.3530    41.5950    43.6650    45.1330     2.4460 
  143.6250    98.3830    64.0800    42.0970    44.3380    45.5210     2.4490 
  143.7500    99.1960    66.9740    42.8260    45.2510    52.1650     2.4420 
  143.8750    99.8120    66.9800    43.6900    46.3530    62.9900     2.4490 
  144.0000    99.8950    64.2780    44.8210    47.7330    58.9870     2.4530 
  144.1250    99.4270    61.5340    45.7460    48.8690    48.2290     2.4330 
  144.2500    98.7520    59.7210    46.1270    49.4410    46.7170     2.4170 
  144.3750    98.1150    57.8650    45.4600    48.9320    51.1840     2.4390 
  144.5000    97.7380    55.6210    44.0880    47.6010    52.0010     2.4800 
  144.6250    97.9330    56.1290    42.0850    45.3850    46.3190     2.5000 
  144.7500    98.4780    59.0260    39.3820    42.3320    41.3430     2.4950 
  144.8750    99.0690    60.0300    36.7250    39.2990    39.8070     2.4810 
  145.0000    99.5800    58.7320    34.6300    37.0050    37.8070     2.4600 
  145.1250    99.8640    57.5070    33.7790    36.1320    34.3550     2.4380 
  145.2500    99.9560    56.8300    34.0340    36.5120    33.5980     2.4290 
  145.3750    99.9580    55.6660    34.8130    37.4760    35.1070     2.4340 
  145.5000    99.8510    55.0900    35.5260    38.3470    35.2010     2.4400 
  145.6250    99.7220    55.9560    35.6600    38.5490    34.8030     2.4330 
  145.7500    99.5800    57.4690    34.9740    37.7690    35.2860     2.4210 
  145.8750    99.4640    58.2660    33.9010    36.6390    35.1620     2.4060 
  146.0000    99.2740    57.8870    33.0190    35.7580    33.7970     2.3980 
  146.1250    99.0740    56.0340    32.1710    34.9070    34.4080     2.4020 
  146.2500    98.9450    54.5900    31.0810    33.8060    35.8360     2.4090 
  146.3750    98.8500    55.3540    29.8340    32.4850    35.9550     2.4130 
  146.5000    98.8400    57.7520    28.3860    30.9250    34.8650     2.4150 
  146.6250    99.1230    59.7260    27.1510    29.6010    30.0250     2.4210 
  146.7500    99.7630    59.9340    26.3530    28.7910    25.7420     2.4220 
  146.8750   100.5680    59.9060    26.0230    28.5610    26.2250     2.4130 
  147.0000   101.2510    60.7480    26.0670    28.7470    27.8710     2.4080 
  147.1250   101.4830    61.3710    26.0550    28.7720    28.8710     2.4250 
  147.2500   101.1940    60.7020    25.4860    28.0730    28.2980     2.4490 
  147.3750   100.5580    59.6630    24.3900    26.7770    26.2100     2.4540 
  147.5000    99.8810    59.7360    23.1780    25.4020    24.6220     2.4450 
  147.6250    99.4460    60.0600    22.4420    24.6980    23.1080     2.4340 
  147.7500    99.4300    59.7330    22.2910    24.7000    22.7070     2.4190 
  147.8750    99.7740    60.2430    22.4570    25.0680    24.4040     2.4020 
  148.0000   100.1250    60.3840    22.6230    25.3960    25.8770     2.3930 
  148.1250   100.5000    59.4950    22.4740    25.2840    26.1430     2.3930 
  148.2500   100.7930    57.9960    21.8950    24.6320    24.6980     2.3950 
  148.3750   100.9770    57.2430    20.9450    23.5270    22.5240     2.4000 
  148.5000   101.0920    57.7400    20.0910    22.6120    21.1900     2.4000 
  148.6250   101.1560    58.1180    19.6740    22.2380    20.2570     2.3840 
  148.7500   101.0850    57.4740    19.6770    22.3870    19.8950     2.3670 
  148.8750   100.8700    56.8450    19.9110    22.8210    21.3520     2.3770 
  149.0000   100.7870    58.6740    20.1630    23.2320    23.4830     2.4070 
  149.1250   100.6610    61.5340    20.2510    23.4110    23.0330     2.4400 
  149.2500   100.4240    61.1850    20.1140    23.2940    21.8740     2.4620 
  149.3750   100.1700    57.6910    19.7630    22.8630    23.0320     2.4730 
  149.5000    99.9290    55.3290    19.2410    22.2310    23.1660     2.4710 
  149.6250    99.6860    56.2240    18.7740    21.6940    21.1630     2.4510 
  149.7500    99.6980    57.7710    18.4090    21.3120    19.9000     2.4220 
  149.8750   100.1340    58.2460    17.9590    20.8720    18.6990     2.4030 
  150.0000   100.7970    57.6430    17.4000    20.3270    18.6560     2.4020 
  150.1250   101.4870    57.0480    16.8140    19.7220    19.4410     2.4050 
  150.2500   101.8580    56.3200    16.2180    19.0540    17.5930     2.4020 
  150.3750   101.6340    57.0740    15.8130    18.5680    15.6540     2.3960 
  150.5000   101.0750    59.4880    15.6480    18.3030    15.5950     2.3920 
  150.6250   100.4560    62.3130    15.6040    18.1300    16.6730     2.3820 
  150.7500    99.9560    64.0670    15.7040    18.0970    18.4800     2.3610 
  150.8750    99.8420    64.0120    15.9140    18.1790    19.5130     2.3430 
  151.0000   100.1530    61.9750    16.1240    18.2740    19.0560     2.3540 
  151.1250   100.6340    61.0010    16.2360    18.3140    18.5020     2.3830 
  151.2500   101.0950    61.7300    16.1380    18.1510    19.2560     2.4010 
  151.3750   101.5000    61.6190    15.7880    17.7320    19.6090     2.4090 
  151.5000   101.7900    59.7800    15.3600    17.2420    18.0870     2.4170 
  151.6250   101.8650    58.6320    15.1370    17.0320    15.2470     2.4000 
  151.7500   101.8310    59.4890    15.2160    17.2220    13.6330     2.3530 
  151.8750   101.6190    61.6070    15.5780    17.7700    15.6270     2.3300 
  152.0000   101.3730    63.5270    16.0440    18.4220    18.6060     2.3530 
  152.1250   101.2820    63.4560    16.4180    18.8940    19.0950     2.3860 
  152.2500   101.1560    62.5280    16.6290    19.0930    17.1030     2.4040 
  152.3750   101.0140    62.4160    16.6390    19.0390    15.2130     2.4160 
  152.5000   100.9870    62.4550    17.0530    19.5550    15.5290     2.4230 
  152.6250   100.9530    61.3630    18.0820    20.8850    17.2480     2.4200 
  152.7500   100.7630    61.4080    19.5350    22.7440    18.8950     2.4160 
  152.8750   100.7040    62.9300    21.0660    24.6420    22.2530     2.4130 
