~V
VERS. 2.00: Ver 2.00
~W
STRT.M 50.0000:
STOP.M 226.0000:
STEP.M 0.1250:
NULL. -999.2500:
UWI. F12001:
~C
DEPT.M :
SP.MV :
GR.API :
RI. :
RML.OHMM :
RXO.OHMM :
DEN.GM/CC :
~A
# ...
  191.6250    -1.0880    85.1800     6.9830     8.8510     5.9060     2.2820 
  191.7500    -1.3070    86.5950     6.7340     8.5330     6.4250     2.2430 
  191.8750    -1.4600    88.1760     6.6870     8.4960     6.5380     2.2250 
  192.0000    -1.6120    91.6280     6.8040     8.6850     6.5830     2.2150 
  192.1250    -1.7210    98.0850     7.0610     9.0560     7.0410     2.2220 
  192.2500    -1.7990   101.7920     7.5290     9.7370     6.9560     2.2560 
  192.3750    -1.7380    98.9510     8.1130    10.6080     7.4540     2.2950 
  192.5000    -1.6560    95.0640     8.7020    11.5070     9.8100     2.3040 
  192.6250    -1.6120    95.7070     9.0150    12.0380    11.7470     2.2780 
  192.7500    -1.6190    99.9940     8.8900    11.9190    11.6480     2.2470 
  192.8750    -1.6560   102.9650     8.4330    11.2800    10.4430     2.2330 
  193.0000    -1.8220   104.3440     7.7290    10.2850     8.7250     2.2310 
  193.1250    -2.1310   103.6620     7.0580     9.3580     6.6470     2.2270 
  193.2500    -2.4360   100.7590     6.4930     8.6130     5.4960     2.2170 
  193.3750    -2.6530    96.2450     6.1260     8.1710     5.7040     2.2030 
  193.5000    -2.8190    93.0310     5.9900     8.0190     6.1430     2.1930 
  193.6250    -2.9670    91.3580     5.9950     8.0200     6.2230     2.1900 
  193.7500    -3.0570    91.9680     6.0800     8.0960     6.1560     2.1960 
  193.8750    -2.9530    95.6730     6.2240     8.2470     6.2800     2.2070 
  194.0000    -2.6120   100.0380     6.3390     8.3840     6.6910     2.2080 
  194.1250    -2.1990   100.9470     6.3620     8.4140     7.2130     2.2000 
  194.2500    -1.8260    98.3250     6.2340     8.2340     7.0570     2.1910 
  194.3750    -1.6220    96.6030     5.9050     7.7680     5.8190     2.1890 
  194.5000    -1.4700    96.6120     5.4280     7.1120     4.5770     2.1900 
  194.6250    -1.3210    96.4300     4.9430     6.4790     3.9280     2.1890 
  194.7500    -1.1820    94.7360     4.5300     5.9780     3.7660     2.1830 
  194.8750    -1.0780    90.7220     4.3010     5.7480     3.9720     2.1790 
  195.0000    -1.0420    85.1570     4.2320     5.7130     4.0430     2.1820 
  195.1250    -1.0320    79.8650     4.2400     5.7330     4.0440     2.1930 
  195.2500    -0.8490    77.1380     4.3320     5.8200     4.3030     2.2090 
  195.3750    -0.3800    76.4950     4.6520     6.2040     4.5460     2.2360 
  195.5000     0.2460    74.8690     5.3960     7.2120     5.0990     2.2680 
  195.6250     0.8550    72.2350     6.6120     8.9070     7.9230     2.3030 
  195.7500     1.3480    71.2990     8.1520    11.0720    14.5430     2.3380 
  195.8750     1.5960    73.2550     9.6730    13.1760    19.7650     2.3680 
  196.0000     1.5520    76.1940    10.5230    14.2600    17.8570     2.3830 
  196.1250     1.3800    76.9020    10.4810    14.0910    12.9360     2.3860 
  196.2500     1.0970    76.4910     9.4780    12.6310     9.5650     2.3750 
  196.3750     0.7750    78.2830     8.1310    10.7980     7.9640     2.3340 
  196.5000     0.4600    84.8060     6.8900     9.2030     7.4880     2.2710 
  196.6250     0.1190    91.4000     6.1230     8.2710     6.8440     2.2220 
  196.7500    -0.2800    94.9960     5.7350     7.8160     5.8990     2.2050 
  196.8750    -0.7080    94.8160     5.5800     7.6330     5.3450     2.2070 
  197.0000    -1.1950    93.2630     5.6110     7.6700     5.4310     2.2060 
  197.1250    -1.5880    90.2870     5.7590     7.8440     5.9060     2.2020 
  197.2500    -1.8970    88.8840     5.9730     8.1010     6.6480     2.2040 
  197.3750    -2.0780    92.4520     6.2700     8.4640     7.3080     2.2120 
  197.5000    -2.1000    98.0760     6.6270     8.9080     7.1770     2.2150 
  197.6250    -2.0070    99.2250     6.8740     9.2120     7.0410     2.2240 
  197.7500    -1.7950    93.0990     6.8960     9.2160     9.2060     2.2570 
  197.8750    -1.5530    84.2090     6.6250     8.8290    11.0660     2.3110 
  198.0000    -1.3480    79.7010     6.1500     8.1620     8.6980     2.3440 
  198.1250    -1.2560    80.1120     5.6500     7.4730     5.8000     2.3230 
  198.2500    -1.2460    82.1810     5.2510     6.9450     5.0960     2.2730 
  198.3750    -1.1830    84.7910     5.0380     6.6990     5.0840     2.2330 
  198.5000    -1.0360    89.8770     5.0380     6.7510     5.3380     2.2140 
  198.6250    -0.8710    92.7370     5.2310     7.0480     5.4610     2.2050 
  198.7500    -0.6900    90.3740     5.5410     7.4670     5.4120     2.1970 
  198.8750    -0.5470    86.9310     5.9540     8.0180     5.8350     2.1950 
  199.0000    -0.4590    88.3380     6.4410     8.6650     6.5530     2.1970 
  199.1250    -0.3560    93.6250     6.9210     9.3050     7.5230     2.2000 
  199.2500    -0.2660    98.6530     7.2900     9.7790     8.5680     2.2030 
  199.3750    -0.3070    99.9370     7.4340     9.9100     8.5680     2.2040 
  199.5000    -0.4150    99.2640     7.3940     9.7730     7.8550     2.2050 
  199.6250    -0.5690    99.0330     7.2120     9.4570     7.4210     2.2100 
  199.7500    -0.7540   101.4770     6.9440     9.0680     7.2660     2.2140 
  199.8750    -1.0680   102.9470     6.6620     8.7020     7.1460     2.2120 
  200.0000    -1.4360   100.3900     6.4280     8.4120     6.9410     2.2100 
  200.1250    -1.8530    96.6980     6.3250     8.2880     6.7260     2.2120 
  200.2500    -2.1340    95.6990     6.3740     8.3600     6.6550     2.2170 
  200.3750    -2.2430    95.2680     6.5630     8.6240     7.1870     2.2220 
  200.5000    -2.1920    94.9770     6.8130     8.9680     8.4580     2.2290 
  200.6250    -2.0510    96.1190     7.0040     9.2190     9.2960     2.2340 
  200.7500    -1.9140    98.8480     6.9850     9.1370     8.6720     2.2290 
  200.8750    -1.7900    99.1080     6.6760     8.6440     7.2600     2.2140 
  201.0000    -1.6900    96.6930     6.2180     7.9480     6.1660     2.2000 
  201.1250    -1.6550    94.1560     5.7590     7.2820     5.5820     2.1920 
  201.2500    -1.6660    92.5550     5.4460     6.8630     5.4130     2.1920 
  201.3750    -1.7490    89.7890     5.3040     6.6880     5.6150     2.2020 
  201.5000    -1.8830    85.0050     5.2930     6.6980     5.6860     2.2260 
  201.6250    -1.9480    80.8460     5.3770     6.8290     5.4710     2.2480 
  201.7500    -1.9310    80.6050     5.5110     7.0070     5.6170     2.2510 
  201.8750    -1.7730    84.7940     5.6630     7.1940     6.1880     2.2300 
  202.0000    -1.4930    90.3190     5.8250     7.3870     6.5780     2.2080 
  202.1250    -1.1310    92.3660     6.0060     7.5850     6.6970     2.2020 
  202.2500    -0.7470    90.1710     6.1610     7.7310     6.7870     2.2090 
  202.3750    -0.4690    86.6800     6.2500     7.7900     7.1470     2.2170 
  202.5000    -0.4080    84.1510     6.2810     7.7820     7.3700     2.2180 
  202.6250    -0.5490    83.9320     6.3680     7.8880     6.9780     2.2150 
  202.7500    -0.7780    85.1140     6.5660     8.1640     6.7500     2.2110 
  202.8750    -0.9810    85.9030     6.8670     8.5700     6.9700     2.2120 
  203.0000    -1.1140    86.0920     7.1870     8.9820     7.2720     2.2180 
  203.1250    -1.1360    86.5910     7.3410     9.1220     7.3910     2.2280 
  203.2500    -1.1270    87.5870     7.2850     8.9670     7.2480     2.2410 
  203.3750    -1.0780    86.9990     6.9350     8.4490     6.7910     2.2490 
  203.5000    -0.9710    86.3030     6.4520     7.7940     6.1820     2.2460 
  203.6250    -0.9270    87.4420     6.0040     7.2290     5.9200     2.2330 
  203.7500    -0.9310    88.5650     5.7170     6.8780     5.9920     2.2170 
  203.8750    -0.9930    88.9040     5.6860     6.8460     6.2530     2.2070 
  204.0000    -1.0420    90.3530     5.7800     6.9650     6.5380     2.2050 
  204.1250    -1.0030    94.0590     5.9450     7.1470     6.5460     2.2070 
  204.2500    -0.8900    97.4480     6.0980     7.2980     6.5260     2.2080 
  204.3750    -0.6950    98.3060     6.2180     7.3950     6.6900     2.2080 
