~V
VERS. 2.00: Ver 2.00
~W
STRT.M 50.0000:
STOP.M 255.0000:
STEP.M 0.1250:
NULL. -999.2500:
UWI. F12008:
~C
DEPT.M :
SP.MV :
GR.API :
RI. :
RML.OHMM :
RXO.OHMM :
DEN.GM/CC :
~A
# ...
  217.3750   -11.2590    87.7440     5.9230     6.7790     7.1810     2.2160 
  217.5000   -11.1590    86.0540     5.3860     6.2100     6.7930     2.2380 
  217.6250   -11.0540    83.0340     5.1030     5.9100     6.6480     2.2420 
  217.7500   -10.9780    80.1580     5.0710     5.8750     5.7270     2.2260 
  217.8750   -10.9970    80.6180     5.3030     6.1220     5.1240     2.1960 
  218.0000   -11.1720    84.1380     5.7510     6.5960     5.3230     2.1640 
  218.1250   -11.5640    86.4720     6.3900     7.2730     6.1140     2.1540 
  218.2500   -12.1510    86.7730     7.1690     8.0990     7.7540     2.1910 
  218.3750   -12.8800    87.1280     7.8610     8.8330     9.2830     2.2520 
  218.5000   -13.6340    89.7010     8.3560     9.3580     9.7480     2.2810 
  218.6250   -14.2830    93.8820     8.4290     9.4350    10.6420     2.2570 
  218.7500   -14.7320    95.6850     7.9610     8.9380    11.9000     2.2140 
  218.8750   -14.8950    94.6050     7.1100     8.0370    12.0430     2.1770 
  219.0000   -14.7750    92.8780     6.1780     7.0480    11.1670     2.1500 
  219.1250   -14.3740    91.7770     5.3890     6.2130     9.1990     2.1430 
  219.2500   -13.7660    90.1400     4.9480     5.7450     7.0040     2.1510 
  219.3750   -13.0260    87.4180     4.8190     5.6080     5.5850     2.1660 
  219.5000   -12.2640    84.2480     4.8580     5.6490     5.3080     2.1830 
  219.6250   -11.5840    80.4300     5.0200     5.8210     6.0940     2.1990 
  219.7500   -11.0400    76.9800     5.1990     6.0110     6.6760     2.2130 
  219.8750   -10.6590    76.7010     5.3410     6.1610     6.6500     2.2220 
  220.0000   -10.4070    79.1480     5.4400     6.2660     6.6540     2.2300 
  220.1250   -10.2590    79.5460     5.4960     6.3260     6.6170     2.2320 
  220.2500   -10.1850    76.0160     5.5370     6.3690     6.4410     2.2270 
  220.3750   -10.1810    72.9960     5.5620     6.3960     6.6040     2.2220 
  220.5000   -10.2360    73.5210     5.5820     6.4170     6.8820     2.2190 
  220.6250   -10.3370    75.3700     5.6210     6.4580     6.8920     2.2090 
  220.7500   -10.4600    75.4100     5.6680     6.5080     7.0580     2.1980 
  220.8750   -10.5940    76.3130     5.7490     6.5940     7.3970     2.1990 
  221.0000   -10.7410    80.5230     5.8580     6.7100     7.4460     2.2100 
  221.1250   -10.9180    85.7570     5.9820     6.8410     7.1910     2.2170 
  221.2500   -11.1360    87.8220     6.1380     7.0060     7.0680     2.2230 
  221.3750   -11.4050    84.7330     6.3830     7.2660     7.2320     2.2300 
  221.5000   -11.7180    81.6120     6.6850     7.5870     7.2610     2.2290 
  221.6250   -12.0630    82.0430     6.9870     7.9060     7.8020     2.2140 
  221.7500   -12.4180    85.9470     7.2440     8.1790     9.5020     2.2000 
  221.8750   -12.7540    90.7900     7.3860     8.3290    10.4640     2.2050 
  222.0000   -13.0490    93.4330     7.4710     8.4190     9.7740     2.2120 
  222.1250   -13.2870    91.7660     7.5470     8.5000     9.1870     2.1900 
  222.2500   -13.4810    88.0550     7.6590     8.6180     8.8670     2.1570 
  222.3750   -13.6550    88.5550     7.9370     8.9130     8.3580     2.1540 
  222.5000   -13.8500    92.9380     8.3400     9.3410     7.9960     2.1850 
  222.6250   -14.0990    97.0020     8.7800     9.8060     8.0560     2.2230 
  222.7500   -14.4000    98.7580     9.1930    10.2450     9.5180     2.2450 
  222.8750   -14.7260   100.5450     9.5230    10.5940    12.5940     2.2570 
  223.0000   -15.0370   102.7970     9.7740    10.8610    15.3920     2.2610 
  223.1250   -15.3010   101.4800     9.8510    10.9420    15.5960     2.2550 
  223.2500   -15.5050    96.8320     9.7250    10.8080    13.6800     2.2460 
  223.3750   -15.6320    93.4240     9.4110    10.4760    12.0690     2.2430 
  223.5000   -15.6740    93.7390     9.0350    10.0770    11.5840     2.2480 
  223.6250   -15.6120    95.2160     8.7120     9.7350    11.2610     2.2490 
  223.7500   -15.4610    95.9830     8.4700     9.4780    10.8940     2.2440 
  223.8750   -15.2280    95.5120     8.3930     9.3970    10.7260     2.2430 
  224.0000   -14.9330    93.2580     8.5290     9.5400    10.3470     2.2570 
  224.1250   -14.5720    91.3660     9.0760    10.1210    10.0340     2.2890 
  224.2500   -14.1440    91.4630    10.0090    11.1100    11.4770     2.3190 
  224.3750   -13.6370    90.3990    11.2460    12.4200    16.7180     2.3410 
  224.5000   -13.0540    84.8630    12.3170    13.5570    21.6730     2.3610 
  224.6250   -12.4030    78.4100    12.4210    13.6660    21.8890     2.3660 
  224.7500   -11.7170    75.2070    11.8130    13.0220    19.1480     2.3400 
  224.8750   -11.0530    75.9200    10.5340    11.6660    14.1450     2.2860 
  225.0000   -10.4850    78.9520     9.3450    10.4050     9.6410     2.2430 
  225.1250   -10.0930    82.8410     8.5300     9.5420     8.2790     2.2280 
  225.2500    -9.8960    86.2630     8.0930     9.0790     8.6010     2.2300 
  225.3750    -9.8890    89.5430     7.9680     8.9460     9.4290     2.2370 
  225.5000    -9.9960    92.7760     8.0260     9.0070     9.8640     2.2440 
  225.6250   -10.1420    96.5550     8.0640     9.0480     9.9930     2.2480 
  225.7500   -10.2620    99.3110     7.9970     8.9770    10.0640     2.2480 
  225.8750   -10.3040    99.0110     7.8530     8.8240     9.8640     2.2390 
  226.0000   -10.2530    94.6550     7.6950     8.6570     9.3290     2.2290 
  226.1250   -10.0960    89.9510     7.5770     8.5320     8.5870     2.2280 
  226.2500    -9.8550    87.7170     7.5360     8.4880     8.4600     2.2340 
  226.3750    -9.5600    86.6230     7.5240     8.4750     8.7710     2.2410 
  226.5000    -9.2560    85.7150     7.4620     8.4090     8.7240     2.2540 
  226.6250    -8.9790    85.2680     7.2770     8.2130     8.7480     2.2650 
  226.7500    -8.7470    84.6660     6.9550     7.8720     8.8320     2.2550 
  226.8750    -8.5680    84.8250     6.5740     7.4690     8.6220     2.2250 
  227.0000    -8.4270    86.7060     6.2550     7.1310     8.2570     2.2030 
  227.1250    -8.3070    90.3110     6.0590     6.9230     7.7080     2.2020 
  227.2500    -8.1920    91.2410     6.0250     6.8860     7.4150     2.2070 
  227.3750    -8.0730    88.6970     6.1740     7.0440     7.4650     2.2130 
  227.5000    -7.9560    85.5990     6.4590     7.3460     7.2730     2.2170 
  227.6250    -7.8580    83.0620     6.8160     7.7250     7.4890     2.2150 
  227.7500    -7.7960    81.3860     7.1210     8.0480     8.6980     2.2170 
  227.8750    -7.7740    81.8890     7.2060     8.1380     9.2740     2.2330 
  228.0000    -7.7540    83.8440     7.0430     7.9650     8.8020     2.2530 
  228.1250    -7.6570    85.4850     6.6360     7.5340     8.2310     2.2570 
  228.2500    -7.4050    87.7730     6.1660     7.0360     6.8900     2.2500 
  228.3750    -6.9260    89.6320     5.8280     6.6780     5.7910     2.2470 
  228.5000    -6.2430    87.4140     5.6660     6.5060     6.1210     2.2530 
  228.6250    -5.4090    81.0550     5.6860     6.5270     6.7720     2.2620 
  228.7500    -4.5300    76.1450     5.7860     6.6330     8.9800     2.2670 
  228.8750    -3.6980    74.1780     5.8280     6.6770    11.1230     2.2700 
  229.0000    -2.9670    71.9620     5.7890     6.6360     9.7560     2.2920 
  229.1250    -2.3700    69.0990     5.6850     6.5260     7.5400     2.3200 
  229.2500    -1.8910    66.4800     5.5730     6.4080     5.7300     2.3210 
  229.3750    -1.5090    64.8270     5.5310     6.3630     5.0670     2.2900 
  229.5000    -1.1830    64.6660     5.5800     6.4140     5.7050     2.2640 
  229.6250    -0.8930    67.7930     5.7490     6.5940     5.9280     2.2790 
  229.7500    -0.6320    73.0330     5.9460     6.8030     5.3790     2.3260 
  229.8750    -0.4180    76.3210     6.1340     7.0020     5.4910     2.3610 
  230.0000    -0.2690    75.3130     6.2420     7.1170     6.0740     2.3330 
  230.1250    -0.2050    73.6560     6.2370     7.1110     6.1560     2.2650 
