~V
VERS. 2.00: Ver 2.00
~W
STRT.M 50.0000:
STOP.M 193.0000:
STEP.M 0.1250:
NULL. -999.2500:
UWI. F12006:
~C
DEPT.M :
SP.MV :
GR.API :
RI. :
RML.OHMM :
RXO.OHMM :
DEN.GM/CC :
~A
# ...
  140.1250   -32.3590    51.7450    19.5930    21.0720    20.2830     2.5680 
  140.2500   -31.9620    51.0680    19.3480    20.8150    20.0020     2.5810 
  140.3750   -31.5100    49.2630    19.5690    21.0480    20.3110     2.5850 
  140.5000   -31.0620    48.1770    20.1900    21.6990    20.8370     2.5870 
  140.6250   -30.6670    49.3560    20.9930    22.5430    20.5150     2.5670 
  140.7500   -30.3520    50.6300    21.6490    23.2310    20.8700     2.5190 
  140.8750   -30.1410    50.0900    21.8560    23.4490    22.2170     2.4790 
  141.0000   -30.0240    48.9820    21.6610    23.2440    22.9520     2.4720 
  141.1250   -29.9850    50.1780    21.2140    22.7750    22.9060     2.4880 
  141.2500   -29.9880    51.3870    20.7750    22.3140    21.5200     2.4960 
  141.3750   -29.9960    51.9790    20.6380    22.1700    20.5820     2.4910 
  141.5000   -29.9900    53.6340    20.9490    22.4960    21.5250     2.4740 
  141.6250   -29.9650    57.4010    21.8770    23.4710    24.6680     2.4530 
  141.7500   -29.9400    61.2810    23.3280    24.9940    30.0040     2.4460 
  141.8750   -29.9300    61.9010    25.2330    26.9940    34.1770     2.4620 
  142.0000   -29.9390    57.7860    27.3960    29.2650    36.8750     2.4890 
  142.1250   -29.9520    51.0530    29.3830    31.3520    41.3510     2.5100 
  142.2500   -29.9420    46.7870    30.8710    32.9150    45.2050     2.5230 
  142.3750   -29.8820    46.9750    31.3080    33.3740    43.5700     2.5330 
  142.5000   -29.7650    49.2760    30.1550    32.1630    39.1440     2.5430 
  142.6250   -29.5900    52.9710    27.9610    29.8590    36.2530     2.5550 
  142.7500   -29.3810    57.0630    25.6370    27.4180    32.2890     2.5600 
  142.8750   -29.1660    58.9040    23.9110    25.6060    27.5600     2.5650 
  143.0000   -28.9710    59.5820    23.3930    25.0630    28.0780     2.5790 
  143.1250   -28.8180    60.8650    23.5530    25.2300    31.5060     2.5860 
  143.2500   -28.7040    61.5720    23.6700    25.3540    32.8070     2.5650 
  143.3750   -28.6200    59.3010    23.5550    25.2320    32.3840     2.5330 
  143.5000   -28.5480    56.7390    23.2070    24.8670    29.8160     2.5330 
  143.6250   -28.4800    57.8340    22.9670    24.6150    25.1800     2.5490 
  143.7500   -28.4210    60.8790    23.3210    24.9880    24.3040     2.5400 
  143.8750   -28.3910    61.7910    24.2860    26.0010    33.1510     2.5150 
  144.0000   -28.4070    59.0940    25.1370    26.8940    43.7300     2.5020 
  144.1250   -28.4780    55.7970    25.1820    26.9410    45.5270     2.4960 
  144.2500   -28.5890    54.4530    24.0980    25.8020    38.7700     2.4800 
  144.3750   -28.7560    53.9120    20.6900    22.2240    24.4110     2.4650 
  144.5000   -28.8550    52.9750    18.0980    19.5030    21.3320     2.4640 
  144.6250   -28.9330    51.9050    16.0060    17.3070    21.8140     2.4680 
  144.7500   -29.0110    51.4880    14.8070    16.0470    19.8580     2.4610 
  144.8750   -29.1130    51.3590    14.2400    15.4520    17.2390     2.4420 
  145.0000   -29.2590    51.9570    13.9720    15.1710    15.6360     2.4230 
  145.1250   -29.4600    53.5540    13.8130    15.0040    15.1980     2.4050 
  145.2500   -29.7000    55.2630    13.7580    14.9450    16.2130     2.3890 
  145.3750   -29.9360    54.6470    13.7970    14.9870    16.8650     2.3890 
  145.5000   -30.1120    52.2550    13.8050    14.9950    17.0190     2.4060 
  145.6250   -30.1720    50.6270    13.7190    14.9050    17.5900     2.4480 
  145.7500   -30.1090    50.0140    13.6090    14.7890    17.6730     2.4500 
  145.8750   -29.9360    48.7330    13.5670    14.7450    16.7960     2.4400 
  146.0000   -29.7030    47.5630    13.6090    14.7900    15.8290     2.4340 
  146.1250   -29.4550    48.6600    13.6910    14.8760    16.2440     2.4400 
  146.2500   -29.2340    50.7990    13.8460    15.0380    16.8470     2.4500 
  146.3750   -29.0670    52.5300    14.1190    15.3250    16.3000     2.4550 
  146.5000   -28.9520    53.5450    14.4650    15.6880    15.7280     2.4500 
  146.6250   -28.8620    52.3870    14.7780    16.0170    15.5890     2.4380 
  146.7500   -28.7620    49.5800    14.9710    16.2190    16.4090     2.4370 
  146.8750   -28.6330    49.7630    14.9940    16.2430    17.4640     2.4450 
  147.0000   -28.4860    52.7050    14.8690    16.1130    16.6510     2.4430 
  147.1250   -28.3540    53.6880    14.6990    15.9340    15.4730     2.4340 
  147.2500   -28.2720    51.5770    14.5600    15.7880    15.5960     2.4370 
  147.3750   -28.2670    52.2490    14.5380    15.7650    15.6410     2.4470 
  147.5000   -28.3330    54.9680    14.6930    15.9270    15.9730     2.4490 
  147.6250   -28.4550    54.6220    14.9740    16.2230    16.9940     2.4490 
  147.7500   -28.6010    50.4960    15.2900    16.5550    18.3400     2.4440 
  147.8750   -28.7480    48.0070    15.5710    16.8500    21.9400     2.4350 
  148.0000   -28.8800    49.9140    15.7820    17.0710    24.4740     2.4300 
  148.1250   -28.9950    54.2030    15.9190    17.2150    21.4290     2.4370 
  148.2500   -29.1000    57.6820    15.9040    17.1990    17.7050     2.4480 
  148.3750   -29.2020    58.2680    15.7320    17.0180    17.0310     2.4540 
  148.5000   -29.3010    56.2290    15.4410    16.7130    17.8590     2.4550 
  148.6250   -29.3780    52.9220    15.1710    16.4300    17.7630     2.4580 
  148.7500   -29.4000    51.8830    14.8580    16.1000    16.7510     2.4660 
  148.8750   -29.3290    54.7220    14.4750    15.6990    17.1790     2.4810 
  149.0000   -29.1610    58.1510    14.0270    15.2290    17.0530     2.4840 
  149.1250   -28.9070    59.3020    13.5900    14.7690    14.9410     2.4410 
  149.2500   -28.6080    57.6730    13.4020    14.5720    13.9840     2.4050 
  149.3750   -28.3010    55.0880    13.5100    14.6850    14.8860     2.4130 
  149.5000   -28.0180    52.1920    13.8990    15.0930    16.5720     2.4460 
  149.6250   -27.7940    50.1680    14.5210    15.7470    18.6110     2.4720 
  149.7500   -27.6440    49.6380    15.1230    16.3800    19.2850     2.4930 
  149.8750   -27.5870    49.0060    15.4930    16.7680    18.8420     2.5110 
  150.0000   -27.6150    47.2840    15.5810    16.8600    18.4380     2.5160 
  150.1250   -27.7300    46.9880    15.4430    16.7150    18.6590     2.5070 
  150.2500   -27.9210    49.5440    15.2030    16.4630    19.6170     2.5050 
  150.3750   -28.2010    52.7400    14.6920    15.9270    19.8320     2.5060 
  150.5000   -28.5770    54.6610    13.8660    15.0590    18.7210     2.4900 
  150.6250   -29.0750    55.0920    12.7090    13.8440    16.4790     2.4510 
  150.7500   -29.6880    55.4820    11.2520    12.3140    13.7100     2.3790 
  150.8750   -30.4130    58.9710     9.7400    10.7270    11.6210     2.3420 
  151.0000   -31.2060    69.3720     8.3490     9.2660    10.6580     2.3170 
  151.1250   -32.0100    81.5470     7.2130     8.0740     9.4330     2.3020 
  151.2500   -32.7490    85.8360     6.4880     7.3130     7.1950     2.2920 
  151.3750   -33.3260    82.1760     6.1260     6.9320     5.5990     2.2810 
  151.5000   -33.6900    77.2520     6.0410     6.8430     5.9220     2.2750 
  151.6250   -33.8210    74.6020     6.2170     7.0280     7.4040     2.2750 
  151.7500   -33.8050    72.8960     6.6350     7.4670     8.5680     2.2760 
  151.8750   -33.7450    73.4590     7.2020     8.0620     9.1280     2.2840 
  152.0000   -33.7320    77.8310     7.6920     8.5760     9.5330     2.2960 
  152.1250   -33.7930    82.2330     7.8900     8.7840     9.6650     2.3000 
  152.2500   -33.8890    82.9150     7.8340     8.7260     9.5970     2.2950 
  152.3750   -33.9710    79.4170     7.5670     8.4450     9.1700     2.3020 
  152.5000   -34.0150    75.1040     7.2380     8.1000     7.7080     2.3330 
  152.6250   -34.0330    70.9540     6.9600     7.8080     8.2220     2.3680 
  152.7500   -34.0580    68.4040     6.8030     7.6430    10.6390     2.3740 
  152.8750   -34.1320    69.7690     6.8190     7.6600    10.4840     2.3500 
