~V
VERS. 2.00: Ver 2.00
~W
STRT.M 50.0000:
STOP.M 255.0000:
STEP.M 0.1250:
NULL. -999.2500:
UWI. F12008:
~C
DEPT.M :
SP.MV :
GR.API :
RI. :
RML.OHMM :
RXO.OHMM :
DEN.GM/CC :
~A
   50.0000   154.5130    38.9090     0.0900     0.3290    12.5420     2.4140 
   50.1250   154.7410    39.7340     0.0900     0.3200    12.0470     2.4170 
   50.2500   154.8590    40.5690     0.0900     0.3040    12.5640     2.4060 
   50.3750   154.8820    40.9200     0.0930     0.2900    13.6940     2.3980 
   50.5000   154.8460    40.2870     0.1060     0.2710    13.8440     2.4060 
   50.6250   154.7710    38.6690     0.1080     0.2760    12.8390     2.4190 
   50.7500   154.6620    36.8820     0.0950     0.3530    12.4180     2.4210 
   50.8750   154.4840    34.9070     0.0970     0.3370    10.6980     2.4130 
   51.0000   154.1850    33.6250     0.0940     0.3310     6.3220     2.4100 
   51.1250   153.6910    33.7570     0.1130     0.2490     3.0190     2.4130 
   51.2500   153.0000    34.7420     0.1320     0.1950     1.8310     2.4200 
   51.3750   152.1460    35.5400     0.1340     0.1940     1.2480     2.4320 
   51.5000   151.2460    36.1090     0.1370     0.2110     0.7890     2.4420 
   51.6250   150.4290    36.2270     0.1410     0.2310     0.4800     2.4350 
   51.7500   149.7720    36.7970     0.1450     0.2570     0.3920     2.4150 
   51.8750   149.3040    37.5010     0.1470     0.2820     0.4520     2.3990 
   52.0000   148.9680    36.8470     0.1460     0.2970     0.4660     2.3930 
   52.1250   148.6910    34.7810     0.1430     0.3030     0.4350     2.3890 
   52.2500   148.3970    32.9100     0.1390     0.2990     0.4380     2.3830 
   52.3750   148.0290    34.2870     0.1350     0.2890     0.5210     2.3700 
   52.5000   147.5690    36.5920     0.1330     0.2860     0.7520     2.3540 
   52.6250   147.0030    37.0710     0.1430     0.2860     1.0740     2.3400 
   52.7500   146.3560    34.8920     0.1550     0.2910     1.2120     2.3320 
   52.8750   145.6720    32.1050     0.1660     0.2940     1.1090     2.3350 
   53.0000   145.0320    30.6480     0.1720     0.2920     1.0100     2.3510 
   53.1250   144.5390    32.2020     0.1710     0.2910     0.9420     2.3720 
   53.2500   144.2590    35.6480     0.1710     0.2900     0.8450     2.3900 
   53.3750   144.2510    39.3980     0.1720     0.2910     0.7530     2.4040 
   53.5000   144.4830    42.6210     0.1750     0.2900     0.6350     2.4060 
   53.6250   144.8990    44.6100     0.1780     0.2880     0.5070     2.3800 
   53.7500   145.3590    45.7110     0.1800     0.2840     0.4440     2.3450 
   53.8750   145.6860    46.1060     0.1790     0.2760     0.4290     2.3350 
   54.0000   145.7290    47.1250     0.1760     0.2570     0.4270     2.3550 
   54.1250   145.3580    49.4710     0.1730     0.2310     0.4520     2.3820 
   54.2500   144.6070    52.8570     0.1700     0.2020     0.4920     2.3960 
   54.3750   143.5720    54.4640     0.1680     0.1800     0.5050     2.4040 
   54.5000   142.4660    52.5010     0.1670     0.1690     0.4760     2.4190 
   54.6250   141.4840    49.9980     0.1660     0.1650     0.4100     2.4290 
   54.7500   140.7190    50.4280     0.1580     0.1590     0.3350     2.4240 
   54.8750   140.1610    51.3330     0.1410     0.1470     0.2860     2.4120 
   55.0000   139.6520    51.9000     0.1180     0.1230     0.2560     2.4020 
   55.1250   138.9340    52.6610     0.0860     0.0920     0.2440     2.3970 
   55.2500   137.6970    52.8440     0.0620     0.0620     0.2520     2.3960 
   55.3750   135.4330    50.5510     0.0440     0.0390     0.2950     2.3960 
   55.5000   131.6760    48.1890     0.0420     0.0460     0.4500     2.3710 
   55.6250   125.6040    49.2430     0.0680     0.0810     0.8420     2.3470 
   55.7500   116.7520    52.3050     0.1440     0.1790     1.9500     2.3560 
   55.8750   104.4050    56.5110     0.3510     0.4240     3.6690     2.3430 
   56.0000    88.8370    60.5420     0.7210     0.9440     5.9840     2.2290 
   56.1250    70.5440    62.4310     1.3400     1.8800     8.2630     2.0420 
   56.2500    51.0870    63.0430     2.1940     3.0840     8.0080     1.9010 
   56.3750    32.1820    62.4420     3.0390     4.1390     6.3350     1.8770 
   56.5000    15.2580    61.5250     3.7380     4.7700     5.9610     1.9400 
   56.6250     1.3940    63.4910     4.1910     4.9670     6.3360     2.0460 
   56.7500    -9.4970    69.8340     4.4290     5.1950     6.2240     2.1260 
   56.8750   -17.5890    78.5100     4.5450     5.3180     5.6530     2.1610 
   57.0000   -23.7270    84.4350     4.5890     5.3640     5.3490     2.1730 
   57.1250   -28.4320    87.1380     4.5960     5.3720     5.3810     2.1900 
   57.2500   -32.3140    90.2170     4.6720     5.4530     5.4300     2.2090 
   57.3750   -35.6280    94.3390     4.9170     5.7130     5.6820     2.1990 
   57.5000   -38.5530    96.5120     5.2900     6.1080     6.8030     2.1670 
   57.6250   -41.0840    92.9090     5.6510     6.4900     9.3100     2.1440 
   57.7500   -43.2390    87.5300     5.8450     6.6960    10.8390     2.1550 
   57.8750   -44.9620    86.3900     5.7880     6.6360     8.8260     2.1910 
   58.0000   -46.2670    90.2570     5.5250     6.3560     6.1350     2.2230 
   58.1250   -47.1250    96.6330     5.2120     6.0250     5.2950     2.2290 
   58.2500   -47.6300   100.3870     5.0220     5.8230     5.7250     2.2170 
   58.3750   -47.8930   100.1280     5.0550     5.8590     6.0640     2.2030 
   58.5000   -48.0960    99.5040     5.2210     6.0340     5.6170     2.1900 
   58.6250   -48.3850    98.7310     5.3380     6.1580     5.7110     2.1790 
   58.7500   -48.8270    97.8680     5.3380     6.1580     6.4780     2.1850 
   58.8750   -49.4290    97.2460     5.2730     6.0890     6.4330     2.2100 
   59.0000   -50.1400    97.5820     5.2310     6.0450     5.5230     2.2220 
   59.1250   -50.9290    97.7630     5.3030     6.1210     5.3190     2.1930 
   59.2500   -51.7840    95.1200     5.4550     6.2820     6.0290     2.1410 
   59.3750   -52.7190    89.5250     5.5790     6.4140     6.5290     2.1010 
   59.5000   -53.7240    82.1170     5.6250     6.4620     6.7260     2.0910 
   59.6250   -54.7330    78.9250     5.5090     6.3400     6.7100     2.1110 
   59.7500   -55.6170    80.7910     5.2610     6.0770     6.1490     2.1390 
   59.8750   -56.1950    83.5190     4.9640     5.7620     5.6410     2.1570 
   60.0000   -56.3900    84.3280     4.8620     5.6530     5.8990     2.1640 
   60.1250   -56.2040    83.6980     5.2410     6.0550     6.1580     2.1920 
   60.2500   -55.8220    81.7230     6.1650     7.0350     6.2140     2.2720 
   60.3750   -55.4570    77.4620     7.6840     8.6450    11.4950     2.4010 
   60.5000   -55.2620    72.3050     9.1590    10.2090    28.3180     2.5220 
   60.6250   -55.2930    68.6740     9.9870    11.0860    44.9080     2.5560 
   60.7500   -55.4840    67.9990     9.5540    10.6280    39.7150     2.4790 
   60.8750   -55.7640    70.2020     8.2710     9.2670    19.6840     2.3220 
   61.0000   -56.0780    72.6230     6.7290     7.6330     8.2550     2.1820 
   61.1250   -56.4080    74.3550     5.5860     6.4210     6.8580     2.1310 
   61.2500   -56.7380    76.5600     5.0340     5.8370     6.9070     2.1550 
   61.3750   -57.0500    79.0040     4.7650     5.5510     6.5890     2.1960 
   61.5000   -57.3400    81.0460     4.6490     5.4280     6.2010     2.2080 
   61.6250   -57.6350    84.1190     4.6480     5.4270     6.1320     2.1860 
   61.7500   -57.9990    86.1440     4.7450     5.5300     6.2600     2.1480 
   61.8750   -58.5310    84.9200     4.9700     5.7690     6.5350     2.1140 
   62.0000   -59.2990    82.3650     5.2810     6.0980     7.1530     2.0910 
   62.1250   -60.3710    80.2830     5.5590     6.3930     7.5680     2.0810 
   62.2500   -61.7120    76.9760     5.7230     6.5670     7.3330     2.0830 
   62.3750   -63.2610    72.9200     5.7090     6.5520     7.2030     2.0900 
   62.5000   -64.8790    69.3260     5.5450     6.3770     7.4920     2.0990 
   62.6250   -66.4320    66.4010     5.3230     6.1430     7.6400     2.1040 
   62.7500   -67.8240    66.1630     5.1180     5.9250     7.6250     2.1010 
