~V
VERS. 2.00: Ver 2.00
~W
STRT.M 50.0000:
STOP.M 247.0000:
STEP.M 0.1250:
NULL. -999.2500:
UWI. F12010:
~C
DEPT.M :
SP.MV :
GR.API :
RI. :
RML.OHMM :
RXO.OHMM :
DEN.GM/CC :
~A
# ...
   62.8750   -23.0340    73.0000     5.3320     6.0990     5.3130     2.1040 
   63.0000   -24.0380    69.8020     5.2240     5.9850     5.0840     2.0750 
   63.1250   -25.1450    69.2650     4.8950     5.6400     4.8480     2.0940 
   63.2500   -26.0820    72.7360     4.5100     5.2360     4.5240     2.1230 
   63.3750   -26.8910    79.4610     4.2870     5.0010     4.2890     2.1310 
   63.5000   -27.3710    84.5940     4.1660     4.8750     4.3590     2.1240 
   63.6250   -27.2490    85.2820     4.1100     4.8150     4.4580     2.1230 
   63.7500   -26.7170    83.5360     4.1030     4.8080     4.3640     2.1360 
   63.8750   -26.1160    81.2490     4.1480     4.8560     4.3210     2.1430 
   64.0000   -25.6480    79.8040     4.2090     4.9190     4.4890     2.1330 
   64.1250   -25.5160    79.6830     4.2800     4.9940     5.0440     2.1130 
   64.2500   -25.7160    78.6620     4.3250     5.0410     5.6830     2.0970 
   64.3750   -26.0860    75.3660     4.3810     5.1000     5.5690     2.0810 
   64.5000   -26.5740    72.5160     4.5520     5.2800     5.0780     2.0770 
   64.6250   -27.0510    71.0940     4.9090     5.6540     5.0680     2.1160 
   64.7500   -27.4250    69.2220     5.3570     6.1250     5.8010     2.2110 
   64.8750   -27.8640    65.8870     5.7860     6.5750     6.3980     2.3110 
   65.0000   -28.3440    63.6320     6.0550     6.8580     5.8560     2.3310 
   65.1250   -28.7730    64.2730     5.9810     6.7800     5.1630     2.2480 
   65.2500   -29.0600    65.7490     5.6610     6.4440     5.0670     2.1400 
   65.3750   -29.5870    66.8080     5.2190     5.9800     5.0990     2.0760 
   65.5000   -30.0870    67.4550     4.8040     5.5450     5.0710     2.0590 
   65.6250   -30.0750    66.7100     4.6140     5.3450     5.0300     2.0580 
   65.7500   -29.6230    64.6910     4.5520     5.2790     5.0030     2.0580 
   65.8750   -28.8990    63.6830     4.5150     5.2410     4.9480     2.0570 
   66.0000   -28.2660    65.8900     4.4690     5.1930     4.8520     2.0580 
   66.1250   -28.0680    67.6070     4.4350     5.1570     4.7460     2.0570 
   66.2500   -28.2800    66.4120     4.4160     5.1370     4.6490     2.0560 
   66.3750   -28.7710    64.6490     4.4090     5.1290     4.5740     2.0610 
   66.5000   -29.3950    64.3950     4.4120     5.1330     4.5510     2.0670 
   66.6250   -29.8770    64.3070     4.4320     5.1540     4.5510     2.0660 
   66.7500   -29.9310    62.4180     4.4580     5.1810     4.5090     2.0590 
   66.8750   -29.6260    60.6060     4.4830     5.2070     4.5310     2.0560 
   67.0000   -29.2220    60.5540     4.4970     5.2220     4.6160     2.0590 
   67.1250   -28.7800    61.8700     4.4980     5.2220     4.6360     2.0630 
   67.2500   -28.4190    62.4100     4.4860     5.2110     4.6070     2.0630 
   67.3750   -28.3590    62.5180     4.4800     5.2040     4.5140     2.0630 
   67.5000   -28.4430    64.6080     4.4810     5.2050     4.4300     2.0710 
   67.6250   -28.3810    68.4400     4.4830     5.2070     4.4900     2.0810 
   67.7500   -28.3200    71.8790     4.4940     5.2180     4.5180     2.0870 
   67.8750   -28.1830    71.8270     4.5110     5.2370     4.4430     2.0870 
   68.0000   -28.3100    69.3870     4.5110     5.2360     4.3860     2.0840 
   68.1250   -28.7770    66.1570     4.4940     5.2180     4.2180     2.0830 
   68.2500   -29.3110    65.1010     4.4720     5.1960     4.0600     2.0830 
   68.3750   -29.7140    66.0080     4.4390     5.1610     4.2940     2.0810 
   68.5000   -30.0970    67.0560     4.4040     5.1240     5.0230     2.0770 
   68.6250   -30.3600    67.0640     4.3800     5.0990     5.7920     2.0760 
   68.7500   -30.1850    66.3330     4.3660     5.0840     6.0170     2.0760 
   68.8750   -29.5360    65.6490     4.3620     5.0800     5.8430     2.0710 
   69.0000   -28.7380    65.3320     4.3740     5.0920     5.6270     2.0640 
   69.1250   -28.0000    66.3680     4.3690     5.0880     5.3430     2.0610 
   69.2500   -27.6860    67.2320     4.3570     5.0740     5.0910     2.0600 
   69.3750   -27.9970    65.5480     4.3110     5.0270     5.1000     2.0610 
   69.5000   -28.6760    62.6700     4.2490     4.9620     5.2550     2.0640 
   69.6250   -29.4780    62.3770     4.1640     4.8720     5.3360     2.0660 
   69.7500   -30.1210    63.7150     4.0890     4.7940     5.3600     2.0620 
   69.8750   -30.0720    64.5750     4.0320     4.7340     5.3720     2.0590 
   70.0000   -29.6530    64.4820     3.9990     4.6990     5.3630     2.0620 
   70.1250   -29.3110    65.8210     3.9840     4.6830     5.3720     2.0700 
   70.2500   -29.0460    68.4960     3.9830     4.6820     5.3910     2.0730 
   70.3750   -28.7290    70.9580     3.9750     4.6740     5.3400     2.0710 
   70.5000   -28.5650    71.1250     3.9530     4.6510     5.1730     2.0720 
   70.6250   -28.4140    68.7750     3.9320     4.6280     4.9880     2.0720 
   70.7500   -28.2930    66.3690     3.8930     4.5880     4.9500     2.0670 
   70.8750   -28.1480    65.0510     3.8380     4.5300     4.9670     2.0590 
   71.0000   -27.8690    63.1260     3.7820     4.4710     4.9160     2.0560 
   71.1250   -27.6490    61.5710     3.7380     4.4250     4.8180     2.0610 
   71.2500   -27.5850    62.4820     3.7200     4.4060     4.7540     2.0700 
   71.3750   -27.4980    64.5910     3.7260     4.4120     4.8190     2.0710 
   71.5000   -27.3470    64.8860     3.7170     4.4030     4.8910     2.0640 
   71.6250   -27.2180    64.2790     3.6560     4.3380     4.8610     2.0700 
   71.7500   -26.8930    66.8670     3.5510     4.2280     4.7280     2.1050 
   71.8750   -26.0660    73.0200     3.4420     4.1140     4.4850     2.1560 
   72.0000   -24.6480    80.9140     3.3720     4.0410     4.3390     2.1780 
   72.1250   -22.8290    87.0840     3.4620     4.1350     4.4780     2.1530 
   72.2500   -21.2060    88.3150     3.6240     4.3050     4.7970     2.1310 
   72.3750   -20.1990    83.4650     3.8280     4.5200     5.6010     2.1520 
   72.5000   -19.8540    79.4200     3.9910     4.6900     6.1210     2.1810 
   72.6250   -20.0370    80.6300     4.0890     4.7940     5.3490     2.1660 
   72.7500   -20.4370    84.4240     4.1060     4.8110     4.7360     2.1200 
   72.8750   -20.8000    85.3370     4.1240     4.8300     4.8660     2.0930 
   73.0000   -21.2230    82.8040     4.1590     4.8670     5.0100     2.0930 
   73.1250   -21.4640    78.5480     4.1890     4.8990     5.1220     2.0960 
   73.2500   -21.3900    75.6430     4.2170     4.9280     5.1150     2.0960 
   73.3750   -21.0170    75.7930     4.1750     4.8840     4.8770     2.1080 
   73.5000   -20.5010    79.4400     4.1150     4.8200     4.6540     2.1300 
   73.6250   -20.0810    82.9950     4.0670     4.7710     4.6830     2.1390 
   73.7500   -19.7040    84.3060     4.0330     4.7350     4.8540     2.1300 
   73.8750   -19.5160    85.3490     4.0090     4.7100     5.0480     2.1310 
   74.0000   -19.7180    87.6820     3.9960     4.6960     4.9900     2.1490 
   74.1250   -20.1100    89.8010     4.0190     4.7200     4.7380     2.1590 
   74.2500   -20.3490    89.4160     4.0600     4.7640     4.7790     2.1460 
   74.3750   -20.6110    85.9830     4.1680     4.8760     5.0810     2.1280 
   74.5000   -21.0440    79.8210     4.3780     5.0960     5.3550     2.1180 
   74.6250   -21.7050    74.0600     4.7120     5.4480     5.6450     2.1070 
   74.7500   -22.6810    71.6910     5.1390     5.8960     6.1840     2.0950 
   74.8750   -23.6610    71.3770     5.4990     6.2740     8.2040     2.0960 
   75.0000   -24.2820    69.3080     5.6940     6.4790    12.9950     2.1020 
   75.1250   -24.3020    66.6600     5.6690     6.4520    15.2930     2.1000 
   75.2500   -23.8950    66.1240     5.4460     6.2180    10.9790     2.0900 
   75.3750   -23.3260    66.3360     5.1540     5.9120     6.5560     2.0750 
   75.5000   -22.7930    65.0310     4.9040     5.6500     5.5110     2.0610 
   75.6250   -22.6680    63.1350     4.7700     5.5090     5.2840     2.0550 
