~V
VERS. 2.00: Ver 2.00
~W
STRT.M 50.0000:
STOP.M 178.0000:
STEP.M 0.1250:
NULL. -999.2500:
UWI. F12004:
~C
DEPT.M :
SP.MV :
GR.API :
RI. :
RML.OHMM :
RXO.OHMM :
DEN.GM/CC :
~A
# ...
  101.5000    99.6070    76.5000     6.8800     7.2930     7.0700     2.2350 
  101.6250    99.9140    74.8390     7.9220     8.3300     8.2730     2.2080 
  101.7500   100.4010    71.2180     8.8730     9.2050     8.7500     2.1930 
  101.8750   101.0160    68.3280     9.4020     9.6100     8.3110     2.1830 
  102.0000   101.6690    68.3890     9.4290     9.4880     7.7490     2.1720 
  102.1250   102.2390    71.1480     8.9380     8.8640     7.1660     2.1720 
  102.2500   102.7070    73.8660     8.2310     8.0900     6.5000     2.1820 
  102.3750   103.0680    74.5880     7.5310     7.3710     6.1430     2.1960 
  102.5000   103.2760    73.4310     6.9420     6.7850     6.0520     2.2130 
  102.6250   103.2750    72.6980     6.5710     6.4270     6.0870     2.2310 
  102.7500   103.0360    73.0190     6.4650     6.3510     6.0820     2.2380 
  102.8750   102.7460    71.9610     6.8030     6.7160     6.4160     2.2240 
  103.0000   102.4900    68.2670     7.7510     7.7130     8.2100     2.1960 
  103.1250   102.1850    63.9650     9.8400     9.9270    13.8590     2.1650 
  103.2500   101.7130    61.0580    13.9170    14.4200    23.1720     2.1390 
  103.3750   101.5010    60.7940    20.9490    21.8110    32.8960     2.1270 
  103.5000   101.1910    60.8010    31.2700    32.7270    42.8400     2.1240 
  103.6250   101.0250    58.3290    43.2210    45.9210    54.3830     2.1170 
  103.7500   101.0350    53.1520    54.6460    59.0730    63.4450     2.1000 
  103.8750   100.8450    48.5660    63.3730    70.2690    67.5230     2.0770 
  104.0000   100.6380    47.4200    68.0850    77.0140    67.1050     2.0580 
  104.1250   100.5570    48.5520    69.3790    79.6560    63.9220     2.0520 
  104.2500   100.3740    48.1610    68.3670    79.0970    66.4640     2.0550 
  104.3750   100.0140    46.9070    65.6280    76.0910    71.2610     2.0590 
  104.5000    99.7500    46.0960    62.6370    72.3670    69.2260     2.0590 
  104.6250    99.5350    46.8680    59.6340    68.2250    61.1840     2.0620 
  104.7500    99.4480    48.2500    56.6040    63.9200    51.3410     2.0660 
  104.8750    99.4330    49.1650    53.7000    59.9600    45.2570     2.0650 
  105.0000    99.4350    49.3870    51.3320    57.0370    41.9660     2.0660 
  105.1250    99.4160    49.6610    48.2610    53.5610    38.1870     2.0690 
  105.2500    99.4010    50.7790    42.3830    46.8290    36.0540     2.0700 
  105.3750    99.2530    53.8660    33.4470    36.7160    35.0370     2.0770 
  105.5000    98.9230    59.5510    22.9860    24.9210    26.6620     2.1090 
  105.6250    98.5240    66.6490    14.4800    15.4410    12.5000     2.1800 
  105.7500    98.0310    73.3660     9.7780    10.4190     5.4040     2.2590 
  105.8750    97.5540    78.0270     7.8750     8.2920     5.0310     2.3110 
  106.0000    97.1490    79.4430     7.2500     7.5830     5.5360     2.3350 
  106.1250    96.8690    76.5740     7.7200     8.0660     6.9470     2.3660 
  106.2500    96.8510    71.9310     9.2020     9.6340    11.4260     2.4150 
  106.3750    97.2710    68.2830    11.7340    12.2780    16.4430     2.4650 
  106.5000    97.9220    64.3490    14.9140    15.5890    16.6340     2.4900 
  106.6250    98.4550    58.7690    18.4580    19.2320    18.0610     2.4690 
  106.7500    98.6170    52.9850    21.7790    22.6000    22.3920     2.4160 
  106.8750    98.5110    50.0290    24.5700    25.3550    24.7520     2.3860 
  107.0000    98.1150    50.2310    25.9300    26.5660    31.9970     2.4200 
  107.1250    98.0340    51.5510    24.9190    25.3790    39.0500     2.4800 
  107.2500    98.2170    53.9980    22.2410    22.4670    31.0710     2.4800 
  107.3750    98.3020    57.6160    18.0150    18.0110    16.0570     2.3860 
  107.5000    98.3390    62.0490    14.3390    14.1900     7.7120     2.2630 
  107.6250    98.1800    65.7610    11.9740    11.7610     5.8130     2.1960 
  107.7500    98.2820    67.5910    10.9440    10.7640     6.7260     2.2160 
  107.8750    98.8820    66.5260    10.9330    10.7870    12.6520     2.3030 
  108.0000    99.3500    62.9940    11.2880    11.1680    20.7650     2.4020 
  108.1250    99.5570    60.2400    11.7160    11.5580    19.4160     2.4550 
  108.2500    99.5090    61.6480    11.6930    11.4440    11.1060     2.4400 
  108.3750    99.1380    65.8970    11.5750    11.2580     8.5290     2.3940 
  108.5000    98.5870    69.2330    11.7120    11.3620    10.2990     2.3710 
  108.6250    97.8150    68.0900    12.9340    12.6340    14.3330     2.3910 
  108.7500    97.0580    63.4050    15.6920    15.5310    24.6010     2.4360 
  108.8750    96.4780    57.3670    19.9940    20.2310    37.1520     2.4910 
  109.0000    95.9760    52.0590    25.8670    26.5300    41.6390     2.5200 
  109.1250    95.8000    48.5530    30.4010    31.4860    34.3380     2.4910 
  109.2500    95.7930    48.0780    33.4040    34.8310    27.6750     2.4350 
  109.3750    95.7660    50.3000    34.1330    35.6470    25.6450     2.4060 
  109.5000    95.7050    51.6870    33.7170    35.4600    26.8400     2.4250 
  109.6250    95.5990    50.5960    34.3650    36.4070    36.3760     2.4660 
  109.7500    95.5210    48.0670    37.0360    39.6630    42.1580     2.4960 
  109.8750    95.4060    45.1950    40.6420    43.9190    44.3240     2.5180 
  110.0000    95.2200    42.6550    42.7430    46.6300    55.1590     2.5530 
  110.1250    95.0520    42.7440    42.4250    46.6760    55.2930     2.5890 
  110.2500    94.9590    44.4660    39.3150    43.4340    38.5810     2.5930 
  110.3750    94.8060    46.1480    35.6800    39.4880    26.1190     2.5550 
  110.5000    94.6910    46.7330    33.2900    36.6870    24.3970     2.5090 
  110.6250    94.6400    46.3760    32.3370    35.6090    33.0980     2.4780 
  110.7500    94.6870    45.8200    33.3390    36.8970    42.5310     2.4660 
  110.8750    94.8650    45.4050    36.0590    40.1980    40.6260     2.4670 
  111.0000    94.9650    45.1130    38.7890    43.4110    36.2290     2.4670 
  111.1250    95.0200    45.2350    40.2690    45.1590    37.2510     2.4650 
  111.2500    95.0330    46.2750    40.0700    44.9440    36.8520     2.4650 
  111.3750    94.9160    47.0150    38.6500    43.3550    31.8040     2.4690 
  111.5000    94.6940    46.5840    37.4350    41.9450    28.8200     2.4740 
  111.6250    94.4790    46.1250    36.9630    41.5100    30.5770     2.4860 
  111.7500    94.3720    46.1630    36.8710    41.5030    32.8860     2.5060 
  111.8750    94.4640    45.9470    37.0760    41.7760    33.9320     2.5300 
  112.0000    94.5890    45.7540    37.2780    42.1620    32.5640     2.5430 
  112.1250    94.7260    46.2840    37.1650    42.0330    29.6910     2.5430 
  112.2500    94.9080    45.7230    37.1960    42.2420    29.6870     2.5540 
  112.3750    95.0980    43.8240    38.1310    43.7140    33.3200     2.5930 
  112.5000    95.2200    42.6100    40.4300    46.6340    39.6630     2.6500 
  112.6250    95.3540    43.2810    43.2690    50.2560    47.9970     2.6970 
  112.7500    95.4130    43.6490    45.2550    52.3910    52.5250     2.7020 
  112.8750    95.3660    42.7530    44.8130    51.4880    44.9930     2.6410 
  113.0000    95.3450    42.9990    42.5130    48.3260    30.6740     2.5460 
  113.1250    95.4660    45.5500    39.1140    44.0950    22.5100     2.4790 
  113.2500    95.4810    47.8020    36.2040    40.6430    22.1700     2.4660 
  113.3750    95.4910    47.7150    34.2080    38.2330    25.0530     2.4870 
  113.5000    95.5760    46.0970    33.4280    37.2680    26.5470     2.4990 
  113.6250    95.6250    44.1820    33.5380    37.1850    25.1610     2.4720 
  113.7500    95.8810    43.4810    33.9150    37.5710    24.0040     2.4150 
  113.8750    96.1060    43.9780    34.2280    37.8720    25.0730     2.3650 
  114.0000    96.2570    44.9010    34.5310    38.1880    25.8960     2.3500 
  114.1250    96.3760    44.4660    35.1030    38.8620    25.5120     2.3610 
  114.2500    96.2950    44.6970    35.7440    39.5910    26.4510     2.3790 
