~V
VERS. 2.00: Ver 2.00
~W
STRT.M 50.0000:
STOP.M 193.0000:
STEP.M 0.1250:
NULL. -999.2500:
UWI. F12006:
~C
DEPT.M :
SP.MV :
GR.API :
RI. :
RML.OHMM :
RXO.OHMM :
DEN.GM/CC :
~A
# ...
   88.6250   -37.1140    77.0610     5.7160     6.5020     6.2520     2.2320 
   88.7500   -37.1290    77.6940     5.8760     6.6700     6.5090     2.2140 
   88.8750   -37.0980    78.1060     6.0360     6.8380     6.8840     2.2190 
   89.0000   -37.0610    77.7570     6.1300     6.9360     6.9210     2.2350 
   89.1250   -37.0290    79.8450     6.1020     6.9070     6.6330     2.2410 
   89.2500   -36.9810    83.7460     5.9100     6.7060     6.6760     2.2360 
   89.3750   -36.8880    84.9320     5.5320     6.3080     6.5600     2.2380 
   89.5000   -36.7470    82.8170     5.0750     5.8290     6.1220     2.2590 
   89.6250   -36.5780    82.7300     4.7200     5.4560     5.6710     2.2860 
   89.7500   -36.4290    86.8280     4.5210     5.2470     5.2420     2.2940 
   89.8750   -36.3570    90.6770     4.5830     5.3130     5.6050     2.2690 
   90.0000   -36.4080    89.1870     4.9210     5.6670     6.4750     2.2240 
   90.1250   -36.6460    84.7580     5.5720     6.3510     6.8370     2.1860 
   90.2500   -37.0870    81.1100     6.4560     7.2790     8.0900     2.1700 
   90.3750   -37.7440    80.1990     7.3160     8.1810     9.3400     2.1680 
   90.5000   -38.5500    81.6440     7.9580     8.8560    10.3420     2.1700 
   90.6250   -39.4220    80.9790     8.1710     9.0790    10.5680     2.1690 
   90.7500   -40.2550    76.5760     7.9980     8.8980    10.3980     2.1710 
   90.8750   -40.9580    71.7830     7.6700     8.5530     9.8740     2.1760 
   91.0000   -41.4920    71.9450     7.4820     8.3560     9.2400     2.1890 
   91.1250   -41.8290    73.7540     7.6790     8.5630     8.9300     2.2190 
   91.2500   -42.0050    74.2270     8.2310     9.1430    10.3720     2.2400 
   91.3750   -42.0530    73.6110     8.9350     9.8820    12.1740     2.2180 
   91.5000   -42.0320    72.6380     9.5390    10.5160    11.3890     2.1700 
   91.6250   -41.9710    70.2180     9.6710    10.6540    10.1870     2.1420 
   91.7500   -41.8790    66.8130     9.2170    10.1780    10.0650     2.1470 
   91.8750   -41.7280    65.2990     8.2360     9.1480     9.7340     2.1680 
   92.0000   -41.4860    66.3270     6.9420     7.7890     9.0620     2.2000 
   92.1250   -41.1090    69.4000     5.7740     6.5620     7.6710     2.2490 
   92.2500   -40.5970    73.5730     4.9070     5.6520     5.7380     2.3000 
   92.3750   -39.9680    78.5920     4.4150     5.1350     4.5820     2.3250 
   92.5000   -39.3080    83.2440     4.3640     5.0830     4.5500     2.3140 
   92.6250   -38.7310    85.3090     4.6770     5.4110     5.6790     2.2690 
   92.7500   -38.3410    84.9830     5.2020     5.9620     7.2790     2.2170 
   92.8750   -38.2230    83.3350     5.7920     6.5810     8.0470     2.1800 
   93.0000   -38.3510    81.7080     6.3290     7.1460     8.2100     2.1730 
   93.1250   -38.6610    79.4020     7.0560     7.9090     8.3570     2.2260 
   93.2500   -39.0160    76.9030     8.4070     9.3280     9.5430     2.3490 
   93.3750   -39.2870    73.7800    11.4570    12.5300    18.0400     2.5170 
   93.5000   -39.4030    70.3580    16.7240    18.0610    36.2600     2.6630 
   93.6250   -39.3380    67.5120    23.8120    25.5020    54.2590     2.7310 
   93.7500   -39.1510    65.1990    31.1180    33.1740    62.0970     2.7260 
   93.8750   -38.9110    62.7110    35.2020    37.4620    59.6740     2.6840 
   94.0000   -38.6870    60.6900    35.9040    38.1990    53.2160     2.6530 
   94.1250   -38.5350    60.5100    32.4630    34.5860    46.0620     2.6410 
   94.2500   -38.4790    61.7660    26.6050    28.4360    39.8990     2.6150 
   94.3750   -38.5470    62.4170    20.7680    22.3060    35.5120     2.5270 
   94.5000   -38.7420    61.5410    15.2440    16.5060    27.7900     2.3840 
   94.6250   -39.0830    59.4620    11.4720    12.5460    16.6370     2.2430 
   94.7500   -39.5520    58.8990     9.1430    10.1000     9.9610     2.1670 
   94.8750   -40.1280    61.8430     7.8650     8.7580     8.6180     2.1550 
   95.0000   -40.7430    66.6200     7.3240     8.1900     8.7360     2.1580 
   95.1250   -41.5230    66.9500     7.4370     8.3090     9.4040     2.1560 
   95.2500   -41.9340    64.0350     7.6630     8.5460     9.6450     2.1570 
   95.3750   -42.1800    62.9180     7.7950     8.6850     9.2530     2.1630 
   95.5000   -42.2830    64.2450     7.7530     8.6410     8.9180     2.1680 
   95.6250   -42.2710    66.9040     7.5620     8.4400     9.2480     2.1710 
   95.7500   -42.1940    68.3700     7.3540     8.2210     9.3460     2.1720 
   95.8750   -42.0870    69.0640     7.3570     8.2250     8.8670     2.1650 
   96.0000   -41.9770    69.9890     7.7360     8.6230     8.5680     2.1550 
   96.1250   -41.8760    70.5760     8.7660     9.7040     9.9380     2.1500 
   96.2500   -41.7850    68.4820    10.5090    11.5340    14.4410     2.1480 
   96.3750   -41.7030    65.0120    13.0130    14.1640    20.5970     2.1430 
   96.5000   -41.6250    61.7910    15.8580    17.1500    24.0370     2.1370 
   96.6250   -41.5460    60.9310    17.6190    19.0000    22.7070     2.1380 
   96.7500   -41.4640    62.1190    17.6540    19.0360    20.4030     2.1420 
   96.8750   -41.3740    64.8910    15.9550    17.2530    19.7550     2.1440 
   97.0000   -41.2720    67.2160    13.4590    14.6320    17.5090     2.1490 
   97.1250   -41.1470    68.2510    11.5910    12.6710    13.4580     2.1600 
   97.2500   -40.9900    70.1890    10.8100    11.8500    11.3370     2.1680 
   97.3750   -40.8000    73.4610    11.0060    12.0560    13.4410     2.1590 
   97.5000   -40.5920    75.4220    12.4000    13.5200    18.2120     2.1390 
   97.6250   -40.3910    74.9130    14.6660    15.9000    21.0020     2.1220 
   97.7500   -40.2210    72.9200    17.0030    18.3530    21.3320     2.1160 
   97.8750   -40.1060    70.2220    18.5840    20.0130    21.2030     2.1190 
   98.0000   -40.0490    67.1900    19.0670    20.5200    20.9190     2.1220 
   98.1250   -40.0420    66.2630    18.5960    20.0260    20.3430     2.1230 
   98.2500   -40.0570    67.2260    17.9690    19.3670    19.4250     2.1220 
   98.3750   -40.0610    68.3060    17.4620    18.8350    18.5720     2.1190 
   98.5000   -40.0350    68.4090    17.2490    18.6120    18.3830     2.1150 
   98.6250   -39.9730    66.8080    17.2660    18.6290    18.2020     2.1110 
   98.7500   -39.8920    64.8210    17.4010    18.7710    17.4960     2.1080 
   98.8750   -39.8100    65.8410    17.4960    18.8710    16.7940     2.1160 
   99.0000   -39.7470    69.2810    17.4640    18.8370    16.0640     2.1300 
   99.1250   -39.7160    70.6820    17.2680    18.6310    15.8200     2.1360 
   99.2500   -39.7160    69.2010    17.0560    18.4090    16.1360     2.1270 
   99.3750   -39.7420    68.3930    16.9710    18.3190    17.0570     2.1160 
   99.5000   -39.7810    68.5730    17.1170    18.4720    18.8460     2.1100 
   99.6250   -39.8330    68.5960    17.5110    18.8860    20.3010     2.1090 
   99.7500   -39.9010    70.5540    17.9090    19.3040    20.9000     2.1110 
   99.8750   -39.9930    73.5070    18.1560    19.5640    21.1350     2.1120 
  100.0000   -40.1050    72.3680    18.2240    19.6350    21.4090     2.1120 
  100.1250   -40.2340    66.9640    18.1390    19.5460    21.5630     2.1160 
  100.2500   -40.3710    62.9310    18.0100    19.4110    21.2220     2.1200 
  100.3750   -40.5080    62.3240    17.8570    19.2500    21.1700     2.1160 
  100.5000   -40.6370    61.9130    17.6360    19.0170    21.7250     2.1080 
  100.6250   -40.7470    62.2090    17.3580    18.7260    22.0820     2.1040 
  100.7500   -40.8290    63.8950    17.0670    18.4200    21.7730     2.1020 
  100.8750   -40.8740    63.5120    16.7940    18.1330    20.6400     2.1010 
  101.0000   -40.8820    61.0100    16.6050    17.9350    20.2430     2.1040 
  101.1250   -40.8580    60.2460    16.5950    17.9250    20.5460     2.1210 
  101.2500   -40.8200    62.1170    16.6750    18.0090    19.4600     2.1460 
  101.3750   -40.7870    63.6000    16.3730    17.6910    18.7680     2.1660 
