~V
VERS. 2.00: Ver 2.00
~W
STRT.M 50.0000:
STOP.M 247.0000:
STEP.M 0.1250:
NULL. -999.2500:
UWI. F12010:
~C
DEPT.M :
SP.MV :
GR.API :
RI. :
RML.OHMM :
RXO.OHMM :
DEN.GM/CC :
~A
# ...
  165.8750    -9.8690    53.2510    16.8210    18.1620    12.7140     2.4920 
  166.0000   -10.3960    50.9520    17.0480    18.4000    12.4070     2.5040 
  166.1250   -11.0440    49.4000    17.2510    18.6130    12.7820     2.5140 
  166.2500   -11.2980    50.1890    17.5300    18.9070    13.2610     2.5180 
  166.3750   -10.9020    52.3040    17.9860    19.3850    13.5720     2.5190 
  166.5000   -10.1290    53.2560    18.3030    19.7180    14.1940     2.5240 
  166.6250    -9.3520    51.7180    18.3230    19.7390    14.2810     2.5380 
  166.7500    -8.6090    50.2950    18.0410    19.4430    12.7560     2.5510 
  166.8750    -8.4350    51.1390    17.6010    18.9810    11.0060     2.5430 
  167.0000    -8.8940    52.2640    17.2290    18.5910    10.7250     2.5190 
  167.1250    -9.6520    52.6550    16.8290    18.1700    11.8660     2.5010 
  167.2500   -10.4270    53.6340    16.3840    17.7030    13.1910     2.5030 
  167.3750   -11.1050    54.6770    15.9210    17.2170    12.9120     2.5100 
  167.5000   -11.3460    56.3500    15.3910    16.6610    11.8270     2.5010 
  167.6250   -11.2220    59.0170    14.6170    15.8470    11.9570     2.4900 
  167.7500   -11.0780    60.9780    13.6650    14.8480    12.6560     2.4910 
  167.8750   -10.7580    58.8780    12.7600    13.8980    12.1970     2.4920 
  168.0000   -10.6610    54.6020    12.2260    13.3380    10.8670     2.4710 
  168.1250   -10.9660    52.4630    12.1030    13.2080    10.5840     2.4360 
  168.2500   -11.3730    51.6810    12.1450    13.2530    12.0920     2.4220 
  168.3750   -11.8050    49.9430    12.1950    13.3050    13.9830     2.4350 
  168.5000   -12.2140    49.4160    12.0160    13.1170    13.3010     2.4510 
  168.6250   -12.6210    51.5360    11.4730    12.5460    10.5210     2.4380 
  168.7500   -13.0850    53.7490    10.6120    11.6430     8.7680     2.4030 
  168.8750   -13.5970    54.4840     9.6810    10.6650     7.9320     2.3790 
  169.0000   -14.0990    54.2960     8.8250     9.7660     7.3850     2.3730 
  169.1250   -14.4890    53.6160     8.2510     9.1640     7.4180     2.3690 
  169.2500   -14.8930    52.0230     7.8560     8.7490     7.2660     2.3570 
  169.3750   -15.2490    51.0500     7.6260     8.5070     6.7620     2.3430 
  169.5000   -15.2110    50.9780     7.5430     8.4200     6.8180     2.3360 
  169.6250   -14.7470    50.8670     7.6270     8.5080     7.1540     2.3360 
  169.7500   -14.0990    50.1450     7.8130     8.7040     7.3530     2.3410 
  169.8750   -13.4330    49.1360     8.0410     8.9430     7.7500     2.3380 
  170.0000   -13.1160    49.2320     8.2860     9.2010     8.2020     2.3290 
  170.1250   -13.3820    51.0970     8.3550     9.2730     8.5000     2.3290 
  170.2500   -13.8860    53.6310     8.2630     9.1770     8.4230     2.3400 
  170.3750   -14.5260    55.0120     8.0570     8.9600     7.8350     2.3500 
  170.5000   -15.0550    54.6460     7.7950     8.6850     7.2670     2.3480 
  170.6250   -14.9770    52.1040     7.5970     8.4770     7.0980     2.3460 
  170.7500   -14.4690    50.6440     7.4800     8.3540     7.9640     2.3570 
  170.8750   -13.8380    52.6950     7.5600     8.4380     9.3690     2.3600 
  171.0000   -13.1230    55.9310     7.7180     8.6040     9.0720     2.3330 
  171.1250   -12.4500    57.0530     7.8640     8.7570     7.9770     2.2950 
  171.2500   -11.9630    58.0590     7.8770     8.7710     7.6950     2.2840 
  171.3750   -11.4950    60.3270     7.7980     8.6880     7.4020     2.3010 
  171.5000   -11.0780    61.4170     7.7590     8.6470     6.8420     2.3170 
  171.6250   -10.8240    60.5830     7.9020     8.7970     7.3020     2.3250 
  171.7500   -10.5900    61.1120     8.2790     9.1930     8.8510     2.3360 
  171.8750   -10.4540    62.3410     8.7280     9.6650     9.7310     2.3480 
  172.0000   -10.4300    61.3300     9.1610    10.1190     9.8600     2.3530 
  172.1250   -10.6200    58.7500     9.3490    10.3160     9.5540     2.3490 
  172.2500   -10.7690    56.1850     9.2670    10.2300     8.7520     2.3440 
  172.3750   -10.9730    54.5150     9.1040    10.0600     8.2110     2.3470 
  172.5000   -11.1420    53.8390     9.1800    10.1390     8.2830     2.3580 
  172.6250   -11.0830    54.3010     9.7490    10.7370     9.3030     2.3770 
  172.7500   -10.5560    55.3690    10.8170    11.8570    11.3250     2.3930 
  172.8750    -9.6270    57.5690    12.3980    13.5180    13.5080     2.4020 
  173.0000    -8.6910    59.2720    14.0080    15.2080    15.2970     2.4040 
  173.1250    -8.1080    57.5470    15.2670    16.5300    16.7680     2.3950 
  173.2500    -8.1280    54.5770    15.7890    17.0790    16.9780     2.3740 
  173.3750    -8.5480    53.3370    15.4580    16.7310    15.3050     2.3540 
  173.5000    -9.1450    54.6370    14.7030    15.9380    13.3200     2.3460 
  173.6250    -9.8120    58.9970    13.8680    15.0610    11.8910     2.3500 
  173.7500   -10.1350    64.2420    13.1860    14.3450    11.8350     2.3570 
  173.8750    -9.9910    65.3200    12.8230    13.9640    12.8570     2.3610 
  174.0000    -9.7080    62.2910    12.6500    13.7820    12.9450     2.3620 
  174.1250    -9.4400    61.4140    12.4160    13.5370    12.6270     2.3590 
  174.2500    -9.2440    64.1500    12.0900    13.1940    12.3300     2.3560 
  174.3750    -9.2160    65.9220    11.6420    12.7240    10.8490     2.3580 
  174.5000    -9.3150    63.6030    11.2350    12.2970     9.2630     2.3590 
  174.6250    -9.5130    60.3820    10.9410    11.9880    10.5290     2.3600 
  174.7500    -9.8060    59.0810    10.7790    11.8180    12.4430     2.3660 
  174.8750   -10.1540    60.9320    10.7180    11.7540    11.3150     2.3740 
  175.0000   -10.2850    62.7790    10.7280    11.7640     9.9080     2.3800 
  175.1250   -10.4510    62.2580    10.8230    11.8640     9.9800     2.3870 
  175.2500   -10.5860    60.3380    10.9490    11.9960    10.3840     2.3960 
  175.3750   -10.5120    60.9100    11.1650    12.2230    10.8410     2.3920 
  175.5000   -10.4680    63.5740    11.4930    12.5670    11.1930     2.3790 
  175.6250   -10.5610    64.7350    11.7450    12.8320    11.5360     2.3720 
  175.7500   -10.5120    63.9090    11.8060    12.8970    11.6790     2.3730 
  175.8750   -10.1290    62.7490    11.5600    12.6380    11.5370     2.3710 
  176.0000    -9.4910    61.5360    11.1380    12.1940    11.5800     2.3640 
  176.1250    -8.6720    60.4040    10.6960    11.7310    11.4660     2.3540 
  176.2500    -8.0160    61.7380    10.3530    11.3710    10.6810     2.3430 
  176.3750    -7.9010    65.6310    10.1720    11.1800     9.9370     2.3190 
  176.5000    -8.0740    69.8000     9.7350    10.7220     9.2810     2.2850 
  176.6250    -8.4030    72.9600     8.6560     9.5880     8.5300     2.2610 
  176.7500    -8.7620    75.6420     7.2380     8.1000     7.4440     2.2570 
  176.8750    -8.8110    76.2460     5.6950     6.4800     5.3800     2.2590 
  177.0000    -8.4810    73.0370     4.4910     5.2160     3.8140     2.2360 
  177.1250    -8.0280    65.2730     3.8790     4.5730     3.7340     2.1910 
  177.2500    -7.4910    55.7490     3.5800     4.2590     3.9540     2.1570 
  177.3750    -6.9340    48.5240     3.5520     4.2300     3.9620     2.1700 
  177.5000    -6.5410    46.1340     3.6650     4.3480     3.9050     2.2180 
  177.6250    -6.1970    47.9970     3.7800     4.4690     3.8150     2.2620 
  177.7500    -5.9000    49.5750     3.8500     4.5430     3.8130     2.2850 
  177.8750    -5.8730    48.8880     3.8890     4.5830     3.8260     2.2920 
  178.0000    -6.0050    48.7260     3.9190     4.6150     3.8470     2.2980 
  178.1250    -6.2220    50.2930     3.9320     4.6290     4.0270     2.3040 
  178.2500    -6.5000    51.0850     3.9240     4.6200     4.2540     2.3080 
  178.3750    -6.8480    48.5600     3.8690     4.5620     4.2970     2.3070 
  178.5000    -7.2730    44.7810     3.7860     4.4750     4.0000     2.3050 
  178.6250    -7.7160    41.8360     3.6700     4.3530     3.5890     2.3060 
