~V
VERS. 2.00: Ver 2.00
~W
STRT.M 50.0000:
STOP.M 300.0000:
STEP.M 0.1250:
NULL. -999.2500:
UWI. F12002:
~C
DEPT.M :
SP.MV :
GR.API :
RI. :
RML.OHMM :
RXO.OHMM :
DEN.GM/CC :
~A
# ...
  204.5000   -34.9270    51.6880    16.0100    17.4700    18.6750     2.3860 
  204.6250   -34.9950    49.4760    16.0980    17.5640    18.0450     2.3750 
  204.7500   -34.9990    49.1890    16.2110    17.6840    18.1760     2.3680 
  204.8750   -34.9420    50.8800    16.1510    17.6200    17.9000     2.3680 
  205.0000   -34.8310    53.0100    15.9200    17.3750    14.7210     2.3700 
  205.1250   -34.6650    53.8160    15.2820    16.6990    13.5060     2.3680 
  205.2500   -34.4480    53.5390    13.7730    15.0990    13.0630     2.3650 
  205.3750   -34.1700    54.1360    11.6720    12.8720    11.8820     2.3560 
  205.5000   -33.8310    56.0200     9.1970    10.2490     9.4530     2.3390 
  205.6250   -33.4290    57.4620     7.1580     8.0870     7.1780     2.3260 
  205.7500   -32.9980    56.1460     5.7900     6.6370     5.8750     2.3340 
  205.8750   -32.5900    52.6550     5.0840     5.8890     5.4600     2.3580 
  206.0000   -32.2590    47.5040     4.9080     5.7030     5.6980     2.3820 
  206.1250   -32.0490    42.3950     5.1740     5.9840     6.2210     2.4020 
  206.2500   -31.9480    39.8770     5.6950     6.5370     7.1480     2.4270 
  206.3750   -31.9250    41.5770     6.2150     7.0880     8.4790     2.4460 
  206.5000   -31.9160    43.1760     6.4890     7.3780     8.6720     2.4390 
  206.6250   -31.8710    42.3150     6.4550     7.3420     7.4800     2.4100 
  206.7500   -31.7660    41.9000     6.1760     7.0470     6.5960     2.3830 
  206.8750   -31.6020    42.8870     5.8290     6.6780     6.3440     2.3750 
  207.0000   -31.4120    42.5160     5.5370     6.3690     6.1920     2.3800 
  207.1250   -31.2340    40.7810     5.4010     6.2250     6.1280     2.3930 
  207.2500   -31.0960    39.7300     5.3480     6.1690     6.1550     2.4040 
  207.3750   -31.0160    39.2430     5.3540     6.1760     6.2020     2.4080 
  207.5000   -30.9850    37.4060     5.3810     6.2030     6.2860     2.4040 
  207.6250   -30.9840    35.4580     5.3880     6.2110     6.2900     2.3910 
  207.7500   -30.9900    34.5860     5.3640     6.1860     6.1150     2.3790 
  207.8750   -30.9920    34.8910     5.3120     6.1310     5.9200     2.3740 
  208.0000   -30.9970    34.9910     5.2290     6.0420     5.7820     2.3730 
  208.1250   -31.0170    34.1490     5.1140     5.9210     5.5530     2.3560 
  208.2500   -31.0590    32.7360     4.9950     5.7950     5.2770     2.3130 
  208.3750   -31.1160    32.3650     4.8950     5.6880     5.0430     2.2680 
  208.5000   -31.1660    33.2290     4.8340     5.6240     4.9610     2.2510 
  208.6250   -31.1800    33.1960     4.8300     5.6200     5.2970     2.2670 
  208.7500   -31.1110    30.6050     4.8870     5.6800     5.8190     2.2870 
  208.8750   -31.0070    30.9480     4.9420     5.7390     5.6940     2.3000 
  209.0000   -30.8970    34.3140     4.9760     5.7750     5.4750     2.3150 
  209.1250   -30.8240    38.7900     4.9900     5.7900     5.5720     2.3380 
  209.2500   -30.8190    41.6410     5.0430     5.8460     5.8220     2.3670 
  209.3750   -30.9020    42.0280     5.1910     6.0030     5.8630     2.3870 
  209.5000   -31.0560    40.8330     5.4250     6.2510     6.0070     2.3840 
  209.6250   -31.2540    40.0330     5.7480     6.5930     6.7830     2.3640 
  209.7500   -31.4490    39.7550     6.0970     6.9620     7.5980     2.3530 
  209.8750   -31.5930    40.4850     6.4400     7.3260     7.8110     2.3600 
  210.0000   -31.6660    41.8180     6.6940     7.5960     7.7090     2.3690 
  210.1250   -31.6620    44.8980     6.7100     7.6130     7.9460     2.3700 
  210.2500   -31.6050    48.6700     6.5460     7.4380     8.5800     2.3660 
  210.3750   -31.5110    50.4650     6.2020     7.0740     8.3940     2.3650 
  210.5000   -31.3980    48.1050     5.8060     6.6540     7.0460     2.3690 
  210.6250   -31.2720    43.4250     5.4580     6.2850     5.8500     2.3750 
  210.7500   -31.1370    38.9510     5.1720     5.9820     5.4610     2.3750 
  210.8750   -31.0010    36.2170     5.0360     5.8390     5.4370     2.3650 
  211.0000   -30.8760    35.7610     5.0260     5.8270     5.5010     2.3510 
  211.1250   -30.7810    36.8080     5.1050     5.9110     5.6870     2.3460 
  211.2500   -30.7260    37.6210     5.2220     6.0350     5.9810     2.3570 
  211.3750   -30.7220    37.7500     5.3350     6.1550     6.3480     2.3810 
  211.5000   -30.7570    38.1280     5.4270     6.2530     6.5470     2.3970 
  211.6250   -30.8100    38.7360     5.4720     6.3010     6.4520     2.3900 
  211.7500   -30.8510    39.3390     5.4720     6.3010     6.2720     2.3690 
  211.8750   -30.8420    40.2870     5.4380     6.2640     6.1270     2.3490 
  212.0000   -30.7690    40.7900     5.3960     6.2190     6.0290     2.3450 
  212.1250   -30.6240    40.6760     5.3640     6.1860     6.0520     2.3570 
  212.2500   -30.4320    41.1180     5.3520     6.1730     6.1770     2.3710 
  212.3750   -30.2200    41.4620     5.3510     6.1720     6.1890     2.3770 
  212.5000   -30.0150    41.4780     5.3390     6.1590     6.1640     2.3780 
  212.6250   -29.8310    42.5160     5.2960     6.1140     6.2670     2.3850 
  212.7500   -29.6680    42.7810     5.2380     6.0520     6.1250     2.4010 
  212.8750   -29.5240    41.2440     5.1920     6.0040     5.7300     2.4130 
  213.0000   -29.3950    39.8400     5.1910     6.0020     5.5850     2.4080 
  213.1250   -29.2860    40.1000     5.2930     6.1100     5.8540     2.3890 
  213.2500   -29.2050    39.7530     5.4920     6.3220     6.3000     2.3760 
  213.3750   -29.1710    37.5470     5.7780     6.6250     6.7400     2.3800 
  213.5000   -29.1910    35.1790     6.0790     6.9440     7.2470     2.3920 
  213.6250   -29.2730    35.2380     6.2680     7.1440     7.5900     2.4080 
  213.7500   -29.4010    37.1040     6.2770     7.1540     7.5310     2.4300 
  213.8750   -29.5580    37.9970     6.0690     6.9340     7.1670     2.4500 
  214.0000   -29.7150    37.9460     5.7680     6.6140     6.6470     2.4530 
  214.1250   -29.8530    37.6750     5.4520     6.2790     6.1770     2.4380 
  214.2500   -30.0000    37.5780     5.2220     6.0360     5.9750     2.4190 
  214.3750   -30.7970    37.3620     5.1350     5.9430     6.1140     2.4030 
  214.5000   -30.7970    38.5560     5.2120     6.0240     6.3520     2.3900 
  214.6250   -31.1950    40.6620     5.4550     6.2830     6.4120     2.3820 
  214.7500   -31.1950    40.5040     5.7420     6.5870     6.6330     2.3830 
  214.8750   -31.1950    37.2490     5.9550     6.8120     8.0850     2.3940 
  215.0000   -31.1950    33.5920     6.0280     6.8890     9.2520     2.4100 
  215.1250   -30.7970    32.1100     6.0050     6.8650     8.1320     2.4140 
  215.2500   -30.3980    33.1440     6.0670     6.9310     6.9610     2.3930 
  215.3750   -29.7440    37.8170     6.4190     7.3040     7.1890     2.3440 
  215.5000   -29.3170    45.7560     7.1730     8.1040     8.8310     2.2840 
  215.6250   -28.8900    54.9160     8.2150     9.2080    11.3480     2.2330 
  215.7500   -28.0080    62.5690     9.3940    10.4570    12.1400     2.1990 
  215.8750   -27.8090    68.7250    10.1630    11.2720    12.4560     2.1900 
  216.0000   -27.3440    72.7970    10.1490    11.2580    14.4120     2.1970 
  216.1250   -27.2110    72.5610     9.3260    10.3850    14.6660     2.2170 
  216.2500   -27.2110    67.1560     7.8820     8.8550    11.2250     2.2530 
  216.3750   -27.2110    56.4660     6.4360     7.3220     7.2230     2.3030 
  216.5000   -27.6100    44.4220     5.4080     6.2320     5.7430     2.3490 
  216.6250   -27.6100    35.7390     4.8100     5.5990     5.8300     2.3730 
  216.7500   -28.0080    32.4950     4.6200     5.3970     5.7150     2.3810 
  216.8750   -28.0080    32.3050     4.6100     5.3870     5.4290     2.3740 
  217.0000   -28.0080    32.5910     4.6890     5.4700     5.2250     2.3590 
  217.1250   -28.0080    33.2360     4.7870     5.5740     5.2020     2.3510 
  217.2500   -28.0080    34.8960     4.8720     5.6650     5.3200     2.3510 
