~V
VERS. 2.00: Ver 2.00
~W
STRT.M 50.0000:
STOP.M 178.0000:
STEP.M 0.1250:
NULL. -999.2500:
UWI. F12004:
~C
DEPT.M :
SP.MV :
GR.API :
RI. :
RML.OHMM :
RXO.OHMM :
DEN.GM/CC :
~A
# ...
  140.1250    82.0260    48.8420   136.6130   142.0980   107.3520     2.1180 
  140.2500    82.0840    47.0880   139.8130   144.8590   127.9190     2.1080 
  140.3750    82.0500    46.6900   145.8040   150.6760   139.4200     2.1020 
  140.5000    81.9140    48.1500   152.0360   156.8490   133.9620     2.1040 
  140.6250    81.6360    49.6520   156.2050   160.9040   126.6630     2.1030 
  140.7500    81.3750    49.7500   156.4970   160.9680   125.1300     2.0950 
  140.8750    81.2040    48.6690   153.3540   157.8260   118.3820     2.0900 
  141.0000    81.0490    48.7110   150.6420   155.3330   109.3440     2.0990 
  141.1250    80.8210    49.5110   149.6930   154.7790   100.4030     2.1330 
  141.2500    80.7310    49.7500   149.2870   154.8540   112.8270     2.1890 
  141.3750    80.8430    49.5020   149.6230   155.9060   141.6730     2.2270 
  141.5000    80.8760    50.4300   151.3170   158.4100   133.0990     2.2130 
  141.6250    80.8390    51.8250   154.8700   162.6290   114.1990     2.1620 
  141.7500    80.5850    52.6630   160.2290   168.7240   126.0460     2.1400 
  141.8750    80.3930    51.5180   168.1340   177.4240   137.3550     2.1670 
  142.0000    80.3610    49.2760   177.8230   188.0680   136.3290     2.1960 
  142.1250    80.2220    45.9700   189.0710   199.9580   133.9940     2.1930 
  142.2500    80.0590    43.7430   196.3660   207.2530   130.7940     2.1700 
  142.3750    79.9810    43.4590   195.9490   206.0420   141.9100     2.1450 
  142.5000    79.8660    44.4650   189.3240   198.3260   152.1000     2.1250 
  142.6250    79.7070    46.4170   179.9470   187.9020   137.7460     2.1110 
  142.7500    79.4660    48.3820   171.2160   178.2140   126.4510     2.1040 
  142.8750    79.3730    48.5710   165.1470   171.6180   132.3490     2.1070 
  143.0000    79.3950    47.5580   162.5060   168.5840   135.6940     2.1130 
  143.1250    79.3910    47.2370   162.9790   168.7980   126.6690     2.1120 
  143.2500    79.3370    47.8400   165.1890   170.7090   121.1640     2.1050 
  143.3750    79.2860    47.9110   167.8330   172.8560   129.7020     2.0960 
  143.5000    79.5130    46.9160   169.2820   173.8180   136.4000     2.0910 
  143.6250    79.3070    45.9820   170.2150   174.3080   137.9210     2.0890 
  143.7500    78.9340    45.6990   170.8650   174.6560   138.7440     2.0870 
  143.8750    78.5500    46.3600   171.5310   175.1710   137.2670     2.0860 
  144.0000    78.0990    46.8920   172.1850   175.8160   141.3760     2.0900 
  144.1250    77.4580    47.7630   174.8500   178.9920   148.1730     2.0980 
  144.2500    77.1190    49.6650   180.1210   185.0350   151.3780     2.1020 
  144.3750    77.2750    49.5900   186.6690   192.7540   164.6990     2.1030 
  144.5000    77.5430    46.4550   193.8870   201.2570   176.2050     2.1110 
  144.6250    77.7550    43.8850   199.7200   208.2640   167.5050     2.1190 
  144.7500    77.8650    44.3250   204.3220   213.6950   158.0050     2.1190 
  144.8750    77.9540    44.0090   208.3760   218.6480   154.2380     2.1170 
  145.0000    77.9370    41.7940   214.5020   226.0310   165.1750     2.1200 
  145.1250    78.0040    41.6890   224.1100   237.5730   202.4430     2.1180 
  145.2500    78.0790    44.6660   238.1950   254.2170   248.5870     2.1080 
  145.3750    78.0350    47.5110   255.3170   273.4430   281.1810     2.1020 
  145.5000    77.9400    48.6690   268.4950   287.8590   290.7610     2.1050 
  145.6250    77.9940    49.4140   276.4960   296.0520   270.4380     2.1050 
  145.7500    78.0150    49.0770   278.6440   297.7370   237.1950     2.0980 
  145.8750    77.9330    46.8810   276.4810   294.4540   231.2740     2.0960 
  146.0000    77.9810    43.8310   270.3160   286.8440   247.0980     2.1000 
  146.1250    78.2470    42.9390   260.8310   275.3880   256.3090     2.1040 
  146.2500    78.5330    44.1370   247.8840   260.0690   233.3820     2.1050 
  146.3750    78.7050    45.8720   234.4690   244.6520   183.7790     2.1070 
  146.5000    78.7880    47.6480   221.9730   230.3920   170.3620     2.1060 
  146.6250    78.8280    48.7930   211.9820   219.5250   189.2850     2.1060 
  146.7500    78.8220    49.1330   205.7360   212.7590   184.6860     2.1060 
  146.8750    78.6810    47.9840   203.0180   209.9190   172.8720     2.1060 
  147.0000    78.5230    46.7010   202.5040   209.1270   169.7920     2.1040 
  147.1250    78.3890    45.9300   200.1180   206.2000   155.6360     2.1040 
  147.2500    78.5670    45.9370   196.9210   202.7850   151.8430     2.1050 
  147.3750    78.7790    46.7210   195.9250   202.0190   160.8450     2.1050 
  147.5000    79.0010    47.0640   198.6950   205.5620   161.6570     2.1030 
  147.6250    79.3290    45.4510   203.8470   211.6260   181.4210     2.1040 
  147.7500    79.6690    42.8380   209.0660   217.3540   216.0890     2.1090 
  147.8750    79.8350    41.6540   209.6610   217.3390   218.7150     2.1150 
  148.0000    79.9030    42.6820   205.5740   212.3590   190.2720     2.1200 
  148.1250    80.1460    45.1820   198.5380   204.4180   162.6560     2.1260 
  148.2500    80.4700    47.1860   189.3250   194.8660   151.2580     2.1310 
  148.3750    80.8270    46.7420   181.4520   187.2740   155.6670     2.1280 
  148.5000    81.1850    43.3880   176.4780   182.8270   157.1380     2.1160 
  148.6250    81.5580    39.6460   174.3310   181.1610   144.8540     2.1040 
  148.7500    81.9950    38.5350   174.5390   182.3320   135.2090     2.1010 
  148.8750    82.7020    40.1730   178.1220   187.3950   141.2830     2.1040 
  149.0000    83.4300    43.2150   183.5160   194.4190   163.2550     2.1050 
  149.1250    84.3110    45.4470   189.9440   202.4970   199.1230     2.1080 
  149.2500    85.2130    46.0660   195.5530   209.0570   206.8860     2.1170 
  149.3750    85.9530    45.4830   197.1280   210.4900   176.0030     2.1210 
  149.5000    86.5870    45.1150   193.5270   206.0650   158.7290     2.1160 
  149.6250    87.2770    45.8120   186.1260   197.4560   157.1830     2.1040 
  149.7500    88.2070    46.8080   179.1160   189.4480   153.1420     2.0920 
  149.8750    89.1740    47.4950   175.7900   185.4460   154.7750     2.0890 
  150.0000    90.2350    47.5110   176.6440   185.4660   167.7620     2.1040 
  150.1250    91.3850    46.5280   177.4970   184.8180   169.4890     2.1210 
  150.2500    92.5510    45.2610   173.4330   178.1870   133.1750     2.1140 
  150.3750    93.5920    43.7560   157.5680   159.2030    73.0290     2.1040 
  150.5000    94.4400    43.8070   133.0380   132.0980    45.6180     2.1630 
  150.6250    95.0250    47.4160   106.0860   103.7210    59.4580     2.2920 
  150.7500    95.4910    51.5410    84.2590    82.0880    57.0150     2.3600 
  150.8750    95.8710    52.9140    72.5200    70.9260    41.3760     2.2920 
  151.0000    96.1830    52.5980    67.1050    65.9730    47.0400     2.1920 
  151.1250    96.5350    53.6130    66.0250    65.1610    63.7600     2.1650 
  151.2500    96.8200    54.8490    67.5150    66.6470    57.9850     2.1650 
  151.3750    97.0200    53.4010    69.6420    68.6340    31.4850     2.1270 
  151.5000    97.1390    50.3530    70.5550    69.2880    22.8280     2.1200 
  151.6250    97.2830    47.6500    67.9990    66.5130    36.8300     2.2310 
  151.7500    97.4850    45.7300    63.9660    62.5760    53.7130     2.4190 
  151.8750    97.7270    44.9690    61.2540    60.3360    57.0750     2.5750 
  152.0000    97.9900    46.2470    61.9530    62.2410    54.7190     2.6430 
  152.1250    98.3170    47.9290    67.3450    69.9090    85.1100     2.6470 
  152.2500    98.5260    48.3900    71.7310    75.4420   141.3930     2.6440 
  152.3750    98.5290    47.3530    65.0320    68.1600   175.6300     2.6540 
  152.5000    98.5600    45.8730    49.1120    50.9860   169.8640     2.6740 
  152.6250    98.5900    45.2340    29.1200    29.0940   131.7400     2.6840 
  152.7500    98.6040    47.5000    13.4980    13.1360    75.8220     2.6320 
  152.8750    98.6940    52.6220     7.8950     7.8880    24.8290     2.4880 
