~V
VERS. 2.00: Ver 2.00
~W
STRT.M 50.0000:
STOP.M 226.0000:
STEP.M 0.1250:
NULL. -999.2500:
UWI. F12001:
~C
DEPT.M :
SP.MV :
GR.API :
RI. :
RML.OHMM :
RXO.OHMM :
DEN.GM/CC :
~A
# ...
  217.3750    -0.1270    59.4280     7.1260     8.1110    11.9920     2.2590 
  217.5000    -0.1270    59.6180     7.1090     8.2320    13.0120     2.2630 
  217.6250    -0.1270    59.6110     7.0960     8.3540    13.7600     2.2680 
  217.7500    -0.1270    59.4810     7.0850     8.4620    14.2250     2.2740 
  217.8750    -0.1270    58.4240     7.0940     8.3830    13.0130     2.2740 
  218.0000    -0.1270    55.9460     7.1130     8.2530    11.1760     2.2650 
  218.1250    -0.1270    53.1710     7.1340     8.1330    10.7650     2.2460 
  218.2500    -0.1270    51.9490     7.1530     8.0540    10.3490     2.2230 
  218.3750    -0.1270    51.9050     7.1560     8.0580     9.4940     2.2030 
  218.5000    -0.1270    51.9940     7.1550     8.0630     9.7320     2.2000 
  218.6250    -0.1270    51.9850     7.1540     8.0640    10.2790     2.2180 
  218.7500    -0.1270    51.9850     7.1540     8.0610     9.9620     2.2350 
  218.8750    -0.1270    51.9850     7.1530     8.0610     9.6830     2.2300 
  219.0000    -0.1270    51.9850     7.1530     8.0610    10.4760     2.2170 
  219.1250    -0.1270    51.9850     7.1530     8.0620    10.9110     2.2200 
  219.2500    -0.1270    51.9850     7.1520     8.0630     9.1840     2.2350 
  219.3750    -0.1270    51.9850     7.1520     8.0630     6.8080     2.2410 
  219.5000    -0.1270    51.9850     7.1520     8.0640     5.4890     2.2380 
  219.6250    -0.1270    51.9850     7.1540     8.0650     4.5900     2.2320 
  219.7500    -0.1270    51.9850     7.1520     8.0620     4.0320     2.2270 
  219.8750    -0.1270    51.9850     7.1530     8.0630     3.9740     2.2270 
  220.0000    -0.1270    51.9850     7.1500     8.0600     3.9380     2.2310 
  220.1250    -0.1270    51.9850     7.1500     8.0630     3.8690     2.2280 
  220.2500    -0.1270    51.9850     7.1480     8.0660     4.0380     2.2130 
  220.3750    -0.1270    51.9850     7.1430     8.0680     4.4480     2.2080 
  220.5000    -0.1270    51.9850     7.1380     8.0700     4.3810     2.2260 
  220.6250    -0.1270    51.9850     7.1340     8.0690     3.8660     2.2520 
  220.7500    -0.1270    51.9850     7.1330     8.0690     3.6560     2.2670 
  220.8750    -0.1270    51.9850     7.1330     8.0690     3.9720     2.2720 
  221.0000    -0.1270    51.9850     7.1330     8.0690     4.5450     2.2730 
  221.1250    -0.1270    51.9850     7.1330     8.0690     5.0120     2.2700 
  221.2500    -0.1270    51.9850     7.1330     8.0690     5.3820     2.2640 
  221.3750    -0.1270    51.9850     7.1330     8.0690     5.7030     2.2550 
  221.5000    -0.1270    51.9850     7.1330     8.0690     5.7890     2.2450 
  221.6250    -0.1270    51.9850     7.1330     8.0690     5.5960     2.2290 
  221.7500    -0.1270    51.9850     7.1330     8.0690     5.4280     2.2060 
  221.8750    -0.1270    51.9850     7.1330     8.0690     5.4660     2.1820 
  222.0000    -0.1270    51.9850     7.1330     8.0690     5.4820     2.1550 
  222.1250    -0.1270    51.9850     7.1330     8.0690     5.5450     2.1190 
  222.2500    -0.1270    51.9850     7.1330     8.0690     5.6590     2.0850 
  222.3750    -0.1270    51.9850     7.1330     8.0690     5.5970     2.0680 
  222.5000    -0.1270    51.9850     7.1330     8.0690     5.5790     2.0660 
  222.6250    -0.1270    51.9850     7.1330     8.0690     5.6600     2.0700 
  222.7500    -0.1270    51.9850     7.1330     8.0690     5.6880     2.0760 
  222.8750    -0.1270    51.9850     7.1330     8.0690     5.6890     2.0790 
  223.0000    -0.1270    51.9850     7.1330     8.0690     5.6890     2.0790 
  223.1250    -0.1270    51.9850     7.1330     8.0690     5.6880     2.0760 
  223.2500    -0.1270    51.9850     7.1330     8.0690     5.6880     2.0720 
  223.3750    -0.1270    51.9850     7.1330     8.0690     5.6870     2.0680 
  223.5000    -0.1270    51.9850     7.1330     8.0690     5.6860     2.0660 
  223.6250    -0.1270    51.9850     7.1330     8.0690     5.6860     2.0660 
  223.7500    -0.1270    51.9850     7.1330     8.0690     5.6850     2.0650 
  223.8750    -0.1270    51.9850     7.1330     8.0690     5.6850     2.0640 
  224.0000    -0.1270    51.9850     7.1330     8.0690     5.6840     2.0640 
  224.1250    -0.1270    51.9850     7.1330     8.0690     5.6830     2.0640 
  224.2500    -0.1270    51.9850     7.1330     8.0690     5.6820     2.0630 
  224.3750    -0.1270    51.9850     7.1330     8.0690     5.6810     2.0610 
  224.5000    -0.1270    51.9850     7.1330     8.0690     5.6810     2.0610 
  224.6250    -0.1270    51.9850     7.1330     8.0690     5.6800     2.0630 
  224.7500    -0.1270    51.9850     7.1330     8.0690     5.6790     2.0640 
  224.8750    -0.1270    51.9850     7.1330     8.0690     5.6790     2.0620 
  225.0000    -0.1270    51.9850     7.1330     8.0690     5.6780     2.0590 
  225.1250    -0.1270    51.9850     7.1330     8.0690     5.6770     2.0540 
  225.2500    -0.1270    51.9850     7.1330     8.0690     5.6760     2.0480 
  225.3750    -0.1270    51.9850     7.1330     8.0690     5.6750     2.0440 
  225.5000    -0.1270    51.9850     7.1330     8.0690     5.6740     2.0420 
  225.6250    -0.1270    51.9850     7.1330     8.0690     5.6730     2.0420 
  225.7500    -0.1270    51.9850     7.1330     8.0690     5.6710     2.0420 
  225.8750    -0.1270    51.9850     7.1330     8.0690     5.6620     2.0420 
  226.0000    -0.1270    51.9850     7.1330     8.0690     5.6480     2.0420 
