~V
VERS. 2.00: Ver 2.00
~W
STRT.M 50.0000:
STOP.M 256.0000:
STEP.M 0.1250:
NULL. -999.2500:
UWI. F12009:
~C
DEPT.M :
SP.MV :
GR.API :
RI. :
RML.OHMM :
RXO.OHMM :
DEN.GM/CC :
~A
# ...
  217.3750    -1.3720   101.0640     8.2990    10.3190     8.9510     2.2860 
  217.5000    -1.7470    99.0100     8.5650    10.6950     9.7240     2.2920 
  217.6250    -2.0750    96.6900     8.9970    11.3310    10.6580     2.2870 
  217.7500    -2.4720    93.5850     9.5340    12.0850    10.9630     2.2640 
  217.8750    -2.9320    90.3290    10.0680    12.8010    12.2140     2.2320 
  218.0000    -3.4150    90.1980    10.4400    13.2560    13.6810     2.2170 
  218.1250    -3.8520    94.6710    10.5780    13.4000    13.6520     2.2240 
  218.2500    -4.1910   100.2030    10.6470    13.4760    13.3390     2.2350 
  218.3750    -4.5100   102.9870    10.6770    13.5180    13.0360     2.2320 
  218.5000    -4.7680   103.1500    10.6960    13.5610    12.7660     2.2180 
  218.6250    -4.8320   101.9600    10.7030    13.5890    13.2960     2.2100 
  218.7500    -4.7710   101.1800    10.6560    13.5330    14.4650     2.2230 
  218.8750    -4.8290   100.8660    10.4780    13.2920    15.9440     2.2500 
  219.0000    -4.8830   100.2990    10.1880    12.8910    16.4560     2.2640 
  219.1250    -4.9020    98.9910     9.8230    12.3900    14.9860     2.2550 
  219.2500    -4.9100    99.3900     9.5100    11.9830    12.1590     2.2420 
  219.3750    -4.6580   102.3600     9.3550    11.8160    10.5070     2.2450 
  219.5000    -4.0010   105.2500     9.3220    11.8280    10.5510     2.2590 
  219.6250    -3.0520   104.6340     9.3310    11.8750    10.8230     2.2680 
  219.7500    -2.1530   100.8800     9.2550    11.7700    10.9920     2.2630 
  219.8750    -1.6800    96.7670     9.0040    11.3710    10.6440     2.2490 
  220.0000    -1.8310    94.7860     8.6140    10.7830     9.5820     2.2340 
  220.1250    -2.3590    97.7870     8.2590    10.2710     8.9590     2.2260 
  220.2500    -3.0380   101.5610     8.0730    10.0120     9.1810     2.2300 
  220.3750    -3.6710   100.5870     8.1640    10.1400     8.9800     2.2400 
  220.5000    -3.9510    95.7390     8.4230    10.4690     9.1360     2.2430 
  220.6250    -3.8200    94.4450     8.7810    10.8950    10.4920     2.2370 
  220.7500    -3.6830    95.7740     9.1520    11.3200    10.8970     2.2270 
  220.8750    -3.5670    95.9660     9.4770    11.6860    10.3370     2.2150 
  221.0000    -3.6420    94.3210     9.7130    11.9520    10.8830     2.2050 
  221.1250    -3.9440    94.1880     9.7880    12.0080    11.7990     2.2000 
  221.2500    -4.3200    95.2390     9.7110    11.8700    11.6200     2.1990 
  221.3750    -4.8000    93.5370     9.5300    11.6020    10.9810     2.1990 
  221.5000    -5.3980    90.5820     9.3230    11.3120    10.2390     2.2090 
  221.6250    -6.0220    91.1680     9.1620    11.1120     9.9830     2.2190 
  221.7500    -6.6940    95.8070     9.0990    11.0650    11.0570     2.2170 
  221.8750    -7.4870    98.6920     9.1490    11.1730    12.1940     2.2050 
  222.0000    -8.2540    97.5300     9.2750    11.3780    12.4880     2.2020 
  222.1250    -8.7810    96.8050     9.4280    11.5980    12.5900     2.2100 
  222.2500    -9.0540    98.3070     9.5640    11.7810    13.2760     2.2230 
  222.3750    -9.0720    98.5810     9.6340    11.8690    13.9190     2.2310 
  222.5000    -8.6740    96.8040     9.6570    11.8890    13.1350     2.2320 
  222.6250    -7.7840    96.1300     9.6550    11.8690    11.8520     2.2260 
  222.7500    -6.6700    96.2960     9.6370    11.8230    11.5110     2.2230 
  222.8750    -5.6380    96.1810     9.6390    11.7910    11.4740     2.2250 
  223.0000    -5.0590    95.9720     9.7100    11.8510    11.0050     2.2290 
  223.1250    -4.9930    95.6500     9.9440    12.1200    10.3960     2.2470 
  223.2500    -5.1880    94.6620    10.3530    12.6080    10.4380     2.2840 
  223.3750    -5.3850    92.5010    10.8790    13.2400    11.9520     2.3330 
  223.5000    -5.2930    91.0760    11.3450    13.7730    14.8480     2.3690 
  223.6250    -4.7220    89.5100    11.5060    13.9160    17.4570     2.3700 
  223.7500    -3.9910    87.1260    11.3060    13.5830    17.3300     2.3410 
  223.8750    -3.3110    86.9330    10.7580    12.8310    14.4710     2.3030 
  224.0000    -2.8350    89.4070    10.0360    11.9020    11.4720     2.2760 
  224.1250    -2.7080    92.2530     9.4120    11.1400     9.7980     2.2540 
  224.2500    -2.7600    94.3550     8.9160    10.5800     9.3170     2.2340 
  224.3750    -2.8470    96.7720     8.5650    10.1940     9.3380     2.2200 
  224.5000    -2.9940    99.9270     8.2780     9.8660     9.2620     2.2110 
  224.6250    -3.1540   100.9780     7.9930     9.5220     8.8430     2.1990 
  224.7500    -3.2960    99.6370     7.7550     9.2520     8.1230     2.1930 
  224.8750    -3.4560    98.2900     7.6220     9.1430     7.5510     2.2040 
  225.0000    -3.6930    97.4810     7.5270     9.0750     7.2180     2.2160 
  225.1250    -3.9440    96.7270     7.3440     8.8760     7.6470     2.2130 
  225.2500    -4.1880    95.8170     7.0500     8.5010     8.7990     2.2040 
  225.3750    -4.5980    95.0920     6.6830     8.0140     8.5000     2.2090 
  225.5000    -4.9310    92.3000     6.3790     7.6340     6.7870     2.2260 
  225.6250    -4.8610    85.7380     6.2260     7.4770     6.1210     2.2230 
  225.7500    -4.5710    78.7520     6.2590     7.5810     6.7220     2.1930 
  225.8750    -4.4760    74.0320     6.4900     7.9350     7.1700     2.1610 
  226.0000    -4.7370    71.7600     6.9370     8.5250     7.0350     2.1500 
  226.1250    -5.4410    73.0780     7.5060     9.2260     7.2200     2.1610 
  226.2500    -6.1890    78.4990     8.0850     9.9040     8.3790     2.1870 
  226.3750    -6.7190    86.2880     8.6720    10.5640    10.0690     2.2240 
  226.5000    -6.9240    91.5140     9.1520    11.0840    11.2600     2.2430 
  226.6250    -6.4170    92.4910     9.4790    11.4000    10.8820     2.2240 
  226.7500    -5.3920    92.7590     9.5920    11.4710    10.2600     2.1940 
  226.8750    -4.1270    95.1020     9.5100    11.3400    10.9770     2.1850 
  227.0000    -2.9470    97.5030     9.3070    11.0820    11.3210     2.1990 
  227.1250    -1.9360    97.7780     8.9570    10.6880    10.6670     2.2180 
  227.2500    -1.0820    96.1560     8.4320    10.1110    10.1980     2.2250 
  227.3750    -0.3480    95.6600     7.7120     9.2990    11.8210     2.2190 
  227.5000     0.3460    94.4280     6.9850     8.4870    12.3830     2.2100 
  227.6250     1.0190    90.5260     6.4110     7.8520     8.0380     2.2210 
  227.7500     1.6370    83.7800     6.0170     7.4350     5.2000     2.2540 
  227.8750     2.2820    76.3460     5.8070     7.2520     6.5430     2.2830 
  228.0000     2.7700    71.2920     5.7030     7.1940     7.8870     2.2900 
  228.1250     3.0380    69.5100     5.6670     7.1540     7.3980     2.2750 
  228.2500     3.2180    70.3350     5.6310     7.0800     5.7720     2.2610 
  228.3750     3.2240    72.1460     5.6260     7.0440     4.8630     2.2590 
  228.5000     3.2720    74.3120     5.6530     7.0480     5.3850     2.2670 
  228.6250     3.5820    76.3140     5.7070     7.1240     6.3970     2.2790 
  228.7500     4.2930    77.9940     5.7640     7.1860     6.4840     2.2910 
  228.8750     5.2330    80.2500     5.7590     7.1570     6.1160     2.2990 
  229.0000     6.1440    81.9970     5.7250     7.0830     6.2590     2.2990 
  229.1250     6.6440    80.8670     5.7140     7.0470     6.5920     2.2880 
  229.2500     6.6020    77.2840     5.7630     7.1080     6.9280     2.2840 
  229.3750     6.2470    75.5330     5.8950     7.2900     7.6340     2.2950 
  229.5000     5.7470    78.1570     6.0590     7.5160     8.0990     2.3070 
  229.6250     5.3950    81.7110     6.1980     7.6890     7.7180     2.2960 
  229.7500     5.4730    83.0140     6.2530     7.7380     7.2840     2.2740 
  229.8750     5.9130    82.0030     6.2300     7.6880     7.1880     2.2720 
  230.0000     6.3750    79.2200     6.1740     7.6110     7.2510     2.2980 
  230.1250     6.7930    75.6910     6.0920     7.5150     7.5200     2.3270 
