~V
VERS. 2.00: Ver 2.00
~W
STRT.M 50.0000:
STOP.M 193.0000:
STEP.M 0.1250:
NULL. -999.2500:
UWI. F12006:
~C
DEPT.M :
SP.MV :
GR.API :
RI. :
RML.OHMM :
RXO.OHMM :
DEN.GM/CC :
~A
# ...
  165.8750   -35.7230    92.0170     9.3680    10.3360    14.7900     2.2960 
  166.0000   -35.9720    94.4030     9.5200    10.4960    16.4340     2.2890 
  166.1250   -36.2640    93.9610     9.3590    10.3270    14.4250     2.2890 
  166.2500   -36.5650    93.4580     8.9790     9.9280    13.7970     2.2910 
  166.3750   -36.8100    93.0990     8.5300     9.4570    15.3490     2.2990 
  166.5000   -36.9490    90.6320     8.1190     9.0240    14.7490     2.3080 
  166.6250   -36.9440    86.6160     7.8190     8.7100    13.0530     2.3070 
  166.7500   -36.8210    86.9550     7.5650     8.4430    10.9750     2.2980 
  166.8750   -36.6140    91.6740     7.2580     8.1200     8.9850     2.2850 
  167.0000   -36.3780    94.5340     6.9200     7.7660     7.9040     2.2720 
  167.1250   -36.1470    90.6370     6.6430     7.4760     7.1350     2.2600 
  167.2500   -35.9420    83.8320     6.4770     7.3010     7.4440     2.2560 
  167.3750   -35.7820    80.0010     6.4650     7.2890     9.3940     2.2650 
  167.5000   -35.6850    79.5230     6.5280     7.3550    10.4400     2.2770 
  167.6250   -35.6840    79.2870     6.5510     7.3790     9.3680     2.2830 
  167.7500   -35.7700    77.9350     6.4880     7.3130     7.8280     2.2820 
  167.8750   -35.8950    75.7640     6.3190     7.1350     6.8480     2.2760 
  168.0000   -35.9660    73.9740     6.1070     6.9120     6.6350     2.2710 
  168.1250   -35.9000    72.1690     5.9220     6.7180     6.9680     2.2740 
  168.2500   -35.7150    70.5080     5.8180     6.6090     7.2530     2.2830 
  168.3750   -35.5100    68.2020     5.8090     6.5990     6.9740     2.2790 
  168.5000   -35.4230    66.5860     5.8510     6.6440     6.5170     2.2580 
  168.6250   -35.5560    68.7640     5.9090     6.7050     6.7880     2.2410 
  168.7500   -35.8760    74.3890     5.9650     6.7640     7.8110     2.2450 
  168.8750   -36.2890    77.6570     6.0270     6.8280     8.4620     2.2540 
  169.0000   -36.6560    76.2440     6.0920     6.8970     8.0800     2.2530 
  169.1250   -36.8770    73.7390     6.1550     6.9630     7.9660     2.2530 
  169.2500   -36.9400    73.9050     6.2200     7.0310     8.5280     2.2610 
  169.3750   -36.8780    76.0400     6.3130     7.1290     8.7970     2.2710 
  169.5000   -36.7620    78.3280     6.4400     7.2620     8.8720     2.2790 
  169.6250   -36.6250    80.3160     6.5850     7.4140     8.8670     2.2830 
  169.7500   -36.4580    81.4250     6.7280     7.5650     8.7980     2.2850 
  169.8750   -36.2210    81.6800     6.8550     7.6980     9.0080     2.2840 
  170.0000   -35.8880    81.3670     6.9620     7.8100     9.4150     2.2880 
  170.1250   -35.4520    79.9160     6.9960     7.8450     9.8020     2.2980 
  170.2500   -34.9550    78.6460     6.9030     7.7480    10.1960     2.2990 
  170.3750   -34.4450    79.0770     6.6950     7.5290    10.1380     2.2870 
  170.5000   -33.9700    81.0920     6.3940     7.2140     8.9700     2.2740 
  170.6250   -33.5670    81.6580     6.1150     6.9200     7.6860     2.2770 
  170.7500   -33.2370    79.4240     5.9370     6.7340     7.4340     2.2910 
  170.8750   -32.9850    75.4330     5.9790     6.7780     7.9260     2.2980 
  171.0000   -32.8180    71.9500     6.2550     7.0680     8.8810     2.2960 
  171.1250   -32.7730    70.3410     6.7560     7.5940    10.0110     2.2920 
  171.2500   -32.8740    71.2160     7.3280     8.1950    10.7290     2.2950 
  171.3750   -33.1360    75.6990     7.7380     8.6250    11.3450     2.3040 
  171.5000   -33.5140    81.9220     7.8920     8.7870    11.8820     2.3040 
  171.6250   -33.9370    86.4920     7.7480     8.6360    11.0060     2.2850 
  171.7500   -34.3160    87.4000     7.4030     8.2740     9.0220     2.2640 
  171.8750   -34.5690    84.6300     7.0170     7.8680     7.6310     2.2650 
  172.0000   -34.6660    80.4560     6.6700     7.5040     7.5150     2.2810 
  172.1250   -34.6040    76.2620     6.3860     7.2060     7.8230     2.2930 
  172.2500   -34.4300    73.6740     6.2130     7.0240     7.6500     2.2950 
  172.3750   -34.1890    72.6890     6.1200     6.9260     7.4190     2.2870 
  172.5000   -33.9350    72.5840     6.0850     6.8890     7.3660     2.2750 
  172.6250   -33.7110    72.8270     6.0830     6.8870     7.4890     2.2660 
  172.7500   -33.5530    74.3200     6.1230     6.9300     7.7120     2.2590 
  172.8750   -33.4930    77.9950     6.2340     7.0460     7.8180     2.2530 
  173.0000   -33.5320    82.8780     6.4080     7.2290     8.0370     2.2530 
  173.1250   -33.6590    85.3020     6.7170     7.5530     8.5090     2.2670 
  173.2500   -33.8320    83.7700     7.1220     7.9780     9.2190     2.2890 
  173.3750   -33.9940    81.6360     7.4870     8.3610     9.9480     2.3100 
  173.5000   -34.0830    82.2880     7.6830     8.5670    10.5460     2.3180 
  173.6250   -34.0340    84.9600     7.6270     8.5090    10.4510     2.3060 
  173.7500   -33.8310    86.6170     7.3980     8.2680     9.0440     2.2820 
  173.8750   -33.4730    85.5350     7.1150     7.9710     7.5440     2.2730 
  174.0000   -33.0070    82.9020     6.8920     7.7370     7.0920     2.2850 
  174.1250   -32.4760    80.0640     6.7870     7.6260     7.2950     2.3110 
  174.2500   -31.9280    79.3970     6.8310     7.6730     7.9220     2.3300 
  174.3750   -31.4020    81.9640     6.9930     7.8420     8.6900     2.3310 
  174.5000   -30.9230    86.1330     7.1520     8.0100     8.7160     2.3210 
  174.6250   -30.5130    89.6660     7.2820     8.1460     8.2030     2.3080 
  174.7500   -30.1880    90.5720     7.3990     8.2690     8.2360     2.3010 
  174.8750   -30.0070    90.4200     7.5400     8.4170     9.0760     2.2970 
  175.0000   -30.0190    91.0060     7.6860     8.5700     9.7850     2.2960 
  175.1250   -30.2700    91.1600     7.8050     8.6950     9.9440     2.2940 
  175.2500   -30.6870    90.3630     7.8500     8.7420     9.6310     2.2910 
  175.3750   -31.1410    91.3230     7.7510     8.6390     8.8680     2.2830 
  175.5000   -31.4950    95.0820     7.6070     8.4880     8.5180     2.2780 
  175.6250   -31.6720    98.4340     7.4890     8.3640     8.3930     2.2890 
  175.7500   -31.7120    98.8100     7.4780     8.3520     9.1220     2.3100 
  175.8750   -31.6910    97.8790     7.6680     8.5510    11.0040     2.3230 
  176.0000   -31.6860    98.4820     7.9940     8.8940    11.6440     2.3250 
  176.1250   -31.7380    99.0730     8.3800     9.2990    11.7710     2.3170 
  176.2500   -31.8360    97.1240     8.6730     9.6070    11.9280     2.3070 
  176.3750   -31.9520    93.3070     8.6950     9.6290    11.0870     2.2940 
  176.5000   -32.0540    91.6390     8.4610     9.3840    10.6330     2.2890 
  176.6250   -32.1180    91.8120     8.0310     8.9330    10.0840     2.2960 
  176.7500   -32.1350    90.6030     7.5180     8.3940     9.1340     2.3010 
  176.8750   -32.0900    87.8440     7.0380     7.8900     8.3860     2.2960 
  177.0000   -31.9850    85.3700     6.6360     7.4670     7.5310     2.2830 
  177.1250   -31.8220    86.0190     6.4040     7.2240     7.2350     2.2760 
  177.2500   -31.6240    89.1180     6.3240     7.1400     7.4510     2.2780 
  177.3750   -31.4190    93.0060     6.4690     7.2920     7.4690     2.2850 
  177.5000   -31.2350    94.6470     6.6770     7.5110     7.8710     2.2970 
  177.6250   -31.0960    92.8430     6.9160     7.7620     9.1160     2.3040 
  177.7500   -31.0010    89.5150     7.0810     7.9350     9.4930     2.2960 
  177.8750   -30.9410    87.3680     7.1230     7.9790     8.5090     2.2780 
  178.0000   -30.9000    85.5390     7.1130     7.9690     8.3210     2.2690 
  178.1250   -30.8650    83.3250     7.1550     8.0130     9.4570     2.2850 
  178.2500   -30.8330    80.9830     7.2680     8.1310    10.4990     2.3070 
  178.3750   -30.8010    81.0200     7.4510     8.3240    10.9470     2.3150 
  178.5000   -30.7670    82.7240     7.6830     8.5680    10.8340     2.3070 
  178.6250   -30.7290    84.4900     7.8800     8.7740    10.3330     2.2990 
