~V
VERS. 2.00: Ver 2.00
~W
STRT.M 50.0000:
STOP.M 255.0000:
STEP.M 0.1250:
NULL. -999.2500:
UWI. F12008:
~C
DEPT.M :
SP.MV :
GR.API :
RI. :
RML.OHMM :
RXO.OHMM :
DEN.GM/CC :
~A
# ...
  243.1250    -1.7430    66.8400     8.0010     8.9810     8.4970     2.3470 
  243.2500    -1.7430    67.2070     7.9420     8.9190    12.6710     2.3450 
  243.3750    -1.7430    66.9420     7.7310     8.6940    19.8700     2.3590 
  243.5000    -1.7430    66.5160     7.3020     8.2400    17.0860     2.3740 
  243.6250    -1.7430    67.1490     6.8550     7.7660     9.0750     2.3670 
  243.7500    -1.7430    68.3150     6.4990     7.3890     6.2580     2.3470 
  243.8750    -1.7430    68.2890     6.4190     7.3040     6.8500     2.3290 
  244.0000    -1.7430    67.1980     6.6670     7.5670     7.1830     2.3080 
  244.1250    -1.7430    66.9510     7.2270     8.1600     6.6780     2.3000 
  244.2500    -1.7430    67.7390     7.9620     8.9400     6.6060     2.3350 
  244.3750    -1.7430    68.4630     8.6620     9.6820     8.0080     2.3840 
  244.5000    -1.7430    69.2940     9.0870    10.1320    14.5500     2.3920 
  244.6250    -1.7430    70.4620     9.3010    10.3590    26.8690     2.3530 
  244.7500    -1.7430    71.2450     9.1210    10.1680    33.4550     2.3210 
  244.8750    -1.7430    70.9270     8.9270     9.9620    25.2780     2.3240 
  245.0000    -1.7430    71.0070     8.6960     9.7170    12.5040     2.3590 
  245.1250    -1.7430    71.6250     8.5630     9.5760     7.4590     2.4050 
  245.2500    -1.7430    71.2160     8.5660     9.5790     7.4560     2.4290 
  245.3750    -1.7430    69.0060     8.5660     9.5800     7.4970     2.4170 
  245.5000    -1.7430    66.4210     8.5690     9.5830     7.4260     2.3970 
  245.6250    -1.7430    65.1040     8.5680     9.5820     7.2240     2.3890 
  245.7500    -1.7430    65.8220     8.5670     9.5810     7.3130     2.3840 
  245.8750    -1.7430    68.4740     8.5620     9.5760     8.9800     2.3740 
  246.0000    -1.7430    70.4130     8.5530     9.5670    10.6160     2.3660 
  246.1250    -1.7430    69.9840     8.5480     9.5610     9.4570     2.3690 
  246.2500    -1.7430    68.5460     8.5420     9.5550     7.5730     2.3830 
  246.3750    -1.7430    67.2190     8.5460     9.5590     7.5540     2.3940 
  246.5000    -1.7430    66.2350     8.5550     9.5680     8.0390     2.3970 
  246.6250    -1.7430    65.9800     8.5540     9.5670     7.2290     2.3960 
  246.7500    -1.7430    66.6100     8.5550     9.5680     6.1670     2.4030 
  246.8750    -1.7430    68.3900     8.5470     9.5590     5.8640     2.4050 
  247.0000    -1.7430    70.5650     8.5380     9.5500     5.9670     2.3840 
  247.1250    -1.7430    71.6800     8.5460     9.5590     6.2480     2.3580 
  247.2500    -1.7430    70.8090     8.5540     9.5680     6.2240     2.3670 
  247.3750    -1.7430    69.0440     8.5500     9.5630     6.0580     2.4040 
  247.5000    -1.7430    67.6060     8.5510     9.5650     6.3900     2.4160 
  247.6250    -1.7430    67.5110     8.5380     9.5500     6.8280     2.3980 
  247.7500    -1.7430    68.7150     8.5270     9.5380     6.8270     2.3820 
  247.8750    -1.7430    70.4720     8.5200     9.5320     6.8610     2.3830 
  248.0000    -1.7430    71.2870     8.5100     9.5200     6.9540     2.3860 
  248.1250    -1.7430    71.1990     8.5130     9.5240     6.7930     2.3750 
  248.2500    -1.7430    71.1710     8.5210     9.5330     6.4860     2.3420 
  248.3750    -1.7430    71.1710     8.5170     9.5290     6.0430     2.2990 
  248.5000    -1.7430    71.1710     8.5250     9.5360     5.9130     2.2670 
  248.6250    -1.7430    71.1710     8.5340     9.5460     6.1940     2.2420 
  248.7500    -1.7430    71.1710     8.5400     9.5520     6.2850     2.2270 
  248.8750    -1.7430    71.1710     8.5300     9.5420     6.0480     2.2430 
  249.0000    -1.7430    71.1710     8.5220     9.5330     6.0410     2.2840 
  249.1250    -1.7430    71.1710     8.5130     9.5240     6.6980     2.3210 
  249.2500    -1.7430    71.1710     8.5330     9.5450     7.3750     2.3290 
  249.3750    -1.7430    71.1710     8.5490     9.5620     7.3070     2.3120 
  249.5000    -1.7430    71.1710     8.5510     9.5640     6.6870     2.2930 
  249.6250    -1.7430    71.1710     8.5510     9.5650     5.9640     2.2790 
  249.7500    -1.7430    71.1710     8.5500     9.5630     5.4040     2.2480 
  249.8750    -1.7430    71.1710     8.5510     9.5640     5.1370     2.1820 
  250.0000    -1.7430    71.1710     8.5490     9.5620     4.9550     2.1110 
  250.1250    -1.7430    71.1710     8.5500     9.5630     4.7670     2.0710 
  250.2500    -1.7430    71.1710     8.5530     9.5660     4.8100     2.0610 
  250.3750    -1.7430    71.1710     8.5540     9.5670     5.0940     2.0600 
  250.5000    -1.7430    71.1710     8.5560     9.5690     5.3490     2.0600 
  250.6250    -1.7430    71.1710     8.5560     9.5690     5.4440     2.0620 
  250.7500    -1.7430    71.1710     8.5560     9.5690     5.4560     2.0660 
  250.8750    -1.7430    71.1710     8.5560     9.5690     5.4560     2.0700 
  251.0000    -1.7430    71.1710     8.5560     9.5690     5.4550     2.0720 
  251.1250    -1.7430    71.1710     8.5560     9.5690     5.4540     2.0690 
  251.2500    -1.7430    71.1710     8.5560     9.5690     5.4540     2.0630 
  251.3750    -1.7430    71.1710     8.5560     9.5690     5.4530     2.0630 
  251.5000    -1.7430    71.1710     8.5560     9.5690     5.4530     2.0690 
  251.6250    -1.7430    71.1710     8.5560     9.5690     5.4520     2.0740 
  251.7500    -1.7430    71.1710     8.5560     9.5690     5.4510     2.0740 
  251.8750    -1.7430    71.1710     8.5560     9.5690     5.4500     2.0740 
  252.0000    -1.7430    71.1710     8.5560     9.5690     5.4480     2.0730 
  252.1250    -1.7430    71.1710     8.5560     9.5690     5.4460     2.0710 
  252.2500    -1.7430    71.1710     8.5560     9.5690     5.4410     2.0680 
  252.3750    -1.7430    71.1710     8.5560     9.5690     5.4450     2.0660 
  252.5000    -1.7430    71.1710     8.5560     9.5690     5.4580     2.0660 
  252.6250    -1.7430    71.1710     8.5560     9.5690     5.4450     2.0650 
  252.7500    -1.7430    71.1710     8.5560     9.5690     5.4410     2.0630 
  252.8750    -1.7430    71.1710     8.5560     9.5690     5.4620     2.0610 
  253.0000    -1.7430    71.1710     8.5560     9.5690     5.4730     2.0610 
  253.1250    -1.7430    71.1710     8.5560     9.5690     5.4840     2.0620 
  253.2500    -1.7430    71.1710     8.5560     9.5690     5.4670     2.0650 
  253.3750    -1.7430    71.1710     8.5560     9.5690     5.4070     2.0690 
  253.5000    -1.7430    71.1710     8.5560     9.5690     5.3890     2.0690 
  253.6250    -1.7430    71.1710     8.5560     9.5690     5.4450     2.0680 
  253.7500    -1.7430    71.1710     8.5560     9.5690     5.4550     2.0700 
  253.8750    -1.7430    71.1710     8.5560     9.5690     5.4290     2.0720 
  254.0000    -1.7430    71.1710     8.5560     9.5690     5.4650     2.0630 
  254.1250    -1.7430    71.1710     8.5560     9.5690     5.4740     2.0470 
  254.2500    -1.7430    71.1710     8.5560     9.5690     5.4280     2.0380 
  254.3750    -1.7430    71.1710     8.5560     9.5690     5.4020     2.0370 
  254.5000    -1.7430    71.1710     8.5560     9.5690     5.3940     2.0360 
  254.6250    -1.7430    71.1710     8.5560     9.5690     5.4340     2.0360 
  254.7500    -1.7430    71.1710     8.5560     9.5690     5.5030     2.0360 
  254.8750    -1.7430    71.1710     8.5560     9.5690     5.4930     2.0360 
  255.0000    -1.7430    71.1710     8.5560     9.5690     5.4350     2.0360 
