~V
VERS. 2.00: Ver 2.00
~W
STRT.M 50.0000:
STOP.M 193.0000:
STEP.M 0.1250:
NULL. -999.2500:
UWI. F12006:
~C
DEPT.M :
SP.MV :
GR.API :
RI. :
RML.OHMM :
RXO.OHMM :
DEN.GM/CC :
~A
# ...
  101.5000   -40.7790    63.7860    15.5250    16.8010    18.8440     2.1620 
  101.6250   -40.8200    62.6630    13.9980    15.1980    16.7920     2.1400 
  101.7500   -40.9290    61.7480    12.1140    13.2200    13.1630     2.1290 
  101.8750   -41.1250    61.9960    10.5200    11.5460    10.5810     2.1400 
  102.0000   -41.3920    63.2290     9.2540    10.2160     9.9290     2.1540 
  102.1250   -41.7030    63.8210     8.5910     9.5200    10.0560     2.1620 
  102.2500   -42.0060    63.8170     8.6330     9.5650     9.9430     2.1650 
  102.3750   -42.2520    63.8930     9.4290    10.4010     9.5880     2.1560 
  102.5000   -42.4140    64.7030    11.0220    12.0730     9.2040     2.1610 
  102.6250   -42.4720    68.0780    13.4000    14.5700    12.5970     2.2520 
  102.7500   -42.4370    71.9470    16.1680    17.4760    24.9370     2.4300 
  102.8750   -42.3190    71.7620    18.1760    19.5850    37.5810     2.5880 
  103.0000   -42.1570    68.4490    18.5370    19.9630    39.0350     2.6070 
  103.1250   -41.9960    65.4580    17.3040    18.6690    30.8830     2.4690 
  103.2500   -41.8870    64.7990    14.9980    16.2480    19.2460     2.2900 
  103.3750   -41.8780    67.1540    13.0260    14.1780    12.4460     2.1700 
  103.5000   -41.9800    70.2360    11.9110    13.0070    12.1510     2.1210 
  103.6250   -42.1790    72.2920    11.6160    12.6970    13.0990     2.1090 
  103.7500   -42.4170    71.2080    11.7150    12.8000    13.2440     2.1030 
  103.8750   -42.6270    70.0490    11.7230    12.8090    12.8800     2.1040 
  104.0000   -42.7560    70.9160    11.3120    12.3780    12.0790     2.1110 
  104.1250   -42.7640    72.8920    10.5410    11.5680    10.6980     2.1190 
  104.2500   -42.6500    73.0990     9.8610    10.8540     9.7450     2.1190 
  104.3750   -42.4020    70.3860     9.7090    10.6940     9.5530     2.1320 
  104.5000   -42.0380    68.0170    10.4840    11.5080    12.0040     2.2090 
  104.6250   -41.5540    68.9750    13.3490    14.5160    22.0330     2.3680 
  104.7500   -40.9560    69.7960    19.1990    20.6590    45.9670     2.5310 
  104.8750   -40.2310    65.8530    31.6560    33.7390    79.6940     2.6230 
  105.0000   -39.3920    59.3880    51.8330    54.9250   121.9910     2.6580 
  105.1250   -38.4640    55.3740    65.6330    69.4140   187.6450     2.6780 
  105.2500   -37.5090    55.5540    65.7570    69.5450   215.7600     2.6880 
  105.3750   -36.5950    57.7710    50.8170    53.8580   174.9690     2.6540 
  105.5000   -35.7740    59.1910    28.7470    30.6840   126.2570     2.5590 
  105.6250   -35.0880    62.2110    14.0570    15.2600    67.3800     2.4290 
  105.7500   -34.5310    70.6800     8.0460     8.9480    17.3650     2.3360 
  105.8750   -34.1040    81.2490     5.9900     6.7900     5.7210     2.3240 
  106.0000   -33.7810    88.5880     5.1270     5.8830     6.4220     2.3490 
  106.1250   -33.5450    92.4660     5.1800     5.9390     6.8670     2.3600 
  106.2500   -33.3670    96.8810     5.7500     6.5370     6.3220     2.3620 
  106.3750   -33.2330    99.0770     6.4260     7.2470     6.6960     2.3860 
  106.5000   -33.1260    97.9550     6.9540     7.8020     8.2990     2.4210 
  106.6250   -33.0440    95.3880     7.1820     8.0410     9.2640     2.4250 
  106.7500   -32.9800    92.7720     7.1020     7.9580     8.0460     2.3870 
  106.8750   -32.9340    91.8840     6.6930     7.5270     6.0110     2.3310 
  107.0000   -32.8970    94.0090     6.1640     6.9720     5.4660     2.2890 
  107.1250   -32.8610    98.2390     5.6890     6.4740     5.8380     2.2710 
  107.2500   -32.8260    98.4620     5.3940     6.1640     6.0590     2.2730 
  107.3750   -32.8030    95.0170     5.2560     6.0180     6.3330     2.2920 
  107.5000   -32.8040    95.0400     5.2200     5.9810     6.6070     2.3080 
  107.6250   -32.8410    98.7070     5.3380     6.1050     6.5040     2.3140 
  107.7500   -32.9130    99.6920     5.6300     6.4120     6.5280     2.3300 
  107.8750   -33.0170    95.0950     5.9870     6.7870     8.1020     2.3680 
  108.0000   -33.1430    90.0300     6.2460     7.0580    10.2390     2.3880 
  108.1250   -33.2810    87.0750     6.2560     7.0690     9.7290     2.3610 
  108.2500   -33.4150    87.8140     6.0460     6.8480     7.3080     2.3100 
  108.3750   -33.5310    93.3520     5.6710     6.4540     6.0690     2.2710 
  108.5000   -33.6280    98.4710     5.3830     6.1520     6.0120     2.2480 
  108.6250   -33.7220    98.5330     5.3530     6.1210     6.2120     2.2300 
  108.7500   -33.8410    96.5990     5.6550     6.4370     6.7920     2.2110 
  108.8750   -34.0100    94.8000     6.1710     6.9790     7.6160     2.1910 
  109.0000   -34.2240    91.6750     6.5790     7.4080     8.1820     2.1780 
  109.1250   -34.4500    88.3120     6.7290     7.5650     8.4520     2.1920 
  109.2500   -34.6320    88.8630     6.4920     7.3160     8.4520     2.2280 
  109.3750   -34.7050    93.0940     5.9170     6.7130     7.7790     2.2640 
  109.5000   -34.6440    98.4060     5.2110     5.9720     6.9280     2.2790 
  109.6250   -34.4430   103.2290     4.7110     5.4460     6.5130     2.2850 
  109.7500   -34.1580   104.7720     4.6260     5.3570     6.0460     2.3070 
  109.8750   -33.8560   101.0810     5.1320     5.8890     6.4880     2.3280 
  110.0000   -33.6060    94.8960     6.6570     7.4900    10.2090     2.3110 
  110.1250   -33.4620    89.2780     9.2590    10.2220    16.1640     2.2490 
  110.2500   -33.4270    85.3400    12.4330    13.5550    20.8490     2.1840 
  110.3750   -33.4860    83.5740    15.1130    16.3680    23.3920     2.1530 
  110.5000   -33.5860    83.0360    15.6180    16.8990    22.4960     2.1520 
  110.6250   -33.6830    83.1830    14.1970    15.4070    19.5170     2.1750 
  110.7500   -33.7480    85.9790    11.6620    12.7450    16.8710     2.2100 
  110.8750   -33.7740    90.3350     9.4170    10.3880    11.9440     2.2460 
  111.0000   -33.7810    93.2130     7.9340     8.8310     8.2680     2.2790 
  111.1250   -33.7930    95.5540     6.9830     7.8320    11.7560     2.3080 
  111.2500   -33.8260   100.8730     6.3020     7.1170    14.4590     2.3230 
  111.3750   -33.8770   105.5370     5.8160     6.6070     9.8130     2.3130 
  111.5000   -33.9250   105.6910     5.6240     6.4060     6.0260     2.2900 
  111.6250   -33.9490   103.8050     5.8200     6.6110     6.0490     2.2620 
  111.7500   -33.9410   102.0080     6.6030     7.4330     7.1910     2.2270 
  111.8750   -33.9090    96.9750     8.1050     9.0100    10.1340     2.1870 
  112.0000   -33.8660    88.3580    10.6320    11.6640    14.3540     2.1610 
  112.1250   -33.8230    80.9250    13.8230    15.0140    18.3760     2.1510 
  112.2500   -33.7820    77.4250    17.1470    18.5040    20.8900     2.1450 
  112.3750   -33.7400    77.8250    20.1380    21.6450    23.0640     2.1370 
  112.5000   -33.6900    79.7850    22.4160    24.0370    25.3370     2.1270 
  112.6250   -33.6230    79.1760    23.3970    25.0670    27.0290     2.1200 
  112.7500   -33.5370    74.3940    22.3870    24.0060    29.6710     2.1240 
  112.8750   -33.4360    71.0070    18.8770    20.3210    31.2260     2.1490 
  113.0000   -33.3300    72.9770    14.2710    15.4850    24.9100     2.1940 
  113.1250   -33.2270    79.5760     9.8530    10.8460    13.0410     2.2400 
  113.2500   -33.1320    85.4020     7.0020     7.8520     6.4870     2.2650 
  113.3750   -33.0510    90.1870     5.9030     6.6980     5.8220     2.2630 
  113.5000   -32.9920    94.7840     5.7520     6.5390     6.2610     2.2490 
  113.6250   -32.9620    97.7710     6.8100     7.6500     8.7210     2.2300 
  113.7500   -32.9560    95.1570     9.2380    10.2000    14.9660     2.1960 
  113.8750   -32.9630    86.2740    13.5920    14.7710    20.6830     2.1460 
  114.0000   -32.9640    76.7550    19.3750    20.8440    24.2170     2.1090 
  114.1250   -32.9440    71.1950    24.7710    26.5090    30.6090     2.1100 
  114.2500   -32.8970    69.1110    28.1230    30.0290    36.4680     2.1250 
