~V
VERS. 2.00: Ver 2.00
~W
STRT.M 50.0000:
STOP.M 256.0000:
STEP.M 0.1250:
NULL. -999.2500:
UWI. F12009:
~C
DEPT.M :
SP.MV :
GR.API :
RI. :
RML.OHMM :
RXO.OHMM :
DEN.GM/CC :
~A
# ...
  114.3750     2.3240   102.0760     4.5970     5.3270     4.8800     2.1680 
  114.5000     2.2000   104.5220     4.5010     5.2260     4.6440     2.1840 
  114.6250     2.1050   109.1930     4.4400     5.1620     4.4470     2.2000 
  114.7500     2.0580   111.2490     4.4560     5.1790     4.4310     2.1960 
  114.8750     1.9610   108.3460     4.5410     5.2680     4.8220     2.1670 
  115.0000     1.6540   103.9770     4.6160     5.3470     5.2370     2.1350 
  115.1250     1.3480   102.6890     4.5890     5.3180     5.1440     2.1290 
  115.2500     1.0480   104.3940     4.4140     5.1340     4.8650     2.1450 
  115.3750     0.8750   107.6490     4.1660     4.8740     4.7670     2.1630 
  115.5000     1.0410   110.8170     4.1060     4.8110     4.6560     2.1760 
  115.6250     1.5710   113.0490     4.5020     5.2270     4.5460     2.2000 
  115.7500     2.2890   112.3960     5.4150     6.1850     5.7810     2.2600 
  115.8750     2.7950   106.6120     7.0430     7.8950    14.6970     2.3610 
  116.0000     2.7360    98.0160     9.0610    10.0140    27.1340     2.4470 
  116.1250     1.8000    90.3690    10.3770    11.3960    27.0670     2.4490 
  116.2500     0.3180    83.5750    10.3890    11.4080    17.7340     2.3650 
  116.3750    -1.3770    78.0020     9.0590    10.0120    11.2580     2.2450 
  116.5000    -2.9710    74.9800     7.2280     8.0890     8.3320     2.1420 
  116.6250    -3.9980    74.7700     6.0310     6.8320     7.1810     2.0790 
  116.7500    -4.3910    74.4890     5.5110     6.2870     6.9020     2.0480 
  116.8750    -4.4910    73.4030     5.3940     6.1640     6.8870     2.0370 
  117.0000    -4.4800    72.4700     5.4430     6.2160     7.0220     2.0360 
  117.1250    -4.4290    70.9920     5.5710     6.3490     7.0340     2.0370 
  117.2500    -4.5240    70.0970     5.6850     6.4690     6.8810     2.0330 
  117.3750    -4.7030    70.8120     5.7710     6.5600     6.9200     2.0260 
  117.5000    -4.9070    71.7170     5.8380     6.6300     7.1150     2.0240 
  117.6250    -5.1370    70.7270     5.8820     6.6760     7.1920     2.0300 
  117.7500    -5.3980    69.1110     5.8990     6.6940     7.2130     2.0350 
  117.8750    -5.5680    67.9250     5.8770     6.6710     7.2040     2.0330 
  118.0000    -5.6660    67.8400     5.8190     6.6100     7.1410     2.0280 
  118.1250    -5.7630    68.8470     5.7320     6.5190     7.0350     2.0310 
  118.2500    -5.7510    72.7660     5.6390     6.4210     6.9210     2.0450 
  118.3750    -5.7050    76.0420     5.5590     6.3370     6.8970     2.0580 
  118.5000    -5.6630    77.7440     5.5150     6.2910     6.9330     2.0610 
  118.6250    -5.4480    79.5660     5.5110     6.2870     6.9700     2.0620 
  118.7500    -4.9140    81.2520     5.5370     6.3140     7.0300     2.0670 
  118.8750    -4.2120    80.2040     5.5890     6.3690     7.1930     2.0750 
  119.0000    -3.4960    77.8940     5.6410     6.4230     7.3390     2.0780 
  119.1250    -3.1030    76.4670     5.6640     6.4470     7.3740     2.0720 
  119.2500    -3.2420    75.4630     5.6300     6.4120     7.4440     2.0640 
  119.3750    -3.7320    74.8550     5.5380     6.3150     7.4300     2.0630 
  119.5000    -4.2760    76.7790     5.4410     6.2130     7.0430     2.0740 
  119.6250    -4.7120    81.1430     5.3770     6.1460     6.4390     2.0910 
  119.7500    -4.7950    84.1880     5.3850     6.1540     6.1910     2.1090 
  119.8750    -4.4900    84.6020     5.4540     6.2260     6.6090     2.1180 
  120.0000    -4.1130    81.7410     5.5420     6.3190     7.2750     2.1070 
  120.1250    -3.9420    77.1950     5.5730     6.3520     7.5170     2.0800 
  120.2500    -3.9440    72.5550     5.5040     6.2800     7.3680     2.0540 
  120.3750    -4.0880    69.6220     5.3150     6.0800     7.2630     2.0420 
  120.5000    -4.1950    67.9360     5.0540     5.8060     7.2120     2.0420 
  120.6250    -4.1240    68.4580     4.8810     5.6250     7.0960     2.0440 
  120.7500    -3.9470    71.4350     5.0080     5.7580     7.1290     2.0430 
  120.8750    -3.7100    75.3610     5.5950     6.3750     7.1670     2.0550 
  121.0000    -3.3030    76.7540     6.9850     7.8350    10.1430     2.1130 
  121.1250    -2.6370    74.5710     8.8320     9.7730    21.8840     2.2520 
  121.2500    -1.8790    73.4210     9.8910    10.8860    36.3030     2.4260 
  121.3750    -0.9380    74.7540     9.6190    10.6000    41.9900     2.5330 
  121.5000     0.0880    78.1610     8.0770     8.9810    34.3730     2.5210 
  121.6250     0.8690    83.6510     6.0700     6.8740    17.5940     2.4180 
  121.7500     1.5390    90.5840     4.6230     5.3550     6.5960     2.3070 
  121.8750     2.3550    96.5540     3.8830     4.5780     4.8430     2.2350 
  122.0000     3.2990    98.6440     3.5900     4.2700     4.8870     2.2030 
  122.1250     4.1370    98.6790     3.6660     4.3490     4.8010     2.1940 
  122.2500     4.6990    99.2550     3.8660     4.5590     4.7450     2.1890 
  122.3750     4.6620   100.4780     4.0460     4.7490     4.8490     2.1820 
  122.5000     4.1400   101.4440     4.1160     4.8220     5.0510     2.1800 
  122.6250     3.3750   102.1660     4.1050     4.8100     5.2180     2.1870 
  122.7500     2.6070   105.1570     4.0450     4.7470     5.0170     2.2010 
  122.8750     2.1920   107.7490     3.9560     4.6530     4.6020     2.2200 
  123.0000     2.3430   108.7370     3.8790     4.5730     4.5080     2.2360 
  123.1250     2.8330   109.8250     3.8140     4.5040     4.5650     2.2470 
  123.2500     3.3430   112.2540     3.7640     4.4520     4.5050     2.2560 
  123.3750     3.6720   113.2890     3.6960     4.3810     4.4160     2.2740 
  123.5000     3.8550   113.3810     3.6010     4.2810     4.2940     2.2910 
  123.6250     3.8720   113.3840     3.5090     4.1840     4.2260     2.2930 
  123.7500     3.8180   112.1170     3.4310     4.1020     4.2000     2.2830 
  123.8750     3.6650   108.0240     3.3940     4.0640     4.1780     2.2740 
  124.0000     3.4410   105.4960     3.3740     4.0420     4.2950     2.2770 
  124.1250     3.1910   106.2870     3.3510     4.0190     4.3760     2.2850 
  124.2500     2.9160   109.3630     3.3210     3.9870     4.3080     2.2910 
  124.3750     2.5230   111.9990     3.3420     4.0090     4.3160     2.2990 
  124.5000     2.1090   113.6850     3.4780     4.1510     4.3350     2.3190 
  124.6250     1.7770   113.6810     3.7730     4.4620     4.2710     2.3490 
  124.7500     1.4340   110.4450     4.1510     4.8580     5.3170     2.3800 
  124.8750     1.1750   103.2700     4.5240     5.2510     7.5310     2.3950 
  125.0000     1.2510    94.5900     4.7700     5.5080     7.8620     2.3780 
  125.1250     1.6760    89.1030     4.7480     5.4860     5.8660     2.3250 
  125.2500     2.2920    85.9840     4.5720     5.3000     4.6120     2.2700 
  125.3750     2.7510    84.1570     4.3780     5.0970     4.6710     2.2390 
  125.5000     2.6890    83.5600     4.2980     5.0130     4.8040     2.2190 
  125.6250     2.0510    84.3600     4.4410     5.1630     5.0510     2.1990 
  125.7500     1.0980    85.1540     4.6630     5.3960     5.5230     2.1800 
  125.8750     0.1080    83.1120     4.8840     5.6280     6.0910     2.1720 
  126.0000    -0.6140    79.3730     5.0450     5.7970     6.1990     2.1690 
  126.1250    -0.6780    76.5280     5.0900     5.8440     5.4920     2.1670 
  126.2500    -0.2650    77.6360     4.9750     5.7230     5.1240     2.1620 
  126.3750     0.2520    79.2900     4.7470     5.4840     5.4250     2.1630 
  126.5000     0.7150    79.6910     4.4600     5.1830     5.4800     2.1810 
  126.6250     1.1760    82.3200     4.2070     4.9180     4.8930     2.2130 
  126.7500     1.6480    87.4850     4.0480     4.7500     4.2980     2.2370 
  126.8750     1.9190    89.7120     3.9800     4.6790     4.2560     2.2360 
  127.0000     1.8950    85.7980     4.0180     4.7190     4.7430     2.2150 
  127.1250     1.5290    81.2790     4.1300     4.8360     5.6300     2.1890 
