~V
VERS. 2.00: Ver 2.00
~W
STRT.M 50.0000:
STOP.M 226.0000:
STEP.M 0.1250:
NULL. -999.2500:
UWI. F12001:
~C
DEPT.M :
SP.MV :
GR.API :
RI. :
RML.OHMM :
RXO.OHMM :
DEN.GM/CC :
~A
# ...
  153.0000    -3.5250    60.7000    18.4670    21.6230    18.8580     2.3390 
  153.1250    -3.6180    61.6810    18.8760    22.2480    20.8520     2.3390 
  153.2500    -3.6640    60.9920    19.0680    22.5840    18.7350     2.3490 
  153.3750    -3.6430    61.2490    19.0550    22.6050    18.5870     2.3640 
  153.5000    -3.5520    61.7520    18.7670    22.2180    19.6820     2.3650 
  153.6250    -3.3750    61.9770    18.1580    21.3810    18.7980     2.3550 
  153.7500    -3.2160    62.0610    17.4950    20.4960    17.9030     2.3480 
  153.8750    -3.0960    63.2770    16.9560    19.7830    16.1170     2.3480 
  154.0000    -2.9990    64.5010    16.5330    19.2780    15.2840     2.3470 
  154.1250    -2.8800    64.1630    16.3020    19.0740    16.6210     2.3490 
  154.2500    -2.7820    61.5310    16.1390    18.9260    16.4200     2.3540 
  154.3750    -2.7010    58.6240    15.8010    18.4920    14.7340     2.3530 
  154.5000    -2.6840    56.7070    15.1100    17.5890    14.2500     2.3430 
  154.6250    -2.7460    55.9510    14.1470    16.3270    13.7400     2.3310 
  154.7500    -2.8330    56.8430    13.2380    15.1610    11.9260     2.3270 
  154.8750    -2.8280    58.2950    12.7150    14.5130    10.5600     2.3350 
  155.0000    -2.8400    58.0850    12.7140    14.5210    11.1500     2.3550 
  155.1250    -2.8820    56.6510    13.2670    15.2220    13.2760     2.3850 
  155.2500    -2.9720    57.1960    14.1870    16.3420    14.6870     2.4110 
  155.3750    -3.0550    59.0210    15.1230    17.4480    15.0040     2.4170 
  155.5000    -3.1080    60.3390    15.7210    18.1090    14.9140     2.4070 
  155.6250    -3.1350    60.7410    15.6790    17.9990    14.3960     2.3930 
  155.7500    -3.2060    59.2340    15.3180    17.5460    14.3030     2.3890 
  155.8750    -3.3180    56.1630    14.9450    17.1300    13.6840     2.3920 
  156.0000    -3.3140    54.8620    14.7590    16.9710    12.9490     2.3920 
  156.1250    -3.1870    56.2350    14.7180    17.0070    13.8570     2.3870 
  156.2500    -3.0430    57.7750    14.7520    17.1300    15.4090     2.3870 
  156.3750    -2.9770    57.0250    14.7670    17.1930    15.4770     2.3860 
  156.5000    -2.9580    55.9720    14.7120    17.1400    13.5450     2.3790 
  156.6250    -2.9650    56.0510    14.6740    17.0900    12.3550     2.3750 
  156.7500    -2.9680    57.4510    14.7360    17.1660    12.7920     2.3760 
  156.8750    -2.9920    59.1260    14.9520    17.4170    13.1740     2.3730 
  157.0000    -3.0600    59.2960    15.3420    17.8650    14.2430     2.3640 
  157.1250    -3.1430    57.6890    15.8210    18.4220    16.5870     2.3630 
  157.2500    -3.1450    55.2830    16.3270    18.9910    17.3460     2.3760 
  157.3750    -3.0160    54.4710    16.6070    19.2840    16.0430     2.3970 
  157.5000    -2.8630    55.7310    16.5580    19.1870    15.7300     2.4120 
  157.6250    -2.7310    55.9770    16.1050    18.6020    16.4360     2.4130 
  157.7500    -2.6500    53.7640    15.3770    17.7280    16.1700     2.4000 
  157.8750    -2.6090    51.2940    14.7400    16.9800    14.8730     2.3820 
  158.0000    -2.5680    51.4210    14.2570    16.4190    13.6740     2.3670 
  158.1250    -2.5630    54.5890    14.0030    16.1410    13.5450     2.3570 
  158.2500    -2.5850    57.3100    13.9900    16.1460    14.0320     2.3590 
  158.3750    -2.6430    57.1070    14.1030    16.2860    13.8720     2.3730 
  158.5000    -2.6090    54.7780    14.2140    16.4020    13.7300     2.3870 
  158.6250    -2.4400    53.9000    14.2500    16.4170    13.7880     2.3840 
  158.7500    -2.2800    55.0370    14.2320    16.3760    13.3320     2.3720 
  158.8750    -2.1680    56.0520    14.1620    16.2820    13.5910     2.3680 
  159.0000    -2.0870    55.0600    14.0950    16.1930    14.5990     2.3770 
  159.1250    -2.0020    53.7670    14.0360    16.1110    14.9070     2.3840 
  159.2500    -1.8870    55.1700    13.9630    16.0150    14.4940     2.3790 
  159.3750    -1.7700    57.2390    13.9340    15.9940    13.7860     2.3700 
  159.5000    -1.7720    56.2850    14.0060    16.1020    13.6510     2.3660 
  159.6250    -1.8530    54.3840    14.1290    16.2780    13.9550     2.3660 
  159.7500    -1.9990    54.9760    14.2600    16.4590    13.7350     2.3700 
  159.8750    -2.0600    56.4170    14.3470    16.5730    13.8320     2.3800 
  160.0000    -2.0730    55.7370    14.3700    16.5910    13.7600     2.3860 
  160.1250    -2.1000    55.2580    14.3400    16.5600    12.6840     2.3790 
  160.2500    -2.1310    56.9610    14.2960    16.5150    12.4650     2.3740 
  160.3750    -2.1360    59.4040    14.2150    16.4510    13.2950     2.3790 
  160.5000    -2.1410    61.0490    14.0960    16.3360    13.2690     2.3820 
  160.6250    -2.1480    61.2610    13.9410    16.1600    12.5980     2.3750 
  160.7500    -2.1750    61.2170    13.7280    15.9060    12.2350     2.3670 
  160.8750    -2.2510    62.9850    13.4610    15.5740    12.2950     2.3640 
  161.0000    -2.3580    62.8260    13.1820    15.2390    12.5910     2.3620 
  161.1250    -2.3730    58.5190    12.9280    14.9290    12.8170     2.3570 
  161.2500    -2.3240    53.3600    12.7910    14.7510    12.9040     2.3480 
  161.3750    -2.2800    53.4050    12.8890    14.8420    12.4110     2.3450 
  161.5000    -2.2670    56.8450    13.1850    15.1740    12.1750     2.3560 
  161.6250    -2.2600    58.5080    13.6610    15.7130    13.5630     2.3810 
  161.7500    -2.2020    57.3450    14.1680    16.2660    15.0830     2.4040 
  161.8750    -2.1870    55.4940    14.5150    16.5780    15.0630     2.4110 
  162.0000    -2.2500    53.5350    14.5200    16.4690    14.5210     2.4090 
  162.1250    -2.4190    52.4880    14.1030    15.8840    14.2440     2.4060 
  162.2500    -2.7070    54.0770    13.5150    15.1330    13.5250     2.3950 
  162.3750    -2.9550    56.6950    12.9250    14.4090    12.3550     2.3690 
  162.5000    -3.1210    57.1470    12.4540    13.8420    12.1090     2.3490 
  162.6250    -3.2940    54.5790    12.0730    13.3930    12.2520     2.3610 
  162.7500    -3.4600    52.5450    11.7750    13.0600    11.4760     2.3900 
  162.8750    -3.5890    53.3390    11.5540    12.8260    10.8060     2.4040 
  163.0000    -3.6260    55.4950    11.4580    12.7470    10.6460     2.3970 
  163.1250    -3.6200    56.4230    11.4190    12.7320    10.5610     2.3780 
  163.2500    -3.5920    56.6330    11.4270    12.7820    11.0830     2.3580 
  163.3750    -3.6030    56.4820    11.5610    12.9720    11.6620     2.3390 
  163.5000    -3.5790    56.1130    11.7950    13.2670    10.9300     2.3300 
  163.6250    -3.4700    55.4290    12.0910    13.6380    10.7950     2.3290 
  163.7500    -3.3180    55.8280    12.5020    14.1740    12.2780     2.3320 
  163.8750    -3.1970    55.8500    13.0080    14.8260    12.8290     2.3260 
  164.0000    -3.1110    54.6920    13.6460    15.6410    12.2190     2.3080 
  164.1250    -3.0040    56.3240    14.4020    16.5780    12.7630     2.2900 
  164.2500    -2.9070    62.8280    15.2430    17.5880    14.7140     2.2860 
  164.3750    -2.7400    71.9420    16.1330    18.6240    15.6980     2.2920 
  164.5000    -2.5950    80.3180    16.9400    19.5470    15.8360     2.3000 
  164.6250    -2.5120    85.1800    17.5470    20.2120    16.6360     2.3150 
  164.7500    -2.4970    86.6650    17.9420    20.6560    17.8720     2.3390 
  164.8750    -2.4430    86.9280    18.2180    20.9830    19.1640     2.3550 
  165.0000    -2.3110    86.8770    18.4760    21.2880    18.9960     2.3500 
  165.1250    -2.0950    83.4040    18.7660    21.6840    17.6030     2.3330 
  165.2500    -1.9440    78.6760    19.0450    22.0650    17.7300     2.3180 
  165.3750    -1.9330    78.9020    19.2690    22.3850    19.5490     2.3070 
  165.5000    -1.9610    81.7730    19.3510    22.4840    21.4690     2.2960 
  165.6250    -2.0630    82.3410    19.1880    22.2240    21.1020     2.2850 
  165.7500    -2.2330    82.8890    18.8230    21.6850    18.7030     2.2770 
