~V
VERS. 2.00: Ver 2.00
~W
STRT.M 50.0000:
STOP.M 300.0000:
STEP.M 0.1250:
NULL. -999.2500:
UWI. F12002:
~C
DEPT.M :
SP.MV :
GR.API :
RI. :
RML.OHMM :
RXO.OHMM :
DEN.GM/CC :
~A
# ...
  281.7500   -14.5150    37.4080     3.9820     4.7210     4.9720     2.2940 
  281.8750   -13.2470    37.8990     3.9120     4.6460     4.8330     2.2830 
  282.0000   -12.0240    39.2610     3.9000     4.6340     4.8150     2.2700 
  282.1250   -11.1460    40.2740     3.9190     4.6550     4.8360     2.2610 
  282.2500   -10.7000    41.2060     3.9510     4.6880     4.8620     2.2670 
  282.3750   -10.5840    43.4800     3.9850     4.7240     4.9620     2.2840 
  282.5000   -10.5240    46.2640     4.0150     4.7560     5.1080     2.3000 
  282.6250   -10.3250    47.9850     4.0400     4.7820     5.1940     2.3030 
  282.7500    -9.9800    48.9860     4.0710     4.8160     5.3470     2.3000 
  282.8750    -9.5650    48.8590     4.1540     4.9030     5.5980     2.3030 
  283.0000    -9.1580    48.5620     4.3050     5.0630     5.6940     2.3140 
  283.1250    -8.7870    48.7190     4.6220     5.4000     5.6580     2.3270 
  283.2500    -8.4670    50.2250     5.0220     5.8240     5.8400     2.3350 
  283.3750    -8.2620    52.4110     5.4310     6.2570     6.8990     2.3350 
  283.5000    -8.2250    54.8660     5.6810     6.5220     8.4500     2.3310 
  283.6250    -8.3700    57.0210     5.6200     6.4570     8.6990     2.3100 
  283.7500    -8.5910    58.2820     5.2430     6.0570     7.4530     2.2770 
  283.8750    -8.7620    57.7350     4.7270     5.5100     5.8790     2.2380 
  284.0000    -8.8270    57.6900     4.2420     4.9960     4.5260     2.2100 
  284.1250    -8.8120    58.5800     3.9560     4.6930     3.6480     2.2060 
  284.2500    -8.7960    58.3980     3.8750     4.6080     3.5650     2.2280 
  284.3750    -8.8350    55.2810     3.9390     4.6750     4.2180     2.2500 
  284.5000    -8.9350    51.9620     4.0780     4.8230     4.8240     2.2300 
  284.6250    -9.0720    49.4260     4.2670     5.0230     5.0070     2.1840 
  284.7500    -9.1760    45.3690     4.5110     5.2810     5.0450     2.1720 
  284.8750    -9.1670    40.3310     4.7850     5.5720     5.2990     2.2180 
  285.0000    -9.0390    38.8430     5.0680     5.8720     6.0420     2.2860 
  285.1250    -8.8560    41.7460     5.2850     6.1030     8.1080     2.3280 
  285.2500    -8.7070    44.6500     5.3940     6.2170    10.7020     2.3310 
  285.3750    -8.6050    45.7320     5.3440     6.1650    10.3400     2.3130 
  285.5000    -8.4760    46.8690     5.1940     6.0060     7.8170     2.2960 
  285.6250    -8.2410    47.2080     5.0070     5.8080     6.8940     2.2720 
  285.7500    -7.9100    46.6600     4.8440     5.6350     7.3400     2.2470 
  285.8750    -7.5710    46.9100     4.7290     5.5120     7.0980     2.2470 
  286.0000    -7.3340    48.8010     4.6450     5.4240     5.8240     2.2670 
  286.1250    -7.2810    50.0000     4.5800     5.3550     5.0900     2.2720 
  286.2500    -7.3800    49.6240     4.5340     5.3060     5.5630     2.2630 
  286.3750    -7.5570    49.3390     4.5240     5.2950     6.0110     2.2570 
  286.5000    -7.7180    49.0780     4.5390     5.3110     6.0410     2.2580 
  286.6250    -7.8150    47.9120     4.5660     5.3400     5.8450     2.2690 
  286.7500    -7.8560    47.0860     4.6040     5.3800     5.6700     2.2850 
  286.8750    -7.8660    47.8550     4.6480     5.4270     5.8180     2.2910 
  287.0000    -7.8670    48.4290     4.7020     5.4840     5.8550     2.2810 
  287.1250    -7.8670    47.8650     4.7560     5.5410     5.6660     2.2760 
  287.2500    -7.8670    47.0620     4.7920     5.5790     5.7010     2.2860 
  287.3750    -7.8670    47.1640     4.7810     5.5680     5.6730     2.2940 
  287.5000    -7.8670    47.2700     4.7140     5.4970     5.0540     2.2870 
  287.6250    -7.8670    46.8200     4.5850     5.3600     4.4590     2.2510 
  287.7500    -7.8670    45.5920     4.4280     5.1940     4.6560     2.1990 
  287.8750    -7.8670    43.8930     4.2680     5.0240     5.1830     2.1670 
  288.0000    -7.8670    42.2200     4.1500     4.8990     5.3330     2.1740 
  288.1250    -7.8670    42.1150     4.0790     4.8230     5.3160     2.2010 
  288.2500    -7.8670    43.1010     4.0480     4.7910     5.3280     2.2060 
  288.3750    -7.8670    43.4080     4.0440     4.7860     5.1320     2.1830 
  288.5000    -7.8670    43.2020     4.0610     4.8040     4.6970     2.1500 
  288.6250    -7.8670    43.3240     4.1060     4.8520     4.3850     2.1420 
  288.7500    -7.8670    43.1910     4.1870     4.9380     4.3050     2.1690 
  288.8750    -7.8670    42.5270     4.2940     5.0510     4.5120     2.2030 
  289.0000    -7.8670    42.3030     4.4080     5.1720     5.0400     2.2080 
  289.1250    -7.8670    42.3220     4.4900     5.2590     5.3400     2.1900 
  289.2500    -7.8670    41.6900     4.5170     5.2880     5.4410     2.1820 
  289.3750    -7.8670    40.9960     4.5100     5.2800     5.3650     2.1950 
  289.5000    -7.8670    41.0500     4.4860     5.2550     4.8030     2.2100 
  289.6250    -7.8670    41.3720     4.4530     5.2200     4.4240     2.2140 
  289.7500    -7.8670    41.7290     4.4190     5.1840     4.7650     2.2110 
  289.8750    -7.8670    40.9770     4.3830     5.1460     5.0560     2.1790 
  290.0000    -7.8670    39.0320     4.3810     5.1440     4.7420     2.1140 
  290.1250    -7.8670    38.6180     4.3810     5.1440     4.4070     2.0470 
  290.2500    -7.8670    41.0360     4.4040     5.1680     4.4960     2.0350 
  290.3750    -7.8670    43.7890     4.4190     5.1840     4.7610     2.0760 
  290.5000    -7.8670    44.0850     4.4290     5.1950     4.8750     2.1050 
  290.6250    -7.8670    42.9430     4.4500     5.2170     4.7630     2.1010 
  290.7500    -7.8670    42.8060     4.4520     5.2190     4.5720     2.1150 
  290.8750    -7.8670    43.2290     4.4470     5.2140     4.5240     2.1760 
  291.0000    -7.8670    43.3950     4.4440     5.2110     4.5730     2.2360 
  291.1250    -7.8670    43.4310     4.4420     5.2080     4.6220     2.2560 
  291.2500    -7.8670    43.1560     4.4390     5.2050     4.6660     2.2530 
  291.3750    -7.8670    42.4970     4.4430     5.2090     4.6780     2.2480 
  291.5000    -7.8670    42.5610     4.4460     5.2120     4.7570     2.2520 
  291.6250    -7.8670    43.5720     4.4450     5.2120     4.8520     2.2690 
  291.7500    -7.8670    43.3600     4.4460     5.2130     4.8170     2.3010 
  291.8750    -7.8670    41.2730     4.4420     5.2080     4.5780     2.3360 
  292.0000    -7.8670    40.0830     4.4410     5.2070     4.3160     2.3580 
  292.1250    -7.8670    41.2580     4.4440     5.2100     4.3350     2.3480 
  292.2500    -7.8670    43.0950     4.4430     5.2100     4.5500     2.3200 
  292.3750    -7.8670    45.1740     4.4430     5.2100     4.9600     2.2940 
  292.5000    -7.8670    47.9420     4.4450     5.2110     5.3660     2.2870 
  292.6250    -7.8670    50.4990     4.4470     5.2140     5.4720     2.2900 
  292.7500    -7.8670    51.6410     4.4470     5.2140     5.4180     2.2950 
  292.8750    -7.8670    51.5200     4.4490     5.2160     5.0800     2.3020 
  293.0000    -7.8670    51.4650     4.4480     5.2150     4.6780     2.3030 
  293.1250    -7.8670    51.4650     4.4440     5.2110     4.7960     2.3010 
  293.2500    -7.8670    51.4650     4.4440     5.2110     5.0920     2.3060 
  293.3750    -7.8670    51.4650     4.4400     5.2060     5.1330     2.3090 
  293.5000    -7.8670    51.4650     4.4370     5.2030     5.4960     2.2900 
  293.6250    -7.8670    51.4650     4.4370     5.2030     6.3550     2.2630 
  293.7500    -7.8670    51.4650     4.4300     5.1960     6.8630     2.2700 
  293.8750    -7.8670    51.4650     4.4280     5.1940     6.9260     2.3120 
  294.0000    -7.8670    51.4650     4.4250     5.1910     7.7370     2.3520 
  294.1250    -7.8670    51.4650     4.4300     5.1950     9.6770     2.3700 
  294.2500    -7.8670    51.4650     4.4340     5.2000    11.0660     2.3720 
  294.3750    -7.8670    51.4650     4.4370     5.2030    11.4180     2.3620 
  294.5000    -7.8670    51.4650     4.4370     5.2030    11.7570     2.3470 
