~V
VERS. 2.00: Ver 2.00
~W
STRT.M 50.0000:
STOP.M 300.0000:
STEP.M 0.1250:
NULL. -999.2500:
UWI. F12002:
~C
DEPT.M :
SP.MV :
GR.API :
RI. :
RML.OHMM :
RXO.OHMM :
DEN.GM/CC :
~A
# ...
  268.8750   -40.5360    41.1180     3.9630     4.7010     5.0280     2.3150 
  269.0000   -40.2590    41.0270     3.9610     4.6980     4.9300     2.3180 
  269.1250   -39.8170    41.4890     3.9920     4.7310     4.8350     2.3200 
  269.2500   -39.2170    40.9240     4.0470     4.7900     4.7640     2.3210 
  269.3750   -38.4480    40.2000     4.1280     4.8750     4.8810     2.3270 
  269.5000   -37.5460    40.4750     4.2190     4.9720     5.3620     2.3290 
  269.6250   -36.5390    40.5650     4.3040     5.0620     5.8070     2.3280 
  269.7500   -35.4510    40.4890     4.3920     5.1560     5.8570     2.3340 
  269.8750   -34.2860    40.9400     4.4650     5.2330     5.8100     2.3530 
  270.0000   -33.0840    41.7810     4.4980     5.2680     5.7810     2.3670 
  270.1250   -31.9050    44.1110     4.4980     5.2680     6.0010     2.3580 
  270.2500   -30.7840    47.5750     4.5450     5.3170     6.4920     2.3360 
  270.3750   -29.6770    52.1210     4.7030     5.4850     6.2160     2.3090 
  270.5000   -28.5370    57.0930     5.0000     5.8000     5.5070     2.2770 
  270.6250   -27.4000    62.6390     5.5140     6.3450     6.4080     2.2500 
  270.7500   -26.3800    69.2320     6.1650     7.0350     8.6530     2.2330 
  270.8750   -25.5870    75.2300     6.8840     7.7970    10.0930     2.2310 
  271.0000   -24.9950    78.6720     7.4870     8.4360    10.5570     2.2350 
  271.1250   -24.5380    78.7330     7.7940     8.7620    10.6430     2.2420 
  271.2500   -24.1260    78.2760     7.8270     8.7970    10.2720     2.2520 
  271.3750   -23.7260    78.0910     7.7020     8.6640     9.8450     2.2610 
  271.5000   -23.3580    77.0270     7.5680     8.5220     9.5790     2.2670 
  271.6250   -23.0770    77.0490     7.5110     8.4620     9.5710     2.2690 
  271.7500   -22.9060    77.7920     7.5820     8.5370     9.9930     2.2650 
  271.8750   -22.8230    78.1970     7.8390     8.8100    10.2660     2.2470 
  272.0000   -22.7580    77.8090     8.1800     9.1700    10.1210     2.2220 
  272.1250   -22.6700    79.9910     8.4800     9.4890    10.2870     2.2030 
  272.2500   -22.5690    82.8320     8.5900     9.6050    11.3230     2.2000 
  272.3750   -22.4890    82.1110     8.3290     9.3290    11.4820     2.2120 
  272.5000   -22.4450    77.2080     7.7750     8.7410     9.8040     2.2320 
  272.6250   -22.4320    71.5340     6.9700     7.8880     8.6470     2.2600 
  272.7500   -22.4300    67.8130     6.1220     6.9890     8.3950     2.2840 
  272.8750   -22.4350    65.3270     5.3440     6.1650     7.4580     2.2950 
  273.0000   -22.4580    62.6390     4.7740     5.5600     6.1010     2.2920 
  273.1250   -22.5260    62.0500     4.4060     5.1710     5.2130     2.2890 
  273.2500   -22.6640    61.9560     4.2890     5.0470     5.0320     2.2980 
  273.3750   -22.8920    59.0920     4.5100     5.2810     5.3280     2.3130 
  273.5000   -23.1880    53.3230     4.9980     5.7980     5.9570     2.3240 
  273.6250   -23.5270    49.1230     5.7250     6.5680     7.0760     2.3280 
  273.7500   -23.8760    47.9510     6.5170     7.4080     8.4330     2.3280 
  273.8750   -24.2300    49.1480     7.1010     8.0270     9.6360     2.3310 
  274.0000   -24.5820    51.5330     7.2910     8.2290    10.2790     2.3310 
  274.1250   -24.9130    53.6900     7.0180     7.9390    10.1900     2.3240 
  274.2500   -25.2060    53.3320     6.4910     7.3810     9.4850     2.3130 
  274.3750   -25.4470    51.1310     5.9740     6.8320     8.0210     2.3040 
  274.5000   -25.6270    48.6630     5.6430     6.4820     6.9950     2.2970 
  274.6250   -25.8530    46.9630     5.6390     6.4770     7.8840     2.3030 
  274.7500   -26.2380    46.2660     6.0740     6.9390     8.8520     2.3260 
  274.8750   -26.6410    46.9760     7.1930     8.1240     8.6190     2.3660 
  275.0000   -27.1230    49.3650     8.8980     9.9320    11.2570     2.4080 
  275.1250   -27.6160    51.6110    11.0730    12.2380    19.6620     2.4430 
  275.2500   -28.0260    52.7490    13.3580    14.6600    28.0170     2.4650 
  275.3750   -28.2560    51.2280    15.1550    16.5640    30.2760     2.4690 
  275.5000   -28.2760    49.0760    16.0650    17.5290    29.5570     2.4570 
  275.6250   -28.0630    49.1430    15.2680    16.6840    29.9480     2.4270 
  275.7500   -27.6550    50.1760    12.8750    14.1480    29.6110     2.3790 
  275.8750   -27.0670    49.9210     9.7150    10.7980    26.0610     2.3220 
  276.0000   -26.3380    48.0090     6.8110     7.7200    18.1290     2.2850 
  276.1250   -25.4790    44.7050     4.9710     5.7700     8.9530     2.2880 
  276.2500   -24.5360    40.8900     4.0050     4.7450     4.9100     2.3040 
  276.3750   -23.5700    37.5320     3.6200     4.3370     4.9730     2.3150 
  276.5000   -22.6770    36.0300     3.5520     4.2650     5.1130     2.3220 
  276.6250   -21.9670    35.3080     3.6230     4.3410     4.9730     2.3180 
  276.7500   -21.4870    34.4430     3.6930     4.4140     4.9150     2.3000 
  276.8750   -21.2500    34.6780     3.6980     4.4200     4.8440     2.2930 
  277.0000   -21.1790    34.8440     3.6850     4.4060     4.4260     2.3120 
  277.1250   -21.1870    34.2570     3.7380     4.4620     4.0870     2.3400 
  277.2500   -21.1890    34.8800     3.9500     4.6870     4.3670     2.3470 
  277.3750   -21.1410    38.6410     4.3240     5.0840     5.0120     2.3250 
  277.5000   -21.0600    44.0510     4.8270     5.6170     5.8400     2.2900 
  277.6250   -20.9960    47.5280     5.3910     6.2140     7.0020     2.2740 
  277.7500   -20.9890    48.3890     5.9040     6.7580     7.9840     2.2970 
  277.8750   -21.0300    48.5040     6.0380     6.9000     8.2050     2.3330 
  278.0000   -21.0480    49.3830     5.8850     6.7380     9.6850     2.3450 
  278.1250   -20.9370    51.0110     5.4480     6.2750    11.6040     2.3310 
  278.2500   -20.6410    51.3290     4.9050     5.6990     9.4410     2.3270 
  278.3750   -20.1430    49.4000     4.5180     5.2890     6.0060     2.3420 
  278.5000   -19.5260    46.8800     4.3240     5.0840     5.5100     2.3580 
  278.6250   -18.8970    44.7250     4.4170     5.1820     6.1830     2.3690 
  278.7500   -18.3660    43.7880     4.7340     5.5180     6.5870     2.3860 
  278.8750   -18.0130    43.7750     5.1000     5.9060     6.8790     2.3990 
  279.0000   -17.8400    44.2420     5.3480     6.1690     7.4730     2.3930 
  279.1250   -17.8360    43.4430     5.4150     6.2400     8.1960     2.3730 
  279.2500   -17.9410    42.9700     5.3420     6.1620     8.0330     2.3580 
  279.3750   -18.1100    43.3920     5.2020     6.0140     7.3020     2.3580 
  279.5000   -18.2900    44.8650     5.0370     5.8400     6.9490     2.3630 
  279.6250   -18.4460    47.0490     4.8980     5.6920     6.8180     2.3680 
  279.7500   -18.5560    48.5160     4.7940     5.5820     6.8110     2.3700 
  279.8750   -18.6140    48.2720     4.7000     5.4820     6.9780     2.3660 
  280.0000   -18.6270    47.3660     4.6210     5.3980     7.0120     2.3540 
  280.1250   -18.5990    48.1230     4.5620     5.3360     6.8210     2.3380 
  280.2500   -18.5340    49.8090     4.5420     5.3140     6.6070     2.3230 
  280.3750   -18.4310    51.2790     4.5730     5.3470     6.5880     2.3170 
  280.5000   -18.2880    53.1480     4.6570     5.4360     6.7500     2.3210 
  280.6250   -18.1040    54.1290     4.7710     5.5580     6.8980     2.3330 
  280.7500   -17.8860    54.0290     4.9040     5.6980     6.9870     2.3430 
  280.8750   -17.6480    51.9580     5.0100     5.8100     7.0330     2.3480 
  281.0000   -17.4120    48.2350     5.0410     5.8440     7.0180     2.3480 
  281.1250   -17.1930    44.6360     4.9580     5.7560     7.0790     2.3350 
  281.2500   -16.9780    43.3330     4.7830     5.5700     7.1070     2.3110 
  281.3750   -16.7070    43.9400     4.5430     5.3150     6.5470     2.2920 
  281.5000   -16.2780    42.5240     4.3090     5.0680     5.6720     2.2890 
  281.6250   -15.5550    39.4010     4.1150     4.8620     5.1920     2.2950 
