~V
VERS. 2.00: Ver 2.00
~W
STRT.M 50.0000:
STOP.M 255.0000:
STEP.M 0.1250:
NULL. -999.2500:
UWI. F12008:
~C
DEPT.M :
SP.MV :
GR.API :
RI. :
RML.OHMM :
RXO.OHMM :
DEN.GM/CC :
~A
# ...
  165.8750   -24.4940    56.4360    20.5240    22.2560    19.8320     2.5950 
  166.0000   -24.4430    57.6730    20.2800    21.9960    20.5960     2.5840 
  166.1250   -24.3950    59.2670    20.1160    21.8230    18.8550     2.5420 
  166.2500   -24.3510    59.9890    19.9210    21.6160    18.1230     2.5140 
  166.3750   -24.3180    61.2250    19.6050    21.2810    19.7040     2.5140 
  166.5000   -24.3000    63.5260    19.3310    20.9910    19.3990     2.5170 
  166.6250   -24.2990    65.2330    19.1130    20.7590    17.1790     2.5070 
  166.7500   -24.3120    63.6160    18.8050    20.4330    16.6050     2.4990 
  166.8750   -24.3340    59.2310    18.4370    20.0430    17.8830     2.5060 
  167.0000   -24.3540    55.4370    18.2950    19.8930    19.4350     2.5140 
  167.1250   -24.3600    54.2500    18.5240    20.1360    19.3110     2.5110 
  167.2500   -24.3470    53.7830    18.9190    20.5540    18.8340     2.5080 
  167.3750   -24.3140    53.2100    19.2690    20.9250    21.6650     2.5100 
  167.5000   -24.2760    53.3940    19.5080    21.1790    24.3380     2.5040 
  167.6250   -24.2490    54.2590    19.5250    21.1970    22.8030     2.4810 
  167.7500   -24.2480    55.3640    19.3050    20.9630    19.0540     2.4530 
  167.8750   -24.2860    57.2130    18.9400    20.5770    17.1000     2.4300 
  168.0000   -24.3630    58.2970    18.7060    20.3290    18.8950     2.4140 
  168.1250   -24.4730    58.3670    19.0470    20.6900    21.4080     2.4130 
  168.2500   -24.5970    58.9430    19.7380    21.4220    23.1240     2.4170 
  168.3750   -24.7130    59.9690    20.3380    22.0580    25.2850     2.4160 
  168.5000   -24.8060    58.4070    20.5330    22.2640    24.7520     2.4140 
  168.6250   -24.8640    55.2100    20.2450    21.9600    22.4950     2.4250 
  168.7500   -24.8920    52.8460    19.8160    21.5050    22.2980     2.4380 
  168.8750   -24.8950    52.0690    19.4950    21.1640    21.3660     2.4350 
  169.0000   -24.8860    51.7810    19.5220    21.1930    20.9870     2.4230 
  169.1250   -24.8720    51.5790    20.1390    21.8480    22.9520     2.4250 
  169.2500   -24.8530    50.8790    21.0960    22.8610    24.2660     2.4400 
  169.3750   -24.8230    49.2960    21.7820    23.5880    25.3560     2.4450 
  169.5000   -24.7760    48.2640    21.5350    23.3270    27.4660     2.4380 
  169.6250   -24.7080    49.2870    20.1580    21.8680    27.9450     2.4290 
  169.7500   -24.6250    51.4020    18.0480    19.6310    22.9850     2.4280 
  169.8750   -24.5310    53.4790    15.7050    17.1470    17.0230     2.4340 
  170.0000   -24.4360    54.9540    13.7500    15.0740    15.9120     2.4400 
  170.1250   -24.3410    54.5190    12.1670    13.3970    14.5780     2.4340 
  170.2500   -24.2450    52.7370    11.1760    12.3460    11.1010     2.4070 
  170.3750   -24.1400    51.1840    10.5960    11.7320     9.9440     2.3680 
  170.5000   -24.0170    52.4960    10.4530    11.5800    10.4650     2.3400 
  170.6250   -23.8720    55.4810    10.8840    12.0370    11.0760     2.3390 
  170.7500   -23.7090    57.6090    11.7140    12.9170    12.5840     2.3570 
  170.8750   -23.5360    57.5130    12.7600    14.0260    15.5940     2.3780 
  171.0000   -23.3640    56.1980    13.7600    15.0860    17.7670     2.3850 
  171.1250   -23.2040    55.4250    14.3100    15.6690    16.6250     2.3880 
  171.2500   -23.0630    55.2450    14.4320    15.7980    14.2970     2.4000 
  171.3750   -22.9440    55.1080    14.2220    15.5760    13.2430     2.4160 
  171.5000   -22.8420    53.3450    13.8860    15.2190    12.9220     2.4110 
  171.6250   -22.7530    50.3220    13.4530    14.7610    12.1810     2.3910 
  171.7500   -22.6750    49.7230    12.9940    14.2730    12.4500     2.3870 
  171.8750   -22.6050    52.5540    12.4210    13.6660    14.0020     2.3980 
  172.0000   -22.5430    54.7190    11.8110    13.0200    14.0750     2.4000 
  172.1250   -22.4890    54.3080    11.2560    12.4320    13.7110     2.3930 
  172.2500   -22.4420    54.2720    10.7400    11.8840    14.8060     2.3840 
  172.3750   -22.4010    54.6900    10.3990    11.5230    14.3860     2.3730 
  172.5000   -22.3600    53.4870    10.3390    11.4590    11.7610     2.3650 
  172.6250   -22.3110    52.5240    10.6840    11.8250    10.5220     2.3720 
  172.7500   -22.2500    53.0810    11.2430    12.4170    11.0200     2.3920 
  172.8750   -22.1860    52.9500    12.0260    13.2480    11.3240     2.4150 
  173.0000   -22.1380    51.4740    13.0090    14.2900    11.8010     2.4290 
  173.1250   -22.1280    51.7290    14.3000    15.6580    12.7300     2.4320 
  173.2500   -22.1670    52.0040    15.8350    17.2850    13.4380     2.4300 
  173.3750   -22.2620    50.3010    17.4080    18.9520    14.9310     2.4440 
  173.5000   -22.4030    49.2140    18.5870    20.2020    17.2150     2.4780 
  173.6250   -22.5830    51.7870    18.6780    20.2990    17.9650     2.5090 
  173.7500   -22.7880    56.9910    17.7730    19.3390    18.1960     2.5110 
  173.8750   -23.0090    62.8570    16.0860    17.5510    18.0290     2.4780 
  174.0000   -23.2430    66.7760    14.3340    15.6940    15.3150     2.4340 
  174.1250   -23.4880    65.5800    13.2150    14.5070    12.4640     2.4040 
  174.2500   -23.7440    61.4990    13.0130    14.2940    11.4820     2.3860 
  174.3750   -24.0020    59.4890    13.6290    14.9470    12.2760     2.3710 
  174.5000   -24.2430    60.2270    14.6310    16.0090    14.1700     2.3540 
  174.6250   -24.4380    61.5810    15.5470    16.9800    15.7210     2.3480 
  174.7500   -24.5630    62.0060    15.9870    17.4460    16.4930     2.3530 
  174.8750   -24.5940    60.6990    15.8960    17.3500    15.8460     2.3610 
  175.0000   -24.5410    58.2880    15.3260    16.7460    13.9470     2.3650 
  175.1250   -24.4120    57.8140    14.6080    15.9840    13.5580     2.3640 
  175.2500   -24.2310    60.5400    13.9990    15.3390    15.2580     2.3610 
  175.3750   -24.0080    63.0760    13.6980    15.0200    15.3440     2.3640 
  175.5000   -23.7550    63.5980    13.6860    15.0070    13.4970     2.3770 
  175.6250   -23.4840    63.3950    13.7780    15.1050    12.5390     2.3990 
  175.7500   -23.2210    62.4560    13.9320    15.2680    12.1230     2.4150 
  175.8750   -22.9960    60.5760    14.2000    15.5520    12.2850     2.4090 
  176.0000   -22.8240    59.6460    14.5100    15.8810    13.5700     2.3870 
  176.1250   -22.7090    61.4820    14.6980    16.0800    14.6100     2.3680 
  176.2500   -22.6340    63.7080    14.6910    16.0730    15.4300     2.3640 
  176.3750   -22.5830    63.8130    14.5900    15.9660    16.2050     2.3660 
  176.5000   -22.5390    61.9890    14.4880    15.8570    15.7560     2.3700 
  176.6250   -22.4930    60.0320    14.4310    15.7960    15.0490     2.3800 
  176.7500   -22.4370    58.5200    14.3820    15.7450    15.8680     2.3940 
  176.8750   -22.3630    58.2490    14.3990    15.7630    17.3130     2.4000 
  177.0000   -22.2750    59.0890    14.4380    15.8050    16.8410     2.3980 
  177.1250   -22.1780    61.6840    14.4760    15.8440    15.5190     2.3950 
  177.2500   -22.0820    64.6660    14.3030    15.6610    15.4340     2.3980 
  177.3750   -21.9920    66.8160    13.9500    15.2870    14.7930     2.4030 
  177.5000   -21.9080    66.8390    13.4840    14.7930    13.5160     2.4040 
  177.6250   -21.8290    64.3150    13.0330    14.3150    12.3890     2.4030 
  177.7500   -21.7540    59.6300    12.6420    13.9010    11.5290     2.4020 
  177.8750   -21.6810    55.2130    12.4340    13.6800    12.2020     2.4010 
  178.0000   -21.6080    53.7130    12.4400    13.6870    13.2240     2.4030 
  178.1250   -21.5410    56.5720    12.6000    13.8560    13.0420     2.4170 
  178.2500   -21.4910    60.6290    12.8050    14.0730    13.1430     2.4280 
  178.3750   -21.4810    61.1340    12.9500    14.2270    13.7050     2.4230 
  178.5000   -21.5210    58.5160    13.0510    14.3340    13.5260     2.4020 
  178.6250   -21.6210    56.1700    13.1120    14.3990    12.9250     2.3820 
