~V
VERS. 2.00: Ver 2.00
~W
STRT.M 50.0000:
STOP.M 256.0000:
STEP.M 0.1250:
NULL. -999.2500:
UWI. F12009:
~C
DEPT.M :
SP.MV :
GR.API :
RI. :
RML.OHMM :
RXO.OHMM :
DEN.GM/CC :
~A
# ...
  178.7500     4.4520    57.0750    11.9370    13.5660    11.4970     2.3150 
  178.8750     5.2520    57.7690    11.9700    13.6280    11.4170     2.3270 
  179.0000     5.9880    57.1500    12.0730    13.7960    11.5430     2.3340 
  179.1250     6.2880    54.3880    12.1450    13.9050    11.3440     2.3450 
  179.2500     6.0490    52.2510    12.0680    13.8100    10.6610     2.3580 
  179.3750     5.5060    51.9420    11.8720    13.5730    10.1110     2.3690 
  179.5000     4.9030    52.2660    11.6700    13.3540    10.1040     2.3770 
  179.6250     4.4320    52.7970    11.7690    13.5400    10.0910     2.3810 
  179.7500     4.3060    53.7190    12.1700    14.1100    10.4430     2.3790 
  179.8750     4.6130    54.5620    12.7890    14.9360    11.9020     2.3760 
  180.0000     4.9740    55.2870    13.4140    15.7390    14.0860     2.3820 
  180.1250     5.2880    55.8250    13.7540    16.1410    15.2200     2.3970 
  180.2500     5.5200    56.3220    13.7900    16.1430    14.3820     2.4080 
  180.3750     5.5880    57.6300    13.6330    15.9380    13.8110     2.4000 
  180.5000     5.5610    59.1590    13.5890    15.9370    13.7620     2.3780 
  180.6250     5.4180    60.3640    13.9550    16.5420    13.1160     2.3560 
  180.7500     5.1780    61.5350    14.6850    17.6350    14.2080     2.3380 
  180.8750     4.8940    62.8850    15.4560    18.7350    17.8340     2.3300 
  181.0000     4.6040    61.9900    15.8220    19.2310    20.3050     2.3370 
  181.1250     4.2650    60.3840    15.5940    18.9010    19.0580     2.3510 
  181.2500     3.8420    61.6410    14.8910    17.9650    16.2890     2.3520 
  181.3750     3.5360    65.1030    14.0320    16.9170    14.8500     2.3400 
  181.5000     3.1870    67.1710    13.4290    16.3010    14.5070     2.3300 
  181.6250     2.7900    68.2150    13.2940    16.3520    14.7260     2.3320 
  181.7500     2.6480    69.5950    13.5280    16.8600    14.5800     2.3420 
  181.8750     3.0060    70.6520    13.9060    17.4720    14.6010     2.3550 
  182.0000     3.6920    71.0410    14.1950    17.9010    16.6250     2.3670 
  182.1250     4.4040    71.8060    14.3430    18.0820    17.5150     2.3760 
  182.2500     4.8450    73.0380    14.4420    18.1640    15.9500     2.3770 
  182.3750     4.7100    72.9350    14.5410    18.2310    15.2910     2.3680 
  182.5000     4.1430    71.8050    14.6750    18.3510    15.8630     2.3610 
  182.6250     3.4770    70.7820    14.8210    18.4900    17.2140     2.3630 
  182.7500     2.8310    70.9590    14.8830    18.5100    18.6690     2.3650 
  182.8750     2.5460    71.8490    14.8400    18.3950    18.8680     2.3620 
  183.0000     2.6990    71.7860    14.7590    18.2750    18.5180     2.3570 
  183.1250     3.0740    71.1310    14.7350    18.2870    17.5900     2.3540 
  183.2500     3.4480    69.6320    14.6650    18.2890    16.3800     2.3440 
  183.3750     3.7130    68.7560    14.0980    17.6230    16.5750     2.3330 
  183.5000     3.7810    70.6090    12.7750    15.9150    17.2470     2.3190 
  183.6250     3.7080    74.9600    10.6080    13.0630    15.6320     2.3000 
  183.7500     3.6350    78.0550     8.2990    10.0540    11.2570     2.2820 
  183.8750     3.4910    76.1620     6.5390     7.7880     6.7950     2.2690 
  184.0000     3.2480    69.5030     5.4310     6.4460     4.9000     2.2610 
  184.1250     3.0360    60.2710     5.0440     6.0490     4.9850     2.2510 
  184.2500     2.8850    52.3180     4.9490     6.0110     5.4590     2.2550 
  184.3750     2.6820    49.1040     5.0130     6.1330     5.8740     2.2800 
  184.5000     2.5360    49.2550     5.0780     6.1940     5.8540     2.3040 
  184.6250     2.4610    50.8110     5.0250     6.0750     5.4380     2.3150 
  184.7500     2.3700    51.6420     4.9000     5.8680     5.1230     2.3140 
  184.8750     2.3970    51.8190     4.7740     5.6760     4.8600     2.3080 
  185.0000     2.7970    51.5460     4.6770     5.5340     4.6570     2.3060 
  185.1250     3.5060    50.5130     4.6130     5.4490     4.7170     2.3060 
  185.2500     4.2550    48.3830     4.5740     5.3910     4.8080     2.3050 
  185.3750     4.7250    47.3130     4.5570     5.3600     4.8560     2.3030 
  185.5000     4.6150    50.3980     4.5710     5.3620     4.8080     2.3050 
  185.6250     4.0600    57.4470     4.6500     5.4590     4.7160     2.3080 
  185.7500     3.3570    64.7070     4.9510     5.8540     4.8950     2.3060 
  185.8750     2.6480    69.0340     5.4830     6.5370     5.5960     2.3040 
  186.0000     2.2310    71.0110     6.0950     7.2920     8.1560     2.3070 
  186.1250     2.2670    73.0960     6.6120     7.8790    11.1340     2.3110 
  186.2500     2.5260    76.2250     6.8520     8.0600    10.5150     2.3050 
  186.3750     2.7720    79.0360     6.7610     7.8210     7.8710     2.2920 
  186.5000     3.0620    80.8690     6.4740     7.3730     6.4790     2.2860 
  186.6250     3.2990    81.9130     6.1610     6.9670     6.3310     2.2930 
  186.7500     3.4280    83.7140     5.9340     6.7110     6.5620     2.2980 
  186.8750     3.4800    87.0910     5.8870     6.6820     6.5480     2.2910 
  187.0000     3.4140    91.5390     5.9410     6.7500     6.5090     2.2760 
  187.1250     3.2990    93.9650     6.0020     6.8050     6.7030     2.2680 
  187.2500     3.3020    92.6840     6.0560     6.8550     6.9210     2.2720 
  187.3750     3.2380    89.3850     6.1460     6.9430     7.0280     2.2900 
  187.5000     3.0180    87.7690     6.2770     7.0730     7.1450     2.3040 
  187.6250     2.7850    87.4650     6.4600     7.2540     7.4190     2.2980 
  187.7500     2.5870    87.7770     6.7190     7.5090     7.7990     2.2810 
  187.8750     2.3800    88.5620     7.0450     7.8240     8.5430     2.2800 
  188.0000     2.3160    90.2220     7.5220     8.2720     9.7510     2.2990 
  188.1250     2.6240    90.3990     8.3220     9.0900    10.9320     2.3130 
  188.2500     3.3500    88.0740     9.8570    10.7340    11.8320     2.3130 
  188.3750     4.1980    84.7640    12.4900    13.4460    14.2680     2.3280 
  188.5000     5.0010    80.9860    17.2920    18.5820    26.8990     2.3930 
  188.6250     5.2590    75.6420    25.5430    27.5380    59.2410     2.4980 
  188.7500     5.0250    69.6160    35.5630    37.6590    90.9910     2.5810 
  188.8750     4.5490    65.3440    42.8670    44.6160    91.4880     2.6080 
  189.0000     3.9810    62.3790    45.1430    45.8500    76.8480     2.5930 
  189.1250     3.6140    61.3370    42.0830    41.8000    67.2450     2.5550 
  189.2500     3.6990    63.7030    36.3510    35.8170    51.5070     2.4990 
  189.3750     4.0300    68.2180    31.2290    30.9720    36.5400     2.4300 
  189.5000     4.3160    71.8900    28.3080    28.4000    35.1930     2.3550 
  189.6250     4.5380    73.2860    27.6460    28.1900    37.0170     2.2930 
  189.7500     4.6550    72.5350    29.6170    30.6910    47.3520     2.2620 
  189.8750     4.6420    69.7170    34.5510    36.3070    85.4260     2.2620 
  190.0000     4.5840    67.7690    45.5220    48.3400   119.9110     2.2540 
  190.1250     4.4500    68.1390    64.9010    68.8040   111.9430     2.2060 
  190.2500     4.2150    67.5950    84.8040    89.1040   100.5530     2.1510 
  190.3750     3.9690    63.9760   102.2240   106.7830   131.3280     2.1280 
  190.5000     3.7500    61.1520   112.4430   116.5330   163.7220     2.1310 
  190.6250     3.4700    61.1480   115.7340   119.0550   154.2220     2.1300 
  190.7500     3.1630    62.8820   115.5330   118.0630   132.1500     2.1190 
  190.8750     2.9360    64.3600   110.5390   112.1720   119.7290     2.1070 
  191.0000     2.6990    65.7850   101.6900   102.8320   110.1180     2.0990 
  191.1250     2.5530    68.2700    93.6710    94.8940   103.3090     2.0980 
  191.2500     2.6720    69.8720    88.0860    89.4700    94.5710     2.1000 
  191.3750     3.2790    68.7960    85.3380    86.8290    83.3480     2.1000 
  191.5000     4.1090    65.1070    84.8340    86.4460    81.0080     2.0940 
