~V
VERS. 2.00: Ver 2.00
~W
STRT.M 50.0000:
STOP.M 256.0000:
STEP.M 0.1250:
NULL. -999.2500:
UWI. F12009:
~C
DEPT.M :
SP.MV :
GR.API :
RI. :
RML.OHMM :
RXO.OHMM :
DEN.GM/CC :
~A
# ...
  127.2500     0.9590    80.3770     4.2940     5.0090     6.0720     2.1760 
  127.3750     0.3520    80.9530     4.5050     5.2300     5.8360     2.1750 
  127.5000    -0.2410    80.3570     4.7680     5.5060     5.6930     2.1670 
  127.6250    -0.7770    79.5320     5.0500     5.8030     5.9340     2.1420 
  127.7500    -1.3460    79.8890     5.3360     6.1020     6.3260     2.1190 
  127.8750    -2.0090    80.0470     5.5290     6.3050     6.5500     2.1110 
  128.0000    -2.5540    78.5020     5.5120     6.2870     6.5140     2.1120 
  128.1250    -2.5160    75.4720     5.3120     6.0770     6.2460     2.1230 
  128.2500    -1.9060    73.7070     4.9920     5.7420     5.6300     2.1460 
  128.3750    -0.8500    76.5100     4.7100     5.4450     4.9700     2.1830 
  128.5000     0.2100    81.5220     4.5730     5.3010     4.9820     2.2150 
  128.6250     0.7830    84.3860     4.6050     5.3360     5.5090     2.2180 
  128.7500     0.5730    82.8830     4.8180     5.5590     5.9240     2.1920 
  128.8750    -0.3270    79.8850     5.1920     5.9510     6.1710     2.1560 
  129.0000    -1.4850    77.6750     5.6220     6.4030     6.4170     2.1270 
  129.1250    -2.4930    77.4550     6.0580     6.8610     6.5320     2.1120 
  129.2500    -2.9740    78.0280     6.4540     7.2770     6.7390     2.1110 
  129.3750    -2.9740    77.8790     6.8800     7.7240     7.1990     2.1200 
  129.5000    -2.8110    76.8310     7.3200     8.1860     7.2130     2.1250 
  129.6250    -2.5940    76.2340     7.7120     8.5970     6.9090     2.1220 
  129.7500    -2.3910    74.3950     8.1060     9.0110     6.9340     2.1070 
  129.8750    -2.3150    70.5530     8.4200     9.3410     7.1640     2.0830 
  130.0000    -2.3430    67.6130     8.6440     9.5760     7.5090     2.0630 
  130.1250    -2.3930    67.9130     8.7140     9.6500     7.7060     2.0700 
  130.2500    -2.4790    69.1790     8.5580     9.4860     7.4480     2.0980 
  130.3750    -2.5550    70.0800     8.2590     9.1720     7.2830     2.1230 
  130.5000    -2.6010    71.7140     7.9190     8.8150     7.4520     2.1300 
  130.6250    -2.6930    73.3060     7.6380     8.5200     7.6610     2.1320 
  130.7500    -2.8690    72.3950     7.4810     8.3550     7.7580     2.1360 
  130.8750    -3.0690    69.5650     7.4480     8.3200     7.6060     2.1360 
  131.0000    -3.3000    68.7320     7.4840     8.3590     7.4810     2.1270 
  131.1250    -3.5010    70.9620     7.5430     8.4200     7.6150     2.1180 
  131.2500    -3.5030    71.8060     7.5800     8.4590     7.6430     2.1160 
  131.3750    -3.0370    69.9620     7.5860     8.4660     7.4380     2.1190 
  131.5000    -2.2760    70.1530     7.5890     8.4690     7.3830     2.1210 
  131.6250    -1.4750    74.3440     7.6040     8.4840     7.5040     2.1250 
  131.7500    -1.0070    76.3880     7.6460     8.5290     7.7690     2.1300 
  131.8750    -1.0820    73.7430     7.7090     8.5940     8.3380     2.1280 
  132.0000    -1.4520    70.5680     7.7630     8.6510     8.8720     2.1250 
  132.1250    -1.9580    70.4630     7.7480     8.6350     8.8280     2.1210 
  132.2500    -2.3030    71.9320     7.5170     8.3930     8.3360     2.1110 
  132.3750    -2.1720    73.0740     7.0660     7.9190     7.9170     2.0940 
  132.5000    -1.5300    74.9970     6.4680     7.2920     7.3850     2.0990 
  132.6250    -0.6580    79.5190     5.8830     6.6780     6.3230     2.1430 
  132.7500     0.2130    85.8070     5.4950     6.2700     5.4290     2.1890 
  132.8750     0.9080    88.0610     5.3460     6.1140     5.3850     2.1910 
  133.0000     1.2610    85.3430     5.4470     6.2190     5.9030     2.1590 
  133.1250     1.1900    82.9210     5.7170     6.5020     6.5930     2.1310 
  133.2500     0.8540    83.3330     6.0740     6.8770     7.0100     2.1300 
  133.3750     0.3690    83.6040     6.3330     7.1500     6.9920     2.1390 
  133.5000    -0.1330    81.9570     6.4460     7.2680     6.9930     2.1400 
  133.6250    -0.4700    80.9720     6.4720     7.2960     7.1470     2.1350 
  133.7500    -0.8380    79.1760     6.4970     7.3220     7.0330     2.1370 
  133.8750    -1.3870    76.4470     6.6070     7.4370     6.7420     2.1460 
  134.0000    -1.9090    74.9620     6.7820     7.6210     6.9260     2.1460 
  134.1250    -2.5090    74.4250     7.0440     7.8970     7.6640     2.1250 
  134.2500    -3.2110    72.2550     7.3350     8.2010     8.2260     2.0870 
  134.3750    -3.7390    68.6280     7.6070     8.4870     8.3460     2.0530 
  134.5000    -3.8150    65.8920     7.8220     8.7130     8.5230     2.0400 
  134.6250    -3.3350    64.4460     7.9520     8.8490     8.7590     2.0590 
  134.7500    -2.6280    64.3420     8.0340     8.9350     8.8020     2.0870 
  134.8750    -2.0860    65.7870     8.0770     8.9810     8.9610     2.1020 
  135.0000    -2.0480    67.4510     8.0580     8.9610     9.1200     2.1060 
  135.1250    -2.4990    67.7810     7.9690     8.8670     8.9910     2.1120 
  135.2500    -3.1400    68.9270     7.8670     8.7600     8.7640     2.1270 
  135.3750    -3.7390    72.2640     7.7550     8.6430     8.3510     2.1400 
  135.5000    -4.0050    74.5280     7.6850     8.5690     8.1180     2.1450 
  135.6250    -3.7900    73.2540     7.7230     8.6090     8.4480     2.1430 
  135.7500    -3.3370    71.1930     7.8600     8.7530     9.0730     2.1380 
  135.8750    -2.9330    70.6780     8.0530     8.9550     9.6750     2.1330 
  136.0000    -2.6790    70.6050     8.2070     9.1170    10.8400     2.1280 
  136.1250    -2.6350    69.0410     8.2520     9.1640    11.4010     2.1170 
  136.2500    -2.7370    67.0080     8.1840     9.0930    11.0120     2.1060 
  136.3750    -2.9210    66.0780     7.9830     8.8820    10.3280     2.1020 
  136.5000    -3.2080    65.7630     7.7310     8.6180     9.9070     2.1030 
  136.6250    -3.4640    64.8480     7.5130     8.3890     9.5540     2.0980 
  136.7500    -3.6520    62.2370     7.3950     8.2650     9.0820     2.0860 
  136.8750    -3.8180    60.7810     7.4230     8.2940     8.9330     2.0820 
  137.0000    -4.0830    62.4980     7.5280     8.4040     8.8530     2.0890 
  137.1250    -4.3580    65.9930     7.6900     8.5740     8.7990     2.0960 
  137.2500    -4.5750    69.1050     7.8760     8.7690     8.9770     2.1030 
  137.3750    -4.8610    71.4580     8.0130     8.9140     9.3350     2.1130 
  137.5000    -5.0190    73.1470     8.0830     8.9870     9.7540     2.1240 
  137.6250    -4.7580    74.2590     8.0650     8.9680    10.0870     2.1270 
  137.7500    -4.1540    74.6500     7.9930     8.8930    10.0290     2.1210 
  137.8750    -3.3830    72.5220     7.8950     8.7900     9.7120     2.1140 
  138.0000    -2.8110    69.1920     7.7910     8.6810     9.5510     2.1080 
  138.1250    -2.8180    66.8870     7.7070     8.5930     9.2390     2.1030 
  138.2500    -3.3330    67.0920     7.6610     8.5440     8.7470     2.0950 
  138.3750    -4.0390    68.4590     7.6490     8.5310     8.6130     2.0880 
  138.5000    -4.7810    69.3290     7.6440     8.5260     8.7650     2.0850 
  138.6250    -5.2360    68.5960     7.6400     8.5220     8.9120     2.0860 
  138.7500    -5.1920    67.8120     7.6340     8.5150     8.9570     2.0890 
  138.8750    -4.8190    69.0140     7.6260     8.5070     8.9490     2.0920 
  139.0000    -4.3910    69.4900     7.6280     8.5090     8.9660     2.0900 
  139.1250    -4.0240    67.7920     7.6320     8.5140     9.0090     2.0860 
  139.2500    -3.8120    67.9000     7.6380     8.5200     9.0630     2.0860 
  139.3750    -3.7420    69.7590     7.6350     8.5160     9.0550     2.0890 
  139.5000    -3.7400    68.9420     7.6180     8.4990     8.9530     2.0910 
  139.6250    -3.8060    65.1910     7.5960     8.4760     8.8240     2.0960 
  139.7500    -3.9300    63.6510     7.5790     8.4580     8.6790     2.1020 
  139.8750    -3.9850    65.8290     7.5800     8.4590     8.5100     2.1050 
  140.0000    -3.9710    67.3850     7.6050     8.4850     8.3840     2.1060 
