~V
VERS. 2.00: Ver 2.00
~W
STRT.M 50.0000:
STOP.M 255.0000:
STEP.M 0.1250:
NULL. -999.2500:
UWI. F12008:
~C
DEPT.M :
SP.MV :
GR.API :
RI. :
RML.OHMM :
RXO.OHMM :
DEN.GM/CC :
~A
# ...
   75.7500   -52.7410    68.8230     6.4810     7.3690     9.4490     2.0780 
   75.8750   -53.3420    67.1400     6.4750     7.3630     9.7130     2.0690 
   76.0000   -53.9170    65.3610     6.4450     7.3320     9.7970     2.0580 
   76.1250   -54.3780    63.3020     6.4050     7.2890     9.5670     2.0550 
   76.2500   -54.6900    61.0730     6.3760     7.2590     9.3050     2.0610 
   76.3750   -54.8350    58.8700     6.3780     7.2600     9.0540     2.0700 
   76.5000   -54.8500    56.9660     6.3830     7.2660     9.0160     2.0740 
   76.6250   -54.7560    57.1170     6.3700     7.2530     9.1560     2.0730 
   76.7500   -54.5910    59.1880     6.2910     7.1690     9.0960     2.0710 
   76.8750   -54.3780    62.0300     6.1520     7.0210     8.9310     2.0630 
   77.0000   -54.1420    64.3000     5.9710     6.8290     8.7390     2.0490 
   77.1250   -53.8890    65.2470     5.8000     6.6480     8.5530     2.0360 
   77.2500   -53.6220    66.2260     5.6720     6.5130     8.5560     2.0270 
   77.3750   -53.3330    67.9620     5.6300     6.4680     8.4920     2.0040 
   77.5000   -53.0290    69.5680     5.7210     6.5640     8.1750     1.9630 
   77.6250   -52.7160    68.3330     5.9280     6.7840     7.8260     1.9510 
   77.7500   -52.4080    64.1350     6.2270     7.1010     8.2100     1.9900 
   77.8750   -52.1220    60.1000     6.5580     7.4510     9.4050     2.0400 
   78.0000   -51.8670    59.1170     6.8170     7.7260    10.1390     2.0610 
   78.1250   -51.6560    60.9170     6.9920     7.9120    10.0720     2.0580 
   78.2500   -51.4820    61.8500     7.0580     7.9820     9.4880     2.0480 
   78.3750   -51.3160    61.4360     7.0310     7.9530     8.9990     2.0390 
   78.5000   -51.1070    60.5420     6.9760     7.8950     9.1030     2.0430 
   78.6250   -50.7700    60.6150     6.9090     7.8240     9.3570     2.0600 
   78.7500   -50.2520    61.3460     6.8470     7.7570     9.3570     2.0710 
   78.8750   -49.5130    61.3570     6.7670     7.6730     8.9780     2.0670 
   79.0000   -48.6070    61.8250     6.6130     7.5100     8.8550     2.0550 
   79.1250   -47.6150    63.2680     6.3530     7.2340     8.6150     2.0480 
   79.2500   -46.6600    65.8100     6.0220     6.8840     7.6120     2.0740 
   79.3750   -45.8590    69.4770     5.6560     6.4960     6.9020     2.1310 
   79.5000   -45.2780    74.3070     5.3470     6.1670     6.8800     2.1730 
   79.6250   -44.9710    78.4020     5.1590     5.9680     8.7280     2.1780 
   79.7500   -44.9070    80.7540     5.1150     5.9210     8.4260     2.1660 
   79.8750   -45.0640    81.3200     5.2170     6.0300     7.5710     2.1490 
   80.0000   -45.3680    79.8340     5.4080     6.2330     7.4350     2.1200 
   80.1250   -45.7650    76.4420     5.7200     6.5630     8.2430     2.0870 
   80.2500   -46.1980    73.7390     6.0840     6.9490     8.9050     2.0650 
   80.3750   -46.6120    70.0780     6.3900     7.2740     8.7850     2.0590 
   80.5000   -46.9530    64.2760     6.5980     7.4940     8.3240     2.0600 
   80.6250   -47.1500    60.4330     6.6230     7.5200     8.2320     2.0610 
   80.7500   -47.1700    61.4220     6.5290     7.4210     8.5180     2.0570 
   80.8750   -46.9880    63.9830     6.3540     7.2350     8.6640     2.0480 
   81.0000   -46.6500    64.6030     6.1380     7.0070     8.6010     2.0420 
   81.1250   -46.1990    64.0870     5.8810     6.7330     8.5070     2.0490 
   81.2500   -45.6860    62.5140     5.5840     6.4190     8.3760     2.0680 
   81.3750   -45.1140    61.6900     5.2370     6.0510     7.7230     2.1050 
   81.5000   -44.4730    65.6050     4.8800     5.6730     6.4720     2.1600 
   81.6250   -43.7560    76.9890     4.6240     5.4010     5.7270     2.2110 
   81.7500   -43.0280    87.9080     4.6090     5.3850     5.9030     2.2200 
   81.8750   -42.4410    90.9560     4.8610     5.6530     6.5910     2.1740 
   82.0000   -42.1680    88.0590     5.3200     6.1400     7.6020     2.1090 
   82.1250   -42.4040    83.6550     5.8810     6.7340     8.4540     2.0660 
   82.2500   -43.1530    79.2720     6.3030     7.1810     8.8150     2.0480 
   82.3750   -44.3320    73.5150     6.4610     7.3480     8.8540     2.0450 
   82.5000   -45.6730    68.1650     6.3950     7.2790     8.7390     2.0440 
   82.6250   -46.9010    64.6300     6.1670     7.0370     8.5210     2.0410 
   82.7500   -47.8240    61.2520     5.9500     6.8070     8.2600     2.0340 
   82.8750   -48.3270    59.2870     5.8070     6.6560     8.0720     2.0310 
   83.0000   -48.4540    60.4930     5.7250     6.5680     8.1020     2.0350 
   83.1250   -48.2390    62.6360     5.7070     6.5500     8.2830     2.0480 
   83.2500   -47.7690    61.8450     5.7170     6.5600     8.4150     2.0910 
   83.3750   -47.0680    59.1810     5.7060     6.5480     8.5240     2.1480 
   83.5000   -46.1670    59.6200     5.6320     6.4700     8.5730     2.1990 
   83.6250   -45.0370    62.2750     5.5050     6.3360     8.2360     2.2200 
   83.7500   -43.6650    65.7980     5.3240     6.1430     7.3350     2.2100 
   83.8750   -42.0100    73.1910     5.1060     5.9120     6.4790     2.2000 
   84.0000   -40.1080    84.7630     4.8650     5.6570     6.3010     2.2100 
   84.1250   -38.0260    95.6860     4.6050     5.3810     6.2980     2.2390 
   84.2500   -35.9190   102.4470     4.3660     5.1280     5.8230     2.2690 
   84.3750   -33.9700   106.1130     4.1500     4.8990     5.1400     2.2920 
   84.5000   -32.3190   108.6210     3.9890     4.7290     4.9150     2.2880 
   84.6250   -31.0830   110.4370     3.9720     4.7100     5.0390     2.2730 
   84.7500   -30.2350   111.7640     4.1200     4.8670     5.0760     2.2650 
   84.8750   -29.7480   111.0040     4.4560     5.2230     5.6370     2.2600 
   85.0000   -29.5190   106.9560     4.8510     5.6420     6.8360     2.2470 
   85.1250   -29.4970   101.8360     5.1830     5.9940     7.3710     2.2190 
   85.2500   -29.6100    97.4320     5.3520     6.1730     7.1560     2.1940 
   85.3750   -29.8110    93.8460     5.3980     6.2220     7.2590     2.1900 
   85.5000   -30.0380    91.1440     5.6900     6.5320     7.5210     2.2190 
   85.6250   -30.2410    89.8880     6.3130     7.1920     7.4220     2.2910 
   85.7500   -30.3910    89.0610     7.1170     8.0440    12.3630     2.3900 
   85.8750   -30.4840    84.8070     7.8820     8.8550    23.0170     2.4590 
   86.0000   -30.5580    78.2130     8.1970     9.1890    25.3900     2.4470 
   86.1250   -30.6710    72.8260     8.0110     8.9910    17.0880     2.3370 
   86.2500   -30.8800    72.2830     7.3960     8.3400     9.9580     2.1910 
   86.3750   -31.2380    74.0210     6.5950     7.4910     7.8240     2.0900 
   86.5000   -31.7300    75.1470     5.9120     6.7670     8.1260     2.0770 
   86.6250   -32.3090    75.1760     5.6590     6.4990     8.1400     2.1310 
   86.7500   -32.8760    74.8510     5.6880     6.5290     7.2220     2.1800 
   86.8750   -33.3440    74.8360     5.8520     6.7030     6.6790     2.1900 
   87.0000   -33.6880    76.5100     6.1000     6.9660     7.2520     2.1710 
   87.1250   -33.9380    80.4790     6.4000     7.2840     8.2560     2.1480 
   87.2500   -34.1780    82.8040     6.7460     7.6510     8.6370     2.1360 
   87.3750   -34.4730    80.9070     7.0300     7.9520     9.0270     2.1320 
   87.5000   -34.8330    76.5760     7.2600     8.1950     9.9000     2.1230 
   87.6250   -35.2210    74.0480     7.5260     8.4780    10.4230     2.1130 
   87.7500   -35.5830    73.0110     7.8740     8.8460    10.3250     2.1220 
   87.8750   -35.8840    70.7190     8.3190     9.3180    10.0410     2.1570 
   88.0000   -36.1310    67.3290     8.7180     9.7410     9.7900     2.1900 
   88.1250   -36.3430    65.4270     8.9780    10.0160     9.4150     2.1860 
   88.2500   -36.5440    65.7730     9.0200    10.0620     9.1440     2.1560 
   88.3750   -36.7460    66.4590     8.7390     9.7630     9.6000     2.1360 
   88.5000   -36.9590    66.6660     8.2870     9.2840    10.1230     2.1320 
