~V
VERS. 2.00: Ver 2.00
~W
STRT.M 50.0000:
STOP.M 256.0000:
STEP.M 0.1250:
NULL. -999.2500:
UWI. F12009:
~C
DEPT.M :
SP.MV :
GR.API :
RI. :
RML.OHMM :
RXO.OHMM :
DEN.GM/CC :
~A
# ...
  191.6250     4.8100    62.9280    86.0670    87.7730    86.0880     2.0900 
  191.7500     5.0450    63.2970    87.5070    88.9810    87.5320     2.0910 
  191.8750     4.7400    64.4720    87.9610    89.0520    89.9660     2.0930 
  192.0000     4.1670    65.0880    87.0570    87.6750    94.0790     2.0900 
  192.1250     3.5040    66.1280    84.1020    84.1560    88.0280     2.0960 
  192.2500     3.0110    67.5370    80.5300    80.2460    77.7980     2.1150 
  192.3750     2.9210    67.3120    77.8850    77.4130    74.8530     2.1360 
  192.5000     3.2070    66.3630    76.4480    75.8690    72.9860     2.1480 
  192.6250     3.5910    67.0960    77.0160    76.5940    66.9660     2.1490 
  192.7500     3.9400    69.1450    78.6280    78.3380    69.0180     2.1420 
  192.8750     4.1380    70.5180    78.5820    78.2430    81.8130     2.1260 
  193.0000     4.2280    70.6520    75.0750    74.6270    89.7540     2.1030 
  193.1250     4.2110    70.1730    68.6880    68.0710   115.1900     2.0840 
  193.2500     4.1810    69.9810    61.5930    60.8000   133.6020     2.0750 
  193.3750     4.0500    68.9210    55.7200    54.8710    89.8100     2.0750 
  193.5000     3.8790    65.9310    52.9570    52.1520    45.9540     2.0730 
  193.6250     3.6910    64.4410    52.7460    52.0240    41.8090     2.0700 
  193.7500     3.3840    65.9970    54.0160    53.2620    45.0550     2.0760 
  193.8750     2.9870    66.5860    55.6340    54.7250    45.6280     2.0920 
  194.0000     2.6620    63.8790    56.4290    55.2540    45.7510     2.1050 
  194.1250     2.3820    63.7200    55.7280    54.3450    45.9360     2.1130 
  194.2500     2.1290    66.0290    54.2180    52.8090    44.1850     2.1180 
  194.3750     2.1610    66.7210    52.4980    51.1840    42.8920     2.1190 
  194.5000     2.6000    65.8160    50.6940    49.5560    43.2960     2.1120 
  194.6250     3.2800    67.8410    48.8770    47.9600    44.3710     2.1020 
  194.7500     3.9910    70.3670    47.1690    46.5170    45.0930     2.1030 
  194.8750     4.3870    69.3480    45.9770    45.6160    44.7590     2.1120 
  195.0000     4.2890    66.9140    45.7180    45.6600    42.3120     2.1190 
  195.1250     3.8260    66.3630    46.7870    47.0930    39.4420     2.1200 
  195.2500     3.2690    66.0190    49.0450    49.8000    42.7970     2.1210 
  195.3750     2.8340    64.4030    52.3770    53.6410    50.8890     2.1240 
  195.5000     2.7560    62.5160    56.3220    58.0500    56.2100     2.1230 
  195.6250     3.0840    62.3130    59.5530    61.5670    58.7320     2.1040 
  195.7500     3.5260    62.9170    61.8230    64.0370    59.7620     2.0770 
  195.8750     3.8990    64.7330    62.8080    65.1100    58.8380     2.0760 
  196.0000     4.1740    66.7580    62.5290    64.9190    59.5030     2.1150 
  196.1250     4.2790    66.8850    61.3580    63.8250    66.5890     2.1590 
  196.2500     4.2990    64.4400    59.2800    61.7560    71.0940     2.1680 
  196.3750     4.2570    62.7670    56.5170    59.0500    62.9630     2.1480 
  196.5000     4.1600    63.2480    53.9880    56.6590    53.8730     2.1410 
  196.6250     3.9860    64.7820    52.0880    55.0310    49.3720     2.1570 
  196.7500     3.8280    66.3270    51.0980    54.3890    46.3360     2.1680 
  196.8750     3.6410    67.3660    51.2480    54.9220    49.5980     2.1520 
  197.0000     3.4750    68.0390    51.9850    55.8920    54.9530     2.1380 
  197.1250     3.3970    67.8920    52.6920    56.6100    54.1460     2.1580 
  197.2500     3.3060    66.4810    52.9270    56.7230    51.5470     2.1860 
  197.3750     3.2060    65.8260    53.2570    57.0030    53.6320     2.1750 
  197.5000     3.2850    67.0220    54.2680    58.1320    52.8040     2.1380 
  197.6250     3.7480    68.1090    55.9150    60.0690    48.0910     2.1280 
  197.7500     4.4890    66.5940    57.5470    62.0640    52.6820     2.1810 
  197.8750     5.3500    63.6280    58.2480    62.9590    65.3290     2.2770 
  198.0000     5.9570    62.9790    57.6030    62.2870    70.4790     2.3500 
  198.1250     5.9540    64.8480    54.8290    59.1450    62.1000     2.3320 
  198.2500     5.5980    69.5850    51.0680    54.9020    52.5280     2.2440 
  198.3750     5.1590    75.5880    47.0650    50.4610    48.4320     2.1590 
  198.5000     4.7470    78.9140    43.8150    46.9520    44.4920     2.1190 
  198.6250     4.6820    77.3760    42.3440    45.3820    41.6630     2.1050 
  198.7500     4.9670    74.6920    41.5060    44.4580    42.5120     2.0970 
  198.8750     5.3560    72.9620    41.1660    44.0640    44.3780     2.0950 
  199.0000     5.7840    71.8960    41.1850    44.0470    43.8340     2.0980 
  199.1250     6.0730    71.1290    41.3850    44.1780    42.2470     2.0970 
  199.2500     6.1640    70.8560    41.6080    44.3030    42.4480     2.0930 
  199.3750     6.1640    72.2170    41.8550    44.4560    42.5130     2.0930 
  199.5000     6.1270    75.5010    42.0640    44.5500    42.2450     2.0960 
  199.6250     5.9170    79.6480    42.0620    44.4270    44.4900     2.1010 
  199.7500     5.6560    82.0460    41.8690    44.1240    46.6700     2.1070 
  199.8750     5.4280    82.9080    41.5190    43.6620    45.1020     2.1180 
  200.0000     5.1440    85.2570    41.2330    43.3060    41.0820     2.1280 
  200.1250     4.8710    90.2470    41.5230    43.6090    37.2840     2.1350 
  200.2500     4.6690    96.0740    42.3240    44.4590    37.2930     2.1370 
  200.3750     4.6160    99.9050    43.4360    45.6560    43.3100     2.1300 
  200.5000     4.4720    98.2340    44.5330    46.8160    49.9000     2.1180 
  200.6250     4.3940    90.8040    45.2570    47.5100    48.8650     2.1070 
  200.7500     4.7100    82.6180    45.5840    47.7270    48.3000     2.0990 
  200.8750     5.3780    77.5480    45.2730    47.2990    52.5990     2.0990 
  201.0000     6.1240    72.9430    44.5960    46.6070    48.9600     2.1110 
  201.1250     6.6220    68.9830    44.0490    46.1890    43.1490     2.1300 
  201.2500     6.6250    68.7840    44.2570    46.6880    42.8340     2.1410 
  201.3750     6.0630    71.3370    45.6820    48.5550    43.6370     2.1430 
  201.5000     5.3200    72.8320    48.2000    51.6610    45.7910     2.1450 
  201.6250     4.5620    72.1380    52.9310    57.2170    51.3710     2.1500 
  201.7500     4.0310    71.7330    60.0980    65.4770    58.8470     2.1480 
  201.8750     3.9670    73.5210    69.1310    75.8070    62.1410     2.1310 
  202.0000     4.2480    77.0710    79.3690    87.5330    62.2900     2.1160 
  202.1250     4.6520    83.0390    89.3480    98.8090    86.0130     2.1160 
  202.2500     4.9060    88.1270    96.9540   107.0250   123.3960     2.1150 
  202.3750     4.9250    90.7430   101.3250   111.3970   120.8690     2.1100 
  202.5000     4.8220    89.7640   101.3710   110.7880    96.3400     2.1350 
  202.6250     4.7130    86.2740    97.8780   106.4510    86.5550     2.2210 
  202.7500     4.5430    83.1540    93.6280   101.4790    83.2800     2.3070 
  202.8750     4.2480    79.7420    90.1230    97.3570    79.4160     2.3050 
  203.0000     3.9640    75.2250    88.5800    95.3890    74.5400     2.2300 
  203.1250     3.7030    71.0080    89.1390    95.6310    68.8490     2.1570 
  203.2500     3.3360    70.0330    91.7460    97.8920    64.9490     2.1270 
  203.3750     2.9110    72.2130    94.5750   100.0640    68.7070     2.1140 
  203.5000     2.5290    74.3390    95.6070    99.8940    80.1220     2.1020 
  203.6250     2.1290    75.2770    92.5040    95.3930    87.1790     2.1000 
  203.7500     1.8750    75.2260    86.4540    87.9460    80.4820     2.1120 
  203.8750     2.0410    75.1840    78.8200    79.3130    66.8950     2.1250 
  204.0000     2.5900    73.9410    71.4540    71.3860    56.7860     2.1280 
  204.1250     3.4160    72.1580    65.9540    65.5900    57.0450     2.1230 
  204.2500     4.1910    70.5040    61.7000    61.2640    61.2570     2.1210 
  204.3750     4.4300    70.7080    59.3660    58.9960    55.3170     2.1260 
