~V
VERS. 2.00: Ver 2.00
~W
STRT.M 50.0000:
STOP.M 247.0000:
STEP.M 0.1250:
NULL. -999.2500:
UWI. F12010:
~C
DEPT.M :
SP.MV :
GR.API :
RI. :
RML.OHMM :
RXO.OHMM :
DEN.GM/CC :
~A
   50.0000    50.3370    46.9470    42.6880    28.1420    50.4840     2.4230 
   50.1250    49.8270    47.5870    42.6880    28.1430    50.4830     2.4250 
   50.2500    50.1540    46.6960    42.6880    28.1430    50.4830     2.4040 
   50.3750    50.5120    45.7210    42.6880    28.1430    50.4840     2.3810 
   50.5000    50.0420    45.4390    42.6880    28.1430    50.4830     2.3750 
   50.6250    49.2980    44.5130    42.6880    28.1430    50.4820     2.3720 
   50.7500    48.2480    42.9690    42.6880    28.1430    50.4810     2.3470 
   50.8750    46.6710    43.1460    42.6880    28.1430    50.4830     2.3010 
   51.0000    44.8670    44.5400    42.6880    28.1420    50.4830     2.2620 
   51.1250    43.1140    44.6700    42.6880    28.1420    50.4810     2.2400 
   51.2500    41.3780    43.2720    42.6880    28.1440    50.4800     2.2220 
   51.3750    39.9630    42.2780    42.6880    28.1440    50.4810     2.2110 
   51.5000    38.6220    41.5030    42.6880    28.1450    50.4820     2.2180 
   51.6250    37.2230    40.0910    42.6870    28.1440    50.4830     2.2360 
   51.7500    35.6750    40.2290    42.6850    28.1440    50.4830     2.2520 
   51.8750    33.8130    43.0430    42.6830    28.1450    50.4820     2.2710 
   52.0000    31.7250    45.5350    42.6810    28.1440    50.4820     2.2910 
   52.1250    29.5750    45.5340    40.4120    26.0430    50.4840     2.3060 
   52.2500    27.4450    42.7980    29.7480    18.7240    50.4860     2.3110 
   52.3750    25.2870    40.1310    17.9120    10.9490    50.4850     2.3140 
   52.5000    23.2000    39.6220     6.0800     3.2180    50.4860     2.3240 
   52.6250    21.7760    40.5620     0.0750     0.1540    50.4850     2.3380 
   52.7500    20.9040    41.3260     0.0770     0.1590    50.4830     2.3430 
   52.8750    20.3840    41.4750     0.0940     0.1730    50.4810     2.3310 
   53.0000    20.3350    41.7230     0.1110     0.1940    50.4800     2.3170 
   53.1250    21.0430    41.1100     0.1270     0.2060    50.4800     2.3130 
   53.2500    22.3730    40.6400     0.1370     0.2050    50.4810     2.3150 
   53.3750    23.5700    41.0420     0.1380     0.1940    50.4830     2.3120 
   53.5000    24.0310    41.0160     0.1400     0.1760    50.4840     2.3100 
   53.6250    23.6440    41.2580     0.1410     0.1610    50.4830     2.3210 
   53.7500    22.6710    42.4930     0.1400     0.1450    50.4820     2.3380 
   53.8750    21.5520    43.5950     0.1370     0.1330    50.4810     2.3490 
   54.0000    20.3650    43.7060     0.1320     0.1260    50.4820     2.3450 
   54.1250    19.4500    42.6380     0.1390     0.1230    50.4820     2.3440 
   54.2500    19.1310    40.7340     0.1460     0.1220    50.4800     2.3410 
   54.3750    19.4360    38.3430     0.1530     0.1190    50.4790     2.3330 
   54.5000    20.3450    38.8480     0.1560     0.1200    50.4800     2.3270 
   54.6250    21.6400    42.0980     0.1520     0.1240    50.4800     2.3380 
   54.7500    22.8880    43.9620     0.1500     0.1270    50.4800     2.3720 
   54.8750    23.9990    43.9650     0.1530     0.1270    50.4820     2.4240 
   55.0000    24.8280    44.4230     0.1600     0.1240    50.4830     2.4750 
   55.1250    25.4600    46.1230     0.1690     0.1170    50.4810     2.5190 
   55.2500    25.9970    47.5310     0.1680     0.1070    50.4790     2.5640 
   55.3750    26.1720    47.8150     0.1420     0.0840    50.4790     2.6120 
   55.5000    25.8180    47.3200     0.1070     0.0620    50.4810     2.6420 
   55.6250    24.4850    46.6030     0.0700     0.0410    50.4800     2.6420 
   55.7500    21.9520    46.9640     0.0540     0.0330    50.4760     2.6330 
   55.8750    18.1140    48.2110     0.0820     0.0610    50.4770     2.6080 
   56.0000    13.0380    49.5840     0.1700     0.1380    50.4800     2.5430 
   56.1250     7.0800    50.3560     0.4030     0.3490    50.4800     2.3950 
   56.2500     0.7970    50.3340     0.9410     0.9070    50.4800     2.2010 
   56.3750    -5.1190    50.0430     2.1450     4.0020    50.4800     2.0570 
   56.5000   -10.0170    49.7690     3.4440     5.1900    50.4800     2.0150 
   56.6250   -13.7110    49.5170     4.2720     6.1220    50.4800     2.0380 
   56.7500   -16.7750    49.2880     4.5030     6.3580    50.4810     2.0560 
   56.8750   -19.2940    50.4710     4.0160     5.4630    50.4820     2.0450 
   57.0000   -21.2440    53.9130     3.6530     4.7690    50.4820     1.9970 
   57.1250   -22.5610    58.3700     3.5400     4.4940    50.4830     1.9310 
   57.2500   -23.1630    62.9140     3.5550     4.3350    50.4830     1.8960 
   57.3750   -23.0970    66.2400     3.6610     4.3590    50.4820     1.9240 
   57.5000   -22.8820    68.3860     3.8240     4.5270    50.4800     1.9950 
   57.6250   -22.6070    69.7310     4.0540     4.7210    50.4810     2.0710 
   57.7500   -22.3150    72.5090     4.3310     5.0480    45.8940     2.1240 
   57.8750   -22.1290    76.4260     4.6810     5.4150    29.6530     2.1350 
   58.0000   -22.0470    78.8510     5.0620     5.8150    11.7140     2.1180 
   58.1250   -22.0220    77.0950     5.3620     6.1300     5.3550     2.1080 
   58.2500   -22.0950    73.7670     5.5340     6.3110     5.2010     2.1260 
   58.3750   -22.2250    73.3770     5.4840     6.2590     4.7920     2.1490 
   58.5000   -22.3220    77.1760     5.2470     6.0090     4.4000     2.1510 
   58.6250   -22.4000    81.0470     4.8700     5.6140     4.4120     2.1420 
   58.7500   -22.6810    82.7180     4.4890     5.2140     4.3570     2.1500 
   58.8750   -23.0700    83.7870     4.2250     4.9360     4.0610     2.1790 
   59.0000   -23.5830    85.6760     4.0820     4.7860     3.9200     2.2060 
   59.1250   -24.0650    87.8440     4.0420     4.7440     4.0450     2.2130 
   59.2500   -24.2480    88.9650     4.0210     4.7220     4.0890     2.2070 
   59.3750   -23.9720    89.4390     4.0860     4.7910     4.0120     2.2010 
   59.5000   -23.3730    90.3490     4.2720     4.9860     4.1070     2.1870 
   59.6250   -22.6150    91.4560     4.5160     5.2420     4.4600     2.1570 
   59.7500   -21.9250    92.0880     4.7440     5.4810     5.8180     2.1270 
   59.8750   -21.8120    90.7530     4.8730     5.6170     7.1590     2.1180 
   60.0000   -22.1390    89.2580     4.8910     5.6350     6.2660     2.1290 
   60.1250   -22.4710    90.3390     4.7800     5.5190     4.7240     2.1440 
   60.2500   -22.7320    93.9530     4.6310     5.3620     4.3610     2.1480 
   60.3750   -22.6760    96.0210     4.5170     5.2430     4.4220     2.1400 
   60.5000   -22.2540    93.9120     4.4990     5.2240     4.3280     2.1330 
   60.6250   -21.5760    89.5540     4.5940     5.3240     4.2510     2.1330 
   60.7500   -20.7720    87.9970     4.6880     5.4230     4.2690     2.1330 
   60.8750   -19.9420    88.4470     4.7050     5.4400     4.3500     2.1320 
   61.0000   -19.4740    90.4950     4.6080     5.3380     4.4210     2.1470 
   61.1250   -19.3740    93.0840     4.4370     5.1590     4.2190     2.1810 
   61.2500   -19.2400    95.4920     4.2250     4.9370     3.8170     2.2120 
   61.3750   -18.8140    97.6380     4.0040     4.7040     3.5290     2.2240 
   61.5000   -18.2120   100.7910     3.8340     4.5250     3.4480     2.2270 
   61.6250   -17.6850   105.9290     3.7100     4.3950     3.4770     2.2390 
   61.7500   -17.5170   109.2330     3.6170     4.2980     3.5710     2.2560 
   61.8750   -17.6720   107.8080     3.5710     4.2490     3.6540     2.2670 
   62.0000   -18.0220   103.6210     3.5220     4.1980     3.6580     2.2660 
   62.1250   -18.5310   102.3850     3.5170     4.1930     3.7100     2.2510 
   62.2500   -19.2970   103.7990     3.6630     4.3460     3.8430     2.2290 
   62.3750   -20.1990   101.6780     3.9500     4.6470     4.4840     2.2220 
   62.5000   -20.9390    94.1060     4.3320     5.0480     6.7150     2.2350 
   62.6250   -21.5540    84.7730     4.7930     5.5330     8.2550     2.2290 
   62.7500   -22.2240    77.6680     5.1720     5.9310     6.7870     2.1750 
