~V
VERS. 2.00: Ver 2.00
~W
STRT.M 50.0000:
STOP.M 300.0000:
STEP.M 0.1250:
NULL. -999.2500:
UWI. F12002:
~C
DEPT.M :
SP.MV :
GR.API :
RI. :
RML.OHMM :
RXO.OHMM :
DEN.GM/CC :
~A
# ...
   62.8750   -79.3010    59.1280    10.1990    11.3110    12.8780     1.9370 
   63.0000   -79.2160    60.9550     9.8440    10.9340    11.8070     1.9400 
   63.1250   -79.0630    64.2540     9.9000    10.9940    12.8430     1.9330 
   63.2500   -78.8870    65.8280    10.5450    11.6780    14.7970     1.9180 
   63.3750   -78.7090    63.6130    11.6040    12.8000    16.2770     1.9000 
   63.5000   -78.5270    61.1160    12.1110    13.3380    17.9320     1.8940 
   63.6250   -78.3070    62.6930    11.7070    12.9100    18.1910     1.9200 
   63.7500   -78.0210    67.3980    10.5240    11.6560    14.8080     1.9730 
   63.8750   -77.6640    69.7570     8.8780     9.9110    10.5230     2.0170 
   64.0000   -77.2870    67.9750     7.7360     8.7000     9.7600     2.0310 
   64.1250   -76.9800    64.4860     7.0450     7.9680    10.9440     2.0330 
   64.2500   -76.8080    62.0760     6.7120     7.6140    11.4440     2.0400 
   64.3750   -76.7880    61.1710     6.5280     7.4200    11.7210     2.0470 
   64.5000   -76.8390    62.3620     6.3900     7.2730    11.4180     2.0490 
   64.6250   -76.8530    65.0690     6.1280     6.9960    10.2280     2.0480 
   64.7500   -76.7500    66.2260     5.8580     6.7100     9.2450     2.0340 
   64.8750   -76.4780    64.8520     5.6880     6.5290     9.0340     2.0040 
   65.0000   -76.0260    63.1790     5.7080     6.5510     9.2170     1.9830 
   65.1250   -75.3260    62.7880     6.1230     6.9900     9.3610     2.0130 
   65.2500   -74.3070    62.4470     6.7280     7.6310     9.5690     2.1190 
   65.3750   -72.8210    61.7120     7.1770     8.1070    11.5440     2.2800 
   65.5000   -70.8130    61.0300     7.1260     8.0540    14.7930     2.3920 
   65.6250   -68.2440    63.1100     6.4250     7.3100    13.4960     2.3750 
   65.7500   -65.2950    68.1260     5.3740     6.1970     7.9230     2.2880 
   65.8750   -62.2400    73.8590     4.3390     5.1000     4.7860     2.2220 
   66.0000   -59.4250    78.7240     3.5580     4.2720     4.5080     2.2010 
   66.1250   -57.1770    81.2750     3.1300     3.8180     4.6930     2.2020 
   66.2500   -55.5970    82.2560     3.0590     3.7420     4.7310     2.2130 
   66.3750   -54.7300    82.4370     3.2200     3.9130     4.5470     2.2150 
   66.5000   -54.4240    80.9560     3.5320     4.2440     4.5750     2.1920 
   66.6250   -54.5940    76.6170     4.0440     4.7860     5.1560     2.1540 
   66.7500   -55.0970    71.2460     4.6190     5.3960     6.3770     2.1380 
   66.8750   -55.8360    67.8630     5.0610     5.8650     7.6630     2.1700 
   67.0000   -56.6300    67.7240     5.2080     6.0200     7.8930     2.2210 
   67.1250   -57.2410    70.4590     4.9770     5.7760     6.5720     2.2470 
   67.2500   -57.4430    75.3700     4.5110     5.2810     5.0130     2.2480 
   67.3750   -57.0330    81.3020     4.0280     4.7690     4.4920     2.2510 
   67.5000   -56.0640    85.0290     3.6900     4.4120     4.4990     2.2580 
   67.6250   -54.6820    84.5070     3.5580     4.2710     4.4260     2.2570 
   67.7500   -53.1770    82.6610     3.5710     4.2850     4.4000     2.2480 
   67.8750   -51.7820    83.7940     3.6090     4.3250     4.4210     2.2430 
   68.0000   -50.6180    84.7060     3.6150     4.3320     4.2910     2.2470 
   68.1250   -49.7330    83.3740     3.5790     4.2930     4.0860     2.2540 
   68.2500   -49.0750    80.3030     3.4800     4.1890     4.0630     2.2580 
   68.3750   -48.6140    78.5590     3.3180     4.0170     4.2760     2.2500 
   68.5000   -48.3000    77.6680     3.1290     3.8160     4.4410     2.2260 
   68.6250   -48.1120    79.8500     3.0640     3.7480     4.1940     2.2020 
   68.7500   -48.0080    83.3600     3.1770     3.8670     3.6510     2.2160 
   68.8750   -47.9440    84.2040     3.4430     4.1490     4.3610     2.2800 
   69.0000   -47.8620    83.3440     3.8230     4.5530    10.0870     2.3330 
   69.1250   -47.7260    84.7700     4.2550     5.0100    14.6330     2.3120 
   69.2500   -47.5470    87.8830     4.5270     5.2980    10.4530     2.2410 
   69.3750   -47.3760    88.5990     4.5300     5.3020     6.1150     2.1860 
   69.5000   -47.2680    87.9220     4.3160     5.0750     5.4580     2.1750 
   69.6250   -47.2560    88.1490     4.0140     4.7550     5.0490     2.1900 
   69.7500   -47.3020    90.0690     3.9620     4.7000     4.8670     2.2100 
   69.8750   -47.3470    91.5720     4.1830     4.9340     4.8000     2.2390 
   70.0000   -47.3500    92.4260     4.4960     5.2650     5.5680     2.2730 
   70.1250   -47.3160    93.3510     4.7970     5.5850     7.3350     2.2910 
   70.2500   -47.2990    93.0260     4.9720     5.7700     8.1070     2.2760 
   70.3750   -47.3700    89.7360     4.9320     5.7280     6.8940     2.2420 
   70.5000   -47.5630    86.5220     4.7380     5.5220     5.5310     2.2150 
   70.6250   -47.8840    86.8770     4.4660     5.2340     5.3940     2.2030 
   70.7500   -48.2800    88.9210     4.2460     5.0000     5.8100     2.1910 
   70.8750   -48.6810    89.3790     4.1060     4.8520     5.8280     2.1800 
   71.0000   -49.0190    89.4010     3.9970     4.7370     5.4980     2.1750 
   71.1250   -49.2460    90.7880     3.9340     4.6700     5.4180     2.1760 
   71.2500   -49.3860    89.8810     4.2170     4.9700     5.4240     2.1860 
   71.3750   -49.5040    84.5390     4.9570     5.7550     5.2930     2.2260 
   71.5000   -49.6880    76.4820     6.0220     6.8830     7.3150     2.3110 
   71.6250   -50.0110    68.8130     7.1020     8.0280    11.5810     2.4120 
   71.7500   -50.4810    63.4630     7.6480     8.6070    12.7950     2.4460 
   71.8750   -51.0620    62.9080     7.5250     8.4760     9.5150     2.3670 
   72.0000   -51.6710    66.1460     6.7530     7.6580     6.2980     2.2450 
   72.1250   -52.2240    71.1610     5.6950     6.5370     5.4670     2.1740 
   72.2500   -52.6720    75.7800     4.8720     5.6640     5.4960     2.1650 
   72.3750   -52.9810    78.7390     4.5000     5.2700     5.3380     2.1800 
   72.5000   -53.1560    79.2780     4.5620     5.3360     5.2120     2.1910 
   72.6250   -53.1810    78.7380     4.7830     5.5700     5.1110     2.1980 
   72.7500   -53.0780    80.5760     4.9870     5.7870     5.2680     2.1960 
   72.8750   -52.8840    83.1500     5.1460     5.9550     5.4640     2.1810 
   73.0000   -52.6880    85.0750     5.2490     6.0640     5.3250     2.1590 
   73.1250   -52.5840    84.2500     5.2750     6.0920     5.3600     2.1420 
   73.2500   -52.6170    81.4860     5.2470     6.0620     5.7580     2.1320 
   73.3750   -52.7920    80.2040     5.1620     5.9720     6.4350     2.1250 
   73.5000   -53.0450    80.8150     5.0730     5.8770     7.1520     2.1220 
   73.6250   -53.2890    82.0180     5.1060     5.9130     7.3630     2.1230 
   73.7500   -53.4300    81.1640     5.4200     6.2450     7.1750     2.1360 
   73.8750   -53.3670    79.3900     6.0520     6.9150     7.3970     2.1850 
   74.0000   -53.0680    75.6080     6.7960     7.7040     9.5150     2.2500 
   74.1250   -52.5330    71.1510     7.3700     8.3120    12.4310     2.2700 
   74.2500   -51.8500    70.2740     7.4360     8.3820    11.9730     2.2240 
   74.3750   -51.1110    73.1290     6.8940     7.8080     8.8380     2.1610 
   74.5000   -50.3960    76.1050     6.0930     6.9590     7.0430     2.1380 
   74.6250   -49.7360    78.4300     5.3120     6.1310     6.5900     2.1530 
   74.7500   -49.0940    81.8770     4.8350     5.6260     6.1280     2.1750 
   74.8750   -48.4010    85.0260     4.6730     5.4530     5.9490     2.1930 
   75.0000   -47.6200    86.8770     4.6230     5.4010     5.9870     2.2080 
   75.1250   -46.7770    90.1640     4.5980     5.3740     5.7270     2.2200 
   75.2500   -45.9740    93.4050     4.5560     5.3290     5.5070     2.2240 
   75.3750   -45.3640    94.6450     4.5020     5.2720     5.4090     2.2250 
   75.5000   -45.0570    92.9650     4.4570     5.2240     5.1470     2.2240 
   75.6250   -45.1720    90.2430     4.4350     5.2010     4.9940     2.2130 
