~V
VERS. 2.00: Ver 2.00
~W
STRT.M 50.0000:
STOP.M 193.0000:
STEP.M 0.1250:
NULL. -999.2500:
UWI. F12006:
~C
DEPT.M :
SP.MV :
GR.API :
RI. :
RML.OHMM :
RXO.OHMM :
DEN.GM/CC :
~A
# ...
  178.7500   -30.6930    84.9730     8.0570     8.9600    10.3470     2.3010 
  178.8750   -30.6700    85.1480     8.2070     9.1170    11.0610     2.3090 
  179.0000   -30.6640    85.5100     8.3880     9.3070    12.0800     2.3110 
  179.1250   -30.6740    85.2460     8.5490     9.4760    12.1720     2.3040 
  179.2500   -30.6890    85.8960     8.6860     9.6200    10.9240     2.2930 
  179.3750   -30.7020    89.3110     8.7180     9.6540    10.2320     2.2890 
  179.5000   -30.7090    93.5160     8.7010     9.6360    10.3770     2.2890 
  179.6250   -30.7120    94.5280     8.7200     9.6560    10.8920     2.2970 
  179.7500   -30.7130    92.3230     8.8400     9.7820    12.4900     2.3140 
  179.8750   -30.7130    91.1580     9.1490    10.1060    14.4610     2.3330 
  180.0000   -30.7130    92.3760     9.5790    10.5570    14.5210     2.3350 
  180.1250   -30.7130    93.2250    10.0540    11.0560    13.9590     2.3290 
  180.2500   -30.7130    92.4660    10.2220    11.2330    17.3750     2.3180 
  180.3750   -30.7130    91.3560     9.7250    10.7120    19.1440     2.2910 
  180.5000   -30.7130    89.3830     8.7410     9.6780    13.1880     2.2650 
  180.6250   -30.7130    84.3180     7.4700     8.3430     7.9620     2.2720 
  180.7500   -30.7130    76.3550     6.4430     7.2660     7.1340     2.2860 
  180.8750   -30.7130    68.7040     5.8250     6.6160     6.4950     2.2670 
  181.0000   -30.7130    62.7890     5.5290     6.3060     5.8430     2.2440 
  181.1250   -30.7130    59.9120     5.4750     6.2480     5.6630     2.2650 
  181.2500   -30.7130    59.2790     5.5360     6.3120     5.7940     2.3040 
  181.3750   -30.7130    59.3350     5.5960     6.3760     6.1910     2.3220 
  181.5000   -30.7130    58.7270     5.5600     6.3380     6.2850     2.3160 
  181.6250   -30.7130    57.5990     5.4480     6.2200     5.8450     2.2960 
  181.7500   -30.7130    56.8390     5.3090     6.0750     5.4790     2.2720 
  181.8750   -30.7130    57.3320     5.1660     5.9240     5.4770     2.2630 
  182.0000   -30.7130    58.6050     4.9730     5.7220     5.1080     2.2700 
  182.1250   -30.7130    59.6100     4.7950     5.5340     4.7690     2.2790 
  182.2500   -30.7130    59.6790     4.6680     5.4010     4.8880     2.2790 
  182.3750   -30.7130    59.3950     4.7000     5.4350     4.7860     2.2810 
  182.5000   -30.7130    58.7600     4.8700     5.6140     5.5750     2.2980 
  182.6250   -30.7130    58.0370     5.1230     5.8790    14.7140     2.3220 
  182.7500   -30.7130    57.4660     5.4090     6.1790    27.6150     2.3330 
  182.8750   -30.7130    57.5550     5.6590     6.4420    24.2930     2.3220 
  183.0000   -30.7130    58.1430     5.8170     6.6080    10.6870     2.2980 
  183.1250   -30.7130    58.8390     5.8390     6.6310     4.8240     2.2640 
  183.2500   -30.7130    59.2630     5.7860     6.5750     4.3490     2.2350 
  183.3750   -30.7130    59.2400     5.7600     6.5480     4.4750     2.2300 
  183.5000   -30.7130    59.2760     5.7870     6.5770     5.3120     2.2580 
  183.6250   -30.7130    59.7710     5.8480     6.6410     6.3690     2.3060 
  183.7500   -30.7130    60.3140     5.8820     6.6760     7.6650     2.3540 
  183.8750   -30.7130    60.2470     5.8890     6.6830     9.1710     2.3810 
  184.0000   -30.7130    60.2580     5.8810     6.6750     9.8640     2.3750 
  184.1250   -30.7130    61.0890     5.8740     6.6680     9.0800     2.3560 
  184.2500   -30.7130    61.7370     5.8720     6.6660     8.5470     2.3640 
  184.3750   -30.7130    61.3080     5.8770     6.6700     9.3070     2.3970 
  184.5000   -30.7130    60.6020     5.8800     6.6740     9.7740     2.4130 
  184.6250   -30.7130    60.6570     5.8840     6.6790     9.4960     2.4010 
  184.7500   -30.7130    60.2810     5.8900     6.6850     9.0450     2.3900 
  184.8750   -30.7130    58.8000     5.8980     6.6920     8.7510     2.3910 
  185.0000   -30.7130    58.1600     5.9030     6.6980     9.2490     2.3890 
  185.1250   -30.7130    59.0720     5.9030     6.6980     9.6540     2.3810 
  185.2500   -30.7130    60.1520     5.9030     6.6980     8.9600     2.3750 
  185.3750   -30.7130    59.8410     5.9030     6.6990     8.3090     2.3740 
  185.5000   -30.7130    59.1050     5.9040     6.6990     7.9390     2.3740 
  185.6250   -30.7130    58.9390     5.9040     6.6990     7.5150     2.3740 
  185.7500   -30.7130    58.9450     5.9040     6.6990     7.3680     2.3720 
  185.8750   -30.7130    58.9530     5.9030     6.6980     7.4460     2.3610 
  186.0000   -30.7130    58.9510     5.9020     6.6980     7.3920     2.3410 
  186.1250   -30.7130    58.9510     5.9020     6.6970     6.9150     2.3180 
  186.2500   -30.7130    58.9510     5.9020     6.6970     6.5640     2.3010 
  186.3750   -30.7130    58.9510     5.9020     6.6970     6.3070     2.2950 
  186.5000   -30.7130    58.9510     5.9020     6.6970     5.6420     2.3030 
  186.6250   -30.7130    58.9510     5.9020     6.6970     5.1390     2.3350 
  186.7500   -30.7130    58.9510     5.9020     6.6970     5.5220     2.3700 
  186.8750   -30.7130    58.9510     5.9020     6.6970     6.6550     2.3850 
  187.0000   -30.7130    58.9510     5.9020     6.6980     7.6690     2.3810 
  187.1250   -30.7130    58.9510     5.9020     6.6970     8.1070     2.3750 
  187.2500   -30.7130    58.9510     5.9030     6.6980     8.4070     2.3750 
  187.3750   -30.7130    58.9510     5.9020     6.6970     8.9810     2.3740 
  187.5000   -30.7130    58.9510     5.9020     6.6970     9.2300     2.3690 
  187.6250   -30.7130    58.9510     5.9010     6.6960     8.6480     2.3560 
  187.7500   -30.7130    58.9510     5.9000     6.6950     8.2550     2.3420 
  187.8750   -30.7130    58.9510     5.8990     6.6940     9.3740     2.3360 
  188.0000   -30.7130    58.9510     5.8980     6.6930    10.7420     2.3260 
  188.1250   -30.7130    58.9510     5.8970     6.6920    10.0570     2.2930 
  188.2500   -30.7130    58.9510     5.8970     6.6920     8.2250     2.2360 
  188.3750   -30.7130    58.9510     5.8970     6.6920     7.4020     2.1740 
  188.5000   -30.7130    58.9510     5.8970     6.6920     7.5720     2.1340 
  188.6250   -30.7130    58.9510     5.8970     6.6920     7.3800     2.1170 
  188.7500   -30.7130    58.9510     5.8970     6.6920     7.1250     2.1110 
  188.8750   -30.7130    58.9510     5.8970     6.6920     7.6610     2.1070 
  189.0000   -30.7130    58.9510     5.8970     6.6920     7.9710     2.1060 
  189.1250   -30.7130    58.9510     5.8970     6.6920     7.5770     2.1090 
  189.2500   -30.7130    58.9510     5.8970     6.6920     7.2710     2.1120 
  189.3750   -30.7130    58.9510     5.8970     6.6920     7.2370     2.1140 
  189.5000   -30.7130    58.9510     5.8970     6.6920     7.2370     2.1160 
  189.6250   -30.7130    58.9510     5.8970     6.6920     7.2370     2.1180 
  189.7500   -30.7130    58.9510     5.8970     6.6920     7.2360     2.1200 
  189.8750   -30.7130    58.9510     5.8970     6.6920     7.2360     2.1180 
  190.0000   -30.7130    58.9510     5.8970     6.6920     7.2350     2.1160 
  190.1250   -30.7130    58.9510     5.8970     6.6920     7.2350     2.1160 
  190.2500   -30.7130    58.9510     5.8970     6.6920     7.2350     2.1150 
  190.3750   -30.7130    58.9510     5.8970     6.6920     7.2350     2.1120 
  190.5000   -30.7130    58.9510     5.8970     6.6920     7.2350     2.1110 
  190.6250   -30.7130    58.9510     5.8970     6.6920     7.2340     2.1090 
  190.7500   -30.7130    58.9510     5.8970     6.6920     7.2340     2.1040 
  190.8750   -30.7130    58.9510     5.8970     6.6920     7.2340     2.1010 
  191.0000   -30.7130    58.9510     5.8970     6.6920     7.2330     2.1010 
  191.1250   -30.7130    58.9510     5.8970     6.6920     7.2330     2.1010 
  191.2500   -30.7130    58.9510     5.8970     6.6920     7.2330     2.0970 
  191.3750   -30.7130    58.9510     5.8970     6.6920     7.2330     2.0920 
  191.5000   -30.7130    58.9510     5.8970     6.6920     7.2320     2.0900 
