~V
VERS. 2.00: Ver 2.00
~W
STRT.M 50.0000:
STOP.M 300.0000:
STEP.M 0.1250:
NULL. -999.2500:
UWI. F12002:
~C
DEPT.M :
SP.MV :
GR.API :
RI. :
RML.OHMM :
RXO.OHMM :
DEN.GM/CC :
~A
# ...
  217.3750   -28.0080    36.4700     4.9700     5.7680     5.4470     2.3570 
  217.5000   -28.0080    37.4910     5.0660     5.8690     5.5080     2.3650 
  217.6250   -28.4000    37.9750     5.1370     5.9450     5.6930     2.3790 
  217.7500   -28.3400    38.6760     5.1800     5.9910     5.8500     2.3910 
  217.8750   -28.2880    38.6850     5.1940     6.0060     5.7290     2.3930 
  218.0000   -28.2400    37.7760     5.1940     6.0060     5.6210     2.3880 
  218.1250   -28.1930    38.5040     5.1810     5.9920     5.6220     2.3780 
  218.2500   -28.1410    41.0420     5.1500     5.9590     5.5810     2.3730 
  218.3750   -28.0690    42.5140     5.0870     5.8920     5.6020     2.3790 
  218.5000   -27.9700    42.4450     4.9860     5.7850     5.7420     2.3860 
  218.6250   -27.8470    42.7470     4.8280     5.6180     5.6720     2.3760 
  218.7500   -27.7200    42.9800     4.6370     5.4160     5.2810     2.3380 
  218.8750   -27.6120    41.3880     4.4830     5.2520     4.7280     2.2890 
  219.0000   -27.5410    41.4170     4.4240     5.1900     4.1640     2.2570 
  219.1250   -27.5160    45.8770     4.5400     5.3130     4.0090     2.2770 
  219.2500   -27.5230    53.3360     4.8210     5.6100     4.3420     2.3300 
  219.3750   -27.5390    60.3720     5.2160     6.0280     5.1600     2.3750 
  219.5000   -27.5440    64.5710     5.6350     6.4740     6.3220     2.3920 
  219.6250   -27.5290    65.7280     5.9860     6.8450     7.1720     2.3900 
  219.7500   -27.5050    65.6740     6.1780     7.0490     7.6100     2.3900 
  219.8750   -27.4890    66.0260     6.1820     7.0530     7.8240     2.3920 
  220.0000   -27.4890    65.1160     6.0740     6.9380     7.6340     2.3880 
  220.1250   -27.5060    63.6690     5.9120     6.7660     7.2380     2.3720 
  220.2500   -27.5290    63.9560     5.7680     6.6140     7.0700     2.3590 
  220.3750   -27.5370    66.4900     5.6560     6.4950     7.1030     2.3580 
  220.5000   -27.5110    68.6050     5.5900     6.4250     7.1300     2.3590 
  220.6250   -27.4280    68.6060     5.5600     6.3930     6.8930     2.3500 
  220.7500   -27.2890    68.5620     5.5470     6.3790     6.5650     2.3330 
  220.8750   -27.0980    69.4960     5.5380     6.3700     6.7140     2.3180 
  221.0000   -26.8690    69.9720     5.5670     6.4010     7.1070     2.3130 
  221.1250   -26.6120    68.5700     5.6980     6.5400     7.1380     2.3140 
  221.2500   -26.3400    66.7100     5.8910     6.7450     7.0250     2.3080 
  221.3750   -26.0680    68.3050     6.1170     6.9840     7.4280     2.2910 
  221.5000   -25.8100    71.2690     6.3780     7.2610     8.1270     2.2710 
  221.6250   -25.5730    71.5030     6.6600     7.5600     8.4280     2.2660 
  221.7500   -25.3570    68.6440     6.9910     7.9110     8.3260     2.2730 
  221.8750   -25.1680    65.6750     7.4150     8.3600     8.5860     2.2860 
  222.0000   -25.0060    63.5480     7.9980     8.9770     9.5840     2.2900 
  222.1250   -24.8790    62.8380     8.8010     9.8290    10.6410     2.2880 
  222.2500   -24.7890    63.5460     9.5800    10.6550    12.3770     2.2940 
  222.3750   -24.7400    64.1840    10.1300    11.2380    15.7970     2.3120 
  222.5000   -24.7260    63.1700    10.2470    11.3620    16.4100     2.3200 
  222.6250   -24.7380    62.4640     9.9090    11.0040    12.6880     2.3100 
  222.7500   -24.7640    64.1540     9.4000    10.4640    10.4180     2.3010 
  222.8750   -24.8010    67.3020     8.9940    10.0330    10.0030     2.3000 
  223.0000   -24.8520    69.2060     8.8580     9.8900     9.7840     2.2980 
  223.1250   -24.9180    69.1690     9.1270    10.1740    10.4970     2.2990 
  223.2500   -24.9980    69.0050     9.6790    10.7600    11.9870     2.3130 
  223.3750   -25.0910    68.1890    10.2530    11.3680    13.4890     2.3340 
  223.5000   -25.1940    65.3440    10.6550    11.7940    14.0450     2.3460 
  223.6250   -25.3030    62.1410    10.7320    11.8750    13.7680     2.3410 
  223.7500   -25.4060    62.6960    10.5090    11.6390    12.7210     2.3200 
  223.8750   -25.4950    66.3210    10.2280    11.3420    11.5800     2.2830 
  224.0000   -25.5680    67.6160    10.0830    11.1880    11.1270     2.2460 
  224.1250   -25.6310    64.1020    10.2610    11.3760    11.3170     2.2290 
  224.2500   -25.6940    59.5370    10.6260    11.7640    12.6800     2.2250 
  224.3750   -25.7700    58.1440    10.9310    12.0870    13.9570     2.2220 
  224.5000   -25.8630    58.8810    10.9460    12.1030    13.8700     2.2240 
  224.6250   -25.9750    59.8600    10.6470    11.7860    12.8480     2.2410 
  224.7500   -26.1000    62.1590    10.2080    11.3210    11.1120     2.2570 
  224.8750   -26.2330    66.0730     9.8140    10.9030    10.2100     2.2530 
  225.0000   -26.3630    68.2570     9.6250    10.7030    10.6870     2.2350 
  225.1250   -26.4810    66.1910     9.7070    10.7900    10.9780     2.2210 
  225.2500   -26.5800    63.1120     9.9720    11.0710    10.9530     2.2200 
  225.3750   -26.6580    62.8870    10.2860    11.4030    11.2620     2.2300 
  225.5000   -26.7230    65.2550    10.5090    11.6400    11.6290     2.2410 
  225.6250   -26.7890    66.9840    10.5730    11.7070    11.5700     2.2440 
  225.7500   -26.8620    65.2460    10.6280    11.7650    11.0620     2.2400 
  225.8750   -26.9320    62.2560    10.9080    12.0630    10.7640     2.2370 
  226.0000   -26.9830    60.3120    11.5250    12.7160    11.2100     2.2440 
  226.1250   -26.9990    58.4230    12.5850    13.8400    15.0470     2.2790 
  226.2500   -26.9850    55.1690    14.0410    15.3830    20.0990     2.3330 
  226.3750   -26.9530    53.1110    15.9140    17.3690    20.6000     2.3520 
  226.5000   -26.9250    53.6880    17.7080    19.2710    19.9780     2.3060 
  226.6250   -26.9140    55.9320    19.1120    20.7580    20.9140     2.2290 
  226.7500   -26.9220    56.1900    19.9380    21.6340    21.4370     2.1840 
  226.8750   -26.9480    54.2360    20.4360    22.1620    21.7160     2.1800 
  227.0000   -26.9910    52.7070    21.1100    22.8770    21.9360     2.1770 
  227.1250   -27.0580    53.8640    22.0380    23.8600    24.5820     2.1650 
  227.2500   -27.1540    55.3570    23.0000    24.8800    36.9950     2.1570 
  227.3750   -27.2880    55.7900    23.5910    25.5070    46.6750     2.1530 
  227.5000   -27.4540    55.4510    23.8010    25.7290    38.0730     2.1490 
  227.6250   -27.6510    56.4300    23.8480    25.7790    27.3220     2.1470 
  227.7500   -27.8730    57.1280    23.9070    25.8420    24.5170     2.1510 
  227.8750   -28.1110    57.2300    24.2810    26.2380    25.6810     2.1510 
  228.0000   -28.3520    57.6970    25.1530    27.1620    29.1120     2.1400 
  228.1250   -28.5800    59.9140    26.4640    28.5520    31.2720     2.1270 
  228.2500   -28.7900    60.7390    27.6080    29.7640    31.7770     2.1230 
  228.3750   -28.9840    57.9090    28.0420    30.2250    32.0100     2.1240 
  228.5000   -29.1690    54.0710    27.7220    29.8850    31.9050     2.1280 
  228.6250   -29.3430    51.8150    26.9380    29.0550    30.7470     2.1310 
  228.7500   -29.4980    51.3970    26.3080    28.3860    28.9650     2.1310 
  228.8750   -29.6200    51.6190    25.8140    27.8630    28.8400     2.1230 
  229.0000   -29.7010    52.1060    25.5940    27.6300    29.9230     2.1150 
  229.1250   -29.7390    53.7970    25.8010    27.8490    29.5350     2.1240 
  229.2500   -29.7520    55.8930    26.5120    28.6030    29.5100     2.1500 
  229.3750   -29.7620    57.2720    27.9490    30.1260    31.1790     2.1730 
  229.5000   -29.7880    57.5500    29.9140    32.2090    33.4860     2.1700 
  229.6250   -29.8450    56.3920    32.0290    34.4510    36.7340     2.1420 
  229.7500   -29.9350    54.0810    34.1170    36.6640    40.3280     2.1130 
  229.8750   -30.0520    51.5740    35.8510    38.5020    42.4440     2.1070 
  230.0000   -30.1790    51.0490    36.8040    39.5120    40.8530     2.1170 
  230.1250   -30.2930    51.3300    36.3820    39.0650    38.9220     2.1240 
