~V
VERS. 2.00: Ver 2.00
~W
STRT.M 50.0000:
STOP.M 247.0000:
STEP.M 0.1250:
NULL. -999.2500:
UWI. F12010:
~C
DEPT.M :
SP.MV :
GR.API :
RI. :
RML.OHMM :
RXO.OHMM :
DEN.GM/CC :
~A
# ...
  127.2500   -13.4580    61.0430     5.8850     6.6790     4.7570     2.1220 
  127.3750   -13.6640    63.3580     5.8410     6.6330     4.7600     2.1050 
  127.5000   -13.8960    64.3380     5.8130     6.6030     4.7810     2.0880 
  127.6250   -13.9810    63.5620     5.8140     6.6050     4.9100     2.0850 
  127.7500   -13.8990    61.5430     5.8380     6.6300     5.1120     2.0900 
  127.8750   -13.7960    60.0240     5.8750     6.6680     5.3330     2.0920 
  128.0000   -13.7970    60.4950     5.8970     6.6920     5.4040     2.0900 
  128.1250   -13.9380    63.7120     5.8830     6.6770     5.2380     2.0920 
  128.2500   -14.2690    66.3680     5.8420     6.6340     5.1310     2.0990 
  128.3750   -14.5980    66.1720     5.7840     6.5730     5.0480     2.1040 
  128.5000   -14.7230    64.5230     5.7270     6.5140     4.8960     2.1040 
  128.6250   -14.5640    62.6530     5.6940     6.4790     4.8510     2.0970 
  128.7500   -14.1030    59.7730     5.6910     6.4760     4.8680     2.0900 
  128.8750   -13.5500    57.3820     5.7250     6.5110     4.8700     2.0920 
  129.0000   -13.1090    57.1080     5.7790     6.5680     4.8560     2.1000 
  129.1250   -13.0820    59.1110     5.8040     6.5940     4.8170     2.1090 
  129.2500   -13.2850    61.9040     5.7650     6.5530     4.7780     2.1110 
  129.3750   -13.6570    64.6190     5.6400     6.4220     4.7310     2.1060 
  129.5000   -14.0990    67.0410     5.4710     6.2440     4.5470     2.1020 
  129.6250   -14.1430    67.7710     5.3130     6.0780     4.3310     2.1090 
  129.7500   -13.8110    68.1270     5.2370     5.9990     4.3770     2.1200 
  129.8750   -13.3820    69.4270     5.2580     6.0210     4.5090     2.1200 
  130.0000   -13.0960    70.1600     5.3140     6.0800     4.4990     2.1100 
  130.1250   -12.9630    68.2080     5.3870     6.1560     4.4880     2.1020 
  130.2500   -13.0180    65.1440     5.4460     6.2190     4.4780     2.1040 
  130.3750   -13.1350    62.9370     5.5130     6.2890     4.4350     2.1140 
  130.5000   -13.1740    62.7190     5.6340     6.4160     4.4000     2.1210 
  130.6250   -13.3060    62.9530     5.8610     6.6540     4.5970     2.1140 
  130.7500   -13.3940    61.8980     6.1560     6.9640     5.2670     2.1000 
  130.8750   -13.3520    60.0300     6.4520     7.2750     5.9980     2.0950 
  131.0000   -13.4310    59.7330     6.6360     7.4680     6.0430     2.1020 
  131.1250   -13.6960    61.9810     6.5430     7.3700     5.4210     2.1140 
  131.2500   -13.8820    63.7060     6.1600     6.9680     4.9040     2.1280 
  131.3750   -14.2310    64.2200     5.5610     6.3390     4.8150     2.1370 
  131.5000   -14.7740    65.5790     4.8420     5.5840     4.7150     2.1470 
  131.6250   -15.0320    70.1000     4.1990     4.9090     4.1810     2.1750 
  131.7500   -14.9370    77.6950     3.7320     4.4190     3.6480     2.2210 
  131.8750   -14.6940    84.8290     3.4620     4.1350     3.6200     2.2600 
  132.0000   -14.4040    88.9180     3.4570     4.1300     3.8340     2.2770 
  132.1250   -14.4740    88.5950     3.6140     4.2950     4.0280     2.2760 
  132.2500   -14.9770    85.0780     3.8690     4.5630     4.2310     2.2610 
  132.3750   -15.5960    80.5130     4.1000     4.8050     4.3960     2.2310 
  132.5000   -16.0900    78.9690     4.2670     4.9810     4.4540     2.2030 
  132.6250   -16.4540    80.6200     4.3770     5.0950     4.4670     2.1910 
  132.7500   -16.5270    81.1790     4.4390     5.1610     4.5210     2.1970 
  132.8750   -16.3130    81.3270     4.4980     5.2230     4.6770     2.2080 
  133.0000   -16.0250    84.1810     4.5670     5.2960     4.7800     2.2070 
  133.1250   -15.8860    87.4250     4.6600     5.3920     4.6910     2.1840 
  133.2500   -15.8930    85.2900     4.7560     5.4940     4.5590     2.1540 
  133.3750   -16.0910    77.6960     4.8230     5.5640     4.4670     2.1330 
  133.5000   -16.4760    70.5590     4.8510     5.5940     4.4530     2.1240 
  133.6250   -16.7860    66.9170     4.8640     5.6070     4.4750     2.1230 
  133.7500   -16.8020    65.9840     4.9090     5.6540     4.4760     2.1260 
  133.8750   -16.6320    67.2390     5.0620     5.8150     4.4850     2.1310 
  134.0000   -16.3750    70.6440     5.2940     6.0590     4.5570     2.1350 
  134.1250   -15.9640    73.4600     5.5890     6.3680     4.7940     2.1350 
  134.2500   -15.4730    73.7830     5.8670     6.6600     5.2290     2.1290 
  134.3750   -15.0830    71.9740     5.9400     6.7370     5.8030     2.1210 
  134.5000   -14.9470    71.5630     5.7600     6.5480     6.1670     2.1120 
  134.6250   -15.1180    72.6240     5.3890     6.1580     5.8200     2.1110 
  134.7500   -15.1940    74.6160     5.0000     5.7500     4.8320     2.1270 
  134.8750   -14.9370    78.0170     4.8670     5.6100     4.1310     2.1600 
  135.0000   -14.5500    80.9400     5.0370     5.7890     4.4480     2.2020 
  135.1250   -14.1010    79.6010     5.4630     6.2360     6.0920     2.2750 
  135.2500   -13.8620    75.1270     5.8070     6.5970     9.1630     2.3760 
  135.3750   -14.0090    73.1660     5.8440     6.6360    12.0660     2.4480 
  135.5000   -14.4490    75.8280     5.4720     6.2460    10.9120     2.4380 
  135.6250   -15.0690    80.5140     4.7610     5.4990     6.4600     2.3640 
  135.7500   -15.6290    85.7430     4.1510     4.8580     4.1940     2.2970 
  135.8750   -15.8620    89.4180     3.7830     4.4720     4.1620     2.2710 
  136.0000   -15.5230    90.6090     3.7840     4.4740     4.1680     2.2730 
  136.1250   -14.8590    91.1640     3.9910     4.6900     4.3300     2.2930 
  136.2500   -14.1230    91.2730     4.2600     4.9730     4.9750     2.3260 
  136.3750   -13.4470    88.8630     4.4480     5.1700     5.5280     2.3510 
  136.5000   -12.9060    84.8630     4.5200     5.2460     5.0630     2.3460 
  136.6250   -12.5480    83.6050     4.4550     5.1780     4.4080     2.3120 
  136.7500   -12.3020    83.9930     4.3170     5.0330     4.3330     2.2760 
  136.8750   -12.1630    83.6830     4.2000     4.9090     4.4230     2.2570 
  137.0000   -12.2650    83.9880     4.1960     4.9060     4.2860     2.2450 
  137.1250   -12.4820    84.5110     4.2570     4.9700     4.1190     2.2350 
  137.2500   -12.8510    83.4110     4.3070     5.0220     4.2170     2.2420 
  137.3750   -13.3940    81.4340     4.3080     5.0230     4.4330     2.2780 
  137.5000   -13.9400    80.1430     4.2470     4.9590     4.4610     2.3160 
  137.6250   -14.4880    79.9500     4.1430     4.8510     4.2870     2.3220 
  137.7500   -15.1810    79.8770     4.0160     4.7160     4.2530     2.2990 
  137.8750   -15.7120    82.3340     3.9060     4.6020     4.2670     2.2770 
  138.0000   -15.9000    85.0650     3.8250     4.5160     4.1790     2.2650 
  138.1250   -15.5930    86.6780     3.7670     4.4550     4.2160     2.2590 
  138.2500   -14.9200    87.5260     3.7660     4.4550     4.2230     2.2440 
  138.3750   -14.2150    88.1050     3.7900     4.4790     3.9930     2.2070 
  138.5000   -13.8920    88.9760     3.8530     4.5450     4.0600     2.1640 
  138.6250   -14.0090    90.0010     3.9920     4.6920     4.4760     2.1520 
  138.7500   -14.2820    90.6340     4.1780     4.8870     4.4300     2.1720 
  138.8750   -14.5430    91.2710     4.3560     5.0740     3.9630     2.1840 
  139.0000   -14.4860    92.3790     4.4580     5.1810     3.7550     2.1790 
  139.1250   -13.7990    95.1640     4.4130     5.1330     3.8440     2.1850 
  139.2500   -12.8720    96.7010     4.2070     4.9170     3.8210     2.2090 
  139.3750   -11.9340    94.9390     3.8920     4.5860     3.6520     2.2310 
  139.5000   -11.1360    91.1800     3.5450     4.2220     3.5890     2.2220 
  139.6250   -10.6760    88.3370     3.2020     3.8620     3.4890     2.1730 
  139.7500   -10.6240    88.3340     2.9710     3.6190     3.2750     2.1100 
  139.8750   -10.9590    91.1950     2.8970     3.5420     3.1790     2.0810 
  140.0000   -11.3360    93.4750     3.1280     3.7840     3.1880     2.1090 
