~V
VERS. 2.00: Ver 2.00
~W
STRT.M 50.0000:
STOP.M 178.0000:
STEP.M 0.1250:
NULL. -999.2500:
UWI. F12004:
~C
DEPT.M :
SP.MV :
GR.API :
RI. :
RML.OHMM :
RXO.OHMM :
DEN.GM/CC :
~A
# ...
  127.2500    99.4040    44.8820    10.2510    12.0150     8.2970     2.3930 
  127.3750    99.2960    46.3720     9.2740    10.8550     7.0150     2.3840 
  127.5000    99.0580    46.3860     8.6710    10.1230     6.7880     2.3840 
  127.6250    98.8410    44.8220     8.5140     9.9390     6.8310     2.3850 
  127.7500    98.6140    44.0150     8.8570    10.3680     6.7360     2.3850 
  127.8750    98.3480    45.4530     9.6030    11.3020     7.9930     2.3920 
  128.0000    98.0480    47.1680    10.6470    12.6010    10.7550     2.4020 
  128.1250    97.9260    48.0170    11.7340    13.9060    12.0800     2.4070 
  128.2500    98.0540    48.7180    12.4820    14.7570    11.8140     2.4060 
  128.3750    98.3850    48.9740    12.8240    15.0920    11.1870     2.4020 
  128.5000    98.7630    48.2070    12.6350    14.7890    10.0990     2.4000 
  128.6250    99.1230    47.1690    12.0500    14.0490     9.7640     2.3970 
  128.7500    99.5330    46.0030    11.4070    13.2930     9.8070     2.3890 
  128.8750    99.4190    44.7550    10.9830    12.8150     9.0620     2.3850 
  129.0000    99.3160    43.8990    10.6190    12.4110     8.8090     2.3900 
  129.1250    99.2500    43.3740    10.5540    12.4060     9.9270     2.4020 
  129.2500    99.1940    42.6940    10.7210    12.6550    10.4080     2.4120 
  129.3750    99.1260    43.0550    11.0440    13.0720     9.8600     2.4150 
  129.5000    99.1700    45.6210    11.5060    13.6300    10.4800     2.4180 
  129.6250    99.2400    49.4410    12.2410    14.4920    11.3290     2.4200 
  129.7500    99.2820    51.9400    13.2750    15.7220    11.2100     2.4190 
  129.8750    99.3790    53.8800    14.6100    17.3820    12.5170     2.4070 
  130.0000    99.2890    56.1910    16.1650    19.3830    15.5200     2.3850 
  130.1250    99.0800    56.9780    18.0680    21.8890    17.1930     2.3620 
  130.2500    98.8280    56.9950    19.3920    23.6320    18.3200     2.3540 
  130.3750    98.4880    57.9050    19.5860    23.9400    19.2140     2.3630 
  130.5000    98.2100    58.6730    18.9200    23.1250    16.9430     2.3770 
  130.6250    98.1390    56.3690    17.3540    21.1550    13.5470     2.3850 
  130.7500    97.9150    52.4620    15.9900    19.4360    13.7260     2.3900 
  130.8750    97.7800    48.9390    15.0580    18.2160    15.7410     2.3960 
  131.0000    97.5730    46.1560    14.4620    17.4050    14.7150     2.3980 
  131.1250    97.4360    45.7310    14.3590    17.2460    12.2140     2.3880 
  131.2500    97.3930    47.7580    14.6680    17.6460    11.3300     2.3830 
  131.3750    97.4760    49.5760    15.1170    18.2520    11.5660     2.3960 
  131.5000    97.6580    49.1580    14.7440    17.9150    12.6850     2.4270 
  131.6250    97.8290    48.4900    13.4450    16.0120    13.6820     2.4530 
  131.7500    97.8920    49.9310    11.3680    13.7560    11.0140     2.4360 
  131.8750    97.7650    53.1990     9.1140    11.1650     5.8290     2.3590 
  132.0000    97.4950    58.4690     7.4090     9.0040     3.4210     2.2780 
  132.1250    97.2760    63.3980     6.2990     7.5980     3.5250     2.2530 
  132.2500    97.1080    66.1320     5.7690     6.8700     3.7660     2.2700 
  132.3750    96.7640    66.3390     5.6620     6.6650     4.0740     2.2950 
  132.5000    96.3730    65.7230     5.8220     6.7210     4.6750     2.3140 
  132.6250    95.9340    65.3820     6.0500     6.8740     5.2300     2.3270 
  132.7500    95.5520    65.1470     6.2800     7.1610     5.5190     2.3320 
  132.8750    95.1770    65.1950     6.4900     7.6370     5.9550     2.3310 
  133.0000    94.8740    66.1900     6.7090     7.9950     6.3480     2.3320 
  133.1250    94.6040    66.9830     6.9670     8.2130     6.3900     2.3360 
  133.2500    94.3790    66.1560     7.2660     8.4520     6.3920     2.3370 
  133.3750    94.0960    65.3230     7.5710     8.7060     7.0240     2.3420 
  133.5000    93.7010    64.3010     7.8660     8.9480     7.5650     2.3520 
  133.6250    93.6530    62.7010     8.1110     9.1290     7.1840     2.3510 
  133.7500    93.4120    61.9790     8.2690     9.2010     7.1240     2.3330 
  133.8750    93.1220    64.4990     8.2890     9.1460     7.4120     2.3110 
  134.0000    92.9380    68.6910     8.2480     9.0050     7.2880     2.3070 
  134.1250    92.9330    70.4780     8.2150     8.9940     7.1840     2.3170 
  134.2500    93.0390    71.0950     8.3440     9.1230     7.4100     2.3240 
  134.3750    93.1680    72.0550     8.6440     9.5350     7.8380     2.3280 
  134.5000    93.3820    72.6450     8.9910    10.0520     8.0820     2.3280 
  134.6250    93.5700    72.0170     9.4190    10.5140     8.2430     2.3300 
  134.7500    93.7310    70.8070     9.9160    11.0020     8.6320     2.3300 
  134.8750    93.8670    68.6920    10.5340    11.5560     9.8320     2.3170 
  135.0000    93.8330    67.1100    11.1230    12.1950    11.7690     2.2930 
  135.1250    93.8280    67.0130    11.9150    13.0200    13.1680     2.2690 
  135.2500    93.9110    67.7030    13.0330    14.1100    13.8390     2.2690 
  135.3750    94.0010    67.3580    14.4200    15.6230    20.0370     2.2920 
  135.5000    94.1520    64.1710    16.2170    17.8140    29.2630     2.3150 
  135.6250    94.3250    59.4290    19.3500    21.1810    31.6500     2.3130 
  135.7500    94.4130    55.1740    23.9630    25.8690    37.5970     2.2790 
  135.8750    94.3600    52.6580    30.0980    31.5010    59.0260     2.2300 
  136.0000    94.2500    50.7290    37.0930    36.4210    75.2400     2.1890 
  136.1250    93.9740    48.6330    39.5030    38.3020    72.4080     2.1720 
  136.2500    93.5340    48.7290    37.2910    36.5260    64.4620     2.1760 
  136.3750    93.1170    52.6240    31.6560    32.1100    46.2910     2.2030 
  136.5000    92.7610    57.5240    25.2740    27.7960    22.3610     2.2490 
  136.6250    92.3560    60.1890    23.1200    26.4710    33.4010     2.2960 
  136.7500    92.0190    59.2560    25.5700    30.2370   100.8460     2.3160 
  136.8750    91.7420    55.1190    35.5230    42.6690   174.1310     2.2970 
  137.0000    91.4930    49.0160    60.1590    64.6050   193.0190     2.2560 
  137.1250    91.4150    43.8080    93.2440    91.7840   165.8550     2.2020 
  137.2500    91.2970    42.3850   118.1320   114.7880   129.7230     2.1440 
  137.3750    91.0910    44.4650   129.1640   126.2580   109.2720     2.1110 
  137.5000    90.8220    46.6960   122.8340   127.5290   106.7730     2.1110 
  137.6250    90.4340    48.3110   116.0740   124.6510   112.5320     2.1270 
  137.7500    89.8350    49.6050   114.9270   123.7020   117.1640     2.1320 
  137.8750    89.0820    50.7890   118.2270   126.0980   118.4450     2.1270 
  138.0000    88.1970    51.2930   122.4250   130.1310   121.3880     2.1180 
  138.1250    87.2610    50.8220   125.9240   134.4560   118.4600     2.1120 
  138.2500    86.2880    49.3630   129.0200   138.5910   107.0620     2.1110 
  138.3750    85.4930    48.5670   132.1520   142.6070   105.9550     2.1120 
  138.5000    85.0540    50.1290   135.5340   146.5890   116.8920     2.1100 
  138.6250    84.7150    52.2300   138.7810   150.3600   135.4440     2.1090 
  138.7500    84.4000    51.7930   141.4780   153.6150   146.9170     2.1100 
  138.8750    84.3080    48.8630   143.2800   156.0130   126.0880     2.1100 
  139.0000    84.2710    47.1960   144.4900   157.5760    92.4430     2.1030 
  139.1250    84.0880    48.1740   144.8530   158.6030    77.7630     2.0960 
  139.2500    83.8540    49.5980   145.8110   159.6800    93.1480     2.0940 
  139.3750    83.5890    49.5400   147.1330   161.0160   121.2310     2.0970 
  139.5000    83.3210    48.6200   149.1110   161.8550   131.8120     2.1010 
  139.6250    82.9740    47.9790   148.1890   159.0360   128.3800     2.1030 
  139.7500    82.6330    48.6010   144.4540   152.2740   126.3050     2.1090 
  139.8750    82.2940    49.5980   139.5820   146.3000   117.1360     2.1170 
  140.0000    82.1040    49.9500   136.3250   143.0140   102.7070     2.1230 
