~V
VERS. 2.00: Ver 2.00
~W
STRT.M 50.0000:
STOP.M 300.0000:
STEP.M 0.1250:
NULL. -999.2500:
UWI. F12002:
~C
DEPT.M :
SP.MV :
GR.API :
RI. :
RML.OHMM :
RXO.OHMM :
DEN.GM/CC :
~A
# ...
  178.7500   -37.1710    80.9510     5.7870     6.6340     7.1420     2.2780 
  178.8750   -37.1710    79.1850     6.0660     6.9300     7.2800     2.2950 
  179.0000   -37.1710    77.9930     6.2040     7.0770     7.1910     2.2960 
  179.1250   -37.1710    77.3130     6.1810     7.0520     6.8420     2.2770 
  179.2500   -37.1710    76.5370     6.0790     6.9430     6.5640     2.2600 
  179.3750   -37.1710    75.4760     5.9820     6.8410     6.5320     2.2590 
  179.5000   -37.1710    75.6790     5.9120     6.7670     6.6500     2.2610 
  179.6250   -37.4700    76.0630     5.8830     6.7370     6.5070     2.2620 
  179.7500   -37.5700    76.6320     5.8630     6.7150     6.1380     2.2620 
  179.8750   -38.3670    77.4230     5.8260     6.6750     6.0080     2.2570 
  180.0000   -38.4990    79.2280     5.7630     6.6080     6.3210     2.2450 
  180.1250   -38.9640    78.9620     5.6810     6.5210     6.8050     2.2320 
  180.2500   -39.1630    75.6630     5.7030     6.5450     7.1180     2.2270 
  180.3750   -39.3630    73.3380     6.1180     6.9850     7.3280     2.2310 
  180.5000   -39.5620    73.2990     7.1250     8.0520     7.4990     2.2380 
  180.6250   -40.3590    73.6400     9.0580    10.1020    12.6080     2.2330 
  180.7500   -40.7570    69.8380    12.6770    13.9370    23.0130     2.1930 
  180.8750   -41.4210    63.0370    18.4910    20.1010    27.8230     2.1370 
  181.0000   -42.3510    57.7750    25.5330    27.5650    26.7020     2.0990 
  181.1250   -42.6490    56.4320    31.8860    34.2990    27.0840     2.0880 
  181.2500   -43.6450    55.4730    35.9510    38.6080    28.1200     2.0800 
  181.3750   -43.7950    54.0130    37.0060    39.7260    27.9880     2.0690 
  181.5000   -44.3430    54.5310    36.4700    39.1580    26.5700     2.0720 
  181.6250   -45.2390    56.4880    35.4010    38.0260    22.9260     2.0850 
  181.7500   -45.6370    56.8180    34.6340    37.2120    19.7610     2.0940 
  181.8750   -45.8860    54.6820    34.4990    37.0690    20.9940     2.0930 
  182.0000   -45.9360    52.7100    35.3930    38.0170    26.5200     2.0890 
  182.1250   -46.6000    52.0360    37.1780    39.9090    33.3000     2.0900 
  182.2500   -46.8660    51.9690    39.2920    42.1500    37.6840     2.0900 
  182.3750   -47.1310    52.0370    41.3170    44.2960    40.6030     2.0820 
  182.5000   -47.1310    52.4420    42.5440    45.5960    43.0600     2.0710 
  182.6250   -47.1310    52.0210    43.2420    46.3360    43.7210     2.0750 
  182.7500   -47.1310    51.0780    44.1580    47.3070    44.1840     2.0940 
  182.8750   -47.1310    50.1770    45.5380    48.7710    42.8840     2.1090 
  183.0000   -46.8660    50.3580    47.7780    51.1440    42.5900     2.1050 
  183.1250   -46.3350    51.2810    50.9120    54.4670    51.9360     2.0850 
  183.2500   -46.0690    51.3560    53.7550    57.4810    63.4360     2.0620 
  183.3750   -45.5380    51.4980    53.1710    56.8620    65.2460     2.0470 
  183.5000   -44.7410    51.2720    48.7220    52.1460    60.4660     2.0470 
  183.6250   -44.1930    51.7320    41.5020    44.4920    48.8750     2.0570 
  183.7500   -43.4460    53.9140    33.7250    36.2480    31.2820     2.0720 
  183.8750   -42.9480    55.9230    28.5990    30.8150    20.9120     2.0880 
  184.0000   -42.3510    56.4050    25.4920    27.5220    19.8220     2.0980 
  184.1250   -41.7530    54.7050    24.0210    25.9620    20.0680     2.0960 
  184.2500   -40.7570    55.2870    23.6420    25.5610    19.9240     2.0890 
  184.3750   -40.2590    58.3220    24.2120    26.1650    19.6430     2.0840 
  184.5000   -39.9600    60.9070    25.1290    27.1370    19.4620     2.0870 
  184.6250   -39.4620    60.5020    26.5700    28.6650    21.5880     2.0950 
  184.7500   -38.8980    58.5820    28.7760    31.0020    25.2410     2.1030 
  184.8750   -38.1670    57.8040    32.1620    34.5920    28.9040     2.1010 
  185.0000   -37.9680    57.7980    37.4540    40.2010    35.8740     2.0910 
  185.1250   -37.5700    55.0220    43.7560    46.8810    44.3010     2.0980 
  185.2500   -36.7730    49.9430    50.0730    53.5780    54.4670     2.1650 
  185.3750   -36.7730    46.3720    52.9560    56.6330    72.5470     2.3070 
  185.5000   -36.7730    46.0740    51.4950    55.0840    81.8500     2.4610 
  185.6250   -36.7070    47.3520    46.4020    49.6860    66.6740     2.5450 
  185.7500   -36.3750    48.4290    39.0160    41.8570    46.7740     2.5460 
  185.8750   -36.3750    48.2330    32.8900    35.3630    36.1080     2.4980 
  186.0000   -36.3750    47.6680    28.7820    31.0090    29.5710     2.4250 
  186.1250   -36.3750    48.1440    27.9130    30.0880    25.6090     2.3380 
  186.2500   -36.3750    49.1430    29.5250    31.7970    26.3610     2.2840 
  186.3750   -37.1220    48.8650    32.7870    35.2550    34.4770     2.3210 
  186.5000   -37.0260    47.4480    36.3870    39.0700    46.0270     2.4210 
  186.6250   -37.0370    46.6700    36.1890    38.8600    49.6120     2.5130 
  186.7500   -37.1560    46.3130    32.1130    34.5400    43.8180     2.5470 
  186.8750   -37.3690    48.0980    24.4330    26.3990    35.8660     2.5040 
  187.0000   -37.6320    52.9490    16.4920    17.9810    23.6960     2.4050 
  187.1250   -37.8990    60.2380    11.7830    12.9900    11.4390     2.3050 
  187.2500   -38.1360    66.0840    10.3200    11.4390     8.2800     2.2770 
  187.3750   -38.3210    66.4820    10.9560    12.1140    14.9590     2.3340 
  187.5000   -38.4490    62.0210    13.1680    14.4580    23.7100     2.4070 
  187.6250   -38.5190    55.3880    16.3440    17.8250    22.6900     2.4330 
  187.7500   -38.5450    50.0890    19.3790    21.0420    20.0350     2.4180 
  187.8750   -38.5390    46.7920    21.5200    23.3120    25.1930     2.4100 
  188.0000   -38.5180    45.6380    22.8030    24.6710    29.5810     2.4320 
  188.1250   -38.4920    45.9690    23.5220    25.4340    27.7840     2.4700 
  188.2500   -38.4610    46.9100    23.8750    25.8080    24.6840     2.4940 
  188.3750   -38.4220    47.1330    23.8300    25.7600    25.2000     2.4830 
  188.5000   -38.3780    47.6230    23.3960    25.3000    25.5010     2.4460 
  188.6250   -38.3400    49.1270    23.2010    25.0930    25.5290     2.4060 
  188.7500   -38.3220    50.9650    23.5020    25.4120    26.4570     2.3860 
  188.8750   -38.3370    52.1760    23.9010    25.8360    26.2480     2.3920 
  189.0000   -38.3780    52.9600    24.3600    26.3210    27.0510     2.4140 
  189.1250   -38.4310    52.6590    24.8400    26.8300    27.1990     2.4420 
  189.2500   -38.4770    50.9460    25.1640    27.1740    25.6960     2.4630 
  189.3750   -38.4970    49.1470    25.1520    27.1610    26.3910     2.4670 
  189.5000   -38.4780    49.2580    24.8360    26.8260    28.0190     2.4570 
  189.6250   -38.4040    50.0650    24.2870    26.2450    26.7870     2.4460 
  189.7500   -38.2750    49.3540    23.9840    25.9230    25.2970     2.4480 
  189.8750   -38.0990    48.2750    24.1740    26.1250    25.7890     2.4740 
  190.0000   -37.9030    47.9150    24.7680    26.7540    27.4230     2.5100 
  190.1250   -37.7210    46.7170    25.4630    27.4910    31.2680     2.5370 
  190.2500   -37.5740    44.1300    26.1310    28.1980    35.6260     2.5340 
  190.3750   -37.4680    41.7190    26.7450    28.8500    36.6960     2.5010 
  190.5000   -37.3730    41.5790    27.1880    29.3190    33.4090     2.4740 
  190.6250   -37.2520    42.8970    27.4070    29.5510    31.9590     2.4850 
  190.7500   -37.0760    44.0770    27.7610    29.9270    35.5700     2.5240 
  190.8750   -36.8300    45.0960    28.6000    30.8160    36.0840     2.5570 
  191.0000   -36.5360    44.9350    29.6850    31.9660    33.6060     2.5670 
  191.1250   -36.2340    44.7190    30.9010    33.2550    36.7540     2.5710 
  191.2500   -35.9740    45.2370    31.8950    34.3090    42.2710     2.5800 
  191.3750   -35.8070    46.3100    32.1350    34.5630    42.0430     2.5940 
  191.5000   -35.7470    45.9660    31.3910    33.7750    40.4750     2.6050 
