~V
VERS. 2.00: Ver 2.00
~W
STRT.M 50.0000:
STOP.M 255.0000:
STEP.M 0.1250:
NULL. -999.2500:
UWI. F12008:
~C
DEPT.M :
SP.MV :
GR.API :
RI. :
RML.OHMM :
RXO.OHMM :
DEN.GM/CC :
~A
# ...
  191.6250   -24.7510    56.7360    92.4620    98.5100    91.3540     2.1110 
  191.7500   -24.9260    59.7160    88.7150    94.5380    94.6190     2.1020 
  191.8750   -25.0490    62.8650    80.6600    85.9990    90.5770     2.1110 
  192.0000   -25.0980    63.4890    70.5980    75.3340    73.0320     2.1260 
  192.1250   -25.0670    61.5510    62.2680    66.5050    51.9560     2.1340 
  192.2500   -25.0000    59.8160    57.4580    61.4050    38.8160     2.1270 
  192.3750   -24.9610    60.1470    57.1670    61.0970    36.2060     2.1150 
  192.5000   -25.0070    60.0850    62.0680    66.2920    41.2240     2.1190 
  192.6250   -25.1790    59.1650    71.2220    75.9960    54.4970     2.1470 
  192.7500   -25.4610    57.7490    82.7780    88.2450    65.9090     2.1780 
  192.8750   -25.8190    56.7150    94.6260   100.8040    72.8760     2.1810 
  193.0000   -26.2020    55.5400   102.2110   108.8440    87.6840     2.1520 
  193.1250   -26.5650    55.4500   105.3430   112.1640    92.0470     2.1120 
  193.2500   -26.8850    57.6250   105.0130   111.8140    76.6740     2.0860 
  193.3750   -27.1430    59.5670   102.6770   109.3380    66.8990     2.0790 
  193.5000   -27.3450    58.1970   100.5460   107.0790    69.2120     2.0840 
  193.6250   -27.4910    56.1780    99.0240   105.4660    72.2080     2.0960 
  193.7500   -27.5920    56.6850    98.7700   105.1960    75.4810     2.1070 
  193.8750   -27.6420    57.2230    99.8480   106.3390    90.4790     2.1200 
  194.0000   -27.6370    56.5290   101.2490   107.8230   107.8290     2.1360 
  194.1250   -27.5610    57.0580   101.9400   108.5570   106.6330     2.1510 
  194.2500   -27.4150    59.7290   102.0260   108.6470   109.2760     2.1520 
  194.3750   -27.2060    61.7210   101.5820   108.1770   115.0950     2.1440 
  194.5000   -26.9600    60.8640   101.2010   107.7740    98.6900     2.1370 
  194.6250   -26.6990    58.8300   100.7750   107.3210    88.4870     2.1320 
  194.7500   -26.4410    57.7000    99.9480   106.4450   107.6330     2.1220 
  194.8750   -26.1950    59.2490    98.0600   104.4440   133.7270     2.1030 
  195.0000   -25.9650    61.4600    95.0970   101.3030   133.3330     2.0780 
  195.1250   -25.7520    60.5130    91.4690    97.4580   119.7750     2.0560 
  195.2500   -25.5570    57.4820    87.7300    93.4930   114.5500     2.0450 
  195.3750   -25.3800    56.6630    84.2580    89.8130   102.4980     2.0470 
  195.5000   -25.2150    58.9340    81.7310    87.1350    90.6420     2.0550 
  195.6250   -25.0570    60.4550    80.8660    86.2180    88.9810     2.0690 
  195.7500   -24.9090    59.2320    81.2360    86.6100    84.1480     2.0880 
  195.8750   -24.7820    57.3900    82.6690    88.1290    78.0920     2.1060 
  196.0000   -24.6780    57.2310    84.9090    90.5040    84.9090     2.1170 
  196.1250   -24.5950    58.3610    86.8360    92.5470    93.5680     2.1140 
  196.2500   -24.5190    59.4820    87.5100    93.2600    90.4570     2.1060 
  196.3750   -24.4450    59.9680    86.6660    92.3660    89.6940     2.1110 
  196.5000   -24.3730    60.5680    85.1050    90.7120    90.4440     2.1470 
  196.6250   -24.3140    60.4270    85.1270    90.7350    79.4100     2.2050 
  196.7500   -24.2800    59.0450    87.7540    93.5190    74.2170     2.2400 
  196.8750   -24.2850    58.4720    93.7860    99.9130    84.0930     2.2110 
  197.0000   -24.3320    59.7160   103.2360   109.9300   105.8310     2.1490 
  197.1250   -24.4150    60.8900   114.1190   121.4660   136.8620     2.1090 
  197.2500   -24.5120    61.1610   123.3020   131.2000   152.3530     2.1040 
  197.3750   -24.5930    61.9290   126.2720   134.3480   149.2820     2.1090 
  197.5000   -24.6350    64.4290   122.4260   130.2710   141.0690     2.1110 
  197.6250   -24.6180    65.3470   114.9280   122.3230   127.6810     2.1050 
  197.7500   -24.5450    63.9420   108.2620   115.2580   112.0720     2.0960 
  197.8750   -24.4190    62.1110   104.2120   110.9640    98.6430     2.0930 
  198.0000   -24.2550    62.1500   102.8580   109.5300    92.6410     2.1060 
  198.1250   -24.0500    63.1950   102.6060   109.2630   103.2770     2.1210 
  198.2500   -23.8010    62.8480   102.6150   109.2720   119.5440     2.1220 
  198.3750   -23.4990    62.3460   102.2550   108.8900   115.9650     2.1100 
  198.5000   -23.1530    62.6110   100.7800   107.3270    99.1610     2.1020 
  198.6250   -22.7850    63.2250    98.2180   104.6110    91.1580     2.1020 
  198.7500   -22.4270    62.2080    95.7650   102.0110   100.6920     2.0970 
  198.8750   -22.1020    61.1940    94.1410   100.2900   117.7430     2.1000 
  199.0000   -21.8130    61.9550    83.8660    89.3980   116.7890     2.1640 
  199.1250   -21.5520    63.6000    65.6780    70.1180    98.0400     2.3190 
  199.2500   -21.2950    63.8840    44.3770    47.5390   124.7260     2.4740 
  199.3750   -21.0160    63.8310    24.5100    26.4810   162.5000     2.5000 
  199.5000   -20.7000    66.5380    15.2180    16.6310   106.4720     2.4110 
  199.6250   -20.3450    72.8880    10.6580    11.7980    28.6590     2.3290 
  199.7500   -19.9720    78.8920     8.3420     9.3420     7.5500     2.3160 
  199.8750   -19.6070    83.1110     7.5900     8.5460     7.4890     2.3270 
  200.0000   -19.2680    87.5710     7.4210     8.3660     7.2180     2.3160 
  200.1250   -18.9600    91.1370     7.7260     8.6890     6.7600     2.3000 
  200.2500   -18.6680    90.1510     8.1620     9.1520     6.6940     2.2980 
  200.3750   -18.3780    84.5710     8.5690     9.5830     7.2400     2.2990 
  200.5000   -18.0850    80.4800     8.8780     9.9110     8.1900     2.2960 
  200.6250   -17.7980    81.8700     9.0670    10.1110     9.3130     2.2920 
  200.7500   -17.5390    85.2740     9.4720    10.5400     9.7190     2.2840 
  200.8750   -17.3350    86.4770    10.5460    11.6790     9.1570     2.2680 
  201.0000   -17.2030    85.4430    12.6310    13.8890     9.2200     2.2550 
  201.1250   -17.1700    83.7020    16.5260    18.0170    15.3950     2.2440 
  201.2500   -17.2390    79.9230    22.9600    24.8380    28.6420     2.2220 
  201.3750   -17.4100    73.2860    30.4970    32.8270    40.0690     2.1960 
  201.5000   -17.6480    67.5160    36.8870    39.6000    45.1760     2.1850 
  201.6250   -17.9120    66.2850    39.8700    42.7620    44.8320     2.1920 
  201.7500   -18.1600    66.3800    39.6120    42.4890    40.2330     2.1980 
  201.8750   -18.3650    65.9150    37.9740    40.7520    36.3090     2.1950 
  202.0000   -18.5250    65.7890    36.7350    39.4390    35.6950     2.1890 
  202.1250   -18.6380    65.4100    36.5690    39.2630    36.1820     2.1890 
  202.2500   -18.7160    65.3800    37.2340    39.9690    37.4260     2.1930 
  202.3750   -18.7610    65.3820    38.5210    41.3330    39.6660     2.1990 
  202.5000   -18.7780    65.9630    40.5150    43.4460    41.4550     2.2060 
  202.6250   -18.7680    65.1130    42.9520    46.0290    42.7270     2.2030 
  202.7500   -18.7450    62.4310    46.2720    49.5480    43.7340     2.1880 
  202.8750   -18.7330    60.4440    50.7290    54.2730    46.7790     2.1720 
  203.0000   -18.7630    60.4340    56.6600    60.5590    54.1230     2.1690 
  203.1250   -18.8710    61.5980    63.2170    67.5100    64.1870     2.1730 
  203.2500   -19.0640    61.9960    69.0700    73.7140    72.5560     2.1780 
  203.3750   -19.3330    61.5000    73.2730    78.1690    72.8890     2.1990 
  203.5000   -19.6330    62.1870    75.2410    80.2560    70.1330     2.2420 
  203.6250   -19.9130    65.4160    75.4400    80.4660    68.5560     2.2830 
  203.7500   -20.1370    69.7580    74.5590    79.5330    63.9430     2.2970 
  203.8750   -20.2800    71.9350    73.6020    78.5180    57.0950     2.2770 
  204.0000   -20.3420    71.8760    72.9470    77.8240    50.1750     2.2450 
  204.1250   -20.3170    69.5240    74.1270    79.0740    47.0980     2.2250 
  204.2500   -20.2120    66.7450    77.0000    82.1200    45.8520     2.2410 
  204.3750   -20.0210    64.2310    81.5270    86.9190    48.1070     2.3100 
