~V
VERS. 2.00: Ver 2.00
~W
STRT.M 50.0000:
STOP.M 256.0000:
STEP.M 0.1250:
NULL. -999.2500:
UWI. F12009:
~C
DEPT.M :
SP.MV :
GR.API :
RI. :
RML.OHMM :
RXO.OHMM :
DEN.GM/CC :
~A
# ...
  101.5000    -1.8080    89.1060     4.2860     5.0000     6.3820     2.1150 
  101.6250    -2.4350    80.8960     4.9870     5.7370     7.0470     2.0970 
  101.7500    -3.3910    73.3550     5.6990     6.4840     7.1220     2.1030 
  101.8750    -4.2560    72.0080     6.1780     6.9870     7.2080     2.1040 
  102.0000    -4.8660    71.8370     6.3290     7.1460     7.2530     2.0880 
  102.1250    -5.2510    70.3980     6.2400     7.0520     7.1750     2.0750 
  102.2500    -5.5710    70.4700     6.1050     6.9110     6.8680     2.0810 
  102.3750    -5.8800    71.9920     5.9830     6.7820     6.6450     2.0960 
  102.5000    -6.1580    71.0870     5.8800     6.6740     6.7600     2.1040 
  102.6250    -6.3670    68.8630     5.8050     6.5950     6.9500     2.1030 
  102.7500    -6.5650    68.6500     5.7580     6.5460     6.9650     2.0980 
  102.8750    -6.5680    69.9650     5.7070     6.4920     6.9140     2.0920 
  103.0000    -6.1410    71.3890     5.6450     6.4270     7.0220     2.0900 
  103.1250    -5.3870    71.5390     5.5710     6.3500     7.1480     2.0880 
  103.2500    -4.6390    69.6430     5.4950     6.2700     7.0230     2.0850 
  103.3750    -4.2020    67.7540     5.4260     6.1970     6.7910     2.0810 
  103.5000    -4.2760    68.6000     5.3790     6.1470     6.8530     2.0760 
  103.6250    -4.7170    70.9010     5.3660     6.1350     7.1480     2.0700 
  103.7500    -5.3170    71.6590     5.4000     6.1700     7.2230     2.0610 
  103.8750    -5.8160    71.1760     5.4970     6.2720     7.2530     2.0570 
  104.0000    -5.9380    70.2160     5.6620     6.4450     7.4190     2.0630 
  104.1250    -5.5750    68.9200     5.8500     6.6420     7.4660     2.0740 
  104.2500    -5.0150    68.5640     6.0120     6.8120     7.5610     2.0800 
  104.3750    -4.4420    69.6970     6.0980     6.9020     7.7850     2.0770 
  104.5000    -3.9000    70.5350     6.0880     6.8920     7.8690     2.0720 
  104.6250    -3.5080    71.0580     6.0120     6.8120     7.7450     2.0690 
  104.7500    -3.2690    71.4710     5.9180     6.7140     7.6360     2.0730 
  104.8750    -3.2110    71.2960     5.8340     6.6260     7.4510     2.0890 
  105.0000    -3.2420    72.4120     5.7900     6.5800     7.0740     2.1090 
  105.1250    -3.3540    75.3890     5.7500     6.5380     7.1030     2.1210 
  105.2500    -3.4080    77.3220     5.6210     6.4020     7.3210     2.1180 
  105.3750    -3.3450    76.9520     5.4220     6.1930     7.1800     2.1160 
  105.5000    -3.3740    76.5590     5.1700     5.9290     6.9520     2.1240 
  105.6250    -3.3470    77.6300     4.9350     5.6820     6.2770     2.1320 
  105.7500    -3.2110    79.3070     4.7780     5.5170     5.6330     2.1290 
  105.8750    -3.0860    81.6090     4.7010     5.4360     5.7230     2.1280 
  106.0000    -2.8660    83.4730     4.7570     5.4950     5.9480     2.1350 
  106.1250    -2.3940    83.4190     4.9140     5.6600     6.1460     2.1400 
  106.2500    -1.7600    82.5910     5.1240     5.8800     8.6670     2.1380 
  106.3750    -0.9990    81.8030     5.2910     6.0550    14.3750     2.1350 
  106.5000    -0.3700    80.5170     5.3150     6.0810    15.2290     2.1230 
  106.6250    -0.1990    79.2790     5.1640     5.9220     9.3440     2.1040 
  106.7500    -0.4040    78.4670     4.9030     5.6480     5.9910     2.0960 
  106.8750    -0.6870    78.5290     4.6230     5.3540     5.8010     2.1120 
  107.0000    -0.8850    80.5760     4.4130     5.1340     5.0010     2.1400 
  107.1250    -0.7210    85.2640     4.2950     5.0100     4.4960     2.1620 
  107.2500    -0.0850    87.7430     4.2800     4.9940     4.9060     2.1670 
  107.3750     0.6440    85.0670     4.3770     5.0960     5.4390     2.1620 
  107.5000     1.1460    81.0180     4.5320     5.2580     5.4830     2.1570 
  107.6250     1.4660    79.2200     4.6680     5.4020     5.2350     2.1520 
  107.7500     1.6820    78.9860     4.6870     5.4210     5.4600     2.1440 
  107.8750     1.6210    80.1620     4.5750     5.3040     5.9680     2.1440 
  108.0000     1.4410    83.4060     4.3590     5.0770     5.8290     2.1520 
  108.1250     1.2140    89.0720     4.1180     4.8240     5.1780     2.1670 
  108.2500     1.0510    95.4170     3.9480     4.6450     4.4940     2.1920 
  108.3750     1.0390   100.7600     3.9430     4.6400     4.1360     2.2160 
  108.5000     0.9630   102.5890     4.1600     4.8670     4.5870     2.2100 
  108.6250     0.6030   100.3780     4.5700     5.2980     5.8040     2.1690 
  108.7500    -0.0100    95.0520     4.9640     5.7130     6.5650     2.1320 
  108.8750    -0.6900    89.0030     5.1610     5.9190     6.0970     2.1280 
  109.0000    -1.1900    84.7630     5.1090     5.8650     5.6150     2.1400 
  109.1250    -1.1940    83.3200     4.8380     5.5800     5.5430     2.1490 
  109.2500    -0.5530    84.6330     4.5290     5.2550     5.0210     2.1560 
  109.3750     0.4980    88.8130     4.3290     5.0460     4.4570     2.1660 
  109.5000     1.6480    94.4470     4.2710     4.9850     4.2450     2.1740 
  109.6250     2.5040    97.8150     4.3450     5.0630     4.3140     2.1680 
  109.7500     2.6920    97.5850     4.5270     5.2530     4.9730     2.1430 
  109.8750     2.1820    95.8110     4.7380     5.4750     5.9430     2.1260 
  110.0000     1.4200    94.8600     4.8740     5.6180     6.4250     2.1480 
  110.1250     0.6410    94.5600     4.8800     5.6240     6.4240     2.2020 
  110.2500     0.2400    96.6960     4.7290     5.4660     6.0200     2.2320 
  110.3750     0.6460   101.7910     4.4930     5.2170     5.2080     2.2110 
  110.5000     1.4750   108.1320     4.2600     4.9730     4.7190     2.1770 
  110.6250     2.2120   112.8580     4.1010     4.8060     4.7150     2.1620 
  110.7500     2.6480   116.2630     3.9870     4.6870     4.8980     2.1580 
  110.8750     2.7210   119.2630     3.8620     4.5550     5.0300     2.1440 
  111.0000     2.5530   120.9970     3.7350     4.4210     5.0350     2.1360 
  111.1250     2.2900   120.7420     3.7050     4.3900     4.7750     2.1540 
  111.2500     2.0210   119.2100     3.8350     4.5270     4.3150     2.1840 
  111.3750     1.6580   115.5730     4.2160     4.9270     4.7480     2.2070 
  111.5000     1.1490   107.5100     4.8380     5.5800     6.1930     2.2050 
  111.6250     0.4300    94.8890     5.5110     6.2870     7.0570     2.1740 
  111.7500    -0.5160    82.7170     6.0450     6.8480     6.9570     2.1310 
  111.8750    -1.4130    77.0160     6.2090     7.0190     6.7840     2.1010 
  112.0000    -1.9230    77.9220     6.0100     6.8100     6.6540     2.0940 
  112.1250    -2.1300    82.0630     5.5940     6.3740     6.2270     2.1050 
  112.2500    -2.0310    84.8570     5.1490     5.9070     5.4410     2.1260 
  112.3750    -1.3800    87.0370     4.7780     5.5170     4.7310     2.1490 
  112.5000    -0.2340    90.1780     4.5030     5.2280     4.4680     2.1670 
  112.6250     1.0360    93.1140     4.3670     5.0850     4.4140     2.1740 
  112.7500     2.0070    95.8390     4.3370     5.0540     4.7020     2.1680 
  112.8750     2.3290    96.7830     4.3890     5.1080     5.0950     2.1590 
  113.0000     2.0480    95.6830     4.4830     5.2070     4.9690     2.1590 
  113.1250     1.4950    94.4980     4.5950     5.3250     5.1140     2.1590 
  113.2500     0.9220    96.4780     4.7040     5.4390     5.6400     2.1420 
  113.3750     0.4200    98.6710     4.7560     5.4940     5.6580     2.1160 
  113.5000     0.3020    96.4000     4.7420     5.4790     5.4910     2.1070 
  113.6250     0.6630    92.7660     4.6790     5.4130     5.2820     2.1260 
  113.7500     1.1700    93.2300     4.6050     5.3350     4.7960     2.1600 
  113.8750     1.7020    97.5940     4.5800     5.3090     4.5630     2.1850 
  114.0000     2.1630   101.3420     4.6000     5.3300     4.7200     2.1880 
  114.1250     2.3890   102.3800     4.6480     5.3810     4.9900     2.1750 
  114.2500     2.4210   102.1410     4.6580     5.3910     5.0870     2.1640 
