~V
VERS. 2.00: Ver 2.00
~W
STRT.M 50.0000:
STOP.M 256.0000:
STEP.M 0.1250:
NULL. -999.2500:
UWI. F12009:
~C
DEPT.M :
SP.MV :
GR.API :
RI. :
RML.OHMM :
RXO.OHMM :
DEN.GM/CC :
~A
   50.0000    51.3300    57.8410    42.6810    28.1440    49.9700     2.4040 
   50.1250    52.7710    54.9990    21.4130    14.1740    49.9690     2.4080 
   50.2500    54.0260    53.5620     0.1230     0.2070    49.9680     2.4070 
   50.3750    55.0110    55.2170     0.1050     0.2140    49.9690     2.4010 
   50.5000    55.7150    56.4820     0.0920     0.2160    49.9690     2.3890 
   50.6250    56.0660    55.4110     0.0860     0.2070    49.9690     2.3610 
   50.7500    56.2230    54.8550     0.0830     0.2040    49.9700     2.3170 
   50.8750    56.5450    55.5220     0.0790     0.2010    49.9700     2.2840 
   51.0000    57.0340    56.4550     0.0820     0.1960    49.9690     2.2810 
   51.1250    57.5610    57.3030     0.0870     0.1960    49.9690     2.3020 
   51.2500    58.0370    58.8180     0.0860     0.1980    49.9690     2.3160 
   51.3750    58.4390    60.3980     0.0870     0.2050    49.9680     2.3140 
   51.5000    58.7700    59.9110     0.0810     0.2200    49.9680     2.3070 
   51.6250    59.3630    57.7570     0.0890     0.2390    49.9680     2.3010 
   51.7500    60.5400    56.3520     0.0950     0.2580    49.9680     2.2830 
   51.8750    62.2540    58.0470     0.0990     0.2670    49.9670     2.2530 
   52.0000    64.0290    60.8020     0.1050     0.2650    49.9670     2.2470 
   52.1250    65.4400    61.5800     0.1110     0.2540    49.9680     2.2890 
   52.2500    66.1380    60.3590     0.1220     0.2430    49.9680     2.3580 
   52.3750    65.9750    58.9220     0.1320     0.2380    49.9670     2.4140 
   52.5000    65.2500    58.2650     0.1320     0.2370    49.9670     2.4210 
   52.6250    64.2950    57.0150     0.1290     0.2350    49.9660     2.3760 
   52.7500    63.6090    54.6010     0.1280     0.2350    49.9660     2.3230 
   52.8750    63.4560    52.5570     0.1310     0.2370    49.9680     2.2990 
   53.0000    63.6530    51.7490     0.1380     0.2420    49.9680     2.3090 
   53.1250    63.8340    50.5950     0.1480     0.2510    49.9670     2.3370 
   53.2500    63.7680    48.8300     0.1590     0.2580    49.9670     2.3630 
   53.3750    63.4640    48.5510     0.1660     0.2570    49.9680     2.3690 
   53.5000    62.8690    49.1250     0.1620     0.2420    49.9680     2.3710 
   53.6250    61.9840    49.0460     0.1580     0.2140    49.9680     2.3820 
   53.7500    60.8010    47.4910     0.1490     0.1830    49.9670     2.3820 
   53.8750    59.4380    45.4590     0.1400     0.1570    49.9660     2.3520 
   54.0000    58.1930    43.2210     0.1360     0.1440    49.9660     2.3120 
   54.1250    57.2460    41.0980     0.1370     0.1420    49.9660     2.2900 
   54.2500    56.4470    41.0020     0.1450     0.1450    49.9660     2.2870 
   54.3750    55.7080    42.8310     0.1580     0.1530    49.9660     2.2890 
   54.5000    54.9180    44.2830     0.1700     0.1590    49.9650     2.2860 
   54.6250    53.8950    44.9960     0.1770     0.1590    49.9650     2.2790 
   54.7500    52.9000    46.5310     0.1920     0.1600    49.9650     2.2780 
   54.8750    52.3310    49.5750     0.2010     0.1590    49.9670     2.2780 
   55.0000    52.3610    52.4730     0.2040     0.1620    49.9680     2.2800 
   55.1250    52.9040    54.7810     0.2020     0.1660    49.9680     2.2840 
   55.2500    53.6390    56.4290     0.1820     0.1590    49.9660     2.2900 
   55.3750    54.1630    56.1540     0.1540     0.1340    49.9650     2.2980 
   55.5000    54.0500    54.3720     0.1120     0.0930    49.9660     2.3010 
   55.6250    53.2730    51.3970     0.0710     0.0560    49.9660     2.2890 
   55.7500    51.9850    49.5520     0.0490     0.0320     1.9490     2.2660 
   55.8750    50.1940    49.5550     0.0900     0.0660     3.8010     2.2820 
   56.0000    47.9190    50.0200     0.2630     0.2020    22.9380     2.3000 
   56.1250    44.9330    51.5280     0.7480     0.6020    41.0100     2.2100 
   56.2500    40.8760    55.3300     1.7800     1.5660    26.1650     2.0250 
   56.3750    35.3800    61.5030     3.8900     3.7880    10.1020     1.8910 
   56.5000    28.9100    66.3330     6.4180     6.3690    10.0410     1.8740 
   56.6250    22.3170    68.4340     8.8500     8.6250    11.0690     1.9070 
   56.7500    16.2450    69.9010    10.7560    10.0910    12.8490     1.9240 
   56.8750    11.0010    73.0350    12.1950    10.8290    14.0580     1.9310 
   57.0000     6.3950    75.4460    13.2830    12.6630    14.2550     1.9330 
   57.1250     2.3110    72.3670    14.0790    14.3640    14.0420     1.9300 
   57.2500    -1.2960    66.1830    14.3090    15.5250    13.3510     1.9270 
   57.3750    -4.3100    62.2880    14.0290    15.2300    12.3740     1.9330 
   57.5000    -6.9450    62.2210    13.6660    14.8490    11.6080     1.9440 
   57.6250    -9.3340    63.2230    13.4200    14.5910    11.6740     1.9480 
   57.7500   -11.3870    64.4500    13.3880    14.5580    12.2150     1.9430 
   57.8750   -13.1840    65.3140    13.4850    14.6590    13.1350     1.9340 
   58.0000   -14.7640    65.9420    13.4760    14.6500    14.7700     1.9360 
   58.1250   -15.8470    67.4030    13.2610    14.4240    15.9080     1.9540 
   58.2500   -16.4020    67.8830    12.8170    13.9580    15.2310     1.9730 
   58.3750   -16.4440    67.2480    12.2020    13.3120    13.7790     1.9790 
   58.5000   -16.3680    68.0720    11.6060    12.6860    13.0370     1.9750 
   58.6250   -16.5810    69.9220    11.0910    12.1460    12.8310     1.9780 
   58.7500   -17.3480    70.8930    10.7530    11.7900    12.8490     1.9920 
   58.8750   -18.5070    70.8360    10.5180    11.5440    13.0070     2.0050 
   59.0000   -19.7590    70.7700    10.2650    11.2780    12.8990     2.0090 
   59.1250   -21.0070    68.8740     9.9040    10.8990    12.5230     2.0010 
   59.2500   -21.9360    67.8040     9.4890    10.4640    12.3080     1.9980 
   59.3750   -22.3220    69.3560     9.0210     9.9720    13.6770     2.0080 
   59.5000   -22.5150    70.7940     8.5790     9.5080    16.9200     2.0260 
   59.6250   -22.7850    70.1950     8.1130     9.0190    32.8530     2.0420 
   59.7500   -23.1630    69.2650     7.6660     8.5490    52.8110     2.0420 
   59.8750   -23.7770    68.3420     7.2250     8.0860    43.0410     2.0270 
   60.0000   -24.5740    67.3370     6.8080     7.6480    18.9140     2.0220 
   60.1250   -25.3640    66.3080     6.4340     7.2550     9.7450     2.0520 
   60.2500   -25.9780    64.9870     6.1150     6.9210     8.8970     2.0960 
   60.3750   -26.5010    63.4320     5.8590     6.6520     8.7440     2.1120 
   60.5000   -26.8520    64.3880     5.6650     6.4490     8.6410     2.0990 
   60.6250   -27.0240    67.7040     5.5280     6.3050     8.4860     2.0820 
   60.7500   -27.1880    70.0680     5.4630     6.2360     8.4340     2.0770 
   60.8750   -27.2460    69.4990     5.4780     6.2520     8.5430     2.0820 
   61.0000   -27.1070    67.9340     5.5390     6.3160     8.7010     2.0820 
   61.1250   -26.8100    67.9080     5.6090     6.3890     8.6840     2.0750 
   61.2500   -26.3610    68.7190     5.5940     6.3730     8.5840     2.0650 
   61.3750   -25.3860    69.0340     5.3870     6.1570     8.5440     2.0600 
   61.5000   -23.7840    70.0750     5.0040     5.7540     8.3920     2.0720 
   61.6250   -21.6120    76.4700     4.5360     5.2620     7.2570     2.1160 
   61.7500   -19.2300    87.5730     4.0980     4.8030     5.4850     2.1740 
   61.8750   -17.1550    98.3370     3.7880     4.4780     4.7230     2.2090 
   62.0000   -15.8220   105.0580     3.6760     4.3600     4.8170     2.2120 
   62.1250   -15.4780   105.3590     3.7490     4.4370     4.7240     2.1990 
   62.2500   -15.9580   102.2830     3.9990     4.6990     4.7500     2.1840 
   62.3750   -16.7650    96.1660     4.4120     5.1320     5.7930     2.1610 
   62.5000   -17.4220    89.2220     4.8310     5.5730     6.9690     2.1340 
   62.6250   -17.7310    84.6120     5.1370     5.8940     7.0860     2.1230 
   62.7500   -17.6900    85.6130     5.2410     6.0030     6.5220     2.1360 
