~V
VERS. 2.00: Ver 2.00
~W
STRT.M 50.0000:
STOP.M 247.0000:
STEP.M 0.1250:
NULL. -999.2500:
UWI. F12010:
~C
DEPT.M :
SP.MV :
GR.API :
RI. :
RML.OHMM :
RXO.OHMM :
DEN.GM/CC :
~A
# ...
  101.5000   -16.7240    64.4900     5.2990     6.0640     4.6000     2.1160 
  101.6250   -16.3410    63.8680     5.2850     6.0490     4.5560     2.1150 
  101.7500   -15.8250    65.2360     5.2740     6.0380     4.5450     2.1170 
  101.8750   -15.3010    68.4750     5.3090     6.0740     4.4870     2.1170 
  102.0000   -14.9470    71.4360     5.3780     6.1470     4.3950     2.1090 
  102.1250   -14.8540    71.8660     5.4920     6.2670     5.2470     2.0970 
  102.2500   -14.9940    70.3230     5.5920     6.3710     6.9320     2.0950 
  102.3750   -15.2610    67.8020     5.6340     6.4160     7.1140     2.0990 
  102.5000   -15.4350    66.5910     5.5880     6.3680     5.6930     2.1000 
  102.6250   -15.6490    67.4730     5.4710     6.2440     4.5730     2.0980 
  102.7500   -16.0730    69.9420     5.3100     6.0750     4.2670     2.1010 
  102.8750   -16.6760    71.4530     5.1770     5.9360     4.2690     2.1050 
  103.0000   -17.3440    71.0900     5.0570     5.8100     4.2570     2.1090 
  103.1250   -17.9720    69.2570     4.8590     5.6020     4.2660     2.1060 
  103.2500   -18.2870    68.2910     4.5840     5.3130     4.3270     2.1000 
  103.3750   -17.9950    70.7070     4.2170     4.9280     4.2870     2.1180 
  103.5000   -17.0930    76.0900     3.8660     4.5600     3.9530     2.1700 
  103.6250   -15.7740    82.4730     3.6280     4.3100     3.5590     2.2190 
  103.7500   -14.6180    87.6650     3.5370     4.2140     3.4850     2.2190 
  103.8750   -14.1180    89.4670     3.6040     4.2840     3.6810     2.1800 
  104.0000   -13.9910    88.1780     3.7990     4.4890     3.8460     2.1500 
  104.1250   -14.0140    84.1830     4.0250     4.7260     3.9090     2.1550 
  104.2500   -14.1770    80.0310     4.1350     4.8420     4.0490     2.1710 
  104.3750   -14.4080    77.4310     4.0620     4.7650     4.3560     2.1840 
  104.5000   -14.5100    76.9370     3.8710     4.5650     4.3670     2.2010 
  104.6250   -14.3840    78.7750     3.6700     4.3530     3.7650     2.2330 
  104.7500   -14.3230    82.8580     3.5440     4.2220     3.2910     2.2650 
  104.8750   -14.2980    88.1340     3.5420     4.2190     3.3630     2.2750 
  105.0000   -14.4490    91.0880     3.6610     4.3440     3.6190     2.2610 
  105.1250   -14.7160    90.9310     3.8710     4.5650     3.9010     2.2340 
  105.2500   -15.0720    89.5750     4.1020     4.8070     4.1230     2.2070 
  105.3750   -15.3400    86.2630     4.2820     4.9970     4.2260     2.1900 
  105.5000   -15.6690    81.4390     4.3740     5.0930     4.2600     2.1730 
  105.6250   -16.0460    78.5850     4.4210     5.1420     4.4490     2.1560 
  105.7500   -16.5370    77.8050     4.4580     5.1810     4.6990     2.1460 
  105.8750   -16.9750    75.7550     4.5400     5.2670     4.5620     2.1400 
  106.0000   -17.2700    71.5750     4.6990     5.4330     4.1960     2.1280 
  106.1250   -17.4140    69.0180     4.9140     5.6590     4.0110     2.1070 
  106.2500   -17.6050    68.3810     5.1350     5.8910     4.1590     2.0870 
  106.3750   -17.5650    67.0080     5.2260     5.9870     4.5730     2.0740 
  106.5000   -17.1480    65.0630     5.1610     5.9190     5.0310     2.0740 
  106.6250   -16.3510    65.0580     4.9630     5.7110     5.0600     2.0980 
  106.7500   -15.5840    69.2330     4.7010     5.4360     4.5460     2.1330 
  106.8750   -15.0590    74.8480     4.4870     5.2110     4.1430     2.1580 
  107.0000   -15.1400    77.5540     4.3420     5.0600     4.1500     2.1600 
  107.1250   -15.6980    78.0050     4.2640     4.9770     4.2620     2.1510 
  107.2500   -16.2520    79.7130     4.2400     4.9520     4.2660     2.1510 
  107.3750   -16.7610    82.7550     4.2390     4.9510     4.1480     2.1660 
  107.5000   -16.9240    83.9690     4.2190     4.9300     3.9750     2.1800 
  107.6250   -16.5000    85.0090     4.1910     4.9010     3.9660     2.1690 
  107.7500   -15.7980    88.1530     4.1750     4.8840     4.1310     2.1460 
  107.8750   -15.1860    90.8230     4.1720     4.8800     4.1280     2.1400 
  108.0000   -14.6960    92.6690     4.1870     4.8960     4.0230     2.1510 
  108.1250   -14.5150    95.4110     4.2430     4.9550     4.0490     2.1550 
  108.2500   -14.6450    96.9190     4.3640     5.0830     4.0600     2.1460 
  108.3750   -14.8930    94.5330     4.5940     5.3230     4.1160     2.1280 
  108.5000   -15.1060    90.7090     4.8300     5.5710     4.3830     2.1140 
  108.6250   -15.3570    88.5770     4.9170     5.6630     6.1800     2.1290 
  108.7500   -15.4220    86.8530     4.8030     5.5430     8.8820     2.1830 
  108.8750   -15.3000    86.0320     4.4940     5.2190     8.3150     2.2420 
  109.0000   -15.2490    88.5680     4.1020     4.8070     5.4920     2.2670 
  109.1250   -15.3450    94.7940     3.7910     4.4800     4.3150     2.2510 
  109.2500   -15.5170   100.6640     3.7040     4.3890     4.3010     2.2340 
  109.3750   -15.7510   100.6310     3.8460     4.5390     4.2900     2.2520 
  109.5000   -15.8560    95.4500     4.1730     4.8820     4.8400     2.3070 
  109.6250   -15.5010    90.5660     4.4890     5.2140     6.1480     2.3610 
  109.7500   -14.6690    90.4100     4.6580     5.3910     6.5070     2.3600 
  109.8750   -13.7810    93.1700     4.6110     5.3420     5.3250     2.3000 
  110.0000   -13.1160    96.4330     4.4080     5.1290     4.3610     2.2320 
  110.1250   -13.2060    99.2250     4.1550     4.8630     4.1240     2.2050 
  110.2500   -13.9300    99.9070     3.9240     4.6210     4.0200     2.2180 
  110.3750   -15.0330    99.1710     3.8020     4.4920     3.9590     2.2410 
  110.5000   -16.2630    98.7930     3.7750     4.4640     3.8530     2.2530 
  110.6250   -17.2540    98.4800     3.8220     4.5130     3.6740     2.2450 
  110.7500   -17.6460    96.4050     3.9130     4.6080     3.7810     2.2130 
  110.8750   -17.4820    91.6650     4.0080     4.7080     4.1610     2.1750 
  111.0000   -17.2260    88.6150     4.0710     4.7750     4.2640     2.1650 
  111.1250   -16.9810    89.0460     4.1040     4.8090     4.1710     2.1950 
  111.2500   -16.7440    91.6780     4.1180     4.8240     4.1700     2.2240 
  111.3750   -16.5780    93.4690     4.1430     4.8510     4.1890     2.2190 
  111.5000   -16.5410    92.4070     4.2230     4.9350     4.2830     2.1960 
  111.6250   -16.5660    89.1130     4.3970     5.1170     4.4300     2.1730 
  111.7500   -16.8050    85.6240     4.6300     5.3610     4.5560     2.1540 
  111.8750   -17.0120    84.3590     4.8660     5.6090     4.6870     2.1320 
  112.0000   -17.1270    83.8890     5.0770     5.8310     4.7900     2.1110 
  112.1250   -17.3930    80.8870     5.2440     6.0070     4.8310     2.0980 
  112.2500   -17.6290    76.3830     5.3920     6.1610     4.8250     2.0870 
  112.3750   -17.6440    74.3550     5.5330     6.3100     4.8170     2.0810 
  112.5000   -17.5100    76.5180     5.6610     6.4440     4.8090     2.0760 
  112.6250   -17.4510    80.0070     5.7720     6.5600     4.7760     2.0720 
  112.7500   -17.2190    80.5610     5.8480     6.6400     4.8440     2.0700 
  112.8750   -16.5810    77.4640     5.8790     6.6730     5.0940     2.0720 
  113.0000   -15.7340    73.8390     5.8830     6.6770     5.1820     2.0760 
  113.1250   -14.9740    72.7770     5.9740     6.7730     5.0020     2.0820 
  113.2500   -14.5570    73.0420     6.1500     6.9570     5.0040     2.0980 
  113.3750   -14.6280    72.7730     6.1820     6.9910     5.8840     2.1470 
  113.5000   -14.9270    71.6560     5.9700     6.7680     7.8810     2.2390 
  113.6250   -15.4150    72.1410     5.4450     6.2170     8.2410     2.3390 
  113.7500   -15.6690    76.4700     4.7780     5.5170     5.7110     2.3690 
  113.8750   -15.4560    83.7620     4.2440     4.9560     3.7940     2.3110 
  114.0000   -14.9740    89.4990     3.9050     4.6000     3.6550     2.2410 
  114.1250   -14.6250    91.0270     3.7900     4.4790     4.0090     2.2030 
  114.2500   -14.4520    90.4260     3.8910     4.5850     4.2810     2.1780 
