~V
VERS. 2.00: Ver 2.00
~W
STRT.M 50.0000:
STOP.M 213.0000:
STEP.M 0.1250:
NULL. -999.2500:
UWI. F12007:
~C
DEPT.M :
SP.MV :
GR.API :
RI. :
RML.OHMM :
RXO.OHMM :
DEN.GM/CC :
~A
# ...
  191.6250    98.4010    91.1250     8.4790    11.0940     9.6640     2.1840 
  191.7500    97.5110    94.5600     8.9410    11.6630    10.1220     2.1870 
  191.8750    96.9770    97.6420     9.4950    12.3720    10.8640     2.2000 
  192.0000    96.9520    99.8450    10.0400    13.0620    10.9420     2.2210 
  192.1250    97.1640    99.7000    10.4490    13.5340    11.6770     2.2580 
  192.2500    97.3920    98.0610    10.6260    13.6730    14.4380     2.2960 
  192.3750    97.5960    98.3600    10.6220    13.5750    15.3360     2.3200 
  192.5000    97.7280    99.5200    10.5390    13.3870    13.0070     2.3270 
  192.6250    97.7840    98.1340    10.4620    13.2410    11.6260     2.3330 
  192.7500    97.9250    94.7460    10.4260    13.1700    12.1850     2.3350 
  192.8750    98.0770    92.8880    10.4490    13.1850    13.1670     2.3190 
  193.0000    98.2330    93.4280    10.5280    13.2700    14.0060     2.2900 
  193.1250    98.4710    93.9640    10.5170    13.2190    13.7620     2.2670 
  193.2500    98.6840    93.3190    10.3120    12.9060    13.3890     2.2710 
  193.3750    98.7830    92.2780     9.7990    12.1710    13.8040     2.2890 
  193.5000    98.9520    91.6810     9.0580    11.1450    13.2580     2.2880 
  193.6250    99.0740    91.4210     8.2050     9.9980    11.2950     2.2590 
  193.7500    99.0030    90.2600     7.4270     8.9630     9.5670     2.2270 
  193.8750    98.9660    86.9040     6.8290     8.1940     8.6750     2.2130 
  194.0000    99.2780    82.5880     6.4660     7.7360     7.8220     2.2160 
  194.1250    99.9200    80.3720     6.3530     7.5800     7.2150     2.2200 
  194.2500   100.7660    80.4930     6.3330     7.5290     7.2710     2.2230 
  194.3750   101.5260    81.0430     6.3650     7.5110     7.4750     2.2280 
  194.5000   101.8380    79.7430     6.4320     7.5310     7.3790     2.2350 
  194.6250   101.6260    77.3910     6.5310     7.5910     7.1360     2.2360 
  194.7500   101.1330    76.5390     6.6650     7.6870     7.2840     2.2330 
  194.8750   100.3930    78.6230     6.7870     7.7780     7.8890     2.2270 
  195.0000    99.7900    81.3210     6.8780     7.8310     8.4370     2.2230 
  195.1250    99.5570    82.0450     6.9790     7.8950     8.5510     2.2210 
  195.2500    99.6270    80.7390     7.1040     7.9900     8.5350     2.2250 
  195.3750    99.9120    78.7740     7.2920     8.1710     8.6880     2.2320 
  195.5000   100.0200    77.6030     7.6000     8.5110     8.9030     2.2400 
  195.6250    99.8170    79.0390     8.0370     9.0090     9.1320     2.2460 
  195.7500    99.5020    83.2460     8.5260     9.5660     9.4740     2.2470 
  195.8750    99.2740    87.0830     8.9550    10.0390     9.9510     2.2340 
  196.0000    99.1760    89.8070     9.2640    10.3660    10.2070     2.2150 
  196.1250    99.1520    92.4580     9.4480    10.5490     9.9530     2.2020 
  196.2500    99.1350    94.6790     9.6250    10.7370     9.8770     2.1950 
  196.3750    99.1490    95.1120     9.7560    10.8940    10.7380     2.1780 
  196.5000    99.0200    94.8450     9.8260    11.0030    11.9780     2.1580 
  196.6250    98.8570    93.9130     9.7080    10.8790    12.6600     2.1600 
  196.7500    98.7560    90.6380     9.3940    10.4990    12.3870     2.1790 
  196.8750    98.5270    86.8500     9.0570    10.0650    11.0880     2.1990 
  197.0000    98.1790    85.9040     8.7690     9.6990     9.3130     2.2150 
  197.1250    98.1280    87.3150     8.7820     9.6940     8.4870     2.2360 
  197.2500    98.4440    89.1300     9.0650    10.0180     9.5900     2.2630 
  197.3750    99.0710    90.8970     9.7030    10.7300    11.5420     2.2870 
  197.5000    99.8340    91.9010    10.4390    11.4910    12.7540     2.2980 
  197.6250   100.2270    92.0180    11.1540    12.1990    13.8740     2.3030 
  197.7500   100.1700    93.1150    11.8760    12.9080    15.6690     2.3100 
  197.8750    99.9630    95.4730    12.4000    13.4330    16.8720     2.3150 
  198.0000    99.6710    96.7080    12.6340    13.6700    16.7120     2.3140 
  198.1250    99.4490    95.8830    12.4440    13.4480    17.5990     2.3090 
  198.2500    99.4200    94.2730    11.8380    12.7380    17.3700     2.3000 
  198.3750    99.4200    94.1390    10.9840    11.7340    12.9590     2.2820 
  198.5000    99.4200    96.0000    10.2470    10.8880     9.9150     2.2660 
  198.6250    99.4200    99.1090     9.9570    10.6130     9.3660     2.2610 
  198.7500    99.4200   100.1550     9.9850    10.7350     9.7020     2.2660 
  198.8750    99.4200    99.8620    10.1330    10.9720    12.5790     2.2780 
  199.0000    99.4200    99.7330    10.2050    11.0820    15.5650     2.2900 
  199.1250    99.4200    98.1440    10.1630    11.0060    14.6350     2.2900 
  199.2500    99.4200    94.0140    10.1280    10.9170    11.8330     2.2790 
  199.3750    99.4200    90.8640    10.1460    10.9380    12.4550     2.2790 
  199.5000    99.4200    91.0920    10.1640    10.9880    18.5620     2.2980 
  199.6250    99.4200    92.8420     9.9780    10.8160    21.4670     2.3100 
  199.7500    99.4200    92.4980     9.5560    10.3390    14.8960     2.3000 
  199.8750    99.4200    90.9630     8.8940     9.5680     9.3760     2.2770 
  200.0000    99.4200    90.0590     8.1310     8.6820     8.2160     2.2570 
  200.1250    99.4200    89.7170     7.5190     8.0350     7.4250     2.2410 
  200.2500    99.4200    88.1560     7.2710     7.8510     7.4940     2.2280 
  200.3750    99.4200    86.5650     7.3030     7.9740     7.9060     2.2210 
  200.5000    99.4200    86.7310     7.3100     8.0320     8.2450     2.2180 
  200.6250    99.4200    89.0110     7.1360     7.8600     8.6250     2.2150 
  200.7500    99.4200    89.5670     6.7620     7.4310     9.0810     2.2070 
  200.8750    99.4200    85.5130     6.2190     6.8110     8.1310     2.1970 
  201.0000    99.4200    79.8010     5.7200     6.2510     5.7760     2.1990 
  201.1250    99.4200    76.1450     5.3930     5.8920     4.5800     2.2320 
  201.2500    99.4200    74.9100     5.3460     5.8740     5.0990     2.2890 
  201.3750    99.4200    74.0300     5.6110     6.2240     6.9080     2.3300 
  201.5000    99.4200    74.1450     6.1810     6.9360    10.0330     2.3330 
  201.6250    99.4200    77.1190     6.8080     7.7190    12.6570     2.3160 
  201.7500    99.4200    80.3270     7.3450     8.3890    12.1190     2.3110 
  201.8750    99.4200    82.3150     7.5430     8.6310     9.3260     2.3060 
  202.0000    99.4200    83.2960     7.3890     8.4470     6.9570     2.2860 
  202.1250    99.4200    83.5730     6.9700     7.9510     5.8810     2.2620 
  202.2500    99.4200    82.7090     6.5310     7.4450     5.9380     2.2610 
  202.3750    99.4200    81.3640     6.3320     7.2540     6.5640     2.2770 
  202.5000    99.4200    80.9670     6.4170     7.4210     7.2670     2.2730 
  202.6250    99.4200    81.4650     6.7150     7.8630     8.6740     2.2590 
  202.7500    99.4200    82.2920     7.0450     8.3380    10.8360     2.2700 
  202.8750    99.4200    82.6130     7.2410     8.6230    11.5080     2.3080 
  203.0000    99.4200    82.2970     7.1290     8.5130     9.1620     2.3340 
  203.1250    99.4200    81.9260     6.7280     8.0400     6.0660     2.3310 
  203.2500    99.4200    82.1590     6.2220     7.4570     5.4010     2.3310 
  203.3750    99.4200    82.2650     5.7980     6.9930     7.1290     2.3430 
  203.5000    99.4200    82.2320     5.5390     6.7490     8.1990     2.3430 
  203.6250    99.4200    83.0140     5.4500     6.7150     6.8600     2.3230 
  203.7500    99.4200    84.1560     5.4290     6.7530     5.9950     2.3010 
  203.8750    99.4200    84.6970     5.4790     6.8520     6.5920     2.2900 
  204.0000    99.4200    84.5320     5.5200     6.8990     6.8630     2.2870 
  204.1250    99.4200    83.5180     5.6140     7.0020     7.0330     2.2870 
  204.2500    99.4200    82.2250     5.7610     7.1540     7.1510     2.3020 
  204.3750    99.4200    81.1580     6.0370     7.4470     6.8540     2.3260 
