~V
VERS. 2.00: Ver 2.00
~W
STRT.M 50.0000:
STOP.M 226.0000:
STEP.M 0.1250:
NULL. -999.2500:
UWI. F12001:
~C
DEPT.M :
SP.MV :
GR.API :
RI. :
RML.OHMM :
RXO.OHMM :
DEN.GM/CC :
~A
# ...
   88.6250    -6.2810   104.6900     4.2470     4.6720     4.3770     2.2370 
   88.7500    -6.2580   103.0540     4.3450     4.7950     4.4790     2.2400 
   88.8750    -6.2980   100.2700     4.5130     5.0350     4.4780     2.2350 
   89.0000    -6.3390    97.5620     4.6510     5.2390     4.4910     2.2270 
   89.1250    -6.3190    95.1430     4.6730     5.3030     4.6780     2.2120 
   89.2500    -6.3220    91.0170     4.5930     5.2340     4.7830     2.1870 
   89.3750    -6.4490    86.2220     4.4550     5.0880     4.4820     2.1650 
   89.5000    -6.6950    82.6860     4.3680     4.9830     4.0160     2.1700 
   89.6250    -7.0360    83.1370     4.3420     4.9240     4.1370     2.2010 
   89.7500    -7.4920    86.4100     4.3810     4.9190     4.6830     2.2200 
   89.8750    -8.0700    88.1070     4.5640     5.0790     4.8710     2.1960 
   90.0000    -8.6480    84.9540     4.9470     5.4930     4.8850     2.1550 
   90.1250    -9.1920    80.7890     5.6770     6.3480     5.0700     2.1430 
   90.2500    -9.6180    78.6200     6.6060     7.4650     8.3290     2.1600 
   90.3750    -9.8480    77.5170     7.5820     8.6430    15.2790     2.2080 
   90.5000    -9.8930    75.3630     8.3030     9.4780    18.5810     2.2840 
   90.6250    -9.8820    73.4710     8.3870     9.4710    16.6010     2.3850 
   90.7500    -9.9400    73.1730     7.7540     8.6110    12.5180     2.3820 
   90.8750   -10.0540    75.6470     6.6610     7.2490     7.4140     2.3020 
   91.0000   -10.0960    79.8390     5.5390     5.9320     4.7440     2.2170 
   91.1250   -10.1520    83.2540     4.8060     5.1440     4.5180     2.1870 
   91.2500   -10.2280    84.0770     4.5080     4.8400     4.5050     2.1990 
   91.3750   -10.2770    84.4840     4.4140     4.7400     4.6360     2.2120 
   91.5000   -10.3060    84.6590     4.4110     4.7290     4.7890     2.2100 
   91.6250   -10.2810    83.3870     4.4740     4.7790     4.5970     2.2160 
   91.7500   -10.2490    81.3610     4.6050     4.9090     4.3160     2.2230 
   91.8750   -10.0720    82.4020     4.7790     5.1020     4.4840     2.2060 
   92.0000    -9.7710    85.0130     4.9510     5.2980     4.7000     2.1750 
   92.1250    -9.3430    85.0880     5.0510     5.4230     4.7030     2.1620 
   92.2500    -8.9160    82.8550     5.0700     5.4580     4.6840     2.1660 
   92.3750    -8.6280    81.0520     4.9190     5.3020     4.7090     2.1670 
   92.5000    -8.4850    81.4870     4.6420     5.0130     4.6520     2.1650 
   92.6250    -8.5210    83.0760     4.3620     4.7190     4.4210     2.1740 
   92.7500    -8.6520    84.9410     4.1540     4.5090     4.1990     2.1970 
   92.8750    -8.6330    87.6400     4.1160     4.4960     4.2570     2.2200 
   93.0000    -8.3970    90.4350     4.2660     4.7070     4.6130     2.2250 
   93.1250    -8.0630    91.2030     4.6950     5.2680     4.8190     2.1970 
   93.2500    -7.7500    88.5000     5.3240     6.0720     4.8910     2.1540 
   93.3750    -7.5390    83.4250     6.0240     6.9660     5.1130     2.1230 
   93.5000    -7.4380    77.3650     6.6380     7.7280     5.3680     2.1110 
   93.6250    -7.3950    72.1700     6.9540     8.0820     5.5190     2.1100 
   93.7500    -7.4580    69.0570     7.0380     8.1100     5.4950     2.1140 
   93.8750    -7.7480    70.7250     6.8900     7.8150     5.4020     2.1210 
   94.0000    -8.1630    73.6770     6.6120     7.3350     5.3480     2.1300 
   94.1250    -8.4330    73.9810     6.3440     7.0190     5.2140     2.1370 
   94.2500    -8.5160    71.6850     6.1490     6.7460     5.0820     2.1400 
   94.3750    -8.4570    71.4100     6.0570     6.5920     5.0880     2.1390 
   94.5000    -8.3290    74.0510     6.0210     6.5590     5.1220     2.1350 
   94.6250    -8.2970    75.6460     6.0160     6.6400     5.1040     2.1280 
   94.7500    -8.3630    74.9430     6.0540     6.7370     5.0000     2.1220 
   94.8750    -8.4740    73.7310     6.1160     6.7770     4.8760     2.1140 
   95.0000    -8.6040    72.9380     6.0460     6.6700     4.8640     2.1040 
   95.1250    -8.7360    72.8540     5.7080     6.2880     4.8050     2.0970 
   95.2500    -8.7910    73.4170     5.1230     5.6420     4.4250     2.1060 
   95.3750    -8.7700    75.2810     4.3650     4.8520     3.7080     2.1320 
   95.5000    -8.6920    76.6660     3.7250     4.1560     3.0920     2.1670 
   95.6250    -8.6380    77.3900     3.3310     3.7630     2.9460     2.2040 
   95.7500    -8.6210    79.5950     3.2770     3.7250     3.0870     2.2260 
   95.8750    -8.6430    83.8030     3.5280     4.0420     3.5400     2.2200 
   96.0000    -8.5870    87.2010     4.0030     4.6220     4.3420     2.1920 
   96.1250    -8.4900    84.6290     4.6990     5.4180     4.9030     2.1600 
   96.2500    -8.4580    78.8350     5.5080     6.3450     4.9070     2.1350 
   96.3750    -8.4740    74.4420     6.3890     7.3260     4.9850     2.1290 
   96.5000    -8.5360    71.5490     7.2270     8.2090     6.0480     2.1570 
   96.6250    -8.6580    70.0420     7.8640     8.7900     7.1270     2.1990 
   96.7500    -8.8040    69.9060     8.2520     9.0390     6.6250     2.2110 
   96.8750    -9.0330    70.6890     8.1980     8.9140     5.6240     2.1840 
   97.0000    -9.3740    71.2830     7.7810     8.4550     5.2530     2.1490 
   97.1250    -9.6790    71.9950     7.1680     7.8310     5.0740     2.1310 
   97.2500    -9.8040    72.8800     6.6090     7.2940     4.8920     2.1210 
   97.3750    -9.7670    73.5400     6.2900     7.0060     4.7680     2.1120 
   97.5000    -9.7060    73.3450     6.1320     6.8420     4.6540     2.1020 
   97.6250    -9.5910    70.9820     6.0410     6.7980     4.5370     2.0960 
   97.7500    -9.4860    68.2070     5.9580     6.7280     4.4520     2.0930 
   97.8750    -9.3360    69.2720     5.8220     6.5690     4.4360     2.0870 
   98.0000    -9.1570    72.4680     5.6500     6.3500     4.5750     2.0790 
   98.1250    -9.0020    72.8130     5.4790     6.1330     4.7200     2.0760 
   98.2500    -8.9600    70.4410     5.3390     5.9610     4.6930     2.0780 
   98.3750    -8.9180    69.8830     5.2960     5.9000     4.6710     2.0790 
   98.5000    -8.8750    71.6840     5.3230     5.9230     4.8280     2.0760 
   98.6250    -8.8820    73.2730     5.3800     5.9840     5.0450     2.0750 
   98.7500    -8.9800    72.3650     5.4300     6.0380     7.3560     2.0800 
   98.8750    -9.1480    69.7420     5.4280     6.0460     9.9280     2.0950 
   99.0000    -9.4010    67.7450     5.3850     6.0150     8.0010     2.1080 
   99.1250    -9.6250    67.8220     5.3330     5.9710     5.2230     2.1050 
   99.2500    -9.7840    68.8800     5.2970     5.9500     4.6660     2.0910 
   99.3750    -9.9130    70.0910     5.2910     5.9780     4.6230     2.0830 
   99.5000   -10.0110    71.0550     5.3200     6.0440     4.6020     2.0860 
   99.6250   -10.1540    71.3380     5.3550     6.1140     4.5840     2.0870 
   99.7500   -10.2490    70.3880     5.3790     6.1620     4.7160     2.0810 
   99.8750   -10.3280    69.6890     5.3680     6.1570     4.8450     2.0790 
  100.0000   -10.3840    71.0610     5.3300     6.1200     4.8390     2.0880 
  100.1250   -10.5350    74.2300     5.3100     6.1030     4.8140     2.0990 
  100.2500   -10.6490    76.6400     5.3260     6.1210     4.7790     2.0990 
  100.3750   -10.5610    75.8300     5.3920     6.1980     4.7330     2.0900 
  100.5000   -10.2790    73.3010     5.5010     6.3350     4.7370     2.0840 
  100.6250    -9.9430    72.0410     5.6160     6.4780     4.7800     2.0840 
  100.7500    -9.6040    72.7640     5.7270     6.6140     4.7990     2.0840 
  100.8750    -9.2960    73.6720     5.8020     6.7040     4.8020     2.0770 
  101.0000    -8.9840    72.8940     5.8540     6.7580     4.8630     2.0700 
  101.1250    -8.7210    71.4470     5.8900     6.7540     4.9030     2.0690 
  101.2500    -8.5230    71.3780     5.9240     6.7310     5.0090     2.0760 
  101.3750    -8.3500    72.4710     5.9620     6.7070     5.1700     2.0830 
