~V
VERS. 2.00: Ver 2.00
~W
STRT.M 50.0000:
STOP.M 193.0000:
STEP.M 0.1250:
NULL. -999.2500:
UWI. F12006:
~C
DEPT.M :
SP.MV :
GR.API :
RI. :
RML.OHMM :
RXO.OHMM :
DEN.GM/CC :
~A
# ...
   75.7500   -48.9980    68.7100     6.7430     7.5800     9.8040     2.1180 
   75.8750   -50.1070    71.3120     6.2900     7.1040    10.3960     2.1060 
   76.0000   -51.0510    70.4820     6.4070     7.2280    10.7820     2.0950 
   76.1250   -51.7870    68.2090     6.7600     7.5980    10.9790     2.1030 
   76.2500   -52.3150    66.2550     7.0990     7.9540    11.2320     2.1180 
   76.3750   -52.5990    65.1790     7.3300     8.1960    11.3050     2.1190 
   76.5000   -52.6320    65.7470     7.4020     8.2730    11.2620     2.1100 
   76.6250   -52.3720    68.3670     7.2850     8.1490    11.2350     2.1080 
   76.7500   -51.8370    70.9110     6.9820     7.8310    10.7210     2.1150 
   76.8750   -51.0200    70.6360     6.4490     7.2710     9.9870     2.1270 
   77.0000   -49.9740    71.5560     5.8410     6.6330     7.3780     2.1500 
   77.1250   -48.7380    78.9860     5.2390     6.0010     6.1730     2.1860 
   77.2500   -47.4030    90.3140     4.7660     5.5040     5.1350     2.2160 
   77.3750   -46.0630    98.3560     4.4880     5.2130     5.0020     2.2210 
   77.5000   -44.8160   102.3850     4.3700     5.0880     5.2570     2.2190 
   77.6250   -43.7600   104.0400     4.4010     5.1210     5.3410     2.2300 
   77.7500   -42.9200   105.1200     4.5080     5.2340     5.1620     2.2450 
   77.8750   -42.3020   105.6220     4.6250     5.3560     5.0020     2.2420 
   78.0000   -41.8360   105.6850     4.7200     5.4560     5.0510     2.2350 
   78.1250   -41.4660   104.8880     4.7810     5.5200     5.1890     2.2480 
   78.2500   -41.1390   105.9830     4.7790     5.5180     5.2730     2.2790 
   78.3750   -40.8330   109.2430     4.7080     5.4430     5.3370     2.2970 
   78.5000   -40.5390   110.4010     4.6010     5.3310     5.1970     2.2890 
   78.6250   -40.2610   107.6290     4.5210     5.2470     4.7930     2.2670 
   78.7500   -40.0050   105.1460     4.5220     5.2480     4.7500     2.2490 
   78.8750   -39.7910   104.8960     4.6010     5.3310     5.2390     2.2370 
   79.0000   -39.6370   104.3650     4.7010     5.4360     5.7160     2.2320 
   79.1250   -39.5670   103.5570     4.7580     5.4960     5.8630     2.2390 
   79.2500   -39.5790   104.6140     4.7140     5.4500     5.7040     2.2540 
   79.3750   -39.6640   107.6830     4.5080     5.2340     5.5760     2.2710 
   79.5000   -39.7940   109.1110     4.2350     4.9470     5.4980     2.2840 
   79.6250   -39.9450   110.6220     4.0490     4.7510     5.3380     2.2920 
   79.7500   -40.1060   115.3750     4.3140     5.0300     5.3540     2.3150 
   79.8750   -40.2800   119.5960     5.3570     6.1250     9.4080     2.3880 
   80.0000   -40.4820   117.1190     7.2230     8.0840    33.7070     2.5030 
   80.1250   -40.7350   105.1550     9.8930    10.8870    72.3100     2.5870 
   80.2500   -41.0520    87.3430    12.5590    13.6870    80.1830     2.5570 
   80.3750   -41.4520    71.6250    13.5340    14.7110    51.4760     2.4050 
   80.5000   -41.9280    66.6810    12.9760    14.1250    24.9450     2.2310 
   80.6250   -42.4740    72.2820    10.9240    11.9700    14.6060     2.1370 
   80.7500   -43.0590    75.1780     8.8830     9.8280    12.4810     2.1210 
   80.8750   -43.6490    71.4070     7.8920     8.7870    12.3510     2.1330 
   81.0000   -44.2060    68.4040     7.6730     8.5570    11.9640     2.1400 
   81.1250   -44.6880    68.8660     7.9640     8.8620    11.5720     2.1430 
   81.2500   -45.0810    69.4980     8.4940     9.4190    11.6660     2.1540 
   81.3750   -45.3770    68.4010     9.0720    10.0260    12.7630     2.1780 
   81.5000   -45.5970    66.2280     9.5880    10.5670    16.0730     2.1900 
   81.6250   -45.7560    62.7440     9.8180    10.8090    17.8520     2.1670 
   81.7500   -45.8590    59.6830     9.7110    10.6970    15.0930     2.1270 
   81.8750   -45.8840    60.9590     9.3700    10.3390    12.4790     2.0980 
   82.0000   -45.8240    65.9300     8.9400     9.8870    11.9680     2.0890 
   82.1250   -45.6880    70.6370     8.5570     9.4850    11.7460     2.0980 
   82.2500   -45.5320    70.7730     8.3060     9.2220    11.6170     2.1170 
   82.3750   -45.4300    68.2320     8.1680     9.0760    11.4670     2.1350 
   82.5000   -45.4300    68.5550     8.0530     8.9550    11.2610     2.1410 
   82.6250   -45.5550    72.3090     7.9700     8.8690    11.4960     2.1420 
   82.7500   -45.7640    73.8360     7.9100     8.8060    11.8630     2.1410 
   82.8750   -46.0010    71.2980     7.9090     8.8040    11.4330     2.1320 
   83.0000   -46.2150    69.9410     7.9570     8.8550    10.5960     2.1180 
   83.1250   -46.3760    73.7770     8.0360     8.9380    10.4310     2.1090 
   83.2500   -46.4860    77.8490     8.1250     9.0310    11.0830     2.1090 
   83.3750   -46.5530    78.6360     8.1830     9.0920    11.8330     2.1090 
   83.5000   -46.5910    76.2840     8.2070     9.1170    11.9020     2.1040 
   83.6250   -46.6020    72.0350     8.1690     9.0780    11.3820     2.0940 
   83.7500   -46.5820    67.5370     8.1110     9.0170    11.0990     2.0850 
   83.8750   -46.5020    64.4590     8.0430     8.9460    11.1660     2.0870 
   84.0000   -46.3240    64.4410     7.8760     8.7700    11.2320     2.0990 
   84.1250   -45.9750    65.7500     7.5180     8.3940    11.1520     2.1190 
   84.2500   -45.4110    66.8220     6.9210     7.7670    10.7450     2.1500 
   84.3750   -44.5760    69.8320     6.2010     7.0110     8.3940     2.1920 
   84.5000   -43.5030    77.0430     5.5260     6.3030     5.9540     2.2280 
   84.6250   -42.2530    85.2260     5.0310     5.7830     5.2780     2.2470 
   84.7500   -40.9620    90.6630     4.7120     5.4480     5.0230     2.2550 
   84.8750   -39.7810    93.5020     4.5930     5.3220     4.9200     2.2590 
   85.0000   -38.8100    96.8860     4.5880     5.3170     4.9250     2.2610 
   85.1250   -38.1070   100.7760     4.6480     5.3800     5.1220     2.2620 
   85.2500   -37.6260   103.5590     4.7750     5.5130     5.6480     2.2650 
   85.3750   -37.3220   103.4870     4.9270     5.6740     5.8730     2.2630 
   85.5000   -37.1340   100.2280     5.0550     5.8080     5.5410     2.2530 
   85.6250   -37.0510    95.5610     5.1430     5.9000     5.4720     2.2490 
   85.7500   -37.0620    92.9020     5.1650     5.9240     5.5250     2.2600 
   85.8750   -37.1730    92.1790     5.1690     5.9280     5.1790     2.2730 
   86.0000   -37.3600    90.8270     5.1850     5.9440     5.0330     2.2670 
   86.1250   -37.5990    87.9200     5.2330     5.9950     5.3010     2.2480 
   86.2500   -37.8540    85.0810     5.2970     6.0620     5.5900     2.2320 
   86.3750   -38.1030    83.5010     5.3910     6.1600     5.8180     2.2230 
   86.5000   -38.3280    81.0030     5.4840     6.2580     5.9140     2.2180 
   86.6250   -38.5070    76.6280     5.5200     6.2960     5.9430     2.2180 
   86.7500   -38.6110    74.1440     5.5200     6.2960     6.5580     2.2220 
   86.8750   -38.6060    75.9070     5.5380     6.3150     7.2990     2.2250 
   87.0000   -38.4910    79.0630     5.6740     6.4580     7.2270     2.2220 
   87.1250   -38.2840    80.3670     5.9260     6.7220     6.9690     2.2330 
   87.2500   -38.0300    80.3170     6.1720     6.9810     7.0320     2.2820 
   87.3750   -37.7670    78.2770     6.3040     7.1190     8.1080     2.3440 
   87.5000   -37.5140    74.7460     6.2480     7.0600     8.7300     2.3610 
   87.6250   -37.2730    72.9270     6.0060     6.8070     7.0020     2.3180 
   87.7500   -37.0420    75.4170     5.6930     6.4770     5.6730     2.2660 
   87.8750   -36.8380    80.3760     5.4210     6.1920     6.1190     2.2350 
   88.0000   -36.6940    83.7580     5.2960     6.0610     6.6770     2.2140 
   88.1250   -36.6570    83.2050     5.3150     6.0810     6.6800     2.2090 
   88.2500   -36.7300    80.2640     5.4100     6.1810     6.6330     2.2250 
   88.3750   -36.8780    77.9700     5.4860     6.2610     6.4680     2.2500 
   88.5000   -37.0270    76.6070     5.5800     6.3590     6.1820     2.2530 
