~V
VERS. 2.00: Ver 2.00
~W
STRT.M 50.0000:
STOP.M 256.0000:
STEP.M 0.1250:
NULL. -999.2500:
UWI. F12009:
~C
DEPT.M :
SP.MV :
GR.API :
RI. :
RML.OHMM :
RXO.OHMM :
DEN.GM/CC :
~A
# ...
   62.8750   -17.1530    89.8580     5.1730     5.9310     5.8220     2.1510 
   63.0000   -16.3070    91.9770     5.0580     5.8110     5.2640     2.1600 
   63.1250   -15.4220    91.7130     5.0030     5.7530     5.6860     2.1760 
   63.2500   -14.7780    92.1210     5.0210     5.7720     6.6570     2.2040 
   63.3750   -14.4810    93.3560     5.1290     5.8850     6.3100     2.2270 
   63.5000   -14.5470    92.7160     5.2310     5.9920     5.3800     2.2240 
   63.6250   -14.8100    90.0490     5.2260     5.9870     5.5250     2.1910 
   63.7500   -15.0660    88.4630     5.1320     5.8890     6.3060     2.1480 
   63.8750   -15.2730    90.4740     4.9740     5.7230     6.4770     2.1220 
   64.0000   -15.5170    93.5710     4.8000     5.5400     6.0170     2.1230 
   64.1250   -15.7120    93.3690     4.6830     5.4170     5.8570     2.1390 
   64.2500   -15.7980    91.6290     4.5750     5.3040     5.7400     2.1570 
   64.3750   -15.9690    94.3120     4.5130     5.2380     5.3340     2.1750 
   64.5000   -16.1310   100.9550     4.5390     5.2660     5.1830     2.1850 
   64.6250   -15.8490   105.0170     4.5820     5.3110     5.1900     2.1840 
   64.7500   -15.1340   105.0000     4.5920     5.3210     5.4550     2.1740 
   64.8750   -14.3100   102.9430     4.5890     5.3180     5.8230     2.1670 
   65.0000   -13.6720   102.0640     4.6000     5.3300     5.5750     2.1660 
   65.1250   -13.5420   101.9800     4.6190     5.3500     5.1970     2.1720 
   65.2500   -13.8380   100.9760     4.6630     5.3960     5.2870     2.1780 
   65.3750   -14.3620    99.5480     4.7200     5.4560     5.6720     2.1760 
   65.5000   -15.0350    98.5710     4.7820     5.5210     5.7420     2.1630 
   65.6250   -15.6540    97.8340     4.8390     5.5810     5.7150     2.1480 
   65.7500   -15.7580    96.9210     4.8690     5.6130     6.0970     2.1380 
   65.8750   -15.3660    95.7510     4.8830     5.6270     6.3170     2.1380 
   66.0000   -14.8080    94.9360     4.8870     5.6320     6.2780     2.1480 
   66.1250   -14.1940    94.6840     4.8610     5.6040     6.0530     2.1570 
   66.2500   -13.6890    96.6210     4.7690     5.5080     5.6160     2.1570 
   66.3750   -13.4790   100.8800     4.6030     5.3340     5.4390     2.1580 
   66.5000   -13.6520   103.1510     4.4100     5.1310     5.3720     2.1760 
   66.6250   -14.0300   103.5980     4.2460     4.9580     5.1180     2.2090 
   66.7500   -14.4350   105.8840     4.2020     4.9120     4.9870     2.2380 
   66.8750   -14.7400   110.4600     4.3530     5.0700     4.9330     2.2560 
   67.0000   -14.9100   111.6660     4.6170     5.3480     5.0440     2.2720 
   67.1250   -15.2170   105.8840     4.9380     5.6850     5.5990     2.2850 
   67.2500   -15.7950    98.7150     5.1410     5.8980     5.9830     2.2760 
   67.3750   -16.4390    96.0860     5.0750     5.8290     5.8990     2.2380 
   67.5000   -17.0190    96.5080     4.8970     5.6410     5.6380     2.2030 
   67.6250   -17.3580    98.3760     4.6670     5.4010     5.1900     2.1950 
   67.7500   -17.3650   100.9130     4.5200     5.2460     5.2180     2.1940 
   67.8750   -17.0550   101.5080     4.5020     5.2270     5.9900     2.1790 
   68.0000   -16.6390    99.1430     4.5360     5.2630     6.2590     2.1620 
   68.1250   -16.4140    98.4100     4.5980     5.3280     5.7690     2.1680 
   68.2500   -16.4150   101.1370     4.6860     5.4200     5.2620     2.1860 
   68.3750   -16.8020   101.4970     4.8250     5.5660     5.3570     2.1870 
   68.5000   -17.5990    97.3770     5.0290     5.7810     6.3820     2.1560 
   68.6250   -18.7960    91.3470     5.3280     6.0940     7.3430     2.1140 
   68.7500   -20.1320    83.5340     5.6870     6.4710     7.5470     2.0870 
   68.8750   -21.0000    75.5990     5.9190     6.7150     9.2330     2.0780 
   69.0000   -21.1460    71.9220     5.9760     6.7740    16.5110     2.0750 
   69.1250   -20.7350    73.6160     5.8510     6.6430    20.7450     2.0780 
   69.2500   -20.1960    76.5110     5.5840     6.3630    13.7370     2.0830 
   69.3750   -19.7200    77.3170     5.3010     6.0660     7.3390     2.0880 
   69.5000   -19.3550    78.1480     5.0530     5.8060     6.4230     2.1000 
   69.6250   -19.2260    81.1340     4.8890     5.6340     6.2420     2.1230 
   69.7500   -19.2230    86.0250     4.8750     5.6190     6.1060     2.1430 
   69.8750   -19.3380    88.0520     4.9900     5.7400     6.1390     2.1480 
   70.0000   -19.7150    86.4010     5.1760     5.9350     6.8620     2.1350 
   70.1250   -20.3470    83.8130     5.3880     6.1580     7.7090     2.1090 
   70.2500   -21.0200    81.3500     5.5790     6.3580     8.1090     2.0800 
   70.3750   -21.7970    78.4060     5.7420     6.5290     8.0680     2.0610 
   70.5000   -22.5120    75.3300     5.8580     6.6510     7.9540     2.0630 
   70.6250   -23.0530    73.5060     6.0070     6.8070     8.2700     2.0800 
   70.7500   -23.4750    73.6520     6.2940     7.1090     8.7610     2.0860 
   70.8750   -23.7240    73.7490     6.6070     7.4380     8.6110     2.0720 
   71.0000   -23.6850    71.8630     6.8190     7.6600     8.0670     2.0750 
   71.1250   -23.2040    69.3380     6.8000     7.6400     8.0660     2.1180 
   71.2500   -22.5090    69.8280     6.5210     7.3470     8.3420     2.1600 
   71.3750   -21.7750    72.4080     6.0890     6.8930     8.3280     2.1490 
   71.5000   -21.3690    73.9380     5.6410     6.4230     8.1190     2.1030 
   71.6250   -21.6340    74.3870     5.2840     6.0480     7.7920     2.0780 
   71.7500   -22.4000    74.0180     5.0740     5.8280     7.5800     2.0790 
   71.8750   -23.4780    72.8730     5.0190     5.7700     7.5960     2.0790 
   72.0000   -24.5230    71.4490     5.0240     5.7750     7.6310     2.0610 
   72.1250   -25.0840    69.9930     5.0980     5.8530     7.5530     2.0400 
   72.2500   -25.0010    67.6200     5.3310     6.0970     7.4990     2.0350 
   72.3750   -24.5360    65.3550     5.6600     6.4430     7.8670     2.0680 
   72.5000   -23.9900    65.6960     5.9710     6.7690     8.1790     2.1510 
   72.6250   -23.4970    67.9820     6.1440     6.9510     7.9020     2.2430 
   72.7500   -23.1120    68.9880     6.0310     6.8330     7.9700     2.2660 
   72.8750   -22.9560    66.9690     5.7460     6.5330     8.4960     2.2010 
   73.0000   -22.9190    64.9640     5.3520     6.1200     8.3160     2.1190 
   73.1250   -22.9330    63.9670     4.9900     5.7390     7.7740     2.0760 
   73.2500   -23.0270    64.5730     4.7610     5.4990     7.6530     2.0650 
   73.3750   -23.1290    66.7180     4.6550     5.3870     7.5230     2.0640 
   73.5000   -23.2950    69.2510     4.6190     5.3500     7.3430     2.0610 
   73.6250   -23.5970    69.8800     4.6040     5.3340     7.4350     2.0550 
   73.7500   -23.9090    68.5240     4.6180     5.3490     7.5130     2.0520 
   73.8750   -23.9900    68.6240     4.6550     5.3880     7.5070     2.0530 
   74.0000   -23.9500    70.2790     4.7070     5.4420     7.5540     2.0620 
   74.1250   -23.7550    70.8210     4.7700     5.5090     7.4900     2.0770 
   74.2500   -23.2210    70.5180     4.8270     5.5680     7.4980     2.0870 
   74.3750   -22.3850    71.0170     4.8770     5.6210     7.6810     2.0830 
   74.5000   -21.4340    72.1610     4.9190     5.6650     7.7540     2.0750 
   74.6250   -20.5000    71.7480     4.9500     5.6980     7.6500     2.0730 
   74.7500   -19.8640    70.7170     4.9770     5.7250     7.6160     2.0730 
   74.8750   -19.6590    71.9770     5.0060     5.7560     7.9790     2.0720 
   75.0000   -19.6370    73.8100     5.0210     5.7720     8.3190     2.0760 
   75.1250   -19.6030    72.7680     4.9930     5.7430     8.1700     2.0790 
   75.2500   -19.3280    70.8640     4.8940     5.6390     7.9360     2.0800 
   75.3750   -18.4520    73.5190     4.7420     5.4790     7.4380     2.0900 
   75.5000   -16.9680    78.7110     4.5570     5.2850     6.3970     2.1260 
   75.6250   -15.0960    83.5580     4.4060     5.1260     5.9270     2.1780 
