~V
VERS. 2.00: Ver 2.00
~W
STRT.M 50.0000:
STOP.M 256.0000:
STEP.M 0.1250:
NULL. -999.2500:
UWI. F12009:
~C
DEPT.M :
SP.MV :
GR.API :
RI. :
RML.OHMM :
RXO.OHMM :
DEN.GM/CC :
~A
# ...
  153.0000     3.3940    71.4460     9.2300     8.9740    10.3580     2.4040 
  153.1250     3.0680    81.0090     6.7280     6.4850     6.1090     2.3320 
  153.2500     2.7530    88.8070     5.6480     5.5130     5.4530     2.2910 
  153.3750     2.7430    91.0210     5.5410     5.5640     5.4700     2.2650 
  153.5000     3.1940    89.1650     5.9070     6.0700     6.1340     2.2330 
  153.6250     3.8500    85.9680     6.4910     6.7240     6.9130     2.2020 
  153.7500     4.4420    82.9020     6.9880     7.2150     7.2230     2.1870 
  153.8750     4.5990    81.4280     7.2900     7.4440     7.0900     2.1890 
  154.0000     4.2860    81.6610     7.4850     7.5500     6.8790     2.1960 
  154.1250     3.7310    81.4040     7.7200     7.7380     6.8960     2.2010 
  154.2500     3.1020    80.0670     8.3260     8.3660     7.6050     2.2010 
  154.3750     2.7260    80.0890     9.4860     9.6340     8.8650     2.2160 
  154.5000     2.7970    81.1140    11.0350    11.3660    11.1020     2.2600 
  154.6250     3.2670    78.5020    12.6710    13.2740    14.3000     2.2990 
  154.7500     3.7840    73.3180    13.9500    14.8310    15.2360     2.2690 
  154.8750     4.2090    69.8230    14.4870    15.5470    13.1260     2.1760 
  155.0000     4.4450    69.2420    14.3080    15.4540    11.2210     2.0970 
  155.1250     4.5370    69.4700    13.6740    14.8660    11.3680     2.0700 
  155.2500     4.5330    68.6900    13.2630    14.5930    12.4600     2.0680 
  155.3750     4.4430    68.7800    13.5940    15.2090    12.0610     2.0690 
  155.5000     4.2520    72.3190    14.7310    16.7180    12.2840     2.0770 
  155.6250     4.0590    77.3080    16.7080    19.2210    16.7470     2.0910 
  155.7500     3.9060    78.2610    19.3280    22.5000    21.6410     2.0980 
  155.8750     3.7140    73.4870    22.0480    25.6980    23.6080     2.0920 
  156.0000     3.4480    69.9350    23.9320    27.7790    25.0130     2.0890 
  156.1250     3.2330    69.0780    24.8000    28.6020    27.8610     2.1120 
  156.2500     2.9840    67.1010    24.7450    28.3750    30.5660     2.1600 
  156.3750     2.6920    61.9880    24.3820    28.0110    30.2370     2.2070 
  156.5000     2.6410    59.0470    23.9910    27.7220    28.7440     2.2410 
  156.6250     3.0580    60.8510    23.0640    26.8440    28.6520     2.2570 
  156.7500     3.7430    63.8750    21.4280    25.0680    28.9460     2.2580 
  156.8750     4.4200    65.0360    18.8910    22.0870    27.2730     2.2530 
  157.0000     4.8110    66.5350    15.4280    17.8730    26.1500     2.2500 
  157.1250     4.6200    70.5720    11.7520    13.3870    26.2010     2.2450 
  157.2500     4.0620    76.7460     8.7200     9.7600    19.5410     2.2350 
  157.3750     3.3800    82.2700     6.8310     7.5670     9.5820     2.2320 
  157.5000     2.8140    86.2700     6.0800     6.7470     5.6420     2.2390 
  157.6250     2.6650    90.1010     5.9480     6.6680     5.7300     2.2300 
  157.7500     2.9090    95.1420     6.1530     6.9770     6.0890     2.1980 
  157.8750     3.3180    98.3980     6.5200     7.4240     6.4700     2.1710 
  158.0000     3.6820    97.2070     6.7790     7.6770     6.7770     2.1810 
  158.1250     3.9860    93.6710     6.7580     7.5570     6.5760     2.2340 
  158.2500     4.1770    91.6430     6.4730     7.1290     6.0190     2.2880 
  158.3750     4.3400    93.6370     6.0500     6.5850     5.6810     2.3030 
  158.5000     4.4790    97.1900     5.6600     6.1200     5.5040     2.2790 
  158.6250     4.4640   100.5850     5.3620     5.7760     5.4100     2.2550 
  158.7500     4.3060   101.4940     5.1440     5.5260     5.6140     2.2540 
  158.8750     4.1810   102.4610     5.0550     5.4200     5.5920     2.2610 
  159.0000     3.9840   105.8090     5.0680     5.4250     5.0010     2.2530 
  159.1250     3.6790   108.6790     5.2870     5.6990     4.8470     2.2340 
  159.2500     3.4310   106.4580     5.7210     6.2390     5.6510     2.2200 
  159.3750     3.1850    99.0880     6.3160     6.9360     6.6380     2.2190 
  159.5000     2.8990    94.3460     6.8770     7.5580     8.2960     2.2220 
  159.6250     2.8480    95.1510     7.1700     7.8540    10.2670     2.2250 
  159.7500     3.2140    97.6560     7.1390     7.7670     9.7010     2.2290 
  159.8750     3.9670    99.2960     6.8350     7.4120     7.4590     2.2310 
  160.0000     4.8420   100.7530     6.4190     6.9700     6.4950     2.2230 
  160.1250     5.5180   101.7550     6.0710     6.6060     6.3940     2.2110 
  160.2500     5.6830   100.2040     5.9120     6.4900     6.2850     2.2080 
  160.3750     5.3930    97.7700     6.0330     6.7100     6.3460     2.2130 
  160.5000     4.9100    97.2690     6.4610     7.2780     6.6020     2.2180 
  160.6250     4.4450    96.7780     7.0710     8.0210     8.1460     2.2260 
  160.7500     4.2420    93.4470     7.8940     8.9750    12.2380     2.2430 
  160.8750     4.4790    87.1590     8.9380    10.1320    14.6610     2.2720 
  161.0000     4.9670    82.7710    10.1710    11.4900    12.1050     2.2920 
  161.1250     5.4060    82.6030    11.6350    13.1450    11.1610     2.2800 
  161.2500     5.7540    83.4620    13.4750    15.3030    16.2630     2.2310 
  161.3750     5.9680    81.0570    16.1500    18.4310    23.5840     2.1730 
  161.5000     6.0220    75.8150    19.2810    21.9440    26.6470     2.1540 
  161.6250     5.9340    72.7370    21.8850    24.6760    27.0390     2.2090 
  161.7500     5.6760    71.9090    23.5900    26.3550    30.2450     2.3120 
  161.8750     5.3390    69.7840    24.6720    27.4360    32.5930     2.4170 
  162.0000     5.0110    65.4730    26.0280    28.9880    33.4800     2.4990 
  162.1250     4.7130    62.4090    27.8040    31.0750    34.6260     2.5470 
  162.2500     4.3130    61.3940    29.6090    33.1530    35.7510     2.5590 
  162.3750     3.9820    60.2210    30.9700    34.6170    36.8680     2.5220 
  162.5000     3.6990    58.7480    31.7390    35.3780    35.6330     2.4540 
  162.6250     3.4350    58.6310    31.9220    35.4560    33.5520     2.3980 
  162.7500     3.2960    59.4540    31.5830    34.9400    34.8930     2.3780 
  162.8750     3.5160    61.0630    30.8640    34.0420    36.6030     2.3880 
  163.0000     4.1090    62.9450    30.3680    33.4000    35.3700     2.4040 
  163.1250     4.9180    64.2520    30.5640    33.5480    34.7720     2.4200 
  163.2500     5.5980    63.4720    31.2870    34.3000    34.8480     2.4220 
  163.3750     5.7320    60.3670    32.5480    35.7010    40.7430     2.4170 
  163.5000     5.3710    56.8960    34.1460    37.5140    50.4250     2.4220 
  163.6250     4.7620    56.2400    35.6310    38.9870    47.4490     2.4420 
  163.7500     4.0920    56.6880    35.8770    38.9070    39.2060     2.4660 
  163.8750     3.6500    55.8170    34.8840    37.4860    40.5870     2.4950 
  164.0000     3.6790    55.7070    32.8270    34.8640    41.7070     2.5130 
  164.1250     3.9960    58.0870    30.4480    32.1640    33.8060     2.4970 
  164.2500     4.3370    60.0650    28.6790    30.2200    25.9690     2.4540 
  164.3750     4.6110    58.8230    27.4880    28.9600    25.1230     2.4230 
  164.5000     4.8450    56.8360    26.9490    28.5130    26.8400     2.4190 
  164.6250     4.9670    57.6530    27.1580    28.8450    26.4410     2.4300 
  164.7500     4.9640    59.5550    27.8050    29.5580    24.2440     2.4330 
  164.8750     4.8860    61.0110    28.5550    30.2760    23.2330     2.4190 
  165.0000     4.6960    61.8670    29.3470    31.0260    24.8950     2.4030 
  165.1250     4.5060    60.6070    30.1110    31.7470    27.4240     2.3970 
  165.2500     4.3600    57.6630    30.6790    32.2380    28.0960     2.4010 
  165.3750     4.1300    54.7660    31.0960    32.5860    28.8860     2.4080 
  165.5000     3.8110    53.9900    31.8330    33.3170    30.5550     2.4120 
  165.6250     3.5570    54.1030    32.9820    34.6220    29.5920     2.4090 
  165.7500     3.2350    54.2610    34.4510    36.3720    27.6370     2.4240 
