~V
VERS. 2.00: Ver 2.00
~W
STRT.M 50.0000:
STOP.M 247.0000:
STEP.M 0.1250:
NULL. -999.2500:
UWI. F12010:
~C
DEPT.M :
SP.MV :
GR.API :
RI. :
RML.OHMM :
RXO.OHMM :
DEN.GM/CC :
~A
# ...
  140.1250   -11.6240    93.8620     3.7410     4.4280     3.6140     2.1850 
  140.2500   -11.7660    91.4830     4.7820     5.5210     5.9330     2.2930 
  140.3750   -11.6950    86.0840     6.1130     6.9190     9.2000     2.3970 
  140.5000   -11.5020    77.9110     7.3570     8.2250     9.1120     2.4340 
  140.6250   -11.1710    70.6400     8.0590     8.9620     6.3350     2.3650 
  140.7500   -10.6130    67.5390     8.1370     9.0440     5.0150     2.2380 
  140.8750   -10.1590    67.6740     7.8100     8.7000     5.4710     2.1290 
  141.0000    -9.7590    67.6850     7.5160     8.3920     6.1040     2.0740 
  141.1250    -9.2810    66.6310     7.3820     8.2520     6.2670     2.0600 
  141.2500    -8.7110    64.6750     7.2670     8.1310     6.1610     2.0670 
  141.3750    -8.2400    61.7230     6.9510     7.7990     5.5530     2.0900 
  141.5000    -8.2030    61.5350     6.4760     7.3000     4.7570     2.1150 
  141.6250    -8.7420    66.3870     5.9790     6.7780     4.3790     2.1310 
  141.7500    -9.8570    70.9920     5.4720     6.2460     4.2430     2.1310 
  141.8750   -11.1360    71.2270     5.0130     5.7640     4.4800     2.1250 
  142.0000   -12.1730    70.8300     4.6250     5.3570     4.7260     2.1370 
  142.1250   -12.8460    74.2660     4.4050     5.1250     4.3650     2.1810 
  142.2500   -12.9160    80.0890     4.3560     5.0740     4.0250     2.2190 
  142.3750   -12.6560    84.5470     4.5610     5.2890     4.2780     2.1990 
  142.5000   -12.3600    84.8780     5.0410     5.7930     4.6770     2.1340 
  142.6250   -11.8000    80.3540     5.8480     6.6410     5.0200     2.0910 
  142.7500   -11.1930    74.8860     6.7360     7.5720     5.4200     2.1180 
  142.8750   -10.7680    70.8800     7.2710     8.1340     5.7060     2.2210 
  143.0000   -10.4570    68.2620     7.2210     8.0820     6.0500     2.3410 
  143.1250   -10.2930    68.7470     6.5360     7.3630     6.1810     2.4020 
  143.2500   -10.4130    72.4270     5.5890     6.3680     5.4290     2.3820 
  143.3750   -10.5690    78.4180     4.7210     5.4570     4.5520     2.3220 
  143.5000   -10.6410    84.3120     4.1500     4.8570     4.3650     2.2750 
  143.6250   -10.7000    88.1000     3.9250     4.6220     4.5700     2.2490 
  143.7500   -10.8980    88.4260     3.9360     4.6330     4.7930     2.2330 
  143.8750   -11.1170    86.2540     4.0600     4.7630     4.7800     2.2260 
  144.0000   -11.3590    85.7790     4.1720     4.8810     4.5430     2.2290 
  144.1250   -11.5830    87.7510     4.1950     4.9050     4.5440     2.2310 
  144.2500   -11.5360    88.9730     4.1720     4.8810     4.7450     2.2300 
  144.3750   -11.0630    88.8750     4.1270     4.8330     4.6110     2.2380 
  144.5000   -10.4540    88.7610     4.0840     4.7880     4.4120     2.2540 
  144.6250    -9.8490    88.0840     4.0490     4.7520     4.5580     2.2600 
  144.7500    -9.5960    86.3970     4.0160     4.7170     4.6280     2.2510 
  144.8750    -9.8560    86.9010     3.9790     4.6780     4.4340     2.2370 
  145.0000   -10.5970    89.1150     4.0700     4.7740     4.4470     2.2310 
  145.1250   -11.4970    88.1620     4.3090     5.0240     4.7100     2.2390 
  145.2500   -12.2610    83.0950     4.6300     5.3620     4.9380     2.2720 
  145.3750   -12.5600    76.7800     5.0320     5.7830     5.2360     2.3210 
  145.5000   -12.3330    72.3980     5.4100     6.1800     5.5220     2.3370 
  145.6250   -11.9000    71.3510     5.5800     6.3590     5.5660     2.2870 
  145.7500   -11.4170    72.9870     5.5030     6.2780     5.3540     2.2100 
  145.8750   -10.9860    75.1770     5.2840     6.0480     4.9410     2.1740 
  146.0000   -10.5760    75.6240     5.0070     5.7570     4.7350     2.1880 
  146.1250   -10.4170    74.8830     4.8980     5.6430     4.7900     2.2130 
  146.2500   -10.4470    75.9230     4.9240     5.6710     4.7650     2.2140 
  146.3750   -10.6950    77.9400     4.9340     5.6810     4.8480     2.1990 
  146.5000   -10.9190    78.6300     4.8540     5.5970     5.0240     2.1890 
  146.6250   -11.0320    77.0530     4.6600     5.3930     5.0010     2.1980 
  146.7500   -11.1290    76.0880     4.3780     5.0970     4.7350     2.2300 
  146.8750   -11.2630    78.0660     4.0930     4.7970     4.4270     2.2760 
  147.0000   -11.5220    81.2640     3.8860     4.5800     4.4400     2.3110 
  147.1250   -11.8710    83.7640     3.8030     4.4930     4.6430     2.3140 
  147.2500   -12.1500    85.0290     3.8440     4.5360     5.0730     2.2910 
  147.3750   -12.1600    84.4260     4.1420     4.8490     5.6880     2.2570 
  147.5000   -11.5870    82.3690     4.8170     5.5580     6.1450     2.2290 
  147.6250   -10.6390    80.2610     6.0860     6.8900     8.1590     2.2000 
  147.7500    -9.6400    77.8810     8.2430     9.1550    11.5290     2.1620 
  147.8750    -9.0330    74.0080    11.1040    12.1590    13.1510     2.1220 
  148.0000    -9.0160    68.8570    12.7960    13.9360    13.3780     2.0980 
  148.1250    -9.5710    65.6610    12.2260    13.3370    12.4360     2.0990 
  148.2500   -10.3930    67.3590     9.9190    10.9150     9.0120     2.1230 
  148.3750   -11.2190    74.4310     6.8380     7.6790     5.2970     2.1710 
  148.5000   -11.7560    82.7080     4.8660     5.6090     3.7610     2.2240 
  148.6250   -11.7530    87.0890     4.0220     4.7230     3.6390     2.2620 
  148.7500   -11.5260    88.4960     3.7240     4.4100     3.6510     2.2810 
  148.8750   -11.1970    89.4810     3.7340     4.4210     3.7600     2.2870 
  149.0000   -10.8950    89.3300     3.8880     4.5830     3.9820     2.2820 
  149.1250   -10.7490    89.1010     4.0870     4.7910     3.8440     2.2640 
  149.2500   -10.7360    88.5860     4.2870     5.0020     3.5380     2.2440 
  149.3750   -10.7800    85.2450     4.4780     5.2020     3.7890     2.2320 
  149.5000   -11.0440    81.5910     4.6120     5.3430     4.2950     2.2300 
  149.6250   -11.4530    82.9620     4.6600     5.3930     4.4730     2.2400 
  149.7500   -11.8780    86.8790     4.6280     5.3600     4.3010     2.2640 
  149.8750   -12.2240    86.6370     4.5170     5.2430     3.9520     2.2990 
  150.0000   -12.4580    83.8780     4.3190     5.0350     3.7830     2.3240 
  150.1250   -12.6020    82.4180     4.0750     4.7790     3.9040     2.3240 
  150.2500   -12.6070    81.9910     3.9110     4.6070     3.9060     2.3100 
  150.3750   -12.5170    82.3860     3.9430     4.6400     3.7210     2.3050 
  150.5000   -12.3390    83.2100     4.2800     4.9940     4.3150     2.3010 
  150.6250   -11.8680    80.4440     5.2310     5.9930     6.9320     2.2710 
  150.7500   -11.0810    74.4120     7.4630     8.3360    10.6940     2.2190 
  150.8750   -10.0620    68.8320    11.7710    12.8600    12.6840     2.1770 
  151.0000    -9.0980    65.3950    17.8830    19.2770    15.8280     2.1840 
  151.1250    -8.6470    63.2900    23.7780    25.4670    22.1340     2.2480 
  151.2500    -8.6600    61.5620    27.0490    28.9010    23.6160     2.3260 
  151.3750    -8.9550    60.6700    26.8700    28.7130    18.8130     2.3820 
  151.5000    -9.2710    58.6510    24.5520    26.2790    14.2210     2.4130 
  151.6250    -9.2160    55.7070    21.7550    23.3430    12.8940     2.4160 
  151.7500    -8.8130    54.5190    19.5510    21.0290    16.1810     2.4020 
  151.8750    -8.2140    57.0110    18.0610    19.4640    20.0110     2.3920 
  152.0000    -7.5280    59.0590    17.2800    18.6440    18.5900     2.3850 
  152.1250    -6.9010    57.7940    17.0710    18.4250    15.1060     2.3600 
  152.2500    -6.6090    56.3580    17.2540    18.6160    13.9300     2.3300 
  152.3750    -6.3210    57.5970    17.5720    18.9510    14.6330     2.3250 
  152.5000    -5.9750    59.3870    17.8670    19.2610    15.6740     2.3350 
  152.6250    -5.5490    59.0090    18.1770    19.5850    15.8980     2.3110 
  152.7500    -5.2590    56.5540    18.1530    19.5610    14.8450     2.2410 
  152.8750    -4.9520    56.0710    17.5620    18.9400    13.1280     2.1540 
