~V
VERS. 2.00: Ver 2.00
~W
STRT.M 50.0000:
STOP.M 178.0000:
STEP.M 0.1250:
NULL. -999.2500:
UWI. F12004:
~C
DEPT.M :
SP.MV :
GR.API :
RI. :
RML.OHMM :
RXO.OHMM :
DEN.GM/CC :
~A
# ...
  165.8750   102.9410    61.2970     5.8650     6.4530     6.5680     2.2540 
  166.0000   102.9410    61.8380     6.1550     6.7680     7.0220     2.2530 
  166.1250   102.9410    62.5470     6.3220     6.9350     7.1070     2.2530 
  166.2500   102.9410    63.2020     6.3370     6.9280     6.9020     2.2590 
  166.3750   102.9410    62.8110     6.2140     6.7630     6.5860     2.2690 
  166.5000   102.9410    61.7910     6.0350     6.5440     6.0440     2.2740 
  166.6250   102.9410    61.4340     5.9070     6.3990     5.5100     2.2700 
  166.7500   102.9410    61.8280     5.8700     6.3640     5.3620     2.2650 
  166.8750   102.9410    62.2830     5.9260     6.4400     5.6900     2.2600 
  167.0000   102.9410    62.9440     6.0260     6.5660     6.2090     2.2530 
  167.1250   102.9410    64.4050     6.0930     6.6480     6.5130     2.2480 
  167.2500   102.9410    65.5110     6.0840     6.6310     6.2850     2.2450 
  167.3750   102.9410    64.4010     5.9900     6.5080     5.8770     2.2430 
  167.5000   102.9410    61.1420     5.8670     6.3470     5.8300     2.2350 
  167.6250   102.9410    58.5020     5.7900     6.2390     5.8620     2.2280 
  167.7500   102.9410    58.9100     5.8190     6.2540     5.8300     2.2290 
  167.8750   102.9410    61.8280     5.9470     6.3880     6.0520     2.2380 
  168.0000   102.9410    63.9880     6.1130     6.5630     6.5590     2.2470 
  168.1250   102.9410    64.6300     6.2450     6.7100     6.8720     2.2490 
  168.2500   102.9410    64.2630     6.3020     6.7710     6.6940     2.2480 
  168.3750   102.9410    63.3540     6.2220     6.6840     6.3980     2.2440 
  168.5000   102.9410    62.5200     6.0260     6.4710     6.2240     2.2400 
  168.6250   102.9410    62.2940     5.7560     6.1770     5.9590     2.2430 
  168.7500   102.9410    62.0690     5.4870     5.8850     5.3980     2.2530 
  168.8750   102.9410    61.0770     5.3110     5.6950     4.8250     2.2640 
  169.0000   102.9410    60.5980     5.2630     5.6410     4.7810     2.2740 
  169.1250   102.9410    62.1660     5.3710     5.7590     5.2490     2.2740 
  169.2500   102.9410    65.6450     5.6090     6.0140     5.8470     2.2620 
  169.3750   102.9410    70.2360     5.9140     6.3420     6.5120     2.2480 
  169.5000   102.9410    73.9580     6.2160     6.6660     7.1230     2.2450 
  169.6250   102.9410    75.5290     6.4030     6.8570     7.3120     2.2510 
  169.7500   102.9410    76.0690     6.4330     6.8840     7.2000     2.2650 
  169.8750   102.9410    76.7550     6.3070     6.7430     7.2640     2.2820 
  170.0000   102.9410    77.0540     6.1270     6.5650     7.0920     2.2780 
  170.1250   102.9410    76.3030     5.9910     6.4330     6.5160     2.2550 
  170.2500   102.9410    75.5830     5.9460     6.4090     6.5200     2.2390 
  170.3750   102.9410    74.8860     5.9980     6.5120     7.1830     2.2520 
  170.5000   102.9410    73.0190     6.0700     6.5970     7.4920     2.2790 
  170.6250   102.9410    70.5720     6.0980     6.6350     7.0340     2.2970 
  170.7500   102.9410    68.9460     6.0580     6.5430     6.2470     2.3030 
  170.8750   102.9410    68.6090     5.9720     6.3720     5.8170     2.3010 
  171.0000   102.9410    68.6930     5.9000     6.2340     6.0650     2.2940 
  171.1250   102.9410    68.7010     5.8540     6.1230     6.2950     2.2840 
  171.2500   102.9410    68.7010     5.7930     6.0330     6.0950     2.2790 
  171.3750   102.9410    68.7010     5.6340     5.8580     6.3560     2.2780 
  171.5000   102.9410    68.7010     5.3870     5.5910     6.9920     2.2670 
  171.6250   102.9410    68.7010     5.0800     5.2590     6.4340     2.2490 
  171.7500   102.9410    68.7010     4.7750     4.9290     4.9240     2.2460 
  171.8750   102.9410    68.7010     4.5260     4.6960     3.9400     2.2680 
  172.0000   102.9410    68.7010     4.3580     4.5630     3.7130     2.3020 
  172.1250   102.9410    68.7010     4.2760     4.5270     3.6890     2.3330 
  172.2500   102.9410    68.7010     4.2500     4.5350     3.5700     2.3560 
  172.3750   102.9410    68.7010     4.2470     4.5380     3.7760     2.3680 
  172.5000   102.9410    68.7010     4.2450     4.5380     4.5000     2.3810 
  172.6250   102.9410    68.7010     4.2440     4.5380     5.2730     2.3820 
  172.7500   102.9410    68.7010     4.2430     4.5370     5.3930     2.3630 
  172.8750   102.9410    68.7010     4.2430     4.5370     4.9210     2.3330 
  173.0000   102.9410    68.7010     4.2460     4.5380     4.8180     2.3200 
  173.1250   102.9410    68.7010     4.2460     4.5410     5.1540     2.3300 
  173.2500   102.9410    68.7010     4.2470     4.5440     5.5510     2.3420 
  173.3750   102.9410    68.7010     4.2470     4.5440     6.1100     2.3500 
  173.5000   102.9410    68.7010     4.2470     4.5440     6.5080     2.3580 
  173.6250   102.9410    68.7010     4.2470     4.5440     6.4850     2.3640 
  173.7500   102.9410    68.7010     4.2470     4.5440     6.3000     2.3610 
  173.8750   102.9410    68.7010     4.2470     4.5440     6.7360     2.3620 
  174.0000   102.9410    68.7010     4.2470     4.5440     7.9910     2.3760 
  174.1250   102.9410    68.7010     4.2470     4.5440     9.3540     2.3800 
  174.2500   102.9410    68.7010     4.2470     4.5440    10.0500     2.3680 
  174.3750   102.9410    68.7010     4.2470     4.5440     9.4380     2.3740 
  174.5000   102.9410    68.7010     4.2470     4.5440     8.4900     2.4110 
  174.6250   102.9410    68.7010     4.2470     4.5440     8.9820     2.4440 
  174.7500   102.9410    68.7010     4.2470     4.5440    10.5330     2.4580 
  174.8750   102.9410    68.7010     4.2470     4.5440    11.4680     2.4690 
  175.0000   102.9410    68.7010     4.2470     4.5440    10.9680     2.4840 
  175.1250   102.9410    68.7010     4.2470     4.5440     9.0080     2.4820 
  175.2500   102.9410    68.7010     4.2470     4.5440     6.9390     2.4740 
  175.3750   102.9410    68.7010     4.2470     4.5440     5.6780     2.4720 
  175.5000   102.9410    68.7010     4.2470     4.5440     4.8930     2.4610 
  175.6250   102.9410    68.7010     4.2470     4.5440     4.3450     2.4390 
  175.7500   102.9410    68.7010     4.2470     4.5440     3.9770     2.4270 
  175.8750   102.9410    68.7010     4.2470     4.5440     3.8390     2.4390 
  176.0000   102.9410    68.7010     4.2470     4.5440     3.9120     2.4620 
  176.1250   102.9410    68.7010     4.2470     4.5440     4.1370     2.4750 
  176.2500   102.9410    68.7010     4.2470     4.5440     4.3890     2.4750 
  176.3750   102.9410    68.7010     4.2470     4.5440     4.5230     2.4500 
  176.5000   102.9410    68.7010     4.2470     4.5440     4.4120     2.3990 
  176.6250   102.9410    68.7010     4.2470     4.5440     4.3450     2.3380 
  176.7500   102.9410    68.7010     4.2470     4.5440     4.5040     2.2960 
  176.8750   102.9410    68.7010     4.2470     4.5440     4.7180     2.2870 
  177.0000   102.9410    68.7010     4.2470     4.5440     4.7750     2.2820 
  177.1250   102.9410    68.7010     4.2470     4.5440     4.6050     2.2670 
  177.2500   102.9410    68.7010     4.2470     4.5440     4.3980     2.2510 
  177.3750   102.9410    68.7010     4.2470     4.5440     4.1060     2.2510 
  177.5000   102.9410    68.7010     4.2470     4.5440     3.6170     2.2600 
  177.6250   102.9410    68.7010     4.2470     4.5440     3.2520     2.2680 
  177.7500   102.9410    68.7010     4.2470     4.5440     3.1620     2.2650 
  177.8750   102.9410    68.7010     4.2470     4.5440     3.1630     2.2570 
  178.0000   102.9410    68.7010     4.2470     4.5440     3.1630     2.2550 
