~V
VERS. 2.00: Ver 2.00
~W
STRT.M 50.0000:
STOP.M 300.0000:
STEP.M 0.1250:
NULL. -999.2500:
UWI. F12002:
~C
DEPT.M :
SP.MV :
GR.API :
RI. :
RML.OHMM :
RXO.OHMM :
DEN.GM/CC :
~A
# ...
  230.2500   -30.3780    52.2250    34.6510    37.2300    40.4350     2.1260 
  230.3750   -30.4220    56.1370    32.0540    34.4770    40.2140     2.1320 
  230.5000   -30.4280    60.9870    29.5460    31.8180    34.6860     2.1450 
  230.6250   -30.3940    61.7170    27.8440    30.0150    28.0840     2.1530 
  230.7500   -30.3220    58.8840    26.8750    28.9870    26.2680     2.1500 
  230.8750   -30.2050    55.8720    26.8700    28.9830    27.9300     2.1430 
  231.0000   -30.0390    54.3460    27.7370    29.9010    27.4880     2.1390 
  231.1250   -29.8180    53.4120    29.1480    31.3970    26.4150     2.1370 
  231.2500   -29.5470    54.1540    30.8780    33.2310    28.6600     2.1330 
  231.3750   -29.2430    54.4790    32.6880    35.1500    33.4660     2.1250 
  231.5000   -28.9290    53.1580    34.5650    37.1380    39.3590     2.1180 
  231.6250   -28.6270    51.2900    36.6280    39.3250    45.3040     2.1130 
  231.7500   -28.3410    49.8670    38.6840    41.5050    48.9720     2.1120 
  231.8750   -28.0740    48.9280    40.2010    43.1130    49.3060     2.1140 
  232.0000   -27.8250    48.6980    40.8860    43.8390    46.5630     2.1210 
  232.1250   -27.6010    49.8470    40.3670    43.2890    41.5760     2.1300 
  232.2500   -27.4080    51.3650    39.0250    41.8670    36.6950     2.1350 
  232.3750   -27.2560    53.2960    37.5870    40.3420    33.4870     2.1310 
  232.5000   -27.1470    54.6700    36.4670    39.1550    32.8620     2.1290 
  232.6250   -27.0930    54.1770    35.8760    38.5290    33.4980     2.1310 
  232.7500   -27.1000    53.0670    35.6440    38.2830    35.5040     2.1300 
  232.8750   -27.1760    51.5690    35.6340    38.2720    38.0430     2.1230 
  233.0000   -27.3100    51.0840    35.6570    38.2970    36.6970     2.1230 
  233.1250   -27.4880    51.8430    35.5040    38.1340    34.2170     2.1250 
  233.2500   -27.6820    53.7830    35.2570    37.8720    33.6190     2.1220 
  233.3750   -27.8720    54.2620    35.2690    37.8850    33.0540     2.1160 
  233.5000   -28.0450    53.4650    35.7060    38.3480    32.6680     2.1170 
  233.6250   -28.1990    53.2930    36.5550    39.2480    35.9680     2.1350 
  233.7500   -28.3410    54.0340    37.5790    40.3340    43.5420     2.1650 
  233.8750   -28.4730    53.6310    38.4380    41.2440    48.1900     2.1930 
  234.0000   -28.5940    52.2330    38.7950    41.6230    44.2910     2.1990 
  234.1250   -28.6870    51.5080    38.3750    41.1780    36.2140     2.1840 
  234.2500   -28.7390    51.7090    37.2760    40.0120    31.7630     2.1640 
  234.3750   -28.7260    52.3190    35.7110    38.3540    31.8070     2.1540 
  234.5000   -28.6470    53.8110    34.2300    36.7830    32.7060     2.1510 
  234.6250   -28.4960    55.7590    33.1050    35.5910    32.0310     2.1540 
  234.7500   -28.2870    56.1090    32.3600    34.8010    29.9600     2.1650 
  234.8750   -28.0270    54.2180    32.0170    34.4380    29.4730     2.1780 
  235.0000   -27.7390    52.5260    31.9160    34.3310    32.7240     2.1860 
  235.1250   -27.4480    52.0810    31.9980    34.4180    37.6110     2.1840 
  235.2500   -27.1810    52.4230    32.1100    34.5360    39.6210     2.1770 
  235.3750   -26.9570    52.2420    32.1730    34.6030    39.0830     2.1730 
  235.5000   -26.7710    52.7390    32.1460    34.5740    38.1900     2.1730 
  235.6250   -26.6130    54.9660    32.0670    34.4910    36.1710     2.1770 
  235.7500   -26.4730    56.8230    32.0000    34.4200    35.1890     2.1800 
  235.8750   -26.3450    55.5680    31.8830    34.2960    36.7860     2.1810 
  236.0000   -26.2270    53.6460    31.8140    34.2230    37.9790     2.1800 
  236.1250   -26.1200    52.3940    31.9840    34.4030    36.4560     2.1830 
  236.2500   -26.0270    51.5670    32.5230    34.9740    34.3170     2.1900 
  236.3750   -25.9500    51.1760    33.4270    35.9320    37.1530     2.1960 
  236.5000   -25.8850    52.5350    34.6190    37.1960    42.2010     2.1940 
  236.6250   -25.8300    54.2400    35.9360    38.5920    40.9320     2.1900 
  236.7500   -25.7730    55.4710    37.1140    39.8410    35.3990     2.1890 
  236.8750   -25.7080    55.9180    37.8610    40.6330    32.0880     2.1860 
  237.0000   -25.6330    55.5390    38.0830    40.8680    32.0010     2.1770 
  237.1250   -25.5500    53.7910    37.7650    40.5310    35.2050     2.1650 
  237.2500   -25.4700    52.5800    37.3130    40.0520    40.3910     2.1530 
  237.3750   -25.4050    55.0910    36.8880    39.6010    43.3000     2.1460 
  237.5000   -25.3550    59.1690    36.4550    39.1420    43.1420     2.1480 
  237.6250   -25.3180    60.7310    35.9010    38.5550    40.4920     2.1490 
  237.7500   -25.2840    60.2450    35.2560    37.8710    36.6990     2.1420 
  237.8750   -25.2510    59.8670    34.5790    37.1540    33.9740     2.1370 
  238.0000   -25.2310    58.5850    33.9780    36.5170    33.0940     2.1410 
  238.1250   -25.2450    56.5570    33.6120    36.1290    34.0090     2.1430 
  238.2500   -25.3040    56.2670    33.4900    35.9990    35.2390     2.1340 
  238.3750   -25.4110    57.7240    33.7070    36.2300    36.5570     2.1260 
  238.5000   -25.5460    58.4780    34.1000    36.6460    37.5440     2.1280 
  238.6250   -25.6860    58.4580    34.4820    37.0510    37.9020     2.1340 
  238.7500   -25.8130    56.9880    34.6930    37.2750    38.0960     2.1360 
  238.8750   -25.9160    54.1330    34.8000    37.3880    37.7790     2.1360 
  239.0000   -26.0010    52.6500    34.8920    37.4850    37.0180     2.1380 
  239.1250   -26.0770    53.2040    34.9080    37.5020    36.6990     2.1440 
  239.2500   -26.1600    53.3970    34.8450    37.4350    37.3880     2.1520 
  239.3750   -26.2630    54.2830    34.7340    37.3180    37.2650     2.1570 
  239.5000   -26.3870    56.1280    34.6320    37.2100    35.4520     2.1680 
  239.6250   -26.5220    58.1150    34.6160    37.1930    33.7850     2.1790 
  239.7500   -26.6490    58.3440    34.6630    37.2430    32.5720     2.1800 
  239.8750   -26.7470    57.2880    34.7320    37.3160    32.8240     2.1640 
  240.0000   -26.8090    55.7820    34.7770    37.3630    35.4080     2.1480 
  240.1250   -26.8320    55.1730    34.7410    37.3260    36.4450     2.1400 
  240.2500   -26.8280    56.7430    34.5620    37.1360    34.8300     2.1340 
  240.3750   -26.8070    58.2470    34.2120    36.7650    34.1800     2.1300 
  240.5000   -26.7810    57.5230    33.8540    36.3850    34.6040     2.1330 
  240.6250   -26.7580    55.8950    33.6090    36.1250    34.9810     2.1370 
  240.7500   -26.7370    55.5680    33.5190    36.0300    35.8780     2.1390 
  240.8750   -26.7090    56.7430    33.6650    36.1850    36.9730     2.1420 
  241.0000   -26.6660    56.9870    34.0070    36.5480    37.2170     2.1490 
  241.1250   -26.6060    55.6760    34.4860    37.0560    36.9620     2.1540 
  241.2500   -26.5350    53.6970    34.9800    37.5790    37.2100     2.1530 
  241.3750   -26.4620    51.9690    35.3840    38.0070    38.2600     2.1520 
  241.5000   -26.3980    51.3710    35.6120    38.2490    39.5550     2.1490 
  241.6250   -26.3500    52.2990    35.6510    38.2900    39.4590     2.1490 
  241.7500   -26.3100    53.0740    35.4700    38.0980    38.6430     2.1550 
  241.8750   -26.2600    51.8430    35.0770    37.6820    38.5010     2.1630 
  242.0000   -26.1830    50.6790    34.6900    37.2710    38.0000     2.1680 
  242.1250   -26.0700    50.9130    34.3630    36.9240    37.4750     2.1720 
  242.2500   -25.9280    51.1420    34.1090    36.6560    38.2990     2.1840 
  242.3750   -25.7660    51.3410    33.7830    36.3100    38.7730     2.2010 
  242.5000   -25.5990    53.0670    33.2040    35.6970    37.3370     2.2070 
  242.6250   -25.4340    55.2490    32.2790    34.7160    35.2580     2.1980 
  242.7500   -25.2760    55.6110    31.2220    33.5960    34.1140     2.1830 
  242.8750   -25.1210    54.5740    30.1320    32.4400    33.3420     2.1700 
  243.0000   -24.9570    53.9730    29.2380    31.4920    31.9330     2.1620 
