~V
VERS. 2.00: Ver 2.00
~W
STRT.M 50.0000:
STOP.M 300.0000:
STEP.M 0.1250:
NULL. -999.2500:
UWI. F12002:
~C
DEPT.M :
SP.MV :
GR.API :
RI. :
RML.OHMM :
RXO.OHMM :
DEN.GM/CC :
~A
# ...
  101.5000   -34.8750    74.6210     4.8770     5.6700     5.3610     2.1850 
  101.6250   -34.8300    73.6390     4.9710     5.7690     5.6850     2.1630 
  101.7500   -35.0350    74.2420     5.0550     5.8580     6.5680     2.1600 
  101.8750   -35.4070    73.1640     5.3270     6.1470     6.9760     2.2040 
  102.0000   -35.8120    70.8730     6.2070     7.0790     7.3390     2.2950 
  102.1250   -36.1450    68.1220     7.9330     8.9090    10.7130     2.4130 
  102.2500   -36.3670    65.4890    10.7840    11.9310    18.6700     2.5170 
  102.3750   -36.4960    63.7670    15.3320    16.7520    26.9380     2.5760 
  102.5000   -36.6340    61.5150    19.1310    20.7780    33.2220     2.5930 
  102.6250   -36.9210    57.2350    19.9680    21.6660    39.8480     2.5450 
  102.7500   -37.4610    54.3370    17.8440    19.4150    36.9670     2.4200 
  102.8750   -38.3270    55.5340    13.5700    14.8840    21.5130     2.2530 
  103.0000   -39.4590    58.8790     9.8760    10.9690    10.9750     2.1200 
  103.1250   -40.7600    61.7830     8.0140     8.9950     9.2230     2.0620 
  103.2500   -42.0680    64.3580     7.0380     7.9600     9.1400     2.0550 
  103.3750   -43.2220    65.2590     6.8290     7.7390     9.2780     2.0700 
  103.5000   -44.1230    63.6240     6.9940     7.9140     9.4200     2.0820 
  103.6250   -44.7020    61.4490     7.2960     8.2340     9.5880     2.0840 
  103.7500   -45.0130    60.8040     7.5720     8.5260     9.4400     2.0890 
  103.8750   -45.1250    60.4660     7.7750     8.7420     9.0600     2.1000 
  104.0000   -45.1430    59.0700     7.8800     8.8530     8.8760     2.1090 
  104.1250   -45.1280    57.1120     7.8860     8.8590     8.8770     2.1100 
  104.2500   -45.1110    55.4620     7.8010     8.7690     8.8640     2.1050 
  104.3750   -45.0930    54.4380     7.6720     8.6320     8.7600     2.1050 
  104.5000   -45.0680    55.1350     7.5460     8.4990     8.5310     2.1120 
  104.6250   -45.0360    55.6280     7.4550     8.4030     8.3910     2.1170 
  104.7500   -45.0130    55.4420     7.4060     8.3500     8.7530     2.1090 
  104.8750   -45.0250    55.7420     7.3790     8.3210     9.3120     2.0910 
  105.0000   -45.0970    57.0880     7.3520     8.2930     9.3400     2.0710 
  105.1250   -45.2550    57.8330     7.3180     8.2580     8.8440     2.0580 
  105.2500   -45.4980    56.9420     7.2660     8.2020     8.4940     2.0570 
  105.3750   -45.8160    56.9240     7.1990     8.1310     8.5870     2.0500 
  105.5000   -46.1710    57.9350     7.1330     8.0610     8.6240     1.9940 
  105.6250   -46.5180    56.7890     7.0970     8.0230     8.4550     1.8840 
  105.7500   -46.8150    54.6750     7.1280     8.0560     8.4900     1.7890 
  105.8750   -47.0240    55.0440     7.2580     8.1930     8.5910     1.7400 
  106.0000   -47.1340    58.6980     7.4720     8.4210     8.5270     1.7200 
  106.1250   -47.1290    60.5940     7.7850     8.7520     8.2390     1.7400 
  106.2500   -47.0080    58.7290     8.1260     9.1130     7.6770     1.8080 
  106.3750   -46.7580    54.8070     8.4420     9.4480     7.4940     1.8820 
  106.5000   -46.3940    53.1390     8.7300     9.7540     7.9310     1.9160 
  106.6250   -45.9120    56.1230     9.1970    10.2480     8.2120     1.9240 
  106.7500   -45.3250    61.5400     9.9700    11.0680     8.0020     1.9490 
  106.8750   -44.6200    65.5570    10.8520    12.0030     8.4540     2.0290 
  107.0000   -43.8060    65.4040    11.6970    12.8990    11.4260     2.1600 
  107.1250   -42.8850    61.7040    11.9240    13.1400    18.3700     2.2780 
  107.2500   -41.8940    58.4830    11.4110    12.5960    28.5580     2.3070 
  107.3750   -40.8760    58.6640    10.2940    11.4110    29.2920     2.2440 
  107.5000   -39.8930    60.6450     8.9690    10.0080    16.9520     2.1730 
  107.6250   -39.0130    61.1840     8.0160     8.9970    10.1590     2.1500 
  107.7500   -38.2840    59.9280     7.7160     8.6790    13.1080     2.1570 
  107.8750   -37.7550    58.6910     8.0360     9.0190    17.3840     2.1750 
  108.0000   -37.4250    58.1920     8.4900     9.4990    18.3900     2.1800 
  108.1250   -37.3030    58.5440     8.6470     9.6650    14.9090     2.1280 
  108.2500   -37.3450    60.3560     8.4350     9.4410    11.5040     2.0380 
  108.3750   -37.5200    62.6380     7.8920     8.8660    10.3380     1.9930 
  108.5000   -37.7730    63.3750     7.4560     8.4030     9.9170     2.0250 
  108.6250   -38.0780    62.2720     7.4650     8.4130     9.6960     2.0760 
  108.7500   -38.5700    62.4550     8.0780     9.0630    10.0450     2.0950 
  108.8750   -38.9820    63.7710     8.8970     9.9310    10.5570     2.0950 
  109.0000   -39.4490    62.7420     9.6100    10.6870    11.2250     2.0970 
  109.1250   -39.9740    59.6490    10.0890    11.1940    11.2750     2.1030 
  109.2500   -40.5390    56.4540    10.1290    11.2360    10.9190     2.1030 
  109.3750   -41.1270    55.5830     9.7600    10.8460    11.1170     2.0820 
  109.5000   -41.7170    57.0510     9.2260    10.2800    12.0780     2.0540 
  109.6250   -42.2970    58.8230     8.6980     9.7190    14.2350     2.0460 
  109.7500   -42.8640    58.6140     8.2890     9.2860    15.3240     2.0620 
  109.8750   -43.4080    56.7700     7.9630     8.9410    12.5160     2.0750 
  110.0000   -43.9150    54.4170     7.6600     8.6190     9.1000     2.0740 
  110.1250   -44.3490    52.1170     7.3830     8.3260     8.2370     2.0700 
  110.2500   -44.6870    50.5810     7.2310     8.1650     8.7450     2.0680 
  110.3750   -44.8990    50.6010     7.2690     8.2050     9.4870     2.0640 
  110.5000   -44.9920    51.4650     7.4510     8.3980     9.8550     2.0600 
  110.6250   -44.9780    52.6270     7.6860     8.6470     9.2930     2.0650 
  110.7500   -44.8970    53.5470     7.8460     8.8170     8.4320     2.0760 
  110.8750   -44.7800    53.4580     7.8790     8.8520     8.2920     2.0830 
  111.0000   -44.6490    53.0810     7.8300     8.8000     9.3770     2.0810 
  111.1250   -44.5060    54.0760     7.8020     8.7700    11.4240     2.0750 
  111.2500   -44.3370    56.3720     7.9000     8.8740    14.0300     2.0590 
  111.3750   -44.1170    58.4680     8.1710     9.1610    19.4430     2.0280 
  111.5000   -43.8280    59.3290     8.6020     9.6180    25.3770     1.9900 
  111.6250   -43.4530    58.6720     9.1280    10.1750    26.9510     1.9630 
  111.7500   -43.0020    57.4340     9.5530    10.6260    27.5840     1.9540 
  111.8750   -42.4850    56.0040     9.8080    10.8970    28.3440     1.9450 
  112.0000   -41.9300    55.4660     9.9050    10.9990    22.5080     1.9200 
  112.1250   -41.3690    56.0670     9.8850    10.9790    12.4350     1.8820 
  112.2500   -40.8380    57.4670     9.7900    10.8780    10.7810     1.8460 
  112.3750   -40.3800    57.7760     9.6090    10.6850    15.8110     1.8180 
  112.5000   -40.0190    57.0900     9.3270    10.3870    16.0140     1.8050 
  112.6250   -39.7840    57.4850     8.9220     9.9570    13.7530     1.8280 
  112.7500   -39.6680    58.9600     8.4790     9.4880    14.6280     1.8830 
  112.8750   -39.6790    61.0790     8.0080     8.9880    15.3770     1.9300 
  113.0000   -39.7870    61.5770     7.5300     8.4810    13.3870     1.9090 
  113.1250   -39.9550    60.1660     7.1150     8.0420    10.9710     1.8170 
  113.2500   -40.1060    57.9560     6.7600     7.6660     9.2250     1.7500 
  113.3750   -40.1370    57.2080     6.4730     7.3620     7.8260     1.7820 
  113.5000   -39.9680    59.1900     6.2810     7.1580     7.3850     1.8690 
  113.6250   -39.5280    62.4540     6.1460     7.0150     7.4250     1.9350 
  113.7500   -38.8330    64.8570     5.9350     6.7910     7.5180     1.9820 
  113.8750   -37.9010    66.0120     5.6010     6.4370     7.4590     2.0400 
  114.0000   -36.8030    69.0580     5.1520     5.9610     6.5060     2.1060 
  114.1250   -35.5750    76.4930     4.6330     5.4110     4.9930     2.1550 
  114.2500   -34.2700    85.7540     4.2100     4.9620     4.1120     2.1860 
