~V
VERS. 2.00: Ver 2.00
~W
STRT.M 50.0000:
STOP.M 255.0000:
STEP.M 0.1250:
NULL. -999.2500:
UWI. F12008:
~C
DEPT.M :
SP.MV :
GR.API :
RI. :
RML.OHMM :
RXO.OHMM :
DEN.GM/CC :
~A
# ...
  204.5000   -19.7530    61.5870    88.9460    94.7820    60.9350     2.4120 
  204.6250   -19.4110    57.8450   100.2270   106.7400    75.0510     2.5150 
  204.7500   -19.0150    54.3370   118.2320   125.8260    92.2800     2.5890 
  204.8750   -18.5790    56.2800   140.5320   149.4640   150.9550     2.6300 
  205.0000   -18.1250    60.7500   163.6960   174.0180   256.1200     2.6550 
  205.1250   -17.6700    61.4190   177.7340   188.8980   327.8660     2.6660 
  205.2500   -17.2230    58.7730   179.7270   191.0110   306.3330     2.6610 
  205.3750   -16.7900    56.5750   154.6140   164.3910   248.0470     2.6410 
  205.5000   -16.3670    56.7810   109.9340   117.0300   200.4300     2.6160 
  205.6250   -15.9460    59.6890    63.4050    67.7090   142.4900     2.5760 
  205.7500   -15.5190    66.1210    24.5620    26.5360    85.2170     2.5010 
  205.8750   -15.0800    73.1650    10.5570    11.6900    40.6030     2.4010 
  206.0000   -14.6340    77.3270     6.0510     6.9140    11.9880     2.3210 
  206.1250   -14.1980    79.0480     4.6570     5.4370     4.6260     2.2890 
  206.2500   -13.7890    78.5630     4.1320     4.8800     4.5380     2.2950 
  206.3750   -13.4270    77.0750     4.1430     4.8910     4.6870     2.3170 
  206.5000   -13.1140    76.8270     4.4850     5.2540     4.9000     2.3430 
  206.6250   -12.8470    79.5340     4.9540     5.7510     5.4670     2.3620 
  206.7500   -12.6110    86.0430     5.4240     6.2490     6.2100     2.3690 
  206.8750   -12.4020    94.6630     5.7840     6.6310     7.0650     2.3710 
  207.0000   -12.2240   100.9600     6.0830     6.9480     8.5830     2.3740 
  207.1250   -12.0920   100.6570     6.3350     7.2150     9.3290     2.3830 
  207.2500   -12.0090    97.3130     6.5170     7.4080     8.4930     2.3970 
  207.3750   -11.9700    94.3430     6.5880     7.4830     9.0970     2.3970 
  207.5000   -11.9540    92.4290     6.4770     7.3650    10.7300     2.3640 
  207.6250   -11.9430    90.4470     6.1840     7.0550     9.3290     2.3120 
  207.7500   -11.9250    88.2000     5.8650     6.7170     6.5420     2.2750 
  207.8750   -11.8980    86.7210     5.6590     6.4980     5.7680     2.2580 
  208.0000   -11.8730    85.8330     5.6430     6.4810     6.4770     2.2550 
  208.1250   -11.8700    85.2610     5.8520     6.7030     7.3790     2.2640 
  208.2500   -11.9140    85.0020     6.2540     7.1290     7.8010     2.2670 
  208.3750   -12.0280    86.1100     6.6390     7.5370     7.7160     2.2460 
  208.5000   -12.2070    87.2070     6.8750     7.7870     7.6170     2.2200 
  208.6250   -12.4340    88.4190     6.9010     7.8150     7.5740     2.2170 
  208.7500   -12.6690    89.7000     6.7300     7.6340     7.3320     2.2270 
  208.8750   -12.8750    89.4020     6.4420     7.3280     7.0800     2.2300 
  209.0000   -13.0310    87.4050     6.1390     7.0070     6.9080     2.2270 
  209.1250   -13.1240    84.1230     5.8420     6.6920     6.4870     2.2260 
  209.2500   -13.1680    81.0370     5.6490     6.4880     6.1880     2.2240 
  209.3750   -13.1820    79.6020     5.5610     6.3940     6.1770     2.2200 
  209.5000   -13.1990    80.3040     5.5760     6.4100     5.9310     2.2190 
  209.6250   -13.2540    83.5130     5.7220     6.5650     6.0940     2.2220 
  209.7500   -13.3650    87.5340     5.9520     6.8100     7.1960     2.2280 
  209.8750   -13.5340    88.6430     6.2420     7.1170     8.1770     2.2280 
  210.0000   -13.7260    87.3220     6.6200     7.5170     8.5750     2.2260 
  210.1250   -13.8930    87.5330     7.0150     7.9360     8.9720     2.2340 
  210.2500   -13.9980    89.2820     7.3650     8.3070     9.7350     2.2530 
  210.3750   -14.0170    88.0670     7.6330     8.5910    10.0240     2.2620 
  210.5000   -13.9600    85.2000     7.6830     8.6440     8.9200     2.2480 
  210.6250   -13.8410    87.2350     7.4200     8.3650     7.6650     2.2290 
  210.7500   -13.6870    90.7970     6.8900     7.8040     7.4590     2.2240 
  210.8750   -13.5120    87.0600     6.2920     7.1700     7.6510     2.2350 
  211.0000   -13.3260    77.7750     5.8820     6.7350     7.2000     2.2630 
  211.1250   -13.1430    69.9210     5.7750     6.6210     6.3360     2.3120 
  211.2500   -12.9940    66.1520     5.9320     6.7880     7.8360     2.3520 
  211.3750   -12.9380    65.2090     6.1790     7.0500    10.3670     2.3360 
  211.5000   -13.0270    67.3670     6.3320     7.2120     9.8680     2.2750 
  211.6250   -13.3140    71.7190     6.3050     7.1840     7.5950     2.2220 
  211.7500   -13.7750    75.1610     6.1000     6.9660     6.7020     2.2050 
  211.8750   -14.3680    77.0690     5.7940     6.6420     6.8300     2.2070 
  212.0000   -15.0040    79.4720     5.5500     6.3830     7.2810     2.2040 
  212.1250   -15.6130    83.2430     5.4180     6.2430     7.0520     2.1960 
  212.2500   -16.1640    86.7150     5.3860     6.2100     5.9320     2.1910 
  212.3750   -16.6690    87.5780     5.4420     6.2690     5.1580     2.1920 
  212.5000   -17.1770    86.4110     5.6280     6.4650     5.0800     2.1880 
  212.6250   -17.7490    84.4470     5.9570     6.8140     5.7360     2.1660 
  212.7500   -18.4140    82.7860     6.3430     7.2230     6.9540     2.1350 
  212.8750   -19.1570    81.9030     6.6760     7.5760     7.9380     2.1260 
  213.0000   -19.8830    82.8020     6.8390     7.7500     8.3410     2.1560 
  213.1250   -20.4420    84.6070     6.8030     7.7120     8.1090     2.2050 
  213.2500   -20.7190    84.0570     6.6390     7.5380     7.8900     2.2270 
  213.3750   -20.6220    82.9800     6.3690     7.2510     8.0980     2.2130 
  213.5000   -20.1980    83.0080     6.0760     6.9400     8.1300     2.1970 
  213.6250   -19.5000    82.9300     5.7860     6.6330     7.6790     2.2030 
  213.7500   -18.6430    81.1670     5.5900     6.4250     6.7420     2.2110 
  213.8750   -17.7090    78.6270     5.5570     6.3910     6.3030     2.2090 
  214.0000   -16.7950    77.1640     5.6660     6.5060     6.8460     2.2040 
  214.1250   -15.9960    75.4950     5.8950     6.7490     7.1520     2.2050 
  214.2500   -15.3780    72.4400     6.1980     7.0700     7.5380     2.2110 
  214.3750   -14.9810    69.9510     6.4960     7.3860     8.3330     2.2160 
  214.5000   -14.7630    70.6640     6.7180     7.6210     8.4300     2.2180 
  214.6250   -14.6620    76.2430     6.7980     7.7060     8.2350     2.2110 
  214.7500   -14.5940    82.7690     6.7380     7.6430     8.2480     2.2020 
  214.8750   -14.5020    85.1040     6.6370     7.5350     7.9780     2.1980 
  215.0000   -14.3610    82.8460     6.5630     7.4570     7.5980     2.2050 
  215.1250   -14.1700    79.9300     6.5730     7.4670     7.5190     2.2130 
  215.2500   -13.9530    79.6150     6.6340     7.5320     7.9960     2.2110 
  215.3750   -13.7330    81.3910     6.7060     7.6080     8.5040     2.2010 
  215.5000   -13.5290    83.9070     6.7870     7.6940     8.5410     2.1950 
  215.6250   -13.3480    85.4580     6.9030     7.8180     8.5930     2.1900 
  215.7500   -13.1840    85.8000     7.1410     8.0700     8.4600     2.1890 
  215.8750   -13.0300    85.3410     7.6180     8.5760     8.7010     2.2060 
  216.0000   -12.8790    86.4470     8.3430     9.3430    11.9220     2.2400 
  216.1250   -12.7340    89.8130     9.2380    10.2920    15.6380     2.2790 
  216.2500   -12.5940    91.9430    10.0270    11.1290    14.9550     2.3050 
  216.3750   -12.4530    90.3850    10.4870    11.6160    12.6920     2.3130 
  216.5000   -12.3000    86.5500    10.5230    11.6540    14.4460     2.3110 
  216.6250   -12.1220    83.1120    10.2020    11.3140    17.7330     2.3000 
  216.7500   -11.9290    81.6520     9.6340    10.7120    16.0560     2.2840 
  216.8750   -11.7410    82.9050     8.8580     9.8890    12.6520     2.2660 
  217.0000   -11.5790    86.5880     8.0970     9.0830    11.7650     2.2460 
  217.1250   -11.4530    89.4150     7.2940     8.2320    10.7130     2.2210 
  217.2500   -11.3520    89.0190     6.5560     7.4490     8.7490     2.2050 
