~V
VERS. 2.00: Ver 2.00
~W
STRT.M 50.0000:
STOP.M 226.0000:
STEP.M 0.1250:
NULL. -999.2500:
UWI. F12001:
~C
DEPT.M :
SP.MV :
GR.API :
RI. :
RML.OHMM :
RXO.OHMM :
DEN.GM/CC :
~A
# ...
  114.3750    -4.0840    83.2220     6.5490     7.1740     5.1080     2.2950 
  114.5000    -3.9890    88.3240     6.8130     7.4600     5.5580     2.2010 
  114.6250    -3.9160    92.5760     6.8970     7.5510     6.3770     2.1300 
  114.7500    -3.8400    89.8890     6.7680     7.3780     8.0370     2.0850 
  114.8750    -3.8030    81.7270     6.3790     6.8830     8.4330     2.0540 
  115.0000    -3.8230    75.7960     5.8570     6.2540     6.1520     2.0460 
  115.1250    -3.8550    79.3290     5.4540     5.8110     4.4110     2.0720 
  115.2500    -3.9110    89.6530     5.1860     5.5710     4.4900     2.1090 
  115.3750    -4.0600    98.8170     5.1270     5.5770     5.6870     2.1330 
  115.5000    -4.2540    98.5910     5.2190     5.7160     6.9390     2.1380 
  115.6250    -4.3770    90.6590     5.4530     5.9590     6.3150     2.1320 
  115.7500    -4.3320    85.2600     6.0170     6.5800     5.1860     2.1240 
  115.8750    -4.1770    86.9410     7.1520     7.9180     6.2670     2.1270 
  116.0000    -3.9080    88.7410     9.6260    10.6450    11.8830     2.1520 
  116.1250    -3.3400    86.0320    14.5980    16.2440    23.5550     2.1880 
  116.2500    -2.6460    81.0440    21.9550    24.7800    34.5820     2.1910 
  116.3750    -2.1730    74.4850    29.4930    32.9500    37.6740     2.1420 
  116.5000    -1.9240    67.8050    33.8590    37.6610    35.4530     2.0860 
  116.6250    -1.8440    64.0170    34.5920    38.0620    32.1570     2.0670 
  116.7500    -1.6800    64.3150    31.9810    34.7660    27.8040     2.0750 
  116.8750    -1.2980    66.7330    28.9570    31.4770    23.0410     2.0830 
  117.0000    -0.6930    68.7590    26.6320    29.0050    21.6370     2.0840 
  117.1250    -0.1710    68.9280    25.1600    27.5070    22.3560     2.0810 
  117.2500     0.0560    67.3110    24.5830    26.9780    21.4960     2.0810 
  117.3750     0.0560    65.6860    24.4910    26.9240    20.8110     2.0850 
  117.5000     0.0120    66.1890    24.6610    27.0890    21.7730     2.0890 
  117.6250    -0.1270    67.0650    25.1300    27.5530    22.1160     2.0840 
  117.7500    -0.3130    67.4710    26.3490    28.8570    20.9360     2.0740 
  117.8750    -0.5300    68.2560    28.2530    30.9420    21.3790     2.0690 
  118.0000    -0.7610    68.3830    30.3800    33.2470    26.7760     2.0670 
  118.1250    -0.9140    68.0620    31.7660    34.7030    35.5010     2.0630 
  118.2500    -1.0190    68.3320    32.1490    35.0080    40.7940     2.0600 
  118.3750    -1.1090    68.0530    31.7940    34.4110    36.5040     2.0640 
  118.5000    -1.2050    65.8960    31.0970    33.4760    27.5330     2.0690 
  118.6250    -1.3650    65.0390    30.9250    33.1840    27.1690     2.0630 
  118.7500    -1.5650    67.1640    31.6250    33.9810    32.8710     2.0460 
  118.8750    -1.8050    68.0560    33.4020    35.9910    34.9810     2.0300 
  119.0000    -2.1580    64.6800    35.6220    38.4000    36.0020     2.0220 
  119.1250    -2.5290    62.2500    37.7390    40.5520    35.5030     2.0240 
  119.2500    -2.9040    62.5290    39.1700    41.7970    33.4200     2.0340 
  119.3750    -3.1650    63.1100    40.0110    42.5900    35.3030     2.0500 
  119.5000    -3.2670    62.4800    40.6190    43.3520    39.4210     2.0620 
  119.6250    -3.2600    62.7040    41.0320    44.0630    40.2510     2.0640 
  119.7500    -3.2020    63.6540    41.3920    44.7590    37.2370     2.0580 
  119.8750    -3.1570    62.9670    41.7460    45.2810    34.8830     2.0510 
  120.0000    -3.1310    60.2760    42.2460    45.8520    36.4730     2.0450 
  120.1250    -3.1520    57.9070    43.0150    46.6780    39.3960     2.0410 
  120.2500    -3.2330    58.2540    43.9950    47.7310    40.6300     2.0420 
  120.3750    -3.3820    60.3360    44.8280    48.6380    40.8380     2.0470 
  120.5000    -3.5450    61.6350    45.3060    49.1660    41.0620     2.0510 
  120.6250    -3.6690    62.0220    45.3920    49.3510    40.8190     2.0500 
  120.7500    -3.7380    61.3890    45.2360    49.3320    39.6520     2.0500 
  120.8750    -3.7280    60.5910    44.8490    49.0640    36.5120     2.0540 
  121.0000    -3.7180    59.9260    44.2830    48.6270    33.4180     2.0580 
  121.1250    -3.7450    59.0370    43.6870    48.0050    34.3010     2.0610 
  121.2500    -3.7010    58.6760    42.9200    46.9480    36.3420     2.0670 
  121.3750    -3.7030    59.5360    41.9770    45.7450    36.4440     2.0730 
  121.5000    -3.7250    62.0190    40.8060    44.1740    35.7090     2.0750 
  121.6250    -3.8280    63.8490    39.3350    42.9600    33.8770     2.0750 
  121.7500    -3.9760    63.2480    37.9920    41.7370    31.3440     2.0740 
  121.8750    -4.0640    61.9010    36.9490    40.7730    29.8350     2.0670 
  122.0000    -4.1210    62.2200    36.3580    40.1500    29.5630     2.0580 
  122.1250    -4.1500    64.4930    36.1410    39.9280    29.8190     2.0530 
  122.2500    -4.1760    65.6160    36.1310    39.7610    29.8960     2.0500 
  122.3750    -4.1990    65.3060    36.0910    38.9570    29.3760     2.0490 
  122.5000    -4.1890    65.5360    35.7170    37.7350    29.8410     2.0500 
  122.6250    -4.1650    64.8590    34.7820    36.4290    31.7420     2.0540 
  122.7500    -4.1760    63.3380    33.3910    34.7820    30.2600     2.0560 
  122.8750    -4.2430    63.6580    31.5960    32.8880    25.8860     2.0560 
  123.0000    -4.3350    66.6760    29.7960    31.1500    23.5800     2.0620 
  123.1250    -4.3840    68.5690    28.2320    29.8330    22.2060     2.0740 
  123.2500    -4.3820    69.2880    26.9840    28.9340    21.2670     2.0790 
  123.3750    -4.3980    71.0970    26.2210    28.4090    21.6620     2.0710 
  123.5000    -4.4300    73.7750    25.7470    28.0190    21.8870     2.0580 
  123.6250    -4.4930    73.3300    25.2280    27.5660    21.3880     2.0500 
  123.7500    -4.5380    69.9910    24.7630    27.1400    21.4000     2.0480 
  123.8750    -4.6030    67.8770    24.7310    26.9720    21.7520     2.0470 
  124.0000    -4.6910    69.3810    25.4150    27.6970    21.1810     2.0530 
  124.1250    -4.8420    71.0240    27.1420    29.7950    24.8640     2.0870 
  124.2500    -4.9660    69.1610    30.3270    33.8900    33.3720     2.1780 
  124.3750    -5.0620    66.2030    35.9590    41.4290    38.2910     2.3210 
  124.5000    -5.0710    63.8530    42.3110    49.2470    40.9780     2.4540 
  124.6250    -5.0780    61.3100    42.1710    49.2090    52.4710     2.5220 
  124.7500    -5.1150    59.2560    35.6180    41.4020    71.6900     2.5360 
  124.8750    -5.1860    61.1410    24.4880    27.9320    70.0330     2.5160 
  125.0000    -5.2510    65.6350    13.4640    15.3660    38.8580     2.4610 
  125.1250    -5.3220    69.9770     8.6340     9.7370    11.7820     2.3640 
  125.2500    -5.4200    74.4730     6.2770     7.0600     4.4330     2.2780 
  125.3750    -5.5540    81.0180     5.4260     6.1730     4.9180     2.2490 
  125.5000    -5.7120    86.8240     5.2130     6.0620     5.7040     2.2570 
  125.6250    -5.8370    89.1690     5.4560     6.4390     5.6790     2.2600 
  125.7500    -5.8470    90.1080     5.7460     6.7910     5.3380     2.2460 
  125.8750    -5.7760    91.0490     5.8580     6.8720     5.5960     2.2370 
  126.0000    -5.6540    91.4580     5.7560     6.6770     5.8490     2.2440 
  126.1250    -5.4400    91.4400     5.5400     6.3580     5.4010     2.2510 
  126.2500    -5.1560    92.7200     5.3280     6.0990     4.7850     2.2510 
  126.3750    -4.9450    95.0990     5.1530     5.9660     4.5370     2.2500 
  126.5000    -4.8710    97.4150     5.0720     6.0060     4.6100     2.2560 
  126.6250    -4.9300   100.6100     5.0970     6.2070     4.6940     2.2590 
  126.7500    -5.0230   104.0270     5.1360     6.4140     4.7160     2.2500 
  126.8750    -5.0830   105.0060     5.1100     6.4940     4.8370     2.2340 
  127.0000    -4.9960   104.1560     4.9370     6.3310     4.8510     2.2220 
  127.1250    -4.8550   102.2040     4.6810     6.0150     4.5630     2.2200 
