~V
VERS. 2.00: Ver 2.00
~W
STRT.M 50.0000:
STOP.M 255.0000:
STEP.M 0.1250:
NULL. -999.2500:
UWI. F12008:
~C
DEPT.M :
SP.MV :
GR.API :
RI. :
RML.OHMM :
RXO.OHMM :
DEN.GM/CC :
~A
# ...
  114.3750   -24.1320    79.3370     4.8270     5.6170     5.4000     2.1700 
  114.5000   -24.4010    80.4290     4.8030     5.5910     5.3480     2.1970 
  114.6250   -24.5230    81.4810     4.6840     5.4650     4.7870     2.2200 
  114.7500   -24.4720    81.9400     4.5360     5.3080     4.7060     2.2220 
  114.8750   -24.2470    81.0930     4.3790     5.1420     6.0070     2.2230 
  115.0000   -23.9140    81.1680     4.2270     4.9800     6.9150     2.2400 
  115.1250   -23.5440    83.1290     4.1050     4.8510     5.5440     2.2650 
  115.2500   -23.1990    85.1470     4.0570     4.8010     4.2580     2.2740 
  115.3750   -22.9150    85.2380     4.1780     4.9290     4.5000     2.2750 
  115.5000   -22.6920    82.4750     4.4770     5.2460     4.9280     2.2970 
  115.6250   -22.5380    78.3430     4.9210     5.7160     5.7780     2.3380 
  115.7500   -22.4520    76.1890     5.3480     6.1690     8.4710     2.3470 
  115.8750   -22.4510    77.4950     5.6530     6.4920     9.8190     2.2950 
  116.0000   -22.5300    78.2790     5.6420     6.4800     7.5140     2.2220 
  116.1250   -22.6850    75.8620     5.4100     6.2350     5.7270     2.1770 
  116.2500   -22.8900    72.9910     5.1150     5.9210     5.7810     2.1700 
  116.3750   -23.1060    72.4930     4.8880     5.6820     5.7790     2.1760 
  116.5000   -23.2840    75.6250     4.8500     5.6410     5.6250     2.1800 
  116.6250   -23.3710    79.7510     4.9250     5.7210     5.7950     2.1800 
  116.7500   -23.3570    80.9550     5.0210     5.8220     5.9770     2.1790 
  116.8750   -23.2620    78.5940     5.1210     5.9280     5.8540     2.1810 
  117.0000   -23.1350    76.7650     5.2370     6.0520     5.7610     2.1850 
  117.1250   -23.0090    76.7460     5.3230     6.1420     5.6850     2.1960 
  117.2500   -22.8810    75.5530     5.3530     6.1740     5.6420     2.2130 
  117.3750   -22.7120    74.7850     5.2890     6.1060     5.7420     2.2220 
  117.5000   -22.4650    75.1990     5.1090     5.9160     5.7310     2.2230 
  117.6250   -22.1140    76.4390     4.8270     5.6160     5.5530     2.2240 
  117.7500   -21.6780    79.4000     4.4460     5.2130     5.2850     2.2340 
  117.8750   -21.1900    83.8280     4.0530     4.7960     4.9880     2.2490 
  118.0000   -20.7050    88.1420     3.7130     4.4350     4.4480     2.2540 
  118.1250   -20.2860    88.4480     3.4900     4.1990     3.7170     2.2500 
  118.2500   -19.9840    83.6990     3.5030     4.2130     3.3990     2.2460 
  118.3750   -19.8560    78.2890     3.8750     4.6080     3.6280     2.2350 
  118.5000   -19.9110    76.6850     4.5840     5.3590     4.4510     2.2110 
  118.6250   -20.1620    77.9460     5.8230     6.6720     6.2200     2.2090 
  118.7500   -20.5650    77.8950     7.5070     8.4570    13.2220     2.2680 
  118.8750   -21.0780    75.3460     9.4180    10.4830    22.1570     2.3780 
  119.0000   -21.6270    73.1300    11.2910    12.4690    33.1780     2.4750 
  119.1250   -22.1540    71.2870    12.5040    13.7540    39.0870     2.5220 
  119.2500   -22.6260    70.3200    12.8510    14.1220    43.4390     2.5110 
  119.3750   -23.0330    69.3110    12.4020    13.6460    43.4910     2.4240 
  119.5000   -23.3890    68.8060    11.5360    12.7280    30.1540     2.2910 
  119.6250   -23.7100    70.1980    10.5910    11.7260    13.7530     2.1840 
  119.7500   -24.0100    72.0820     9.9040    10.9980    10.3700     2.1390 
  119.8750   -24.2930    70.6220     9.4330    10.4990    10.2110     2.1280 
  120.0000   -24.5580    67.2970     9.2020    10.2540     9.9590     2.1190 
  120.1250   -24.8070    65.3720     9.2220    10.2760     9.7180     2.1220 
  120.2500   -25.0480    63.9080     9.3610    10.4230     9.6970     2.1370 
  120.3750   -25.2960    62.1660     9.6250    10.7020    10.0920     2.1490 
  120.5000   -25.5590    62.6460     9.8850    10.9780    10.4930     2.1480 
  120.6250   -25.8340    63.8510    10.0400    11.1420    10.5730     2.1390 
  120.7500   -26.1070    62.7570    10.0220    11.1230    11.1920     2.1320 
  120.8750   -26.3620    61.6780     9.8250    10.9150    11.8560     2.1250 
  121.0000   -26.5850    64.7180     9.5650    10.6390    10.9860     2.1180 
  121.1250   -26.7550    68.5320     9.2740    10.3300     9.6400     2.1110 
  121.2500   -26.8560    68.8770     9.0550    10.0990     9.2630     2.1100 
  121.3750   -26.8700    65.8200     8.9740    10.0130     9.3860     2.1230 
  121.5000   -26.8160    63.1610     9.0500    10.0930     9.5430     2.1410 
  121.6250   -26.7190    62.5170     9.2200    10.2730     9.7360     2.1490 
  121.7500   -26.6150    63.7750     9.3140    10.3720     9.9390     2.1430 
  121.8750   -26.5220    65.9360     9.2820    10.3390     9.9450     2.1300 
  122.0000   -26.4410    66.8720     9.1990    10.2510     9.7760     2.1210 
  122.1250   -26.3580    67.0630     9.1460    10.1940    10.0490     2.1210 
  122.2500   -26.2590    66.9020     9.1560    10.2060    10.0490     2.1310 
  122.3750   -26.1220    66.0310     9.2480    10.3030    10.1880     2.1450 
  122.5000   -25.9350    64.1830     9.3530    10.4140    10.3300     2.1500 
  122.6250   -25.6830    61.9290     9.3880    10.4510    10.3300     2.1400 
  122.7500   -25.3860    61.1680     9.2500    10.3050    10.3300     2.1240 
  122.8750   -25.0950    61.9120     8.9600     9.9970    10.3300     2.1100 
  123.0000   -24.8950    63.0040     8.5930     9.6090    10.3300     2.1020 
  123.1250   -24.8890    63.5530     8.2600     9.2560     9.7100     2.1050 
  123.2500   -25.0990    65.9260     8.0500     9.0330     9.0000     2.1130 
  123.3750   -25.4870    69.1440     7.9290     8.9050     8.7490     2.1150 
  123.5000   -25.9120    71.4540     7.9070     8.8820     8.5900     2.1110 
  123.6250   -26.2140    72.2190     8.0320     9.0140     8.6370     2.1150 
  123.7500   -26.2940    71.6200     8.2790     9.2760    10.0090     2.1200 
  123.8750   -26.1040    69.2660     8.6120     9.6290    10.7280     2.1190 
  124.0000   -25.7110    66.7570     8.9960    10.0360    11.1680     2.1150 
  124.1250   -25.1910    66.6680     9.3680    10.4300    11.2710     2.1110 
  124.2500   -24.6400    67.2560     9.6820    10.7630    11.2170     2.1050 
  124.3750   -24.1240    67.0700     9.9180    11.0130    11.1960     2.1010 
  124.5000   -23.6810    66.8490    10.0270    11.1290    11.1360     2.1040 
  124.6250   -23.3410    66.6970    10.0280    11.1290    10.9260     2.1110 
  124.7500   -23.1120    65.2990     9.9560    11.0540    10.5630     2.1200 
  124.8750   -23.0100    63.2960     9.8430    10.9330    10.1680     2.1220 
  125.0000   -23.0220    62.9860     9.7040    10.7870    10.0990     2.1140 
  125.1250   -23.1380    64.4500     9.5570    10.6310    10.4180     2.1060 
  125.2500   -23.3190    66.1840     9.4400    10.5070    10.7690     2.1090 
  125.3750   -23.5250    66.4580     9.3740    10.4360    10.9810     2.1120 
  125.5000   -23.7150    64.7490     9.4480    10.5150    11.0820     2.1150 
  125.6250   -23.8580    62.2740     9.7110    10.7940    11.0950     2.1480 
  125.7500   -23.9390    61.2190    10.0890    11.1940    11.0010     2.2330 
  125.8750   -23.9380    62.2120    10.4830    11.6120    10.6510     2.3520 
  126.0000   -23.8460    63.4720    10.7450    11.8900    10.5920     2.4210 
  126.1250   -23.6470    64.3020    10.7810    11.9280    11.1080     2.3680 
  126.2500   -23.3590    66.1410    10.6010    11.7370    11.3070     2.2470 
  126.3750   -23.0060    68.2370    10.2880    11.4060    11.1360     2.1560 
  126.5000   -22.6360    68.0130     9.9830    11.0820    11.0920     2.1260 
  126.6250   -22.2900    66.3260     9.8210    10.9110    11.1650     2.1210 
  126.7500   -21.9930    64.7360     9.8250    10.9150    11.2510     2.1170 
  126.8750   -21.7630    65.5910     9.9100    11.0040    11.1270     2.1210 
  127.0000   -21.6010    67.8620     9.9560    11.0540    10.8570     2.1320 
  127.1250   -21.5110    70.6570     9.9280    11.0230    10.7320     2.1370 
