~V
VERS. 2.00: Ver 2.00
~W
STRT.M 50.0000:
STOP.M 213.0000:
STEP.M 0.1250:
NULL. -999.2500:
UWI. F12007:
~C
DEPT.M :
SP.MV :
GR.API :
RI. :
RML.OHMM :
RXO.OHMM :
DEN.GM/CC :
~A
# ...
  153.0000   101.0070    62.6810    22.0140    25.7620    28.0560     2.4070 
  153.1250   101.6510    61.3950    22.3930    26.1440    31.1380     2.4100 
  153.2500   102.3230    61.5000    22.3230    25.9820    28.9680     2.4270 
  153.3750   102.7110    61.5240    21.9490    25.5420    25.4780     2.4440 
  153.5000   102.6280    60.4060    21.5150    25.1310    24.6370     2.4490 
  153.6250   102.1160    59.4930    21.0050    24.7200    26.2000     2.4420 
  153.7500   101.4720    61.1310    20.3480    24.1040    26.8260     2.4340 
  153.8750   100.9140    63.1680    19.1090    22.6500    25.4650     2.4260 
  154.0000   100.7660    63.1400    17.4470    20.6200    23.0550     2.4240 
  154.1250   101.0970    61.1590    15.6940    18.4620    19.4480     2.4390 
  154.2500   101.6040    58.8760    14.3770    16.8750    15.2920     2.4590 
  154.3750   102.1010    58.4550    13.8660    16.3460    13.0790     2.4620 
  154.5000   102.4450    60.7770    14.1300    16.8060    14.3790     2.4490 
  154.6250   102.6180    63.0300    15.0840    18.0860    22.3590     2.4410 
  154.7500   102.6210    62.9290    16.4190    19.7830    52.9980     2.4380 
  154.8750   102.5190    60.0580    17.7860    21.4510    72.2830     2.4290 
  155.0000   102.3430    57.4240    18.7420    22.5590    43.2760     2.4100 
  155.1250   102.0650    57.4120    18.8310    22.6050    19.3750     2.4010 
  155.2500   101.8010    59.9950    18.1230    21.6920    23.2070     2.4040 
  155.3750   101.5280    62.3030    16.5910    19.7540    27.0260     2.4180 
  155.5000   101.2070    61.7520    14.6680    17.3500    22.2370     2.4330 
  155.6250   100.9260    59.5640    12.7880    15.0510    14.9590     2.4440 
  155.7500   100.7120    58.3610    11.1300    13.0940    12.6120     2.4440 
  155.8750   100.5050    57.7420    10.0480    11.8860    11.7740     2.4310 
  156.0000   100.4650    56.4040     9.2960    11.0820     9.7810     2.4240 
  156.1250   100.8150    55.0840     9.0210    10.8050     8.0530     2.4240 
  156.2500   101.4650    55.0560     9.0500    10.8620     7.6770     2.4060 
  156.3750   102.2400    57.8780     9.4520    11.3650     8.7020     2.3750 
  156.5000   102.7700    61.6070    10.1000    12.1540    11.1810     2.3650 
  156.6250   102.8080    63.7240    10.9470    13.1600    13.9640     2.3920 
  156.7500   102.4110    64.2640    11.7880    14.1220    15.1940     2.4180 
  156.8750   101.7670    64.0720    12.4300    14.8190    15.0340     2.4210 
  157.0000   101.1660    63.1620    12.8740    15.2950    14.3680     2.4120 
  157.1250   100.8730    61.1510    13.1660    15.6610    14.1010     2.4060 
  157.2500   101.0650    60.5610    13.3800    15.9850    14.6680     2.4060 
  157.3750   101.5550    62.3530    13.3610    16.0480    14.8680     2.4030 
  157.5000   102.1020    63.5970    13.1220    15.8290    15.2090     2.3920 
  157.6250   102.5130    63.1180    12.6720    15.3140    15.7340     2.3850 
  157.7500   102.6990    62.4870    12.2260    14.7870    14.3620     2.3970 
  157.8750   102.7280    63.9750    12.0980    14.6860    12.3500     2.4240 
  158.0000   102.7190    65.9430    12.3480    15.1150    12.0300     2.4490 
  158.1250   102.6180    66.4560    12.9760    16.0140    13.1670     2.4580 
  158.2500   102.4210    65.6330    13.7210    17.0190    14.8130     2.4520 
  158.3750   102.1900    64.8120    14.3080    17.7160    16.2430     2.4410 
  158.5000   101.9400    64.0210    14.5360    17.8690    16.4680     2.4290 
  158.6250   101.6330    62.1790    14.5580    17.7740    15.1830     2.4120 
  158.7500   101.3020    59.8400    14.6420    17.8450    14.1010     2.3970 
  158.8750   101.0720    59.1880    14.8850    18.1760    16.7720     2.3930 
  159.0000   100.8070    60.5660    15.1810    18.6100    20.7260     2.3970 
  159.1250   100.6650    61.0680    15.3020    18.7810    20.6670     2.3980 
  159.2500   100.8410    58.3920    15.0990    18.4850    19.6440     2.3950 
  159.3750   101.4310    55.6560    14.5610    17.7630    17.8310     2.3950 
  159.5000   102.1940    56.5190    13.9520    16.9700    14.8050     2.3970 
  159.6250   102.7580    59.6400    13.4950    16.4320    14.4210     2.3990 
  159.7500   102.8350    61.7220    13.2810    16.2140    15.2220     2.3950 
  159.8750   102.3890    62.7020    13.2720    16.2270    15.0540     2.3920 
  160.0000   101.7530    62.9060    13.3240    16.2610    14.6580     2.3920 
  160.1250   101.1270    61.7600    13.4010    16.2840    14.7770     2.3940 
  160.2500   100.7430    58.9110    13.6230    16.4850    14.8070     2.3970 
  160.3750   100.8290    56.8370    14.0590    16.9770    14.0230     2.4020 
  160.5000   101.2440    56.9720    14.6760    17.6990    14.2530     2.4100 
  160.6250   101.6990    58.8430    15.3710    18.4870    16.4520     2.4220 
  160.7500   102.1020    60.7880    15.9510    19.1070    17.9180     2.4320 
  160.8750   102.3570    60.6790    16.1790    19.2950    17.4000     2.4370 
  161.0000   102.4690    58.6320    16.0040    19.0300    16.4710     2.4370 
  161.1250   102.5190    57.2680    15.5140    18.4080    15.8570     2.4360 
  161.2500   102.5260    57.3010    14.9780    17.7730    15.2710     2.4330 
  161.3750   102.4520    57.0560    14.6180    17.3400    14.8940     2.4280 
  161.5000   102.4070    56.1230    14.3570    17.0190    14.7160     2.4240 
  161.6250   102.3530    56.0500    14.1550    16.7750    14.6420     2.4250 
  161.7500   102.1840    57.3460    14.0320    16.6200    14.8840     2.4290 
  161.8750   101.9580    57.7450    14.0880    16.6570    14.7380     2.4270 
  162.0000   101.8010    57.2630    14.3300    16.8660    14.3260     2.4190 
  162.1250   101.6380    56.5120    14.7290    17.2760    15.3560     2.4130 
  162.2500   101.5500    56.2240    15.3080    17.8820    17.3170     2.4140 
  162.3750   101.7870    55.2440    15.9490    18.5360    18.4860     2.4160 
  162.5000   102.5020    53.2750    16.4940    19.0570    18.1790     2.4130 
  162.6250   103.4820    52.0410    16.8590    19.3310    17.0080     2.4070 
  162.7500   104.3200    53.2550    17.0190    19.3950    16.7710     2.4080 
  162.8750   104.5810    55.6960    17.0940    19.4270    17.5040     2.4160 
  163.0000   104.2560    58.3270    17.1590    19.4740    18.3290     2.4180 
  163.1250   103.6520    59.1830    17.1640    19.4190    19.1240     2.4110 
  163.2500   102.9770    58.5810    17.1250    19.2780    19.5430     2.4130 
  163.3750   102.4530    57.4970    17.0930    19.1300    19.4070     2.4290 
  163.5000   102.3060    56.6500    17.1530    19.0770    19.6870     2.4370 
  163.6250   102.6060    56.0600    17.5480    19.4430    20.7330     2.4270 
  163.7500   103.0250    56.9570    18.4800    20.4290    21.0630     2.4100 
  163.8750   103.4060    60.1740    20.0030    22.0920    21.0010     2.3990 
  164.0000   103.7200    63.8300    21.9850    24.2430    23.1350     2.3920 
  164.1250   103.8250    66.9250    23.8650    26.2160    29.8880     2.3890 
  164.2500   103.8320    72.2710    25.3700    27.6250    35.8680     2.3910 
  164.3750   103.8300    79.9340    25.7470    27.6250    33.1910     2.3920 
  164.5000   103.7710    85.2230    25.1260    26.5190    27.0360     2.3860 
  164.6250   103.5350    85.6420    23.9180    24.8670    24.0640     2.3790 
  164.7500   103.1060    83.7060    23.0060    23.7720    22.3970     2.3700 
  164.8750   102.5520    83.4920    22.8900    23.6800    21.2930     2.3560 
  165.0000   101.9360    84.0880    23.5620    24.4540    21.8390     2.3420 
  165.1250   101.5020    84.1230    24.6690    25.6750    23.6270     2.3380 
  165.2500   101.0140    84.4220    25.6020    26.6230    25.0820     2.3370 
  165.3750   100.4580    84.9490    26.1650    27.1180    25.0800     2.3400 
  165.5000   100.0470    85.1430    26.3380    27.2240    24.9540     2.3550 
  165.6250   100.1640    86.0550    26.6000    27.4610    24.9580     2.3960 
  165.7500   100.6440    86.1140    27.3120    28.2430    24.2280     2.4430 
