~V
VERS. 2.00: Ver 2.00
~W
STRT.M 50.0000:
STOP.M 247.0000:
STEP.M 0.1250:
NULL. -999.2500:
UWI. F12010:
~C
DEPT.M :
SP.MV :
GR.API :
RI. :
RML.OHMM :
RXO.OHMM :
DEN.GM/CC :
~A
# ...
   88.6250   -16.4290    98.3600     3.6120     4.2920     3.9090     2.2350 
   88.7500   -17.0020    94.4860     3.8540     4.5470     4.1010     2.2380 
   88.8750   -17.0260    92.0850     4.1120     4.8180     4.0480     2.2330 
   89.0000   -16.8250    89.9450     4.2620     4.9750     4.1680     2.2090 
   89.1250   -16.6320    85.0740     4.2500     4.9620     4.4170     2.1830 
   89.2500   -16.4520    79.9160     4.0930     4.7970     4.3600     2.1900 
   89.3750   -16.2970    80.1140     3.8890     4.5840     3.9840     2.2290 
   89.5000   -16.1540    86.5810     3.7930     4.4830     3.6910     2.2590 
   89.6250   -16.2800    92.1880     3.8840     4.5790     3.7150     2.2490 
   89.7500   -16.7440    90.6090     4.1770     4.8850     4.0320     2.2110 
   89.8750   -17.1360    83.0860     4.5860     5.3150     4.2880     2.1680 
   90.0000   -17.3480    76.4600     4.8750     5.6190     4.2310     2.1490 
   90.1250   -17.7460    75.9190     4.9160     5.6620     3.9830     2.1720 
   90.2500   -18.2390    80.3760     4.6880     5.4230     3.7450     2.2170 
   90.3750   -18.7720    85.5690     4.3320     5.0490     3.6640     2.2570 
   90.5000   -19.4700    88.6610     4.0320     4.7330     3.7150     2.2780 
   90.6250   -20.3540    89.3490     3.8550     4.5480     3.8240     2.2890 
   90.7500   -20.9450    88.5250     3.7380     4.4250     3.9070     2.2990 
   90.8750   -20.8220    89.5170     3.6250     4.3060     3.8760     2.3030 
   91.0000   -19.9650    92.5890     3.4630     4.1360     3.7150     2.2990 
   91.1250   -18.7230    95.6380     3.2800     3.9440     3.5310     2.2860 
   91.2500   -18.3170    95.6900     3.2320     3.8930     3.3690     2.2660 
   91.3750   -18.9260    92.9680     3.5170     4.1930     3.4740     2.2530 
   91.5000   -19.5250    89.2280     4.3570     5.0750     4.8630     2.2750 
   91.6250   -20.1880    83.1040     6.3870     7.2060    11.2360     2.3700 
   91.7500   -20.5960    74.2010    11.0820    12.1360    21.5970     2.5060 
   91.8750   -20.2910    64.5030    19.3600    20.8280    30.5900     2.6080 
   92.0000   -19.5650    58.5080    27.3200    29.1860    36.4350     2.6370 
   92.1250   -18.5600    57.5310    30.0180    32.0190    39.9670     2.6180 
   92.2500   -17.2600    58.8710    26.6610    28.4950    38.2560     2.5840 
   92.3750   -15.8730    60.5960    18.8980    20.3430    25.7680     2.5100 
   92.5000   -15.2280    62.9610    12.1840    13.2930    11.7530     2.3890 
   92.6250   -14.7880    65.9140     8.6390     9.5710     6.1720     2.2590 
   92.7500   -13.9870    67.0620     6.8890     7.7340     5.2700     2.1750 
   92.8750   -13.0790    66.8080     6.1230     6.9290     5.1560     2.1400 
   93.0000   -12.3940    65.6540     5.9610     6.7590     5.0770     2.1230 
   93.1250   -12.1800    64.8220     6.0920     6.8970     5.0420     2.1110 
   93.2500   -12.2440    63.9530     6.2740     7.0880     5.0040     2.1040 
   93.3750   -12.4280    61.4610     6.3970     7.2170     4.9790     2.1040 
   93.5000   -12.6580    58.7670     6.4740     7.2980     4.9370     2.1040 
   93.6250   -12.8730    57.8510     6.4990     7.3240     4.8690     2.1010 
   93.7500   -12.9970    59.7230     6.4910     7.3150     4.8150     2.0930 
   93.8750   -12.7720    62.9440     6.4520     7.2740     4.7760     2.0890 
   94.0000   -12.0040    64.6100     6.4150     7.2350     4.7520     2.0920 
   94.1250   -11.3150    63.8630     6.3630     7.1810     4.7680     2.0970 
   94.2500   -10.6710    61.8280     6.3010     7.1160     4.7970     2.0970 
   94.3750   -10.5630    62.1320     6.2420     7.0540     4.7860     2.0890 
   94.5000   -11.1460    63.8620     6.1970     7.0070     4.7720     2.0830 
   94.6250   -12.0210    65.0180     6.2140     7.0240     4.7740     2.0900 
   94.7500   -12.8180    65.4530     6.3010     7.1160     4.8060     2.1100 
   94.8750   -13.1580    66.3810     6.4440     7.2660     4.9200     2.1300 
   95.0000   -12.9730    67.7440     6.5750     7.4030     5.1100     2.1420 
   95.1250   -12.6040    66.9110     6.6510     7.4830     5.2790     2.1450 
   95.2500   -12.1770    64.6200     6.6550     7.4880     5.3510     2.1460 
   95.3750   -11.7150    62.9340     6.5910     7.4210     5.3500     2.1450 
   95.5000   -11.4750    62.6410     6.4180     7.2390     5.2070     2.1360 
   95.6250   -11.6730    64.0560     6.2080     7.0180     4.9510     2.1220 
   95.7500   -12.0000    66.9530     5.9960     6.7960     4.7970     2.1190 
   95.8750   -12.2290    70.8230     5.8520     6.6450     4.7610     2.1300 
   96.0000   -12.3530    73.3470     5.7950     6.5840     4.7860     2.1390 
   96.1250   -12.5360    73.4400     5.7990     6.5890     4.8610     2.1320 
   96.2500   -12.8920    72.7240     5.8550     6.6480     4.8530     2.1220 
   96.3750   -13.3160    71.7750     5.9120     6.7080     4.7570     2.1140 
   96.5000   -13.8860    71.2710     5.9600     6.7580     4.6760     2.1040 
   96.6250   -14.4880    70.6350     5.9560     6.7530     4.6660     2.0990 
   96.7500   -15.1060    69.5190     5.9370     6.7340     4.7070     2.1030 
   96.8750   -15.6880    69.3050     5.9850     6.7840     4.6840     2.1050 
   97.0000   -15.9000    69.5110     6.0840     6.8880     4.6440     2.1020 
   97.1250   -15.6610    68.4200     6.2200     7.0310     4.6470     2.1130 
   97.2500   -15.0690    66.4460     6.3460     7.1640     4.6360     2.1440 
   97.3750   -14.3450    65.8650     6.4250     7.2470     4.6420     2.1610 
   97.5000   -13.8690    66.2950     6.4450     7.2670     4.7540     2.1440 
   97.6250   -13.8360    65.8590     6.4000     7.2200     4.9250     2.1190 
   97.7500   -14.1840    65.1650     6.3290     7.1450     5.0080     2.1100 
   97.8750   -14.7570    65.4090     6.2560     7.0680     4.9660     2.1140 
   98.0000   -15.3170    66.5430     6.2080     7.0190     4.8930     2.1100 
   98.1250   -15.4120    66.9250     6.1420     6.9500     4.8670     2.1010 
   98.2500   -15.1000    65.3040     6.0740     6.8780     4.8800     2.1020 
   98.3750   -14.6570    63.2180     6.0320     6.8340     4.7570     2.1100 
   98.5000   -14.2690    63.3900     6.0420     6.8440     4.5950     2.1150 
   98.6250   -14.0670    65.4240     6.1150     6.9210     4.7960     2.1150 
   98.7500   -14.0590    67.4110     6.2370     7.0490     5.2230     2.1160 
   98.8750   -14.2150    68.1850     6.3580     7.1760     5.6430     2.1150 
   99.0000   -14.4080    68.2670     6.4950     7.3200     5.8810     2.1090 
   99.1250   -14.5160    67.3930     6.7140     7.5500     5.6880     2.1030 
   99.2500   -14.5330    66.4640     6.5650     7.3930     5.5540     2.1200 
   99.3750   -14.3110    66.4830     6.0050     6.8050     6.0900     2.1820 
   99.5000   -14.0820    69.0180     5.1610     5.9190     5.8700     2.2680 
   99.6250   -13.9310    77.1340     4.1970     4.9070     4.1490     2.3140 
   99.7500   -13.7500    88.2530     3.5610     4.2390     3.1150     2.3020 
   99.8750   -13.7530    95.2230     3.3030     3.9680     3.2990     2.2630 
  100.0000   -13.9030    93.7200     3.4220     4.0940     3.8310     2.2260 
  100.1250   -13.9700    86.1470     3.8810     4.5750     4.3120     2.1900 
  100.2500   -14.0380    78.9700     4.5850     5.3140     4.4750     2.1550 
  100.3750   -13.9740    75.1560     5.2290     5.9910     4.4860     2.1370 
  100.5000   -13.8110    74.0050     5.6020     6.3820     4.2560     2.1290 
  100.6250   -13.7300    75.3180     5.6810     6.4650     4.0300     2.1200 
  100.7500   -14.0590    77.6450     5.5620     6.3400     3.9880     2.1110 
  100.8750   -14.9810    79.6290     5.4100     6.1810     4.0400     2.1120 
  101.0000   -16.0520    79.2330     5.3280     6.0950     4.2820     2.1210 
  101.1250   -16.9460    76.2180     5.2990     6.0640     4.5930     2.1260 
  101.2500   -17.3140    71.5020     5.2980     6.0630     4.7560     2.1220 
  101.3750   -17.1340    67.0470     5.3010     6.0660     4.7090     2.1170 
