~V
VERS. 2.00: Ver 2.00
~W
STRT.M 50.0000:
STOP.M 193.0000:
STEP.M 0.1250:
NULL. -999.2500:
UWI. F12006:
~C
DEPT.M :
SP.MV :
GR.API :
RI. :
RML.OHMM :
RXO.OHMM :
DEN.GM/CC :
~A
# ...
  114.3750   -32.8270    67.7700    28.1290    30.0360    36.5320     2.1320 
  114.5000   -32.7440    66.6250    25.7630    27.5510    31.7580     2.1340 
  114.6250   -32.6510    68.2900    22.9530    24.6010    25.8660     2.1370 
  114.7500   -32.5500    73.0130    20.8550    22.3970    21.9240     2.1400 
  114.8750   -32.4410    77.7870    20.3760    21.8950    20.5850     2.1480 
  115.0000   -32.3260    78.6810    21.3300    22.8970    24.4680     2.1790 
  115.1250   -32.2140    75.8550    23.7440    25.4310    33.5610     2.2210 
  115.2500   -32.1100    72.1240    26.7910    28.6310    42.4430     2.2340 
  115.3750   -32.0170    70.2040    29.2340    31.1950    46.1940     2.1980 
  115.5000   -31.9360    68.7130    30.3680    32.3860    44.3440     2.1470 
  115.6250   -31.8710    66.0830    29.7560    31.7430    39.4160     2.1220 
  115.7500   -31.8230    64.1940    27.9750    29.8730    33.4580     2.1240 
  115.8750   -31.7900    65.3820    25.9400    27.7370    29.0940     2.1300 
  116.0000   -31.7630    67.5360    24.2840    25.9980    27.8720     2.1270 
  116.1250   -31.7330    65.4170    23.4710    25.1440    27.9660     2.1210 
  116.2500   -31.6990    60.5830    23.6540    25.3370    28.1870     2.1190 
  116.3750   -31.6650    58.8700    24.9160    26.6620    29.3180     2.1160 
  116.5000   -31.6460    60.9240    26.8870    28.7310    31.7630     2.1080 
  116.6250   -31.6550    64.6770    29.4530    31.4260    34.7610     2.1010 
  116.7500   -31.6900    67.3060    32.0420    34.1440    37.3250     2.1020 
  116.8750   -31.7350    68.7840    33.4700    35.6440    38.7890     2.1060 
  117.0000   -31.7630    68.4080    31.6500    33.7330    39.3750     2.1100 
  117.1250   -31.7520    65.7780    26.5070    28.3320    39.9070     2.1190 
  117.2500   -31.7020    63.2700    19.9190    21.4150    35.1160     2.1410 
  117.3750   -31.6200    62.7060    14.3320    15.5480    21.6980     2.1930 
  117.5000   -31.5200    64.2090    11.2000    12.2600    10.8470     2.2830 
  117.6250   -31.4140    66.5410    10.3860    11.4050     9.9440     2.4000 
  117.7500   -31.3130    68.4820    10.7350    11.7720    14.1740     2.4980 
  117.8750   -31.2150    70.1830    12.0860    13.1910    17.5470     2.5430 
  118.0000   -31.1060    71.3700    13.8050    14.9960    18.5670     2.5500 
  118.1250   -30.9710    71.3280    15.0330    16.2840    19.3760     2.5510 
  118.2500   -30.8100    71.2250    15.2250    16.4860    19.7790     2.5350 
  118.3750   -30.6460    71.9130    14.2780    15.4920    17.6060     2.4590 
  118.5000   -30.5160    72.9370    12.7980    13.9380    13.3590     2.3340 
  118.6250   -30.4620    74.0110    11.3490    12.4160    11.1190     2.2270 
  118.7500   -30.5020    74.5010    10.3170    11.3330    12.0880     2.1800 
  118.8750   -30.6470    74.0040    10.1200    11.1250    13.4940     2.1750 
  119.0000   -30.8720    73.6450    10.6740    11.7080    15.1880     2.1700 
  119.1250   -31.1430    75.0010    12.0050    13.1050    19.6910     2.1580 
  119.2500   -31.4130    77.1890    14.2100    15.4210    25.3230     2.1490 
  119.3750   -31.6400    78.1960    17.1990    18.5590    26.8590     2.1430 
  119.5000   -31.8050    78.1860    20.3380    21.8550    28.0450     2.1380 
  119.6250   -31.8970    76.3170    23.3470    25.0150    34.3070     2.1340 
  119.7500   -31.9300    74.3280    25.8420    27.6350    37.6830     2.1290 
  119.8750   -31.9150    72.5630    27.3860    29.2560    33.8360     2.1240 
  120.0000   -31.8710    71.5420    27.6540    29.5370    28.9910     2.1260 
  120.1250   -31.7970    70.3390    25.9170    27.7130    25.3490     2.1430 
  120.2500   -31.6870    69.7050    22.3310    23.9470    20.3220     2.1690 
  120.3750   -31.5250    69.1600    18.0830    19.4870    15.2330     2.2050 
  120.5000   -31.3090    68.0940    14.3100    15.5250    13.2740     2.2370 
  120.6250   -31.0500    70.4040    12.0010    13.1010    11.7660     2.2440 
  120.7500   -30.7770    77.0560    11.2130    12.2740    10.3880     2.2240 
  120.8750   -30.5220    83.0150    12.0040    13.1040    14.9320     2.2150 
  121.0000   -30.3110    81.5890    15.1230    16.3790    23.9810     2.2680 
  121.1250   -30.1640    72.3210    21.4380    23.0100    35.0450     2.3930 
  121.2500   -30.0740    62.0810    31.1950    33.2550    50.5000     2.5310 
  121.3750   -30.0250    55.6780    41.0180    43.5680    65.0330     2.6140 
  121.5000   -29.9910    53.3350    44.5530    47.2800    75.4520     2.6300 
  121.6250   -29.9540    53.7530    39.3900    41.8590    83.0130     2.6060 
  121.7500   -29.9100    55.8710    28.9420    30.8890    70.8010     2.5650 
  121.8750   -29.8680    59.4280    18.0960    19.5000    37.4400     2.5110 
  122.0000   -29.8430    63.8510    11.5200    12.5960    15.5030     2.4530 
  122.1250   -29.8550    70.8630     8.5140     9.4390    10.7020     2.4000 
  122.2500   -29.9150    79.7100     6.6770     7.5100     8.6660     2.3630 
  122.3750   -30.0330    86.2880     5.9990     6.7990     7.1450     2.3370 
  122.5000   -30.1990    89.6750     5.9480     6.7450     6.7080     2.3290 
  122.6250   -30.3990    93.3900     6.1270     6.9330     7.4430     2.3390 
  122.7500   -30.6070    97.8050     6.2990     7.1140     7.4970     2.3510 
  122.8750   -30.7980    99.9120     6.3690     7.1880     6.6650     2.3400 
  123.0000   -30.9520    99.3070     6.3000     7.1150     6.0620     2.3180 
  123.1250   -31.0510    99.3790     6.1310     6.9370     6.0660     2.3100 
  123.2500   -31.0970   101.0510     5.9390     6.7360     6.4720     2.3130 
  123.3750   -31.0810   102.5680     5.8080     6.5980     6.7320     2.3130 
  123.5000   -31.0050   101.3260     5.8150     6.6060     6.5460     2.3210 
  123.6250   -30.8630    98.0900     5.9880     6.7880     6.3310     2.3530 
  123.7500   -30.6720    96.3640     6.4410     7.2630     7.1330     2.4010 
  123.8750   -30.4640    96.5530     7.1620     8.0200     8.8190     2.4380 
  124.0000   -30.2850    95.5480     8.0160     8.9160    10.1970     2.4530 
  124.1250   -30.1730    93.7380     8.6410     9.5730    13.2350     2.4490 
  124.2500   -30.1410    92.8070     8.8640     9.8070    15.3710     2.4230 
  124.3750   -30.2000    93.8390     8.5320     9.4580    11.9270     2.3750 
  124.5000   -30.3360    94.7420     7.9240     8.8200     8.4130     2.3300 
  124.6250   -30.5430    95.1170     7.2990     8.1640     7.9260     2.3180 
  124.7500   -30.7880    95.9990     6.7860     7.6260     7.9820     2.3420 
  124.8750   -31.0380    97.7320     6.4300     7.2510     8.1310     2.3720 
  125.0000   -31.2600    97.9170     6.2310     7.0430     8.0970     2.3810 
  125.1250   -31.4340    97.3260     6.2440     7.0560     7.4820     2.3780 
  125.2500   -31.5620    97.1750     6.6020     7.4320     7.0790     2.3960 
  125.3750   -31.6540    96.9500     7.5170     8.3930     8.7060     2.4390 
  125.5000   -31.7240    93.0270     8.8710     9.8150    13.0950     2.4690 
  125.6250   -31.7730    84.8300    10.8490    11.8910    18.4270     2.4500 
  125.7500   -31.7910    78.3810    12.9800    14.1290    19.4900     2.4070 
  125.8750   -31.7580    77.2790    14.5590    15.7870    16.9960     2.4010 
  126.0000   -31.6740    78.4990    15.2270    16.4880    22.5080     2.4470 
  126.1250   -31.5410    76.5920    14.5920    15.8220    32.2330     2.4910 
  126.2500   -31.3810    73.2300    13.2590    14.4210    28.1830     2.4810 
  126.3750   -31.2160    74.8490    11.8810    12.9750    16.5340     2.4430 
  126.5000   -31.0650    81.5590    10.8280    11.8690    11.5960     2.4310 
  126.6250   -30.9490    85.4480    10.4710    11.4940    12.7060     2.4490 
  126.7500   -30.8710    84.8460    11.2180    12.2790    16.5920     2.4680 
  126.8750   -30.8250    82.6250    13.5530    14.7310    19.6310     2.4860 
  127.0000   -30.7930    80.6160    17.0990    18.4540    29.4090     2.5080 
  127.1250   -30.7580    75.0160    21.9320    23.5290    44.8100     2.5160 
