~V
VERS. 2.00: Ver 2.00
~W
STRT.M 50.0000:
STOP.M 193.0000:
STEP.M 0.1250:
NULL. -999.2500:
UWI. F12006:
~C
DEPT.M :
SP.MV :
GR.API :
RI. :
RML.OHMM :
RXO.OHMM :
DEN.GM/CC :
~A
# ...
  127.2500   -30.7140    66.4190    27.4730    29.3460    49.9640     2.4970 
  127.3750   -30.6620    60.1700    31.6420    33.7240    47.4170     2.4670 
  127.5000   -30.6130    57.2500    33.9480    36.1460    44.2700     2.4520 
  127.6250   -30.5780    55.5220    34.1230    36.3290    46.3410     2.4530 
  127.7500   -30.5690    54.0770    33.3700    35.5380    47.3010     2.4540 
  127.8750   -30.5940    54.1930    33.5210    35.6970    40.0450     2.4490 
  128.0000   -30.6480    56.2090    34.2370    36.4490    36.3410     2.4490 
  128.1250   -30.7280    59.1530    34.8450    37.0880    44.6870     2.4630 
  128.2500   -30.8270    61.9490    34.7520    36.9900    55.9590     2.4570 
  128.3750   -30.9370    62.3160    33.4750    35.6480    50.0420     2.4110 
  128.5000   -31.0490    61.0210    31.7670    33.8550    36.5100     2.3570 
  128.6250   -31.1540    60.9190    30.0230    32.0240    33.2050     2.3190 
  128.7500   -31.2400    63.2950    29.0880    31.0420    33.6000     2.2920 
  128.8750   -31.2830    65.1640    29.2180    31.1790    32.5130     2.2870 
  129.0000   -31.2570    64.0260    29.4940    31.4690    31.7580     2.3230 
  129.1250   -31.1300    61.3010    28.6030    30.5330    35.1030     2.3790 
  129.2500   -30.9010    59.7240    26.6150    28.4460    39.2540     2.4230 
  129.3750   -30.5810    61.4200    24.1690    25.8780    34.7950     2.4500 
  129.5000   -30.2150    65.0350    22.3420    23.9590    27.5220     2.4690 
  129.6250   -29.8490    66.9930    21.7770    23.3660    27.3180     2.4690 
  129.7500   -29.5220    65.1730    22.8180    24.4580    31.0530     2.4530 
  129.8750   -29.2620    60.9380    25.8880    27.6830    33.5330     2.4350 
  130.0000   -29.0660    57.1120    29.5670    31.5450    34.3250     2.4430 
  130.1250   -28.9180    53.9730    33.1410    35.2980    36.4540     2.4790 
  130.2500   -28.7830    50.3530    35.7720    38.0610    36.9470     2.5210 
  130.3750   -28.6420    47.8640    36.9160    39.2620    33.8330     2.5470 
  130.5000   -28.4920    48.9730    37.5610    39.9390    42.4330     2.5500 
  130.6250   -28.3520    53.5030    37.7450    40.1330    56.4270     2.5290 
  130.7500   -28.2430    56.9320    37.8420    40.2340    50.0860     2.4890 
  130.8750   -28.1880    56.6920    38.3230    40.7390    36.4700     2.4400 
  131.0000   -28.1880    54.7510    39.4710    41.9450    35.1200     2.4060 
  131.1250   -28.2390    54.1900    40.9360    43.4830    42.7850     2.4040 
  131.2500   -28.3150    55.1050    42.4880    45.1130    50.7910     2.4270 
  131.3750   -28.3910    55.9940    44.1940    46.9030    50.9330     2.4560 
  131.5000   -28.4520    55.4830    45.2000    47.9600    46.7940     2.4880 
  131.6250   -28.4930    53.2040    45.1470    47.9050    47.6450     2.5310 
  131.7500   -28.5220    51.6320    44.2950    47.0100    52.2820     2.5660 
  131.8750   -28.5540    51.0050    43.1370    45.7940    49.6190     2.5600 
  132.0000   -28.6020    50.8040    42.1570    44.7650    41.6470     2.5190 
  132.1250   -28.6810    50.2620    41.5760    44.1550    41.7860     2.4810 
  132.2500   -28.7930    50.1370    41.1190    43.6750    47.4040     2.4650 
  132.3750   -28.9350    51.0920    40.5140    43.0400    49.2620     2.4580 
  132.5000   -29.0930    52.8190    40.1070    42.6120    47.3050     2.4470 
  132.6250   -29.2570    53.9680    39.6870    42.1720    41.7140     2.4480 
  132.7500   -29.4180    52.9170    39.1730    41.6320    40.2840     2.4730 
  132.8750   -29.5740    52.0650    38.7890    41.2290    50.7170     2.5110 
  133.0000   -29.7260    52.9000    38.6120    41.0430    59.6000     2.5270 
  133.1250   -29.8700    54.5370    39.0170    41.4680    54.6160     2.5070 
  133.2500   -29.9990    55.4160    39.8200    42.3110    47.2960     2.4800 
  133.3750   -30.0990    55.6840    40.9650    43.5130    47.8410     2.4670 
  133.5000   -30.1660    55.6350    41.9340    44.5300    50.9260     2.4700 
  133.6250   -30.1970    54.1350    42.1060    44.7110    53.5700     2.4790 
  133.7500   -30.1970    54.2220    41.5680    44.1460    52.5300     2.4810 
  133.8750   -30.1590    56.1280    40.5150    43.0410    45.2100     2.4770 
  134.0000   -30.0770    57.5320    39.6780    42.1620    38.4050     2.4810 
  134.1250   -29.9330    55.7200    39.9130    42.4090    42.9230     2.5090 
  134.2500   -29.7220    52.6250    41.4660    44.0400    53.3800     2.5420 
  134.3750   -29.4250    51.2260    43.9410    46.6390    56.7650     2.5570 
  134.5000   -29.0320    51.0570    46.5800    49.4090    57.3030     2.5630 
  134.6250   -28.5270    50.4310    48.1360    51.0430    65.4420     2.5750 
  134.7500   -27.9450    48.7270    48.1290    51.0360    69.9790     2.5860 
  134.8750   -27.3410    48.9640    46.6670    49.5000    57.7590     2.5820 
  135.0000   -26.7950    50.6330    44.3500    47.0680    45.7980     2.5630 
  135.1250   -26.3840    52.1200    41.0020    43.5530    41.6590     2.5580 
  135.2500   -26.1330    53.2010    37.4140    39.7850    37.2870     2.5610 
  135.3750   -26.0600    54.1330    34.2660    36.4800    31.6170     2.5400 
  135.5000   -26.1230    54.1580    32.1650    34.2730    27.4160     2.5070 
  135.6250   -26.2790    52.6340    31.6800    33.7640    28.2970     2.5110 
  135.7500   -26.4640    50.9670    32.0880    34.1930    35.3180     2.5570 
  135.8750   -26.6250    51.2930    32.8240    34.9660    42.0420     2.5970 
  136.0000   -26.7400    52.9660    33.2770    35.4410    40.2270     2.6050 
  136.1250   -26.8020    53.9880    32.9690    35.1180    34.9430     2.5810 
  136.2500   -26.8360    53.3510    31.9730    34.0720    31.5090     2.5310 
  136.3750   -26.8700    52.5380    30.5990    32.6290    30.2870     2.4900 
  136.5000   -26.9240    52.6020    29.3260    31.2930    31.2150     2.4970 
  136.6250   -26.9990    51.9260    28.8800    30.8240    32.2740     2.5420 
  136.7500   -27.0760    49.7700    29.0710    31.0250    31.5760     2.5750 
  136.8750   -27.1340    47.6370    29.4600    31.4330    31.9690     2.5860 
  137.0000   -27.1690    46.4910    29.4770    31.4510    36.7500     2.5960 
  137.1250   -27.1970    47.7360    28.7500    30.6870    37.4700     2.5930 
  137.2500   -27.2440    50.7080    27.5530    29.4300    31.6680     2.5590 
  137.3750   -27.3360    53.6770    26.1830    27.9920    27.9680     2.5160 
  137.5000   -27.4760    55.6550    25.0020    26.7520    27.1680     2.5010 
  137.6250   -27.6590    55.9880    24.0520    25.7540    27.1670     2.5070 
  137.7500   -27.8620    55.5020    23.3370    25.0040    28.7090     2.5090 
  137.8750   -28.0640    55.0530    22.7180    24.3540    28.6800     2.5010 
  138.0000   -28.2550    54.6620    22.0180    23.6190    24.9280     2.4860 
  138.1250   -28.4400    54.3360    21.3810    22.9500    22.2970     2.4670 
  138.2500   -28.6360    54.7530    20.9550    22.5030    22.9550     2.4520 
  138.3750   -28.8710    56.4660    20.8640    22.4070    22.7650     2.4480 
  138.5000   -29.1620    58.3600    20.9860    22.5350    22.0030     2.4520 
  138.6250   -29.5260    58.1190    21.0490    22.6020    23.6920     2.4520 
  138.7500   -29.9510    56.5210    20.9870    22.5370    24.2910     2.4450 
  138.8750   -30.4220    56.8510    20.8730    22.4160    22.3670     2.4370 
  139.0000   -30.9100    58.8860    20.9060    22.4510    21.7560     2.4360 
  139.1250   -31.3880    59.8570    21.0880    22.6430    22.7780     2.4390 
  139.2500   -31.8330    58.8640    21.3200    22.8860    24.5240     2.4410 
  139.3750   -32.2180    57.0200    21.5820    23.1610    26.1640     2.4350 
  139.5000   -32.5290    55.4970    21.8140    23.4050    24.8400     2.4270 
  139.6250   -32.7420    53.7670    21.7660    23.3550    22.6080     2.4300 
  139.7500   -32.8480    52.3630    21.4170    22.9880    22.4670     2.4500 
  139.8750   -32.8200    51.8530    20.7910    22.3310    22.0120     2.4890 
  140.0000   -32.6590    51.8150    20.1060    21.6110    20.8820     2.5360 
