~V
VERS. 2.00: Ver 2.00
~W
STRT.M 50.0000:
STOP.M 213.0000:
STEP.M 0.1250:
NULL. -999.2500:
UWI. F12007:
~C
DEPT.M :
SP.MV :
GR.API :
RI. :
RML.OHMM :
RXO.OHMM :
DEN.GM/CC :
~A
# ...
  178.7500    99.5520    81.1830     8.4700     9.5360    12.6370     2.3810 
  178.8750    98.9620    91.0660     7.2940     8.4290     7.9220     2.3360 
  179.0000    98.3110    95.1540     6.9840     8.3120     9.1870     2.3030 
  179.1250    97.8100    96.1570     7.0910     8.5520    10.2410     2.2660 
  179.2500    97.6980    97.7260     7.0830     8.5280    10.4380     2.2380 
  179.3750    98.0080    97.5560     6.8690     8.1640     9.7350     2.2300 
  179.5000    98.4810    91.7770     6.6140     7.7440     8.0630     2.2430 
  179.6250    99.0150    81.8750     6.5920     7.7070     6.7540     2.2620 
  179.7500    99.4340    72.6930     6.8190     8.0650     6.7080     2.2920 
  179.8750    99.5930    66.2820     7.2170     8.7210    10.4060     2.3600 
  180.0000    99.4470    62.2500     7.6310     9.4470    18.2020     2.4200 
  180.1250    99.0730    60.6390     7.6830     9.6630    19.8310     2.3890 
  180.2500    98.5830    62.3760     7.3250     9.3240    13.0070     2.2960 
  180.3750    98.1450    67.3410     6.7050     8.6090     7.8350     2.2240 
  180.5000    97.8670    70.9730     6.0770     7.8600     6.2870     2.2080 
  180.6250    97.8130    71.6160     5.7340     7.4890     5.5170     2.2190 
  180.7500    97.9280    72.7960     5.7070     7.5300     5.3510     2.2250 
  180.8750    98.0860    75.7590     5.8910     7.8640     6.2440     2.2130 
  181.0000    98.0160    78.2830     6.2050     8.3770     7.5130     2.1940 
  181.1250    97.6420    78.9220     6.5860     8.9550     7.7420     2.2010 
  181.2500    97.3590    80.2550     6.9420     9.4620     7.1580     2.2300 
  181.3750    97.4810    82.4480     7.2490     9.9080     7.0260     2.2490 
  181.5000    97.9450    83.8270     7.5890    10.4270     7.6550     2.2610 
  181.6250    98.4980    82.4160     7.8550    10.8820     8.0070     2.2800 
  181.7500    98.8060    78.8910     7.8960    11.0210     8.3280     2.3050 
  181.8750    98.7200    77.3770     7.5410    10.5710     9.0920     2.3130 
  182.0000    98.4640    78.9060     6.8380     9.5820     8.8500     2.2940 
  182.1250    98.2230    80.0430     6.0060     8.4080     7.3150     2.2610 
  182.2500    98.1420    78.3240     5.3620     7.5220     5.9660     2.2380 
  182.3750    98.3660    75.8410     5.0640     7.1650     5.5440     2.2320 
  182.5000    98.8270    74.6800     5.0420     7.2250     5.6900     2.2390 
  182.6250    99.1950    74.6700     5.2070     7.5350     6.4440     2.2530 
  182.7500    99.3590    73.8440     5.4640     7.9330     7.3730     2.2600 
  182.8750    99.3660    72.4000     5.7540     8.3190     7.3070     2.2490 
  183.0000    99.1620    71.8880     6.0620     8.7150     7.0890     2.2200 
  183.1250    98.7710    74.3270     6.3760     9.1240     7.6360     2.1930 
  183.2500    98.2400    79.5450     6.6860     9.5400     8.0590     2.1830 
  183.3750    97.5940    84.6220     6.9280     9.8840     8.2070     2.1910 
  183.5000    97.0020    86.4980     7.0240    10.0140     8.4750     2.2010 
  183.6250    96.6480    84.6100     6.8760     9.7980     9.1150     2.1970 
  183.7500    96.4870    81.8760     6.5890     9.3960     9.6890     2.1900 
  183.8750    96.3670    79.1850     6.2680     8.9630     8.6840     2.2020 
  184.0000    96.3240    77.1370     6.0160     8.6510     6.8600     2.2160 
  184.1250    96.3240    77.7380     5.8560     8.4990     6.5630     2.2000 
  184.2500    96.2020    81.0820     5.8080     8.5010     7.2730     2.1800 
  184.3750    96.0450    82.4490     5.8970     8.6680     7.2740     2.1970 
  184.5000    96.0940    79.9150     6.0810     8.9410     7.1340     2.2120 
  184.6250    96.4450    76.9830     6.3470     9.3390     7.9020     2.1760 
  184.7500    96.9010    76.7850     6.7160     9.8900     9.1820     2.1290 
  184.8750    97.1770    79.1610     7.1590    10.5460    10.0210     2.1290 
  185.0000    97.1140    82.6630     7.7010    11.3130     9.8670     2.1630 
  185.1250    96.7550    87.7760     8.2420    12.0380     9.5040     2.1970 
  185.2500    96.2940    91.0900     8.6790    12.5850     9.9920     2.2200 
  185.3750    95.7170    88.7770     9.0080    12.9760    11.5360     2.2350 
  185.5000    95.1950    85.3710     9.1890    13.1360    12.7710     2.2420 
  185.6250    95.1930    86.7530     9.1660    13.0170    12.8920     2.2400 
  185.7500    95.5170    91.4730     8.9240    12.6140    12.6330     2.2310 
  185.8750    95.9260    94.1280     8.4910    11.9400    11.5480     2.2230 
  186.0000    96.3340    93.0620     7.8970    11.0740    10.7730     2.2210 
  186.1250    96.5910    91.1090     7.3180    10.2280    10.8980     2.2120 
  186.2500    96.6770    89.8440     6.7930     9.4690     9.8060     2.1920 
  186.3750    96.6850    89.8410     6.3560     8.8480     8.0760     2.1750 
  186.5000    96.7380    87.6940     6.0200     8.3790     7.4540     2.1700 
  186.6250    96.7010    83.5100     5.8060     8.0890     7.5720     2.1710 
  186.7500    96.6020    81.5510     5.7190     7.9730     7.4160     2.1690 
  186.8750    96.4870    83.7080     5.7200     7.9680     6.7110     2.1680 
  187.0000    96.3140    85.7470     5.7560     8.0070     6.3150     2.1720 
  187.1250    96.1700    83.1480     5.8110     8.0780     6.4600     2.1760 
  187.2500    96.1950    79.0570     5.8880     8.1880     6.5630     2.1770 
  187.3750    96.1510    77.6210     5.9860     8.3320     6.6050     2.1770 
  187.5000    95.9990    79.5680     6.0630     8.4380     6.6710     2.1790 
  187.6250    96.1870    81.1260     6.0760     8.4500     6.8750     2.1920 
  187.7500    96.7180    81.2040     6.0350     8.3870     7.1160     2.2100 
  187.8750    97.4890    82.0010     6.0010     8.3450     7.2140     2.2200 
  188.0000    98.3860    85.8420     6.0420     8.4170     7.5740     2.2130 
  188.1250    99.0170    91.0010     6.1700     8.6120     8.7410     2.2060 
  188.2500    98.9860    92.8480     6.4010     8.9370     9.8260     2.2170 
  188.3750    98.4660    90.6530     6.8460     9.5390     9.7110     2.2350 
  188.5000    97.7520    88.6970     7.4640    10.3780     9.0780     2.2390 
  188.6250    97.1650    88.9250     8.2950    11.5440     8.9130     2.2450 
  188.7500    97.0530    90.0830     9.1090    12.7040     9.5550     2.2810 
  188.8750    97.4280    89.4170     9.6230    13.4310    10.7470     2.3360 
  189.0000    97.8810    86.5030     9.7520    13.5780    11.1460     2.3610 
  189.1250    98.2440    83.8900     9.3570    12.9280    10.0230     2.3310 
  189.2500    98.3930    83.5350     8.6080    11.7760     8.8400     2.2750 
  189.3750    98.3500    85.1010     7.8310    10.6280     8.5550     2.2360 
  189.5000    98.2370    86.5810     7.2010     9.7310     8.5510     2.2240 
  189.6250    98.1380    87.1350     6.9300     9.3640     8.0430     2.2270 
  189.7500    97.9420    87.4510     7.0080     9.4890     7.2910     2.2320 
  189.8750    97.6870    87.9130     7.2760     9.8670     7.6710     2.2300 
  190.0000    97.5150    88.7650     7.6300    10.3280     8.6970     2.2280 
  190.1250    97.2910    89.0310     7.9530    10.6980     8.9700     2.2280 
  190.2500    97.0060    88.3660     8.0910    10.7850     8.6690     2.2270 
  190.3750    96.9410    89.6250     7.9650    10.4990     8.6290     2.2280 
  190.5000    96.9240    91.4460     7.5870     9.9110     8.9590     2.2360 
  190.6250    96.7500    89.7340     7.1090     9.2280     8.3810     2.2510 
  190.7500    96.7620    85.4890     6.7090     8.6730     6.8460     2.2560 
  190.8750    97.2140    83.6330     6.5070     8.4060     5.8120     2.2480 
  191.0000    98.0470    84.7890     6.4990     8.4320     6.0290     2.2390 
  191.1250    99.0200    85.5150     6.7250     8.7980     7.6290     2.2400 
  191.2500    99.6710    83.9830     7.1310     9.3920     9.5440     2.2390 
  191.3750    99.6320    83.8670     7.6030    10.0230    10.1110     2.2230 
  191.5000    99.1830    86.9550     8.0650    10.5960     9.7300     2.1980 
