~V
VERS. 2.00: Ver 2.00
~W
STRT.M 50.0000:
STOP.M 213.0000:
STEP.M 0.1250:
NULL. -999.2500:
UWI. F12007:
~C
DEPT.M :
SP.MV :
GR.API :
RI. :
RML.OHMM :
RXO.OHMM :
DEN.GM/CC :
~A
# ...
  127.2500   101.0340    68.5390    34.0290    35.0100    41.7640     2.0860 
  127.3750   100.6800    68.9250    42.0250    43.5770    49.8870     2.0790 
  127.5000   100.2780    70.4250    47.7500    49.5390    54.5020     2.0660 
  127.6250   100.0710    69.8160    48.9330    50.5150    55.1430     2.0560 
  127.7500   100.1860    66.2820    48.3180    49.7700    54.1380     2.0580 
  127.8750   100.8090    63.2520    47.9110    49.3970    52.5270     2.0650 
  128.0000   101.5870    62.3280    48.7500    50.4230    51.5570     2.0630 
  128.1250   102.1920    62.8760    51.2350    53.2910    52.3000     2.0530 
  128.2500   102.3060    62.6390    55.4440    58.1560    53.2250     2.0470 
  128.3750   101.8920    61.2910    61.0540    64.5430    53.1450     2.0480 
  128.5000   101.2380    60.0800    67.1110    71.2700    57.7380     2.0470 
  128.6250   100.5930    59.0130    72.2620    76.8930    69.5090     2.0380 
  128.7500   100.1730    58.0640    73.6130    77.6820    78.0600     2.0280 
  128.8750   100.2780    57.5950    67.5080    69.8750    77.9920     2.0280 
  129.0000   100.6410    57.9090    55.7030    56.7560    77.3430     2.0420 
  129.1250   101.0360    59.8860    40.6270    40.5210    74.5100     2.0680 
  129.2500   101.4140    64.1660    26.8360    26.8270    58.3520     2.1020 
  129.3750   101.6530    70.5180    18.6170    19.0370    34.4160     2.1410 
  129.5000   101.7260    75.5950    14.2890    14.8950    18.3300     2.1770 
  129.6250   101.6680    77.0180    13.4420    14.3770    14.5810     2.1860 
  129.7500   101.5260    75.3110    14.6060    15.9800    22.8140     2.1610 
  129.8750   101.2970    71.8740    17.5200    19.5690    34.0720     2.1320 
  130.0000   101.0270    69.8470    21.7180    24.3400    37.1000     2.1490 
  130.1250   100.7260    68.8220    25.8470    28.7080    36.4780     2.2380 
  130.2500   100.3830    67.7240    29.2880    32.2060    38.0480     2.3300 
  130.3750   100.0310    65.8770    31.2190    33.9790    40.1690     2.3520 
  130.5000    99.7560    64.7910    32.2590    35.1540    40.6460     2.3280 
  130.6250    99.4300    65.6320    33.1670    36.5240    36.4900     2.3300 
  130.7500    99.1620    67.5780    33.4510    37.1280    28.6820     2.3580 
  130.8750    99.1690    69.5970    31.1710    34.7770    26.5010     2.3700 
  131.0000    99.5590    70.0600    26.1110    29.1850    35.6490     2.3710 
  131.1250   100.2100    70.9500    19.2130    21.3610    41.0290     2.3820 
  131.2500   100.7870    75.6340    12.6230    13.9800    27.0890     2.3770 
  131.3750   100.9290    83.1370     8.6260     9.5250    10.3830     2.3380 
  131.5000   100.5830    88.6730     6.5870     7.3070     5.0720     2.2900 
  131.6250   100.0220    90.0080     5.8150     6.5890     4.7490     2.2650 
  131.7500    99.4270    90.6310     5.8920     6.8480     5.2310     2.2570 
  131.8750    99.0490    93.7190     6.3210     7.4330     5.9130     2.2430 
  132.0000    99.1010    97.6460     6.8910     8.0970     7.8110     2.2200 
  132.1250    99.5570    98.0270     7.4040     8.6190     9.6880     2.2080 
  132.2500   100.0850    93.9540     7.8170     9.0190     8.6130     2.2150 
  132.3750   100.5590    89.6390     8.2010     9.4220     7.3320     2.2090 
  132.5000   100.9800    87.5220     8.6090     9.9020     8.8280     2.1710 
  132.6250   101.1870    85.8960     9.2390    10.6760    10.2470     2.1310 
  132.7500   101.2440    83.2950    10.1000    11.7210    10.0100     2.1220 
  132.8750   101.2440    81.5490    10.9220    12.6980    10.9150     2.1290 
  133.0000   101.1430    82.0270    11.4310    13.3120    13.7610     2.1290 
  133.1250   101.0040    83.5320    11.4780    13.4180    16.1410     2.1320 
  133.2500   100.8710    84.0090    11.4510    13.4490    15.6800     2.1470 
  133.3750   100.6900    83.1680    11.5630    13.5990    12.2220     2.1520 
  133.5000   100.4340    82.5810    11.8620    13.9630    10.6640     2.1330 
  133.6250   100.2610    84.0320    12.3870    14.6480    13.5380     2.1070 
  133.7500   100.0710    86.8950    12.8130    15.1670    16.2840     2.0970 
  133.8750    99.9460    87.4380    12.6220    14.8510    15.6520     2.1180 
  134.0000   100.0680    85.6090    11.8310    13.7240    12.6510     2.1510 
  134.1250   100.6440    84.3220    10.3950    11.7880    10.3100     2.1450 
  134.2500   101.4920    84.9480     9.0350    10.0850    10.1310     2.0980 
  134.3750   102.3550    83.7750     8.1150     9.0140    10.5460     2.0640 
  134.5000   102.8690    82.0310     7.6010     8.4770    10.0490     2.0870 
  134.6250   102.8140    84.6220     7.3790     8.2610     9.6700     2.1580 
  134.7500   102.4240    90.1100     7.2350     8.0970     9.7530     2.2220 
  134.8750   101.8680    94.0320     7.0760     7.8570     8.8560     2.2560 
  135.0000   101.3770    94.9940     6.8910     7.5980     7.9680     2.2750 
  135.1250   101.3050    95.6190     6.9200     7.6170     7.6290     2.2920 
  135.2500   101.6410    97.0390     7.0870     7.7610     7.0780     2.2860 
  135.3750   102.1400    98.0970     7.3010     7.9530     7.5380     2.2610 
  135.5000   102.5600    97.9750     7.6510     8.2740    11.2920     2.2760 
  135.6250   102.8740    95.5860     8.1620     8.7610    13.0680     2.3280 
  135.7500   103.0590    93.3580     9.0140     9.6760     9.3540     2.3580 
  135.8750   103.1110    91.9760    10.1280    10.9540     9.7210     2.3710 
  136.0000   103.0420    89.7750    11.3110    12.3160    18.4280     2.4130 
  136.1250   102.8330    85.5580    12.4010    13.4830    25.1640     2.4710 
  136.2500   102.4890    82.1950    13.2760    14.3300    22.9860     2.4850 
  136.3750   102.1670    82.1210    13.9240    14.8700    17.9850     2.4480 
  136.5000   101.8140    82.7800    14.5590    15.5100    17.4470     2.4140 
  136.6250   101.3970    80.3820    15.8640    17.0670    21.6810     2.4050 
  136.7500   101.0210    74.7360    17.8930    19.4990    25.3210     2.3910 
  136.8750   100.6540    67.4840    20.2740    22.2670    25.6780     2.3610 
  137.0000   100.3320    62.8560    22.6040    24.8360    23.9290     2.3410 
  137.1250   100.2460    61.3550    24.4840    26.7990    23.5280     2.3550 
  137.2500   100.5660    61.9580    25.9580    28.2670    25.6230     2.3760 
  137.3750   101.1940    62.4460    27.3790    29.7400    31.5110     2.3900 
  137.5000   101.8650    62.1490    29.0020    31.5680    37.1040     2.3990 
  137.6250   102.1920    60.1900    30.7920    33.6150    35.2610     2.4100 
  137.7500   101.8850    58.4500    32.5470    35.5970    35.2620     2.4230 
  137.8750   101.1580    59.2370    33.8950    37.0400    49.2260     2.4270 
  138.0000   100.3700    61.1790    34.4020    37.4140    59.4720     2.4050 
  138.1250    99.6680    62.2030    33.6300    36.2600    47.7340     2.3580 
  138.2500    99.3050    62.8000    31.9230    34.0760    34.1410     2.3100 
  138.3750    99.4130    64.1610    30.1110    31.8550    29.0200     2.2770 
  138.5000    99.8030    66.1500    29.1670    30.7170    27.3860     2.2530 
  138.6250   100.2140    66.8740    29.6160    31.2080    29.0860     2.2510 
  138.7500   100.5630    65.9150    30.6920    32.3970    33.2570     2.2900 
  138.8750   100.7820    64.6840    31.9100    33.6770    39.7290     2.3660 
  139.0000   100.8680    65.3210    32.4990    34.1070    39.8410     2.4320 
  139.1250   100.7680    65.4570    31.8620    33.1910    32.6650     2.4520 
  139.2500   100.4950    64.6690    30.7370    31.7580    28.5450     2.4280 
  139.3750   100.1510    65.1530    30.1660    31.0720    27.2190     2.3850 
  139.5000    99.9080    65.8020    30.8830    31.9630    27.0800     2.3610 
  139.6250    99.6760    63.8230    33.2950    34.7350    31.4220     2.3910 
  139.7500    99.3630    60.8510    36.4480    38.2670    47.6690     2.4540 
  139.8750    98.9690    59.5700    38.9520    40.9410    66.2890     2.4950 
  140.0000    98.5620    58.7730    40.1050    41.9550    60.5900     2.5000 
