~V
VERS. 2.00: Ver 2.00
~W
STRT.M 50.0000:
STOP.M 193.0000:
STEP.M 0.1250:
NULL. -999.2500:
UWI. F12006:
~C
DEPT.M :
SP.MV :
GR.API :
RI. :
RML.OHMM :
RXO.OHMM :
DEN.GM/CC :
~A
   50.0000   264.1770    40.7040    42.6840    28.1480     0.3840     2.4280 
   50.1250   269.3480    42.9800    42.6830    28.1480     0.6060     2.4370 
   50.2500   274.5660    44.2800    42.6810    28.1480     1.0290     2.4280 
   50.3750   279.5700    43.9020    42.6800    28.1480     1.3930     2.4070 
   50.5000   284.1280    42.7500    42.6830    28.1480     1.1630     2.3890 
   50.6250   287.9750    41.7060    42.6850    28.1480     0.5500     2.3780 
   50.7500   291.0230    40.7730    42.6850    28.1480     0.2570     2.3730 
   50.8750   293.1540    40.5380    42.6860    28.1480     0.2390     2.3710 
   51.0000   294.4760    41.2700    42.6810    28.1480     0.2230     2.3740 
   51.1250   295.0250    41.8440    42.6830    28.1480     0.2220     2.3830 
   51.2500   294.9560    40.9660    42.6840    28.1480     0.2540     2.3900 
   51.3750   294.2590    39.5090    42.6860    28.1480     0.3250     2.3940 
   51.5000   292.9460    38.5010    42.6890    28.1460     0.4020     2.4020 
   51.6250   290.8560    38.4230    42.6890    28.1450     0.4000     2.4160 
   51.7500   287.9140    39.3590    42.6880    28.1450     0.3190     2.4310 
   51.8750   283.9320    40.7110    42.6880    28.1450     0.2540     2.4420 
   52.0000   278.9840    40.5320    42.6860    28.1480     0.2310     2.4460 
   52.1250   273.1860    38.0690    42.6850    28.1480     0.2170     2.4450 
   52.2500   266.9630    35.7430    42.6850    28.1480     0.2050     2.4520 
   52.3750   260.7630    35.3300    42.6860    28.1480     0.1980     2.4760 
   52.5000   254.9590    35.4690    42.6860    28.1480     0.1930     2.4900 
   52.6250   249.7700    35.0410    42.6850    28.1480     0.1920     2.4760 
   52.7500   245.1190    34.7840    42.6840    28.1480     0.1930     2.4550 
   52.8750   240.8650    35.6550    42.6820    28.1480     0.1900     2.4510 
   53.0000   236.7710    36.6170    42.6820    28.1480     0.1880     2.4660 
   53.1250   232.6730    36.6410    42.6820    28.1480     0.1910     2.4850 
   53.2500   228.4840    36.7560    42.6820    28.1480     0.1990     2.4930 
   53.3750   224.2150    37.7580    42.6830    28.1480     0.2040     2.4890 
   53.5000   219.9620    39.4690    42.6830    28.1480     0.1990     2.4810 
   53.6250   215.8640    41.6780    42.6860    28.1480     0.1950     2.4800 
   53.7500   212.0150    43.6280    42.6880    28.1480     0.2030     2.4850 
   53.8750   208.5270    43.6610    42.6870    28.1480     0.2180     2.4890 
   54.0000   205.4620    41.9150    42.6870    28.1480     0.2380     2.4860 
   54.1250   202.9990    40.4330    42.6850    28.1480     0.2510     2.4820 
   54.2500   201.2380    40.4270    42.6840    28.1470     0.2480     2.4900 
   54.3750   200.3370    40.2790    42.6830    28.1460     0.2410     2.5090 
   54.5000   200.1740    38.9190    42.6820    27.9680     0.2400     2.5230 
   54.6250   200.5280    38.0920    42.6800    26.4030     0.2400     2.5330 
   54.7500   200.9020    38.6140    37.6390    22.6130     0.2330     2.5440 
   54.8750   200.6530    40.1220    25.8350    16.4170     0.2270     2.5560 
   55.0000   199.2100    41.4440    14.0180     9.4040     0.2140     2.5610 
   55.1250   195.9310    41.2590     2.4540     4.0540     0.1870     2.5580 
   55.2500   190.6720    40.1600     0.1310     1.0520     0.1610     2.5600 
   55.3750   183.2290    40.2120     0.0970     0.1730     0.1470     2.5680 
   55.5000   173.9090    41.5040     0.0690     0.0980     0.1400     2.5760 
   55.6250   162.7590    41.9910     0.0470     0.0720     0.1330     2.5640 
   55.7500   150.0480    42.8030     0.0460     0.0740     0.7410     2.5670 
   55.8750   135.6610    46.3770     0.1150     0.1430     2.9110     2.5640 
   56.0000   119.6820    52.5860     0.2920     0.3470     5.3090     2.4700 
   56.1250   102.0320    61.1130     0.7100     0.8340     8.1440     2.2840 
   56.2500    83.1540    71.7970     1.5230     1.6720     9.3990     2.1370 
   56.3750    63.7010    81.4160     2.7070     2.7840     9.7740     2.1060 
   56.5000    44.7020    87.2970     3.8550     3.8730     9.8440     2.1120 
   56.6250    27.3000    87.5250     4.6900     4.7210    10.4000     2.1080 
   56.7500    12.1270    83.0440     5.1660     5.3180    11.0550     2.1090 
   56.8750    -0.2990    77.9710     5.4860     5.9110    11.2110     2.1190 
   57.0000   -10.2880    75.2210     5.9960     6.6140    10.7900     2.1290 
   57.1250   -18.0050    75.8250     6.6320     7.3670    10.5830     2.1330 
   57.2500   -24.0150    77.1080     7.2830     8.0270    10.9500     2.1320 
   57.3750   -28.5410    75.9490     7.7100     8.3730    11.2450     2.1250 
   57.5000   -31.9430    71.8030     7.7290     8.3870    11.3150     2.1170 
   57.6250   -34.2990    68.3810     7.3190     8.0220    11.4280     2.1340 
   57.7500   -35.7800    69.0280     6.6130     7.4120    10.7850     2.1800 
   57.8750   -36.3680    74.0470     5.8630     6.7120     8.6440     2.2310 
   58.0000   -36.2050    81.4330     5.2310     6.0700     6.6060     2.2620 
   58.1250   -35.3880    93.3580     4.7460     5.5640     6.0200     2.2750 
   58.2500   -34.2100   106.4290     4.4070     5.2120     5.9250     2.2880 
   58.3750   -32.9600   115.3360     4.1860     4.9530     5.7250     2.3020 
   58.5000   -31.8980   117.4400     4.0700     4.7740     5.5640     2.3030 
   58.6250   -31.1880   113.3800     4.0480     4.7510     5.5010     2.2860 
   58.7500   -30.8110   108.7180     4.1670     4.8750     5.7090     2.2740 
   58.8750   -30.7190   105.2760     4.5300     5.2570     6.1650     2.2920 
   59.0000   -30.8160   103.0280     5.0940     5.8490     6.7800     2.3300 
   59.1250   -31.0780    99.1860     5.7140     6.5000    10.8720     2.3600 
   59.2500   -31.4890    93.7010     6.1550     6.9620    15.1880     2.3530 
   59.3750   -32.0660    86.3730     6.2440     7.0560    12.8890     2.3100 
   59.5000   -32.8060    81.8140     5.9950     6.7950     9.3090     2.2630 
   59.6250   -33.7280    81.6510     5.5970     6.3770     7.9160     2.2380 
   59.7500   -34.8160    83.6240     5.2110     5.9710     7.1560     2.2220 
   59.8750   -36.0530    84.2960     5.0440     5.7960     7.3330     2.1990 
   60.0000   -37.3720    82.1050     5.0900     5.8450     7.8270     2.1760 
   60.1250   -38.7100    78.0220     5.2110     5.9710     8.2540     2.1650 
   60.2500   -39.9980    73.7290     5.4150     6.1860     8.5310     2.1670 
   60.3750   -41.1720    73.2910     5.7280     6.5150     8.3660     2.1780 
   60.5000   -42.1980    75.1200     6.1200     6.9260     7.7990     2.1840 
   60.6250   -43.0430    75.7190     6.5680     7.3960     8.1750     2.1750 
   60.7500   -43.7370    74.4580     6.9750     7.8240     9.4380     2.1560 
   60.8750   -44.3180    73.6430     7.2090     8.0690     9.7580     2.1470 
   61.0000   -44.8390    73.5390     7.1540     8.0120     9.2190     2.1500 
   61.1250   -45.3120    73.3000     6.8480     7.6910     8.8500     2.1600 
   61.2500   -45.7140    73.6400     6.4100     7.2310     8.5810     2.1690 
   61.3750   -46.0140    76.6530     6.0530     6.8550     8.2920     2.1740 
   61.5000   -46.2330    81.0590     5.9600     6.7580     8.2320     2.1740 
   61.6250   -46.4510    84.4450     6.1550     6.9630     8.3940     2.1740 
   61.7500   -46.7810    84.2120     6.5700     7.3990     8.8520     2.1810 
   61.8750   -47.3360    80.1800     7.0830     7.9370    10.1580     2.1960 
   62.0000   -48.1400    73.7560     7.5950     8.4750    11.5190     2.2040 
   62.1250   -49.1780    69.1920     7.8590     8.7520    11.6300     2.1960 
   62.2500   -50.3380    69.0470     7.7910     8.6800    11.0600     2.1810 
   62.3750   -51.4910    70.8540     7.6550     8.5370    10.7910     2.1810 
   62.5000   -52.5060    71.1750     7.6640     8.5470    10.7300     2.2140 
   62.6250   -53.2720    70.6320     8.2340     9.1450    11.8400     2.3080 
   62.7500   -53.7740    71.5210     9.3090    10.2740    17.8430     2.4470 
