~V
VERS. 2.00: Ver 2.00
~W
STRT.M 50.0000:
STOP.M 256.0000:
STEP.M 0.1250:
NULL. -999.2500:
UWI. F12009:
~C
DEPT.M :
SP.MV :
GR.API :
RI. :
RML.OHMM :
RXO.OHMM :
DEN.GM/CC :
~A
# ...
  230.2500     7.0320    73.8860     5.9930     7.3950     7.6500     2.3370 
  230.3750     7.0540    74.9650     5.8730     7.2460     7.2230     2.3250 
  230.5000     6.9680    75.5610     5.7550     7.0990     6.3990     2.3110 
  230.6250     6.8220    74.2370     5.6370     6.9620     6.9720     2.3140 
  230.7500     6.6320    73.9940     5.5190     6.8340    10.9560     2.3300 
  230.8750     6.4290    76.4500     5.4030     6.7120    12.7990     2.3350 
  231.0000     6.2190    79.2730     5.2960     6.5890     8.7580     2.3130 
  231.1250     5.9420    79.5420     5.2360     6.5040     5.4610     2.2830 
  231.2500     5.6930    76.8810     5.2480     6.4950     4.9820     2.2710 
  231.3750     5.5740    74.1460     5.3450     6.5970     5.3730     2.2900 
  231.5000     5.3810    74.3480     5.5320     6.8090     6.5220     2.3180 
  231.6250     5.2760    76.0270     5.7880     7.0960     7.4830     2.3300 
  231.7500     5.5710    76.1070     6.0410     7.3550     7.9490     2.3140 
  231.8750     6.2850    75.1130     6.2510     7.5380     8.0870     2.2860 
  232.0000     7.1370    75.6020     6.4110     7.6660     7.7990     2.2720 
  232.1250     7.7630    79.6040     6.5200     7.7430     7.3390     2.2850 
  232.2500     7.8330    84.0350     6.5820     7.7610     7.1080     2.3140 
  232.3750     7.3880    84.3580     6.5670     7.6940     7.1930     2.3350 
  232.5000     6.7610    81.1440     6.4940     7.5280     7.3670     2.3360 
  232.6250     6.1730    78.0030     6.3760     7.3150     7.2780     2.3320 
  232.7500     5.8350    77.5300     6.2770     7.1350     7.0300     2.3360 
  232.8750     6.0440    77.4600     6.2120     6.9970     6.8050     2.3460 
  233.0000     6.4760    76.8790     6.1920     6.9240     6.7850     2.3560 
  233.1250     6.9000    76.5690     6.2320     6.9170     6.9130     2.3680 
  233.2500     7.2120    76.2150     6.3140     6.9610     6.9460     2.3770 
  233.3750     7.4150    75.2310     6.4240     7.0510     7.6900     2.3710 
  233.5000     7.5310    73.7310     6.5550     7.1760     8.7410     2.3580 
  233.6250     7.5680    71.6770     6.7330     7.3700     8.6920     2.3480 
  233.7500     7.5710    70.4520     6.9600     7.6120     8.1350     2.3490 
  233.8750     7.4700    72.4760     7.1910     7.8510     8.3180     2.3600 
  234.0000     7.3680    75.3930     7.3920     8.0500     9.0540     2.3790 
  234.1250     7.2340    75.5000     7.5070     8.1430     8.9950     2.3940 
  234.2500     6.9810    73.0980     7.5540     8.1650     8.3630     2.3970 
  234.3750     6.7190    71.5260     7.5720     8.1700     8.1320     2.3980 
  234.5000     6.4690    71.0620     7.6150     8.2140     8.4080     2.3980 
  234.6250     6.0880    70.3410     7.5830     8.1830     8.8190     2.3920 
  234.7500     5.7130    71.8820     7.4360     8.0240     9.1490     2.3800 
  234.8750     5.5980    74.5010     7.0780     7.6230    10.7270     2.3630 
  235.0000     5.8080    74.8580     6.5840     7.0690    11.9190     2.3390 
  235.1250     6.3760    73.5340     6.0450     6.4810     9.3580     2.3040 
  235.2500     7.0150    74.7570     5.5840     5.9930     6.1020     2.2750 
  235.3750     7.3320    76.5320     5.2740     5.6740     5.5110     2.2670 
  235.5000     7.3140    74.6080     5.1200     5.5310     5.8710     2.2780 
  235.6250     6.9950    70.2370     5.1270     5.5540     5.8680     2.2990 
  235.7500     6.5030    67.8480     5.2110     5.6520     5.7750     2.3240 
  235.8750     6.2540    68.0170     5.2740     5.7150     5.7450     2.3440 
  236.0000     6.4050    68.8030     5.2840     5.7170     6.9400     2.3480 
  236.1250     6.7410    69.9020     5.2220     5.6420     8.9240     2.3340 
  236.2500     7.0900    69.9500     5.1130     5.5130     8.2900     2.3170 
  236.3750     7.4360    67.7610     5.0010     5.3950     5.9920     2.3010 
  236.5000     7.6360    65.5840     4.9340     5.3470     5.4720     2.2740 
  236.6250     7.5600    66.0370     4.9620     5.4240     6.0490     2.2440 
  236.7500     7.4560    68.8320     5.0530     5.5820     5.9890     2.2380 
  236.8750     7.3240    71.6410     5.1890     5.7860     5.3820     2.2670 
  237.0000     7.1510    73.3980     5.3050     5.9500     4.8970     2.2970 
  237.1250     7.0920    74.3470     5.3960     6.0760     4.7880     2.3040 
  237.2500     6.9070    74.6940     5.4900     6.1970     5.3690     2.3060 
  237.3750     6.6170    74.5550     5.6390     6.3730     7.5310     2.3120 
  237.5000     6.5780    75.5380     5.8590     6.6290     9.3340     2.3070 
  237.6250     6.4420    75.8440     6.1600     6.9700     8.8650     2.2960 
  237.7500     6.1270    75.1410     6.4500     7.3120     8.9860     2.3070 
  237.8750     5.8830    74.9590     6.6480     7.5500    10.2810     2.3390 
  238.0000     5.9780    76.4220     6.7070     7.6220    10.5250     2.3600 
  238.1250     6.5190    76.5900     6.5830     7.4750     9.7800     2.3660 
  238.2500     7.3680    74.1940     6.3210     7.1620     8.3770     2.3770 
  238.3750     8.1120    73.2510     6.0180     6.8140     6.6920     2.3870 
  238.5000     8.3340    73.5640     5.7630     6.5460     5.9090     2.3810 
  238.6250     8.1510    70.4360     5.6610     6.4590     5.8360     2.3640 
  238.7500     7.7000    64.7240     5.7020     6.5220     6.0970     2.3460 
  238.8750     7.1650    62.3950     5.8380     6.6830     6.5770     2.3300 
  239.0000     6.8760    64.2480     6.0530     6.9270     6.6990     2.3270 
  239.1250     7.0050    66.6980     6.3280     7.2410     7.2380     2.3350 
  239.2500     7.2760    68.7960     6.5910     7.5260     8.1770     2.3370 
  239.3750     7.5870    71.2400     6.7550     7.6800     8.4820     2.3200 
  239.5000     7.9440    73.0600     6.8340     7.7270     8.6920     2.3060 
  239.6250     8.1870    73.4820     6.8380     7.6800     8.3790     2.3130 
  239.7500     8.3890    72.4160     6.8290     7.6240     7.8660     2.3260 
  239.8750     8.4500    70.8700     6.8760     7.6380     8.2230     2.3310 
  240.0000     8.4360    70.9380     6.9860     7.7420     8.8880     2.3310 
  240.1250     8.3460    72.1070     7.1750     7.9360     9.5740     2.3320 
  240.2500     8.2630    73.4510     7.3720     8.1460    10.0580     2.3320 
  240.3750     8.1380    75.1860     7.4650     8.2310    10.1440     2.3350 
  240.5000     7.9340    77.7000     7.4450     8.1860     9.8590     2.3460 
  240.6250     7.8330    77.9790     7.3720     8.0890     9.3340     2.3650 
  240.7500     7.7950    75.4540     7.3110     8.0210     8.9170     2.3780 
  240.8750     7.5700    74.0430     7.2760     7.9930     8.4090     2.3800 
  241.0000     7.4190    73.8840     7.2070     7.9270     8.3720     2.3740 
  241.1250     7.6730    73.7650     7.0500     7.7550     8.6120     2.3660 
  241.2500     7.8390    73.8780     6.8170     7.4810     8.4050     2.3550 
  241.3750     7.8390    75.3600     6.5890     7.2060     7.5430     2.3420 
  241.5000     7.8390    76.6840     6.4780     7.0770     7.1340     2.3390 
  241.6250     7.8390    77.2740     6.6020     7.2340     7.3800     2.3560 
  241.7500     7.8390    77.9330     6.9780     7.6860     8.0590     2.3730 
  241.8750     7.8390    78.4590     7.6070     8.4060     8.7200     2.3700 
  242.0000     7.8390    78.3260     8.2080     9.0500     9.1840     2.3550 
  242.1250     7.8390    78.4990     8.6380     9.4540     9.5470     2.3460 
  242.2500     7.8390    79.2470     8.7770     9.5080     9.5370     2.3470 
  242.3750     7.8390    80.1770     8.7560     9.3980    10.1720     2.3560 
  242.5000     7.8390    81.4300     8.7720     9.3510    12.3320     2.3720 
  242.6250     7.8390    83.3220     8.9540     9.5260    13.6930     2.3770 
  242.7500     7.8390    84.8470     9.2850     9.8750    14.0560     2.3590 
  242.8750     7.8390    84.4980     9.6460    10.2590    16.3890     2.3320 
  243.0000     7.8390    82.9040     9.9000    10.5180    16.8150     2.3320 
