~V
VERS. 2.00: Ver 2.00
~W
STRT.M 50.0000:
STOP.M 255.0000:
STEP.M 0.1250:
NULL. -999.2500:
UWI. F12008:
~C
DEPT.M :
SP.MV :
GR.API :
RI. :
RML.OHMM :
RXO.OHMM :
DEN.GM/CC :
~A
# ...
  230.2500    -0.2190    73.0370     6.1810     7.0520     6.2060     2.2310 
  230.3750    -0.2920    73.3140     6.0980     6.9640     6.5640     2.2590 
  230.5000    -0.3850    73.6330     6.0330     6.8950     6.6730     2.2950 
  230.6250    -0.4720    73.6730     6.0020     6.8620     6.4930     2.3060 
  230.7500    -0.5410    73.6940     6.0050     6.8660     6.9480     2.3010 
  230.8750    -0.5810    72.8760     6.0380     6.9000     7.8100     2.2940 
  231.0000    -0.5860    70.8850     6.0890     6.9550     7.6260     2.2970 
  231.1250    -0.5400    69.1030     6.1780     7.0480     6.8590     2.3100 
  231.2500    -0.4420    70.8670     6.2920     7.1700     7.0370     2.3260 
  231.3750    -0.3040    74.3230     6.4330     7.3190     7.4770     2.3370 
  231.5000    -0.1670    76.1170     6.6270     7.5250     7.4650     2.3390 
  231.6250    -0.0800    75.7050     6.8310     7.7400     7.6120     2.3380 
  231.7500    -0.0670    74.3480     7.0550     7.9790     9.4220     2.3340 
  231.8750    -0.1250    73.0280     7.2320     8.1650    11.3940     2.3250 
  232.0000    -0.2160    73.8020     7.2760     8.2120    10.0040     2.3210 
  232.1250    -0.3070    75.6730     7.2220     8.1550     8.1490     2.3340 
  232.2500    -0.3940    75.9270     7.0830     8.0080     8.2140     2.3580 
  232.3750    -0.4980    73.7210     6.9130     7.8280     8.1950     2.3800 
  232.5000    -0.6330    71.3310     6.7850     7.6920     7.6620     2.3820 
  232.6250    -0.7940    70.2950     6.7020     7.6040     7.5430     2.3610 
  232.7500    -0.9530    70.6450     6.6670     7.5670     7.9980     2.3400 
  232.8750    -1.0860    70.9750     6.6870     7.5880     8.2150     2.3490 
  233.0000    -1.1970    70.0440     6.7510     7.6560     7.9740     2.3730 
  233.1250    -1.3000    69.8880     6.8810     7.7940     8.0640     2.3830 
  233.2500    -1.4120    70.1270     7.0650     7.9880     8.7350     2.3670 
  233.3750    -1.5290    68.6110     7.3410     8.2820     9.3660     2.3250 
  233.5000    -1.6320    67.4710     7.6240     8.5820     9.6780     2.2710 
  233.6250    -1.6940    69.9000     7.8250     8.7940     9.4210     2.2510 
  233.7500    -1.7010    72.4210     7.8900     8.8640     8.7960     2.2990 
  233.8750    -1.6470    72.1390     7.7820     8.7480     8.7600     2.3640 
  234.0000    -1.5430    70.3690     7.5220     8.4740     9.1470     2.3710 
  234.1250    -1.4010    69.1840     7.2280     8.1620     8.7690     2.3230 
  234.2500    -1.2420    68.2520     6.9900     7.9090     8.0310     2.2870 
  234.3750    -1.0870    68.3430     6.8290     7.7390     7.4870     2.2970 
  234.5000    -0.9560    68.7810     6.7760     7.6830     6.7900     2.3260 
  234.6250    -0.8700    68.7240     6.8710     7.7830     6.4010     2.3440 
  234.7500    -0.8310    68.5420     7.0510     7.9740     7.3100     2.3500 
  234.8750    -0.8320    68.2780     7.3490     8.2900     8.8170     2.3580 
  235.0000    -0.8480    67.1150     7.6970     8.6580     8.9590     2.3600 
  235.1250    -0.8480    65.5630     8.0010     8.9810     8.5730     2.3410 
  235.2500    -0.7990    67.0710     8.3310     9.3310     8.4820     2.3220 
  235.3750    -0.6630    70.4710     8.7330     9.7570    10.3680     2.3230 
  235.5000    -0.4390    73.3580     9.0520    10.0960    18.7220     2.3370 
  235.6250    -0.1460    75.1600     9.1660    10.2160    28.3820     2.3550 
  235.7500     0.1700    76.0220     9.0280    10.0690    25.7430     2.3740 
  235.8750     0.5070    75.6750     8.4710     9.4800    13.9470     2.3770 
  236.0000     0.9170    74.3580     7.7370     8.7010     7.4120     2.3510 
  236.1250     1.4850    74.2430     6.9310     7.8470     6.0970     2.3120 
  236.2500     2.1940    73.3730     6.2150     7.0880     5.3030     2.2890 
  236.3750     2.9010    70.1090     5.7010     6.5430     5.0850     2.3000 
  236.5000     3.3930    66.5510     5.4330     6.2590     5.0270     2.3270 
  236.6250     3.4990    65.0360     5.2780     6.0940     5.1380     2.3420 
  236.7500     3.2760    63.5590     5.2200     6.0330     5.4540     2.3380 
  236.8750     2.8750    61.0260     5.3360     6.1560     5.9120     2.3290 
  237.0000     2.4840    59.8940     5.6850     6.5260     7.1530     2.3300 
  237.1250     2.1960    61.2760     6.2500     7.1250    20.3080     2.3440 
  237.2500     2.0070    63.9260     6.9730     7.8910    38.2590     2.3600 
  237.3750     1.8780    67.0400     7.7390     8.7030    33.3930     2.3620 
  237.5000     1.7360    69.4270     8.3400     9.3400    16.9290     2.3530 
  237.6250     1.4910    70.8300     8.6530     9.6730    10.2920     2.3510 
  237.7500     1.1360    71.3010     8.6220     9.6390     9.5550     2.3550 
  237.8750     0.8010    71.2220     8.3930     9.3970     9.4870     2.3510 
  238.0000     0.6900    70.4350     8.1470     9.1360     9.8940     2.3390 
  238.1250     0.9250    70.7160     7.9790     8.9580    10.5100     2.3440 
  238.2500     1.3610    72.2370     7.8580     8.8300     9.7730     2.3710 
  238.3750     1.7680    71.9180     7.7190     8.6830     8.4400     2.3910 
  238.5000     2.0170    70.1350     7.5940     8.5490     8.4070     2.3850 
  238.6250     2.1450    69.5530     7.4780     8.4270     9.7870     2.3730 
  238.7500     2.2730    70.3060     7.4770     8.4260    12.6410     2.3840 
  238.8750     2.4480    70.9470     7.6330     8.5910    13.9330     2.4000 
  239.0000     2.5990    71.0920     7.9640     8.9410    11.1050     2.3910 
  239.1250     2.6020    72.7600     8.5330     9.5450     9.3340     2.3730 
  239.2500     2.4090    75.2390     9.1740    10.2240    10.5720     2.3700 
  239.3750     2.0520    77.3490     9.7430    10.8270    16.7220     2.3860 
  239.5000     1.6540    78.5760     9.9790    11.0780    23.0920     2.3970 
  239.6250     1.3090    80.6070     9.7690    10.8550    18.1110     2.3900 
  239.7500     1.0270    83.4430     9.2350    10.2890     9.8940     2.3670 
  239.8750     0.7550    83.2060     8.6050     9.6220     7.6200     2.3490 
  240.0000     0.4560    78.7910     8.1030     9.0890     8.0960     2.3500 
  240.1250     0.1690    72.9050     7.8170     8.7860     9.1180     2.3630 
  240.2500    -0.0140    69.0500     7.7410     8.7060     9.7350     2.3740 
  240.3750    -0.0310    69.5370     7.7650     8.7310    10.2650     2.3810 
  240.5000     0.0440    71.9300     7.7970     8.7650    10.3680     2.3850 
  240.6250     0.0590    72.3320     7.7620     8.7280    10.0580     2.3870 
  240.7500    -0.1030    70.5550     7.6810     8.6420    10.2120     2.3910 
  240.8750    -0.4550    69.6030     7.6170     8.5740    10.2910     2.3930 
  241.0000    -0.8750    70.7410     7.6170     8.5740     9.6560     2.3870 
  241.1250    -1.2390    71.6710     7.6430     8.6010     8.7860     2.3640 
  241.2500    -1.4910    71.8460     7.6650     8.6250     8.6030     2.3390 
  241.3750    -1.6330    71.7420     7.6360     8.5950     8.7940     2.3330 
  241.5000    -1.7060    71.6510     7.5670     8.5210     8.3210     2.3460 
  241.6250    -1.7360    71.5530     7.4740     8.4220     7.5270     2.3680 
  241.7500    -1.7460    71.7970     7.4090     8.3530     7.9960     2.3860 
  241.8750    -1.7450    71.8310     7.3960     8.3390     9.2510     2.3930 
  242.0000    -1.7440    71.3170     7.4220     8.3670     9.7060     2.3930 
  242.1250    -1.7430    70.7800     7.4720     8.4200     9.4050     2.3920 
  242.2500    -1.7430    70.9400     7.5170     8.4680     8.8680     2.3850 
  242.3750    -1.7430    71.2960     7.5350     8.4880     8.7220     2.3800 
  242.5000    -1.7430    70.9350     7.5440     8.4960     8.9600     2.3860 
  242.6250    -1.7430    69.8340     7.5920     8.5480     9.4130     2.3930 
  242.7500    -1.7430    68.5370     7.6980     8.6600     9.9690     2.3810 
  242.8750    -1.7430    67.4660     7.8080     8.7760    10.0710     2.3630 
  243.0000    -1.7430    66.7150     7.9440     8.9210     9.5500     2.3530 
