~V
VERS. 2.00: Ver 2.00
~W
STRT.M 50.0000:
STOP.M 213.0000:
STEP.M 0.1250:
NULL. -999.2500:
UWI. F12007:
~C
DEPT.M :
SP.MV :
GR.API :
RI. :
RML.OHMM :
RXO.OHMM :
DEN.GM/CC :
~A
# ...
   88.6250    96.3020   102.9200     4.5150     4.8180     6.4090     2.1880 
   88.7500    96.2430   101.3640     4.5270     4.8490     5.7890     2.1840 
   88.8750    96.0680   101.8090     4.4510     4.7820     5.1410     2.1890 
   89.0000    95.8730   105.3940     4.2840     4.6210     4.9480     2.2130 
   89.1250    95.6600   109.6620     4.1020     4.4530     4.8180     2.2430 
   89.2500    95.3580   110.8620     3.9660     4.3210     4.8270     2.2550 
   89.3750    94.9680   110.2100     3.9350     4.2890     4.7910     2.2460 
   89.5000    94.5680   111.2980     4.0610     4.4180     4.7230     2.2370 
   89.6250    94.0510   113.4260     4.5210     4.9270     5.0580     2.2410 
   89.7500    93.4050   112.4070     5.3540     5.8890     6.3620     2.2520 
   89.8750    92.8590   106.6960     6.6390     7.3780     9.0710     2.2710 
   90.0000    92.6280    97.4390     8.2760     9.3010    15.8460     2.3040 
   90.1250    92.5660    87.3840     9.7250    10.9670    26.1200     2.3250 
   90.2500    92.5270    79.7550    10.6710    11.9510    28.9440     2.2830 
   90.3750    94.4250    76.7050    10.6930    11.7900    20.8360     2.1850 
   90.5000    92.3880    74.4970    10.0120    10.8250    12.8810     2.1000 
   90.6250    90.4260    71.5180     9.1390     9.7610    10.3130     2.0740 
   90.7500    89.3320    68.8030     8.5020     9.0970     9.9770     2.0830 
   90.8750    88.5290    68.1520     8.2620     8.9540    10.0190     2.0880 
   91.0000    88.2510    69.5710     8.3010     9.1010    10.2890     2.0830 
   91.1250    88.5340    72.5540     8.3750     9.2440    10.5240     2.0750 
   91.2500    89.0100    74.2940     8.3830     9.2760    10.1810     2.0770 
   91.3750    89.5360    74.2780     8.3200     9.2260     9.1780     2.0800 
   91.5000    90.0440    73.1140     8.2350     9.1370     8.3640     2.0710 
   91.6250    90.4650    72.7630     8.1480     9.0450     8.3340     2.0620 
   91.7500    90.7260    72.9880     8.1030     8.9980     8.6180     2.0650 
   91.8750    90.8290    72.7510     8.1000     9.0240     8.6160     2.0710 
   92.0000    90.8750    71.5110     8.1030     9.0860     8.2910     2.0740 
   92.1250    90.7890    70.8680     8.1050     9.1510     8.1010     2.0750 
   92.2500    90.6960    72.2580     8.1170     9.2230     8.4640     2.0740 
   92.3750    90.6060    74.4160     8.1660     9.2840     9.2460     2.0660 
   92.5000    90.3430    74.8720     8.2760     9.4130    10.2060     2.0600 
   92.6250    89.9330    73.4790     8.4160     9.5680    11.3110     2.0640 
   92.7500    89.5770    71.9750     8.5290     9.6970    12.2220     2.0730 
   92.8750    89.1800    72.0830     8.5530     9.7110    11.6240     2.0820 
   93.0000    88.9700    74.2180     8.4720     9.5620    10.0180     2.0810 
   93.1250    89.2700    74.5840     8.4140     9.4370     9.9150     2.0680 
   93.2500    90.0280    71.7450     8.7060     9.7550    10.8460     2.0560 
   93.3750    91.1380    68.4010     9.1680    10.2840    11.0910     2.0880 
   93.5000    92.2520    67.0740     9.3840    10.5340    12.4310     2.1870 
   93.6250    92.9950    68.3460     9.1850    10.3010    20.4690     2.3130 
   93.7500    93.1950    72.6500     8.5230     9.5260    26.0370     2.3760 
   93.8750    93.1790    80.8940     7.6770     8.5760    17.2410     2.3320 
   94.0000    93.1100    88.5180     6.9750     7.8660     7.7840     2.2460 
   94.1250    93.0730    91.4570     6.4700     7.4120     7.4220     2.1910 
   94.2500    93.3060    89.9040     6.1180     7.1100    11.4350     2.1720 
   94.3750    93.7780    86.0730     5.9720     6.9810    13.2120     2.1630 
   94.5000    94.3030    84.3050     5.7780     6.7150     9.5340     2.1610 
   94.6250    94.9100    88.8390     5.4020     6.2060     6.1550     2.1840 
   94.7500    95.6050    96.3720     4.9820     5.6650     5.4250     2.2240 
   94.8750    96.1360   101.1640     4.6790     5.3090     5.2870     2.2490 
   95.0000    96.4430   102.9800     4.5190     5.1370     5.2890     2.2560 
   95.1250    96.5630   104.0810     4.4900     5.1140     5.3310     2.2550 
   95.2500    96.4840   105.5460     4.5270     5.1780     5.3300     2.2560 
   95.3750    96.3460   107.4960     4.6390     5.3270     5.2950     2.2570 
   95.5000    96.1580   106.3010     4.7940     5.5400     5.4350     2.2450 
   95.6250    95.8750    98.2080     4.9430     5.7540     5.7160     2.2200 
   95.7500    95.5140    88.1790     5.0600     5.9270     5.9520     2.2060 
   95.8750    95.1480    83.4240     5.1280     6.0200     5.8580     2.2230 
   96.0000    94.8390    84.6250     5.1340     6.0150     5.5950     2.2410 
   96.1250    94.6370    88.3510     5.1190     5.9870     5.8520     2.2320 
   96.2500    94.7480    91.7500     5.1200     5.9880     6.2880     2.2150 
   96.3750    95.2820    92.3320     5.1540     6.0560     6.3070     2.2100 
   96.5000    96.0360    91.1810     5.2470     6.2160     6.0990     2.2140 
   96.6250    96.7770    90.1320     5.3390     6.3630     6.1480     2.2160 
   96.7500    97.1920    87.6030     5.4000     6.4640     6.5040     2.2150 
   96.8750    96.9750    83.8210     5.3980     6.4810     6.6370     2.2170 
   97.0000    96.3750    81.8030     5.3510     6.4280     6.3580     2.2230 
   97.1250    95.5940    82.5990     5.2760     6.3360     6.0670     2.2250 
   97.2500    94.8660    84.2260     5.1930     6.2300     5.8510     2.2210 
   97.3750    94.5370    85.0860     5.1330     6.1540     5.9610     2.2100 
   97.5000    94.6090    85.4170     5.0990     6.1120     6.3430     2.1890 
   97.6250    94.8850    85.8580     5.0760     6.0740     6.3000     2.1740 
   97.7500    95.1310    85.9620     5.0380     6.0160     6.1070     2.1790 
   97.8750    95.3660    85.6460     5.0550     6.0460     5.8840     2.1990 
   98.0000    95.5920    83.9020     5.2790     6.3470     5.6620     2.2070 
   98.1250    95.7340    82.3470     5.6680     6.8730     6.0830     2.2240 
   98.2500    95.8020    80.8410     6.0960     7.4640     8.3370     2.2950 
   98.3750    95.7360    79.7520     6.2890     7.7120    12.0690     2.3970 
   98.5000    95.6430    80.6370     6.0940     7.4180    12.0610     2.4500 
   98.6250    95.6800    84.2580     5.6220     6.7280     7.7750     2.4190 
   98.7500    95.7340    87.5060     5.0980     5.9960     5.4600     2.3420 
   98.8750    95.5820    88.5880     4.8910     5.7560     5.8890     2.2600 
   99.0000    95.3440    89.1060     5.1180     6.1560     6.9900     2.1940 
   99.1250    95.0560    88.5790     5.8560     7.2190    10.6620     2.1610 
   99.2500    94.7000    83.5620     6.6180     8.2320    17.5630     2.1540 
   99.3750    94.5710    75.6570     7.0750     8.7360    24.1730     2.1510 
   99.5000    94.9100    71.2510     6.9540     8.4250    23.1790     2.1480 
   99.6250    95.6850    72.3810     6.4000     7.5760    13.8670     2.1520 
   99.7500    96.5180    76.1180     5.7660     6.6900     7.5590     2.1650 
   99.8750    97.0160    80.2070     5.3430     6.1860     7.0430     2.1810 
  100.0000    96.9310    82.8340     5.2400     6.1050     6.9310     2.1920 
  100.1250    96.3630    82.2280     5.3350     6.2360     6.5530     2.1910 
  100.2500    95.6190    79.6240     5.4940     6.4020     6.6690     2.1840 
  100.3750    94.9660    78.4150     5.6070     6.4820     6.9630     2.1790 
  100.5000    94.8760    79.5630     5.6740     6.5210     6.7970     2.1800 
  100.6250    95.4630    80.6150     5.6330     6.4550     6.6850     2.1840 
  100.7500    96.2630    79.8560     5.4630     6.2420     6.9130     2.1890 
  100.8750    96.9720    80.3480     5.1950     5.9130     7.0910     2.2010 
  101.0000    97.4940    82.5980     4.8220     5.4530     6.7800     2.2160 
  101.1250    97.8110    84.2860     4.4110     4.9560     5.8120     2.2260 
  101.2500    98.0100    85.7270     4.0280     4.5180     5.0710     2.2330 
  101.3750    98.1150    88.5560     3.7210     4.1780     4.7350     2.2450 
