~V
VERS. 2.00: Ver 2.00
~W
STRT.M 50.0000:
STOP.M 178.0000:
STEP.M 0.1250:
NULL. -999.2500:
UWI. F12004:
~C
DEPT.M :
SP.MV :
GR.API :
RI. :
RML.OHMM :
RXO.OHMM :
DEN.GM/CC :
~A
   50.0000   196.5860    33.1560     0.1090     0.0130     2.0070     2.7240 
   50.1250   191.5960    31.7480     0.0920     0.0120     2.4690     2.8480 
   50.2500   185.6400    30.8830     0.0910     0.0120     2.1320     2.7970 
   50.3750   178.5480    31.1140     0.1030     0.0120     1.2280     2.6240 
   50.5000   171.3880    31.7110     0.1190     0.0110     0.8230     2.4690 
   50.6250   165.8120    32.7800     0.1230     0.0100     1.3470     2.4030 
   50.7500   161.4770    33.3300     0.1220     0.0110     2.3940     2.3840 
   50.8750   158.0450    32.5620     0.1150     0.0100     2.5450     2.3560 
   51.0000   155.2990    31.5360     0.1140     0.0110     1.8690     2.3180 
   51.1250   153.0280    30.8620     0.1200     0.0080     1.4040     2.2950 
   51.2500   151.3650    30.6670     0.1280     0.0030     1.0540     2.2870 
   51.3750   150.1380    30.9320     0.1360     0.0030     0.5690     2.2810 
   51.5000   149.1170    31.7610     0.1400     0.0020     0.2750     2.2780 
   51.6250   148.3640    31.7000     0.1390     0.0070     0.2840     2.2800 
   51.7500   147.7470    30.9110     0.1410     0.0120     0.3920     2.2800 
   51.8750   147.1930    30.9660     0.1420     0.0170     0.5120     2.2740 
   52.0000   146.7230    32.2300     0.1460     0.0170     0.5550     2.2700 
   52.1250   146.3910    33.2140     0.1490     0.0160     0.4980     2.2670 
   52.2500   146.1840    32.5020     0.1470     0.0150     0.4310     2.2690 
   52.3750   146.0330    30.3700     0.1440     0.0150     0.5770     2.2770 
   52.5000   145.8590    28.8960     0.1420     0.0140     0.7570     2.2940 
   52.6250   145.5750    29.4010     0.1390     0.0140     0.6880     2.3050 
   52.7500   145.2180    30.7950     0.1370     0.0140     0.9820     2.3050 
   52.8750   144.7110    30.9970     0.1340     0.0140     1.5810     2.3040 
   53.0000   144.2040    29.6050     0.1320     0.0130     1.9730     2.3110 
   53.1250   143.8630    28.5280     0.1300     0.0130     1.9470     2.3240 
   53.2500   143.5560    29.0570     0.1280     0.0130     1.2490     2.3410 
   53.3750   143.2460    31.1890     0.1300     0.0130     0.6460     2.3620 
   53.5000   143.0000    33.2360     0.1350     0.0140     0.4200     2.3820 
   53.6250   142.7270    33.5310     0.1410     0.0140     0.3380     2.3960 
   53.7500   142.3800    32.5590     0.1440     0.0130     0.6260     2.4010 
   53.8750   141.9910    31.6080     0.1430     0.0110     1.0630     2.4000 
   54.0000   141.7620    31.2710     0.1350     0.0110     1.1430     2.3940 
   54.1250   141.6150    30.9220     0.1260     0.0100     0.7800     2.3850 
   54.2500   141.8880    30.5130     0.1180     0.0130     0.5010     2.3780 
   54.3750   141.9120    31.7220     0.1130     0.0120     0.4640     2.3770 
   54.5000   141.8680    33.6120     0.1170     0.0120     0.3770     2.3770 
   54.6250   141.7640    34.6250     0.1220     0.0120     0.2810     2.3720 
   54.7500   141.4540    33.7400     0.1260     0.0120     0.2670     2.3670 
   54.8750   141.0760    31.7180     0.1270     0.0120     0.2630     2.3700 
   55.0000   140.7720    30.3500     0.1250     0.0120     0.2570     2.3750 
   55.1250   140.7230    30.4900     0.1220     0.0120     0.4260     2.3770 
   55.2500   140.8330    31.8140     0.1130     0.0110     0.7790     2.3830 
   55.3750   140.7990    34.1210     0.0980     0.0110     0.9180     2.4020 
   55.5000   140.5890    36.7180     0.0750     0.0120     0.8570     2.4250 
   55.6250   140.0210    39.3730     0.0520     0.0130     0.8870     2.4490 
   55.7500   139.0670    42.1470     0.0360     0.0150     0.7890     2.4770 
   55.8750   137.7700    45.0430     0.0330     0.0240     0.4890     2.4880 
   56.0000   136.2320    46.0190     0.0640     0.0580     0.6260     2.4850 
   56.1250   134.2210    44.8080     0.1550     0.1490     1.8830     2.4640 
   56.2500   131.5560    44.0020     0.3740     0.4000     3.9050     2.3920 
   56.3750   128.0620    47.2020     0.7590     0.9560     4.8770     2.2780 
   56.5000   123.8930    54.4260     1.2340     1.7010     4.2230     2.2050 
   56.6250   119.8270    64.3610     1.7890     2.4880     3.6450     2.2140 
   56.7500   116.5580    72.2480     2.4160     3.2400     3.5950     2.2320 
   56.8750   113.9860    74.5200     3.1980     3.8810     3.6870     2.2070 
   57.0000   111.4990    72.8920     4.2920     4.7160     4.0140     2.1650 
   57.1250   108.9970    70.5810     5.5530     5.7120     4.2210     2.1250 
   57.2500   106.7890    68.5630     6.6680     6.6220     4.2280     2.0970 
   57.3750   104.8720    65.5200     7.3280     7.1680     4.3460     2.0880 
   57.5000   103.6220    63.6640     7.4570     7.2570     4.5620     2.0960 
   57.6250   102.5190    64.8300     7.1430     6.9130     4.6930     2.1110 
   57.7500   101.4450    67.0200     6.7050     6.4500     4.7030     2.1280 
   57.8750   100.5480    67.6070     6.2950     6.0440     4.5860     2.1450 
   58.0000   100.1130    67.3180     6.0140     5.7860     4.4330     2.1610 
   58.1250    99.9040    67.5500     5.9290     5.7380     4.3520     2.1750 
   58.2500    99.6790    68.2640     5.9450     5.7910     4.3740     2.1840 
   58.3750    99.4790    69.6690     5.9650     5.8320     4.4360     2.1810 
   58.5000    99.2070    70.9470     5.9460     5.8180     4.3400     2.1660 
   58.6250    98.8190    71.6200     5.8970     5.7530     3.9880     2.1610 
   58.7500    98.4210    72.9250     5.8390     5.6580     3.7740     2.1800 
   58.8750    98.2380    75.1250     5.8460     5.6350     4.0160     2.2090 
   59.0000    98.1260    75.7590     6.0040     5.7740     4.2200     2.2240 
   59.1250    98.2320    72.7440     6.3780     6.1520     4.0120     2.2140 
   59.2500    98.5120    67.2780     6.9470     6.7390     3.7160     2.1840 
   59.3750    98.8410    62.3450     7.6540     7.4800     3.6110     2.1530 
   59.5000    99.3120    58.6960     8.3320     8.1950     3.6580     2.1320 
   59.6250   100.2450    55.3340     8.7850     8.6650     3.6840     2.1150 
   59.7500   101.7840    51.4030     8.9940     8.8650     3.5740     2.0930 
   59.8750   103.5980    48.7920     9.0170     8.8620     3.4750     2.0890 
   60.0000   105.0570    48.2680     9.0360     8.8660     3.7260     2.1100 
   60.1250   105.7080    48.0550     9.1670     9.0090     4.3320     2.1340 
   60.2500   105.8530    47.1460     9.5080     9.3880     4.5290     2.1430 
   60.3750   105.7700    46.0610    10.0500     9.9860     4.1930     2.1450 
   60.5000   105.5820    45.3060    10.6940    10.7170     4.6640     2.1460 
   60.6250   105.3670    44.7090    11.1960    11.3030     5.7160     2.1430 
   60.7500   105.2870    45.1610    11.3090    11.5020     5.8350     2.1430 
   60.8750   105.4350    45.3840    11.0700    11.3070     5.1170     2.1490 
   61.0000   105.7210    44.2380    10.5040    10.7470     4.1750     2.1460 
   61.1250   106.1080    43.6130     9.9150    10.1450     3.5100     2.1280 
   61.2500   106.6100    44.8490     9.3710     9.5840     3.3250     2.1140 
   61.3750   107.0280    46.9100     9.0570     9.2880     3.3590     2.1150 
   61.5000   107.3660    47.6210     8.9590     9.2150     3.4910     2.1260 
   61.6250   107.4790    47.8140     8.9800     9.2630     3.5820     2.1320 
   61.7500   107.3830    47.3120     8.9660     9.2740     3.5870     2.1360 
   61.8750   107.2710    46.7440     8.8580     9.2040     3.6040     2.1360 
   62.0000   107.2100    47.1060     8.7090     9.1050     3.6190     2.1300 
   62.1250   107.1160    48.7320     8.5070     8.9470     3.5840     2.1230 
   62.2500   107.1550    49.6620     8.2780     8.7580     3.5360     2.1230 
   62.3750   107.3350    49.8180     8.0590     8.5660     3.4670     2.1270 
   62.5000   107.5390    49.6590     7.8550     8.3890     3.3560     2.1290 
   62.6250   107.6050    49.1420     7.7020     8.2610     3.3010     2.1300 
   62.7500   107.6780    49.0760     7.5770     8.1640     3.3420     2.1330 
