~V
VERS. 2.00: Ver 2.00
~W
STRT.M 50.0000:
STOP.M 193.0000:
STEP.M 0.1250:
NULL. -999.2500:
UWI. F12006:
~C
DEPT.M :
SP.MV :
GR.API :
RI. :
RML.OHMM :
RXO.OHMM :
DEN.GM/CC :
~A
# ...
  153.0000   -34.2780    75.1370     6.7510     7.5880     9.9080     2.3280 
  153.1250   -34.4970    80.6150     6.4770     7.3010    10.4400     2.3240 
  153.2500   -34.7450    82.7940     6.0470     6.8490     9.2030     2.3350 
  153.3750   -34.9560    82.2340     5.5640     6.3430     6.6370     2.3650 
  153.5000   -35.0850    80.1520     5.2840     6.0480     5.6170     2.4120 
  153.6250   -35.1260    76.7960     5.2670     6.0300     6.7200     2.4330 
  153.7500   -35.1330    72.5490     5.5410     6.3180     7.8960     2.3980 
  153.8750   -35.1750    69.2560     6.0860     6.8910     8.2650     2.3430 
  154.0000   -35.2950    68.3020     6.6820     7.5160     8.6790     2.3160 
  154.1250   -35.4990    71.0030     7.1190     7.9750     9.3800     2.3130 
  154.2500   -35.7570    75.9480     7.3170     8.1830     9.4970     2.3040 
  154.3750   -36.0420    78.6000     7.3330     8.1990     8.8940     2.2910 
  154.5000   -36.3380    78.6770     7.2410     8.1030     8.6840     2.2880 
  154.6250   -36.6420    78.9430     7.0880     7.9430     9.0640     2.2930 
  154.7500   -36.9510    78.5810     6.9200     7.7660     9.1340     2.2940 
  154.8750   -37.2500    75.2590     6.7690     7.6070     8.6780     2.2880 
  155.0000   -37.5180    72.8610     6.6780     7.5110     8.2350     2.2840 
  155.1250   -37.7170    75.1170     6.6530     7.4860     8.1210     2.2820 
  155.2500   -37.8220    78.6100     6.7220     7.5580     8.2030     2.2790 
  155.3750   -37.8130    83.0920     6.9110     7.7570     8.4860     2.2770 
  155.5000   -37.7120    89.5110     7.1930     8.0520     9.0360     2.2790 
  155.6250   -37.5510    93.3500     7.4910     8.3660     9.2550     2.2750 
  155.7500   -37.3750    92.4040     7.6310     8.5130     9.3240     2.2650 
  155.8750   -37.2060    89.2140     7.5090     8.3840     9.7620     2.2630 
  156.0000   -37.0380    87.5080     7.2130     8.0730     9.2260     2.2720 
  156.1250   -36.8400    85.7720     6.7490     7.5860     7.8360     2.2840 
  156.2500   -36.5890    83.1230     6.3200     7.1360     8.0770     2.2850 
  156.3750   -36.2760    79.7230     5.9910     6.7900     8.6280     2.2740 
  156.5000   -35.9330    76.5070     5.7980     6.5880     7.5730     2.2620 
  156.6250   -35.6130    74.3860     5.8170     6.6080     7.0870     2.2570 
  156.7500   -35.3630    73.0490     5.9880     6.7880     7.7790     2.2640 
  156.8750   -35.2210    72.8350     6.3430     7.1600     8.5140     2.2810 
  157.0000   -35.1790    74.8120     6.7810     7.6200     9.1350     2.2900 
  157.1250   -35.2160    77.5580     7.1610     8.0190     9.4620     2.2690 
  157.2500   -35.2720    80.0590     7.3370     8.2040     9.3270     2.2360 
  157.3750   -35.2660    79.9840     7.2290     8.0900     8.5890     2.2290 
  157.5000   -35.1160    77.2590     6.9690     7.8170     7.2620     2.2500 
  157.6250   -34.7380    75.5600     6.6250     7.4570     6.9110     2.2730 
  157.7500   -34.1360    78.2520     6.2640     7.0770     7.7920     2.2820 
  157.8750   -33.3400    82.3940     5.9070     6.7020     7.6270     2.2860 
  158.0000   -32.4490    81.9760     5.5160     6.2920     6.3610     2.2950 
  158.1250   -31.5470    79.3060     5.1270     5.8830     5.4590     2.3060 
  158.2500   -30.6940    76.5090     4.7690     5.5080     5.0340     2.3080 
  158.3750   -29.9420    70.9350     4.4780     5.2010     4.8400     2.2990 
  158.5000   -29.3210    64.0650     4.3410     5.0580     4.8080     2.2910 
  158.6250   -28.8970    60.3070     4.3790     5.0980     4.8540     2.2880 
  158.7500   -28.7020    59.1470     4.6100     5.3410     5.2280     2.2850 
  158.8750   -28.7920    59.1140     5.0540     5.8070     6.5610     2.2750 
  159.0000   -29.1490    60.6390     5.6220     6.4030     8.2910     2.2660 
  159.1250   -29.7560    64.9300     6.1650     6.9730     9.0900     2.2620 
  159.2500   -30.5230    68.5730     6.5840     7.4140     8.8190     2.2580 
  159.3750   -31.3500    70.5700     6.8050     7.6450     8.0840     2.2620 
  159.5000   -32.1250    74.1020     6.8880     7.7320     7.6190     2.2730 
  159.6250   -32.7560    78.2300     6.8130     7.6540     7.7680     2.2770 
  159.7500   -33.2260    79.7760     6.6360     7.4680     8.2770     2.2690 
  159.8750   -33.5490    76.4970     6.3970     7.2170     8.2510     2.2660 
  160.0000   -33.7880    72.7900     6.1380     6.9450     7.2590     2.2720 
  160.1250   -33.9950    71.3890     5.9300     6.7260     6.3940     2.2710 
  160.2500   -34.2120    72.0500     5.7970     6.5870     6.4610     2.2590 
  160.3750   -34.4750    73.2910     5.8050     6.5950     7.1650     2.2510 
  160.5000   -34.8080    75.3080     5.9560     6.7540     7.7640     2.2520 
  160.6250   -35.2320    77.7490     6.2110     7.0220     7.7570     2.2520 
  160.7500   -35.7180    79.5610     6.4800     7.3040     7.8160     2.2460 
  160.8750   -36.2030    79.5410     6.6840     7.5180     8.6820     2.2500 
  161.0000   -36.6150    78.9410     6.8540     7.6970     9.6880     2.2670 
  161.1250   -36.8940    80.9050     7.0090     7.8590    10.1510     2.2820 
  161.2500   -37.0400    84.7710     7.1650     8.0230    10.3910     2.2850 
  161.3750   -37.0660    87.0510     7.3040     8.1690    10.5920     2.2870 
  161.5000   -37.0090    86.2500     7.3960     8.2660    10.9250     2.2910 
  161.6250   -36.8950    83.1320     7.4080     8.2790    11.5070     2.2910 
  161.7500   -36.7550    81.8630     7.3010     8.1660    11.1770     2.2860 
  161.8750   -36.6110    83.6280     7.0680     7.9210     9.7580     2.2790 
  162.0000   -36.4710    84.9280     6.8120     7.6520     8.5560     2.2750 
  162.1250   -36.3320    84.8530     6.6870     7.5210     7.9310     2.2750 
  162.2500   -36.1880    85.6890     6.7740     7.6130     8.4730     2.2840 
  162.3750   -36.0530    88.1550     7.0940     7.9490    10.0240     2.2990 
  162.5000   -35.9590    90.4030     7.4910     8.3660    10.5770     2.3050 
  162.6250   -35.9490    92.3350     7.8470     8.7390    10.0310     2.2910 
  162.7500   -36.0260    92.8250     7.9130     8.8090     9.7360     2.2710 
  162.8750   -36.1740    91.2080     7.6190     8.5000     9.4340     2.2560 
  163.0000   -36.3410    88.8680     7.1310     7.9880     8.3980     2.2470 
  163.1250   -36.4930    87.2100     6.6090     7.4400     7.1260     2.2420 
  163.2500   -36.6220    84.5790     6.2700     7.0830     7.1560     2.2440 
  163.3750   -36.7440    80.5060     6.0560     6.8590     8.1630     2.2550 
  163.5000   -36.8770    76.8900     5.9180     6.7140     8.3090     2.2750 
  163.6250   -37.0060    73.4710     5.8290     6.6200     7.2370     2.2920 
  163.7500   -37.0750    69.9880     5.7970     6.5870     6.0020     2.2900 
  163.8750   -36.9890    65.9750     5.8140     6.6040     5.7310     2.2740 
  164.0000   -36.7040    62.9450     5.8650     6.6580     6.5350     2.2610 
  164.1250   -36.2240    63.1060     5.9240     6.7200     7.6660     2.2570 
  164.2500   -35.6600    66.9500     5.9400     6.7370     7.8260     2.2620 
  164.3750   -35.1270    72.0930     5.8510     6.6440     6.8590     2.2730 
  164.5000   -34.6940    74.6360     5.7180     6.5030     6.1640     2.2800 
  164.6250   -34.3760    75.9760     5.6320     6.4140     6.4620     2.2800 
  164.7500   -34.1510    77.7170     5.6550     6.4380     7.4560     2.2820 
  164.8750   -34.0280    77.6110     5.8770     6.6710     8.4400     2.2970 
  165.0000   -34.0260    75.1150     6.2430     7.0550     8.8920     2.3180 
  165.1250   -34.1730    74.3730     6.6950     7.5300     9.5690     2.3330 
  165.2500   -34.4320    78.2670     7.1710     8.0290    11.1780     2.3380 
  165.3750   -34.7450    81.5960     7.6080     8.4880    12.2880     2.3400 
  165.5000   -35.0440    82.1860     8.0380     8.9400    12.1140     2.3440 
  165.6250   -35.2940    82.6740     8.5230     9.4500    12.2590     2.3360 
  165.7500   -35.5080    86.6970     9.0000     9.9500    12.8480     2.3150 
