~V
VERS. 2.00: Ver 2.00
~W
STRT.M 50.0000:
STOP.M 255.0000:
STEP.M 0.1250:
NULL. -999.2500:
UWI. F12008:
~C
DEPT.M :
SP.MV :
GR.API :
RI. :
RML.OHMM :
RXO.OHMM :
DEN.GM/CC :
~A
# ...
   88.6250   -37.2060    68.0130     7.7750     8.7410     9.6630     2.1230 
   88.7500   -37.5180    69.5540     7.3620     8.3030     9.0220     2.1070 
   88.8750   -37.9440    70.3170     7.1280     8.0560     8.7980     2.0980 
   89.0000   -38.4910    69.5330     6.9590     7.8770     8.7250     2.0980 
   89.1250   -39.1390    67.1950     6.8710     7.7830     8.8460     2.0970 
   89.2500   -39.8100    64.5850     6.8780     7.7910     9.0990     2.0980 
   89.3750   -40.4170    64.0210     7.0110     7.9320     9.5580     2.1160 
   89.5000   -40.9080    67.0420     7.2190     8.1520    10.0840     2.1460 
   89.6250   -41.2550    70.9960     7.4040     8.3490    10.2030     2.1600 
   89.7500   -41.4860    72.7060     7.4910     8.4410     9.9570     2.1530 
   89.8750   -41.6150    72.6920     7.4370     8.3830     9.6270     2.1420 
   90.0000   -41.6600    71.9190     7.2770     8.2140     9.4210     2.1370 
   90.1250   -41.6020    71.2950     7.0700     7.9940     9.3970     2.1320 
   90.2500   -41.4280    72.4870     6.8890     7.8020     9.3850     2.1230 
   90.3750   -41.1040    75.3040     6.7450     7.6500     9.2850     2.1120 
   90.5000   -40.6330    77.7190     6.6450     7.5440     9.0470     2.0980 
   90.6250   -40.0190    75.3800     6.5500     7.4430     8.7270     2.0890 
   90.7500   -39.3050    69.9180     6.4760     7.3650     8.5320     2.0920 
   90.8750   -38.5260    64.7800     6.4560     7.3430     8.4050     2.1010 
   91.0000   -37.7180    63.0910     6.4560     7.3430     8.1780     2.1040 
   91.1250   -36.8900    64.3970     6.3500     7.2310     8.0080     2.1110 
   91.2500   -36.0320    66.2110     6.0610     6.9240     7.8760     2.1430 
   91.3750   -35.1210    67.3050     5.5260     6.3580     7.1540     2.1980 
   91.5000   -34.1660    70.1220     4.8800     5.6730     6.1680     2.2410 
   91.6250   -33.2160    75.7390     4.3600     5.1220     5.9380     2.2440 
   91.7500   -32.3590    82.2250     4.0830     4.8280     5.7600     2.2130 
   91.8750   -31.7180    86.9110     4.1930     4.9440     5.6830     2.1720 
   92.0000   -31.3650    88.1810     4.5660     5.3400     6.7640     2.1460 
   92.1250   -31.3650    85.6210     5.1890     6.0010     7.7900     2.1350 
   92.2500   -31.6670    81.5030     5.8320     6.6820     7.7900     2.1280 
   92.3750   -32.2050    77.9410     6.3270     7.2060     7.5350     2.1240 
   92.5000   -32.8440    75.3990     6.6500     7.5490     7.5920     2.1290 
   92.6250   -33.4810    73.0030     6.7450     7.6490     7.9310     2.1360 
   92.7500   -34.0620    69.9040     6.7750     7.6810     8.1950     2.1340 
   92.8750   -34.5820    65.8620     6.7750     7.6810     8.2070     2.1240 
   93.0000   -35.0710    63.3860     6.7390     7.6430     8.1490     2.1180 
   93.1250   -35.5490    64.8030     6.6710     7.5720     8.1590     2.1160 
   93.2500   -36.0220    66.9030     6.5890     7.4840     8.2100     2.1110 
   93.3750   -36.4850    65.2280     6.5200     7.4110     8.3660     2.1050 
   93.5000   -36.9400    61.9490     6.4760     7.3650     8.6120     2.1090 
   93.6250   -37.3900    60.7020     6.4510     7.3380     8.8020     2.1220 
   93.7500   -37.8450    61.5220     6.4330     7.3190     8.9190     2.1260 
   93.8750   -38.3170    61.9150     6.4120     7.2970     8.9640     2.1110 
   94.0000   -38.8110    62.2040     6.3910     7.2750     8.9470     2.0960 
   94.1250   -39.3250    62.1320     6.3710     7.2530     8.9000     2.0970 
   94.2500   -39.8310    61.5270     6.3230     7.2020     8.8930     2.1030 
   94.3750   -40.2760    61.9520     6.2270     7.1000     8.9130     2.1020 
   94.5000   -40.6080    65.0630     6.0960     6.9620     8.7750     2.1000 
   94.6250   -40.7650    68.1150     5.9580     6.8150     8.4620     2.1060 
   94.7500   -40.7300    66.9880     5.8700     6.7230     8.2190     2.1120 
   94.8750   -40.4800    63.7860     5.9010     6.7550     8.2760     2.1080 
   95.0000   -40.0360    63.7250     6.1760     7.0460     8.4580     2.1030 
   95.1250   -39.3880    67.4620     6.7220     7.6260     8.5410     2.1110 
   95.2500   -38.5540    69.1410     7.2040     8.1360    11.1080     2.1440 
   95.3750   -37.5210    68.1430     7.3730     8.3150    20.1770     2.1920 
   95.5000   -36.3190    68.5510     6.9640     7.8820    25.4920     2.2300 
   95.6250   -34.9750    71.5680     6.1670     7.0370    17.4220     2.2390 
   95.7500   -33.5720    76.6310     5.3670     6.1890     7.4520     2.2320 
   95.8750   -32.2230    81.6830     4.7690     5.5550     5.8090     2.2230 
   96.0000   -31.0490    86.5450     4.4910     5.2600     6.2170     2.2090 
   96.1250   -30.1830    88.8760     4.4070     5.1710     7.0460     2.1970 
   96.2500   -29.6460    88.3310     4.4000     5.1640     6.8700     2.1980 
   96.3750   -29.4260    84.6990     4.3740     5.1360     6.0130     2.2060 
   96.5000   -29.3960    80.1490     4.4120     5.1760     5.5740     2.2110 
   96.6250   -29.4460    77.3060     4.6940     5.4760     5.7270     2.2150 
   96.7500   -29.4820    77.0630     5.2700     6.0860     7.1090     2.2390 
   96.8750   -29.4640    77.1410     5.8870     6.7400    13.2600     2.2910 
   97.0000   -29.3860    76.9090     6.3230     7.2020    21.3090     2.3320 
   97.1250   -29.2350    77.1830     6.3090     7.1880    19.5830     2.3100 
   97.2500   -28.9970    78.3310     5.8250     6.6740    10.8640     2.2470 
   97.3750   -28.6540    79.2110     5.1450     5.9540     5.4480     2.2020 
   97.5000   -28.2400    81.6450     4.5550     5.3280     4.8580     2.1940 
   97.6250   -27.8200    84.8840     4.1970     4.9480     4.6210     2.1940 
   97.7500   -27.4690    84.8080     4.1670     4.9170     4.7680     2.1920 
   97.8750   -27.2410    81.1350     4.2480     5.0030     5.0080     2.1940 
   98.0000   -27.1310    79.1430     4.3370     5.0970     5.1690     2.2010 
   98.1250   -27.1240    81.4070     4.4080     5.1720     5.1530     2.2030 
   98.2500   -27.1850    85.1180     4.4570     5.2240     5.0980     2.1970 
   98.3750   -27.2910    86.9510     4.4780     5.2470     5.2200     2.1880 
   98.5000   -27.4090    87.1400     4.4700     5.2380     5.1440     2.1820 
   98.6250   -27.5060    86.4520     4.4310     5.1970     4.7680     2.1860 
   98.7500   -27.5550    85.4490     4.3790     5.1420     4.6960     2.1980 
   98.8750   -27.5430    85.0180     4.3240     5.0830     4.8580     2.2080 
   99.0000   -27.4860    85.7440     4.2860     5.0430     4.8200     2.2090 
   99.1250   -27.4070    88.2900     4.2660     5.0220     4.6600     2.2080 
   99.2500   -27.3390    89.0680     4.2480     5.0030     4.5910     2.2180 
   99.3750   -27.3090    85.6930     4.2560     5.0110     4.8320     2.2270 
   99.5000   -27.3300    81.0640     4.2880     5.0450     5.0700     2.2190 
   99.6250   -27.4070    79.9590     4.3450     5.1050     4.9930     2.1960 
   99.7500   -27.5260    81.3890     4.4230     5.1880     4.9250     2.1780 
   99.8750   -27.6630    82.0600     4.4830     5.2520     4.7010     2.1770 
  100.0000   -27.7830    81.2770     4.4950     5.2640     4.2020     2.1840 
  100.1250   -27.8450    79.9850     4.4120     5.1770     3.9390     2.2000 
  100.2500   -27.8150    79.3440     4.2530     5.0080     4.0280     2.2220 
  100.3750   -27.6540    82.0300     4.0430     4.7860     4.0630     2.2370 
  100.5000   -27.3690    90.4470     3.8860     4.6190     4.1370     2.2310 
  100.6250   -26.9820   101.1030     3.8710     4.6040     4.1990     2.2150 
  100.7500   -26.5570   106.7740     4.0060     4.7460     3.9660     2.2160 
  100.8750   -26.1690   106.3970     4.2600     5.0150     4.2950     2.2470 
  101.0000   -25.8730   105.0860     4.5120     5.2830     6.1120     2.2830 
  101.1250   -25.7080   105.6470     4.6460     5.4250     6.2240     2.2840 
  101.2500   -25.6600   104.4460     4.5750     5.3490     5.5090     2.2460 
  101.3750   -25.7030   100.9630     4.3830     5.1460     4.9410     2.2050 
