~V
VERS. 2.00: Ver 2.00
~W
STRT.M 50.0000:
STOP.M 256.0000:
STEP.M 0.1250:
NULL. -999.2500:
UWI. F12009:
~C
DEPT.M :
SP.MV :
GR.API :
RI. :
RML.OHMM :
RXO.OHMM :
DEN.GM/CC :
~A
# ...
  204.5000     4.1670    73.0940    58.5510    58.2830    44.6110     2.1300 
  204.6250     3.5970    75.7480    59.2700    59.1580    40.7350     2.1350 
  204.7500     3.0040    76.1810    61.5920    61.7610    45.3630     2.1400 
  204.8750     2.5780    74.6000    66.4610    67.0620    55.5200     2.1410 
  205.0000     2.5090    72.8690    73.1170    74.1540    62.4170     2.1360 
  205.1250     2.7120    71.2820    80.7380    82.1300    61.9800     2.1310 
  205.2500     2.9730    69.5810    87.8740    89.6450    63.0260     2.1320 
  205.3750     3.1680    68.5840    94.2270    96.4560    71.6850     2.1330 
  205.5000     3.2580    66.9880   100.5120   103.4150    81.5580     2.1330 
  205.6250     3.1970    64.5940   105.9090   109.5090    89.7820     2.1370 
  205.7500     3.1330    63.3410   110.2890   114.4460    97.9330     2.1420 
  205.8750     3.0070    65.4810   113.1260   117.5800   105.2300     2.1390 
  206.0000     2.7400    68.4900   114.6570   119.0680   111.2250     2.1330 
  206.1250     2.4780    68.9090   116.0280   120.0810   115.4050     2.1480 
  206.2500     2.2310    67.1350   118.0300   121.4330   119.6210     2.2060 
  206.3750     1.9870    68.9550   121.3650   123.5140   122.1440     2.2900 
  206.5000     1.7090    74.4330   125.3650   125.6640   120.4140     2.3340 
  206.6250     1.4480    77.8570   128.4360   126.3190   119.4620     2.2990 
  206.7500     1.2440    77.5000   128.2080   123.1960   129.7320     2.2270 
  206.8750     1.0140    78.4740   121.4020   114.0140   142.9330     2.1810 
  207.0000     1.0710    81.0830   109.7020   100.8000   129.4990     2.1720 
  207.1250     1.6600    83.3400    94.2820    84.9400    94.1450     2.1690 
  207.2500     2.4990    84.4960    77.7950    69.0160    69.5930     2.1570 
  207.3750     3.3570    85.6310    63.3720    55.6390    57.3990     2.1590 
  207.5000     3.8420    85.2140    52.2770    45.6260    47.4120     2.1870 
  207.6250     3.6910    82.9580    45.0640    39.3400    40.6310     2.2090 
  207.7500     3.2350    81.3100    41.4240    36.2650    38.5790     2.2070 
  207.8750     2.6840    79.4760    40.6260    35.7060    39.1090     2.1900 
  208.0000     2.2310    75.7170    42.7960    37.9350    38.8900     2.1750 
  208.1250     2.2440    71.4210    49.6000    44.3310    41.0810     2.1740 
  208.2500     2.5840    70.6180    60.6330    54.5850    61.8720     2.2090 
  208.3750     2.9310    75.8160    79.7480    73.1020   116.9970     2.2680 
  208.5000     3.2210    82.6970   105.2340    97.3460   172.1320     2.2960 
  208.6250     3.4040    87.7460   127.5730   118.0690   184.2270     2.2650 
  208.7500     3.3740    90.5560   140.4980   129.8690   168.3960     2.2110 
  208.8750     3.2330    90.6520   139.1050   127.9240   143.1620     2.1830 
  209.0000     3.0380    88.1480   129.1480   119.2310   108.4470     2.2010 
  209.1250     2.7410    84.1330   121.2630   113.5610    90.0240     2.2710 
  209.2500     2.3630    81.6350   119.9380   114.5010   109.6250     2.3550 
  209.3750     1.9440    80.3860   125.9390   122.3420   134.8600     2.4040 
  209.5000     1.4980    80.1600   136.4430   133.7480   130.4010     2.4020 
  209.6250     0.8970    80.5780   146.8310   144.2320   127.1620     2.3730 
  209.7500     0.3830    79.8110   155.8760   152.9530   136.8360     2.3550 
  209.8750    -0.1360    77.0980   163.3760   159.9450   160.0980     2.3420 
  210.0000    -0.6170    74.7510   170.5050   166.5380   182.0380     2.3030 
  210.1250    -0.8750    75.1720   175.6750   171.0540   176.4440     2.2460 
  210.2500    -0.7390    76.5620   176.1370   170.7790   199.1020     2.2280 
  210.3750    -0.3260    76.5390   170.1400   164.2330   208.6530     2.2630 
  210.5000     0.1010    76.5040   160.9290   154.6840   160.5920     2.2990 
  210.6250     0.2660    78.0110   149.9330   143.6530   122.0840     2.3070 
  210.7500    -0.0820    80.4080   139.2450   133.2080   107.0610     2.3080 
  210.8750    -0.7530    80.0230   130.3300   124.8560   101.0510     2.3250 
  211.0000    -1.4580    77.7730   123.1530   118.5290   113.5430     2.3440 
  211.1250    -1.9520    78.0870   118.7040   114.9680   127.1310     2.3500 
  211.2500    -2.0010    80.4730   115.9450   113.1330   111.1200     2.3460 
  211.3750    -1.5970    82.3000   114.9120   113.0930    93.8790     2.3350 
  211.5000    -1.1360    81.1100   115.7550   115.0430    94.2150     2.3140 
  211.6250    -0.7780    75.6830   119.7140   120.4790   103.0440     2.2820 
  211.7500    -0.4950    68.6230   127.3610   129.8210   115.6900     2.2530 
  211.8750    -0.3680    65.8290   137.9280   142.1620   122.9690     2.2250 
  212.0000    -0.2850    68.9470   153.0990   159.6500   147.4920     2.1940 
  212.1250    -0.2730    70.7460   175.9740   185.3470   184.7350     2.1830 
  212.2500    -0.3460    66.8070   206.6470   218.9730   199.2360     2.2310 
  212.3750    -0.3940    62.1560   239.9370   254.5650   267.6060     2.3500 
  212.5000    -0.4040    60.8420   263.1010   278.3700   468.2770     2.4790 
  212.6250    -0.4670    60.4810   263.5870   278.3370   632.9970     2.5290 
  212.7500    -0.4750    60.9940   240.7110   249.8450   551.9490     2.5020 
  212.8750    -0.5120    64.6210   191.1820   191.6720   409.9300     2.4670 
  213.0000    -0.6310    69.6150   129.6590   125.5210   396.6000     2.4910 
  213.1250    -0.6170    73.1180    73.0490    66.3130   326.5200     2.5540 
  213.2500    -0.2110    76.0710    30.9820    28.1170   160.6770     2.5810 
  213.3750     0.6070    80.4960    13.2670    13.2430    44.5920     2.5250 
  213.5000     1.5930    87.2680     7.2890     7.3700     6.9360     2.4200 
  213.6250     2.4240    94.9300     5.5420     5.6860     4.6900     2.3370 
  213.7500     2.7020   100.5870     4.8120     5.0810     4.9220     2.3070 
  213.8750     2.4940   102.0140     4.7180     5.0970     5.2550     2.3120 
  214.0000     2.0880   101.3580     4.8810     5.3210     5.4870     2.3220 
  214.1250     1.6150   101.0410     5.0740     5.5020     5.5160     2.3270 
  214.2500     1.3900   100.0720     5.1800     5.5420     5.5590     2.3310 
  214.3750     1.5540    98.0630     5.1790     5.4780     5.5200     2.3260 
  214.5000     1.9600    98.1050     5.1480     5.3910     5.3410     2.3120 
  214.6250     2.4220   100.3840     5.1550     5.3580     5.2670     2.2960 
  214.7500     2.7330   101.8150     5.2380     5.4160     5.3940     2.2890 
  214.8750     2.8360   102.3660     5.3760     5.5550     5.8560     2.2890 
  215.0000     2.7800   103.6480     5.5180     5.7370     6.5540     2.2870 
  215.1250     2.6140   106.7470     5.6010     5.8930     6.7820     2.2830 
  215.2500     2.4310   107.5100     5.6050     5.9980     6.2090     2.2840 
  215.3750     2.1650   104.8340     5.5320     6.0340     5.6620     2.2900 
  215.5000     1.9730   101.6860     5.4300     6.0360     5.6360     2.2990 
  215.6250     1.7710    99.0490     5.3070     6.0040     5.7390     2.3090 
  215.7500     1.5150    96.4960     5.1490     5.9250     5.7440     2.3120 
  215.8750     1.2390    93.1960     4.9740     5.8000     5.7100     2.3070 
  216.0000     1.0170    90.4020     4.7870     5.6470     5.6670     2.2990 
  216.1250     0.8150    90.5620     4.6460     5.5340     5.5300     2.2900 
  216.2500     0.7220    92.8930     4.6320     5.5650     5.3810     2.2790 
  216.3750     0.9850    95.9970     4.7460     5.7550     5.4020     2.2740 
  216.5000     1.6070    97.1020     4.9880     6.1180     5.6040     2.2840 
  216.6250     2.2160    96.8160     5.4220     6.7260     6.2060     2.3040 
  216.7500     2.5360    97.6880     6.0510     7.5850     6.9100     2.3130 
  216.8750     2.1820    98.1120     6.7050     8.4340     7.6210     2.2950 
  217.0000     1.4140    97.5930     7.2990     9.1760     9.0120     2.2670 
  217.1250     0.3950    98.3750     7.7740     9.7280    10.3020     2.2580 
  217.2500    -0.6510   100.8120     8.0520    10.0280     9.8280     2.2710 
