~V
VERS. 2.00: Ver 2.00
~W
STRT.M 50.0000:
STOP.M 300.0000:
STEP.M 0.1250:
NULL. -999.2500:
UWI. F12002:
~C
DEPT.M :
SP.MV :
GR.API :
RI. :
RML.OHMM :
RXO.OHMM :
DEN.GM/CC :
~A
   50.0000   237.3090    39.8840    42.6770    28.1010     1.7050     2.5260 
   50.1250   239.6560    40.2050    42.6770    28.1010     1.7020     2.5430 
   50.2500   242.4170    42.9510    42.6730    28.1010     1.6610     2.5730 
   50.3750   245.4420    44.7930    42.6740    28.1010     1.5500     2.5970 
   50.5000   248.5410    43.6510    42.6740    28.1010     1.4350     2.5960 
   50.6250   251.5740    41.7250    42.6740    28.1010     1.3730     2.5790 
   50.7500   254.4530    42.3300    42.6710    28.1010     1.3550     2.5580 
   50.8750   257.1250    44.1640    42.6740    28.1010     1.3290     2.5430 
   51.0000   259.6090    43.6710    42.6770    28.1010     1.2780     2.5350 
   51.1250   261.8970    41.4750    42.6770    28.1010     1.2150     2.5400 
   51.2500   263.9740    39.9810    42.6770    28.1010     1.1840     2.5660 
   51.3750   265.7430    40.3810    42.6740    28.1010     1.1770     2.6210 
   51.5000   267.1590    39.8320    42.6710    28.1010     1.1670     2.6810 
   51.6250   268.1820    37.7710    42.6710    28.1010     1.1890     2.6930 
   51.7500   268.9110    37.2510    42.6710    28.1010     1.2170     2.6500 
   51.8750   269.4580    40.2590    42.6710    28.1010     1.1960     2.6020 
   52.0000   269.9650    43.9050    42.6720    28.1010     1.0900     2.5900 
   52.1250   270.5340    45.7290    42.6730    28.1010     0.9640     2.6010 
   52.2500   271.1960    46.2990    42.6770    28.1010     0.9150     2.6080 
   52.3750   271.9110    47.0280    42.6770    28.1010     0.8990     2.5990 
   52.5000   272.5520    46.6330    42.6770    28.1010     0.9090     2.5800 
   52.6250   272.9350    45.7920    42.6750    28.1020     1.0020     2.5610 
   52.7500   272.9510    44.4430    42.6720    28.1020     1.1340     2.5510 
   52.8750   272.5610    43.1160    42.6720    28.1020     1.2520     2.5450 
   53.0000   271.9340    42.4990    42.6720    28.1030     1.3520     2.5310 
   53.1250   271.3150    43.0690    42.6730    28.1030     1.4410     2.5190 
   53.2500   270.9530    44.3770    42.6760    28.1040     1.5410     2.5180 
   53.3750   271.0320    45.2810    42.6760    28.1040     1.6500     2.5120 
   53.5000   271.5270    45.1580    42.6750    28.1030     1.7170     2.4880 
   53.6250   272.3440    42.8820    42.6730    28.0970     1.6870     2.4590 
   53.7500   273.2940    40.2660    42.6720    28.0880     1.6180     2.4640 
   53.8750   274.2240    39.8580    41.5040    27.3540     1.5700     2.4940 
   54.0000   275.0360    41.3360    31.3470    20.8770     1.4810     2.4980 
   54.1250   275.6500    43.7430    19.5310    13.1100     1.3910     2.4500 
   54.2500   276.0450    45.3360     7.7140     5.3410     1.3690     2.3980 
   54.3750   276.1920    45.4610     0.3540     0.3490     1.4660     2.4130 
   54.5000   276.1200    44.5230     0.1380     0.1120     1.6380     2.4710 
   54.6250   275.8110    44.4410     0.1430     0.1110     1.7490     2.4850 
   54.7500   275.2280    44.8120     0.1480     0.1070     1.8240     2.4260 
   54.8750   274.1820    44.3160     0.1510     0.1010     1.8930     2.3530 
   55.0000   272.4400    43.5160     0.1490     0.0930     1.9190     2.3300 
   55.1250   269.4990    42.9050     0.1370     0.0820     1.8880     2.3460 
   55.2500   264.8940    42.0780     0.1190     0.0720     1.8360     2.3490 
   55.3750   257.7060    41.3820     0.1020     0.0670     1.8130     2.3560 
   55.5000   247.2970    42.1510     0.1030     0.0760     1.7650     2.3840 
   55.6250   232.4340    43.7070     0.1530     0.1240     1.6590     2.3550 
   55.7500   212.6590    44.9790     0.3110     0.2740     2.2150     2.2240 
   55.8750   187.1170    46.4590     0.6950     0.6500     4.5790     2.0580 
   56.0000   156.6060    48.5920     1.3520     1.5840     7.0950     1.9550 
   56.1250   122.3600    51.3150     2.3950     4.7050     7.4340     1.9170 
   56.2500    87.2550    53.6580     3.4500     7.6120     6.3880     1.9140 
   56.3750    54.5480    53.9310     4.2680     8.9870     5.4050     1.9460 
   56.5000    26.6320    53.6080     4.8890     5.6820     5.3070     1.9870 
   56.6250     5.2520    55.2880     5.3150     6.1330     6.3680     2.0100 
   56.7500   -10.2910    58.6400     5.8260     6.6760     7.8190     2.0130 
   56.8750   -20.8440    60.9770     6.4320     7.3180     8.7400     2.0090 
   57.0000   -28.3090    61.9530     7.0290     7.9510     9.2920     2.0040 
   57.1250   -33.7970    64.3350     7.7680     8.7340     9.8970     1.9860 
   57.2500   -38.2860    66.1410     8.7400     9.7650    11.1970     1.9580 
   57.3750   -42.1620    64.0550    10.0160    11.1170    14.0910     1.9430 
   57.5000   -45.6680    59.3390    11.3780    12.5610    24.2850     1.9480 
   57.6250   -48.8520    55.2910    12.5420    13.7950    36.4120     1.9570 
   57.7500   -51.7560    53.5210    13.2300    14.5240    32.4530     1.9530 
   57.8750   -54.3470    54.2890    13.4810    14.7900    19.9490     1.9380 
   58.0000   -56.6340    57.2880    13.4360    14.7420    15.2740     1.9140 
   58.1250   -58.5840    59.1360    13.3940    14.6980    15.8490     1.8970 
   58.2500   -60.2300    58.2250    13.3290    14.6290    16.5200     1.9040 
   58.3750   -61.5750    56.9780    13.1830    14.4740    16.6610     1.9320 
   58.5000   -62.6840    57.3990    12.9560    14.2330    16.6270     1.9580 
   58.6250   -63.6130    59.2530    12.6070    13.8630    16.6050     1.9660 
   58.7500   -64.4630    61.1930    12.2550    13.4900    16.6230     1.9590 
   58.8750   -65.3140    61.8210    11.9060    13.1210    16.6680     1.9450 
   59.0000   -66.2080    60.0960    11.5950    12.7910    16.5430     1.9370 
   59.1250   -67.1250    57.9630    11.2550    12.4300    15.6370     1.9520 
   59.2500   -67.9980    58.3070    10.8880    12.0420    15.9780     1.9840 
   59.3750   -68.7510    60.7420    10.5190    11.6500    17.6690     2.0070 
   59.5000   -69.3670    62.6320    10.2190    11.3320    16.7500     2.0040 
   59.6250   -69.8640    62.1090    10.0330    11.1350    14.8640     1.9860 
   59.7500   -70.3070    59.7850     9.8450    10.9360    15.2280     1.9830 
   59.8750   -70.7480    58.4020     9.5300    10.6020    15.5100     2.0050 
   60.0000   -71.2130    59.6130     9.0770    10.1210    13.8450     2.0340 
   60.1250   -71.7140    61.4940     8.5550     9.5680    11.8170     2.0510 
   60.2500   -72.2500    62.5450     8.2040     9.1960    11.0970     2.0520 
   60.3750   -72.8330    63.5510     8.0230     9.0040    11.6200     2.0390 
   60.5000   -73.4590    65.4910     7.9700     8.9490    12.3310     2.0300 
   60.6250   -74.1050    65.0400     7.9420     8.9180    12.4590     2.0390 
   60.7500   -74.7170    61.8310     7.8800     8.8530    11.4380     2.0540 
   60.8750   -75.2270    59.9760     7.7690     8.7350    10.0560     2.0620 
   61.0000   -75.6070    61.6290     7.6820     8.6430    10.4930     2.0710 
   61.1250   -75.8610    64.4790     7.6800     8.6410    12.3280     2.0920 
   61.2500   -76.0520    64.7050     7.7300     8.6940    13.2290     2.1140 
   61.3750   -76.2400    63.8370     7.7710     8.7370    12.8190     2.1190 
   61.5000   -76.4560    63.1970     7.7950     8.7630    12.1560     2.1060 
   61.6250   -76.7060    61.5050     7.8280     8.7980    11.7840     2.0910 
   61.7500   -76.9820    59.4620     7.9400     8.9170    11.8620     2.0880 
   61.8750   -77.2880    59.4920     8.3000     9.2980    12.2770     2.0890 
   62.0000   -77.6260    61.1060     8.8410     9.8710    12.6020     2.0710 
   62.1250   -77.9950    61.7410     9.5060    10.5770    12.8630     2.0330 
   62.2500   -78.3680    61.7960    10.1470    11.2560    13.1770     2.0000 
   62.3750   -78.7070    62.3030    10.6830    11.8240    13.6230     1.9890 
   62.5000   -78.9880    62.0730    11.0250    12.1860    14.1640     1.9810 
   62.6250   -79.1860    61.1610    11.0050    12.1650    14.3780     1.9620 
   62.7500   -79.2960    59.8240    10.6760    11.8170    14.0580     1.9420 
