~V
VERS. 2.00: Ver 2.00
~W
STRT.M 50.0000:
STOP.M 256.0000:
STEP.M 0.1250:
NULL. -999.2500:
UWI. F12009:
~C
DEPT.M :
SP.MV :
GR.API :
RI. :
RML.OHMM :
RXO.OHMM :
DEN.GM/CC :
~A
# ...
   88.6250    -6.1020    78.2000    13.5010    14.6760    39.7880     2.5150 
   88.7500    -6.6400    77.9810    12.9110    14.0570    22.3580     2.4160 
   88.8750    -7.5470    75.0230    10.8120    11.8530    11.6710     2.2590 
   89.0000    -8.5890    71.9850     8.3770     9.2960     8.7980     2.1320 
   89.1250    -9.5860    71.4410     6.8620     7.7050     8.2450     2.0780 
   89.2500   -10.4750    71.1490     6.1960     7.0050     8.1400     2.0680 
   89.3750   -11.0780    69.5370     6.0740     6.8780     7.9180     2.0710 
   89.5000   -11.3770    69.3900     6.1440     6.9510     7.5020     2.0730 
   89.6250   -11.5360    71.2150     6.2360     7.0480     7.1300     2.0710 
   89.7500   -11.7020    71.3610     6.3050     7.1210     6.9130     2.0670 
   89.8750   -11.8170    69.7780     6.3760     7.1940     7.0300     2.0590 
   90.0000   -11.9020    69.4010     6.4700     7.2930     7.2080     2.0470 
   90.1250   -12.0480    70.4440     6.5910     7.4210     7.0710     2.0490 
   90.2500   -12.0510    70.6260     6.7100     7.5460     7.1630     2.0790 
   90.3750   -11.6870    70.9610     6.7850     7.6240     7.9090     2.1270 
   90.5000   -11.0370    71.2890     6.7860     7.6250     8.4890     2.1570 
   90.6250   -10.2560    70.0110     6.6920     7.5270     8.4740     2.1450 
   90.7500    -9.6680    67.9240     6.5390     7.3660     8.4820     2.1070 
   90.8750    -9.6050    68.6360     6.3810     7.2000     8.5870     2.0840 
   91.0000    -9.8710    71.1060     6.2610     7.0740     8.5300     2.0850 
   91.1250   -10.2900    73.1630     6.2210     7.0320     8.2940     2.0920 
   91.2500   -10.6540    72.7480     6.2070     7.0170     8.1440     2.0880 
   91.3750   -10.7190    71.5300     6.2020     7.0120     8.2410     2.0840 
   91.5000   -10.3690    71.4760     6.1890     6.9980     8.2550     2.0890 
   91.6250    -9.7630    72.8720     6.1810     6.9900     8.0810     2.0960 
   91.7500    -9.2300    72.9580     6.2300     7.0410     7.9980     2.0970 
   91.8750    -8.7930    70.7730     6.3480     7.1650     8.0330     2.0910 
   92.0000    -8.5520    69.5880     6.4210     7.2420     8.1980     2.0900 
   92.1250    -8.4300    70.3360     6.3830     7.2030     9.1430     2.1080 
   92.2500    -8.3210    71.2240     6.2400     7.0510     9.4670     2.1440 
   92.3750    -8.2010    72.3190     6.0180     6.8190     7.7440     2.1740 
   92.5000    -8.1150    75.2650     5.7960     6.5860     6.5960     2.1730 
   92.6250    -8.0740    79.3310     5.6750     6.4590     7.2220     2.1390 
   92.7500    -8.1860    80.7770     5.6900     6.4740     7.9340     2.0980 
   92.8750    -8.5810    78.5900     5.8400     6.6320     8.1080     2.0710 
   93.0000    -9.0540    76.8750     6.0410     6.8430     8.1510     2.0600 
   93.1250    -9.3660    76.0400     6.1770     6.9860     8.2570     2.0600 
   93.2500    -9.5960    73.6460     6.2300     7.0410     8.3040     2.0580 
   93.3750    -9.5490    69.6460     6.1860     6.9950     8.2440     2.0520 
   93.5000    -8.9450    67.9150     6.0000     6.8000     8.0970     2.0520 
   93.6250    -7.5960    70.7160     5.6970     6.4820     7.8750     2.0750 
   93.7500    -5.7000    77.1560     5.3090     6.0740     7.0940     2.1290 
   93.8750    -3.5590    86.4290     4.8890     5.6330     5.8500     2.1940 
   94.0000    -1.7190    97.3710     4.5170     5.2430     5.3030     2.2350 
   94.1250    -0.6190   106.8510     4.2140     4.9240     5.2700     2.2430 
   94.2500    -0.1600   113.3290     4.0260     4.7270     4.9440     2.2470 
   94.3750    -0.1120   117.8970     3.9210     4.6170     4.5400     2.2620 
   94.5000    -0.1290   120.9400     3.8760     4.5700     4.3490     2.2780 
   94.6250     0.0860   120.0740     3.8630     4.5560     4.2770     2.2870 
   94.7500     0.5120   115.6780     3.8830     4.5770     4.3160     2.2850 
   94.8750     0.9320   111.7200     3.9610     4.6590     4.5130     2.2760 
   95.0000     1.2540   110.4420     4.1370     4.8440     4.6970     2.2700 
   95.1250     1.3510   111.1600     4.3950     5.1140     4.8530     2.2730 
   95.2500     1.2070   112.5550     4.6770     5.4110     5.2760     2.2850 
   95.3750     0.8860   114.0350     4.9620     5.7100     6.1380     2.3030 
   95.5000     0.4270   113.5950     5.2590     6.0220     6.4750     2.3150 
   95.6250    -0.1800   108.5590     5.5450     6.3220     6.1200     2.2960 
   95.7500    -0.9730    99.1000     5.8110     6.6010     6.5740     2.2450 
   95.8750    -1.8920    90.0710     6.0380     6.8400     7.8740     2.1880 
   96.0000    -2.9570    85.9220     6.1920     7.0020     8.3420     2.1530 
   96.1250    -4.0350    84.9960     6.3040     7.1190     7.5330     2.1400 
   96.2500    -4.9310    82.9460     6.3200     7.1360     6.7660     2.1310 
   96.3750    -5.6650    78.4060     6.2310     7.0420     6.7780     2.1190 
   96.5000    -6.2260    73.0730     6.1320     6.9390     7.1740     2.1100 
   96.6250    -6.3780    69.7940     6.1410     6.9480     7.4940     2.1060 
   96.7500    -6.1210    70.6600     6.3570     7.1740     7.6910     2.1040 
   96.8750    -5.6000    73.7780     6.8440     7.6860     8.0300     2.1060 
   97.0000    -5.1510    75.4070     7.4890     8.3630     8.9510     2.1230 
   97.1250    -5.2220    73.1170     8.1460     9.0530    10.8170     2.1680 
   97.2500    -5.8630    67.9900     8.6210     9.5520    12.1740     2.2220 
   97.3750    -6.8790    63.1350     8.7030     9.6380    11.3980     2.2370 
   97.5000    -7.9690    61.1060     8.3620     9.2800     9.8530     2.1980 
   97.6250    -8.8270    63.2720     7.7360     8.6230     9.0000     2.1370 
   97.7500    -9.1590    64.9760     7.0940     7.9490     8.6610     2.0930 
   97.8750    -8.9690    63.7610     6.6790     7.5130     8.5200     2.0690 
   98.0000    -8.5960    62.4230     6.5410     7.3680     8.3760     2.0530 
   98.1250    -8.1910    65.6090     6.5390     7.3660     8.3220     2.0470 
   98.2500    -7.8090    69.9600     6.5930     7.4230     8.4290     2.0480 
   98.3750    -7.5910    70.3980     6.6690     7.5030     8.4520     2.0500 
   98.5000    -7.4470    67.8070     6.7190     7.5550     8.3860     2.0530 
   98.6250    -7.3520    66.7130     6.7140     7.5490     8.3950     2.0670 
   98.7500    -7.2700    67.9100     6.6950     7.5290     8.3540     2.0830 
   98.8750    -7.1430    69.5630     6.7810     7.6200     8.1300     2.0860 
   99.0000    -6.9920    70.7320     7.0200     7.8710     7.9350     2.0920 
   99.1250    -6.9620    70.0150     7.3020     8.1670     8.2400     2.1360 
   99.2500    -7.0090    68.3480     7.5230     8.3990     9.0440     2.2090 
   99.3750    -7.1400    67.3530     7.5190     8.3940     9.2320     2.2480 
   99.5000    -7.3480    68.2770     7.3120     8.1770     8.5670     2.2180 
   99.6250    -7.6230    70.1300     6.9440     7.7910     8.1860     2.1510 
   99.7500    -7.6640    71.5130     6.5930     7.4230     8.3470     2.1050 
   99.8750    -7.1500    71.2480     6.4030     7.2230     8.7410     2.0940 
  100.0000    -6.3550    69.7890     6.3980     7.2180     9.0630     2.0990 
  100.1250    -5.5290    68.5140     6.5250     7.3510     8.9820     2.1030 
  100.2500    -5.0530    68.6330     6.6320     7.4630     8.6130     2.1010 
  100.3750    -5.0730    69.6040     6.6730     7.5060     8.3120     2.0920 
  100.5000    -5.3980    69.6870     6.6960     7.5310     8.1100     2.0840 
  100.6250    -5.8210    68.9810     6.5980     7.4280     7.8660     2.0820 
  100.7500    -6.0500    67.8020     6.1140     6.9200     7.6930     2.0780 
  100.8750    -5.6650    68.4270     5.3940     6.1640     7.6740     2.0780 
  101.0000    -4.7240    73.1450     4.6100     5.3410     7.0880     2.1010 
  101.1250    -3.6170    80.5570     4.0110     4.7110     5.3510     2.1480 
  101.2500    -2.5740    87.6960     3.8100     4.5000     4.0640     2.1770 
  101.3750    -1.8690    91.5100     3.8990     4.5940     4.8180     2.1560 
