~V
VERS. 2.00: Ver 2.00
~W
STRT.M 50.0000:
STOP.M 300.0000:
STEP.M 0.1250:
NULL. -999.2500:
UWI. F12002:
~C
DEPT.M :
SP.MV :
GR.API :
RI. :
RML.OHMM :
RXO.OHMM :
DEN.GM/CC :
~A
# ...
   75.7500   -45.7140    90.0250     4.4640     5.2320     5.3210     2.1910 
   75.8750   -46.7040    91.1310     4.5420     5.3140     5.9710     2.1630 
   76.0000   -48.0450    88.3140     4.7030     5.4860     6.5650     2.1370 
   76.1250   -49.6620    79.9330     5.0330     5.8350     7.0430     2.1170 
   76.2500   -51.4300    72.5890     5.5470     6.3800     7.4220     2.1060 
   76.3750   -53.2630    70.1150     6.1380     7.0060     8.9240     2.1090 
   76.5000   -55.0880    68.6760     6.7160     7.6190    13.7280     2.1180 
   76.6250   -56.8670    65.6680     7.1790     8.1100    17.2450     2.1300 
   76.7500   -58.6040    62.0460     7.4610     8.4090    14.5090     2.1440 
   76.8750   -60.3140    59.2280     7.5650     8.5190    11.1150     2.1590 
   77.0000   -62.0110    57.1620     7.5480     8.5010    10.7980     2.1760 
   77.1250   -63.6680    54.6560     7.4500     8.3970    11.6980     2.1930 
   77.2500   -65.2340    53.2900     7.3190     8.2580    12.5360     2.2010 
   77.3750   -66.6370    54.2660     7.1210     8.0480    12.2480     2.1930 
   77.5000   -67.8630    57.0620     6.8200     7.7290    11.1630     2.1720 
   77.6250   -68.9180    59.5260     6.4620     7.3500    10.3140     2.1420 
   77.7500   -69.8670    60.3210     6.1360     7.0040     9.8940     2.1170 
   77.8750   -70.7600    59.4130     5.9170     6.7720     9.5990     2.1100 
   78.0000   -71.6210    56.9390     5.7850     6.6320     9.3820     2.1090 
   78.1250   -72.4180    53.9030     5.7160     6.5590     9.3680     2.0960 
   78.2500   -73.0920    52.1390     5.6810     6.5220     9.6630     2.0780 
   78.3750   -73.5530    52.8350     5.6730     6.5140     9.7160     2.0690 
   78.5000   -73.7680    54.1070     5.6920     6.5340     9.4560     2.0700 
   78.6250   -73.6980    53.6890     5.7400     6.5850     9.7470     2.0780 
   78.7500   -73.3790    53.2000     5.7940     6.6420    10.1020     2.0870 
   78.8750   -72.8270    53.2960     5.8280     6.6780     9.8640     2.0920 
   79.0000   -72.1140    52.6440     5.8220     6.6710     9.4460     2.0920 
   79.1250   -71.2940    51.0180     5.7600     6.6050     9.1940     2.0930 
   79.2500   -70.4280    50.2470     5.6600     6.5000     9.1760     2.1000 
   79.3750   -69.5480    50.2100     5.5200     6.3510     9.1570     2.1040 
   79.5000   -68.6720    50.5230     5.3700     6.1920     8.8820     2.1070 
   79.6250   -67.8120    52.4120     5.2570     6.0720     8.4270     2.1110 
   79.7500   -66.9840    55.8970     5.2020     6.0140     8.4460     2.1150 
   79.8750   -66.2320    58.1620     5.2390     6.0540     9.2720     2.1070 
   80.0000   -65.5990    55.8660     5.3590     6.1800     9.8140     2.0950 
   80.1250   -65.1500    52.1910     5.5010     6.3310     9.5290     2.0980 
   80.2500   -64.8980    51.6140     5.6370     6.4750     9.3710     2.1130 
   80.3750   -64.8500    52.6940     5.7010     6.5430     9.6630     2.1240 
   80.5000   -64.9460    51.3900     5.7020     6.5440     9.8170     2.1230 
   80.6250   -65.1410    50.3160     5.6720     6.5120     9.7460     2.1200 
   80.7500   -65.3730    51.7040     5.6460     6.4840     9.7600     2.1220 
   80.8750   -65.5920    53.2120     5.6430     6.4820     9.8610     2.1260 
   81.0000   -65.7470    53.7880     5.6550     6.4940    10.0410     2.1270 
   81.1250   -65.7790    55.1160     5.6720     6.5120     9.9670     2.1260 
   81.2500   -65.6650    56.2700     5.6730     6.5140     9.6860     2.1240 
   81.3750   -65.3870    55.4140     5.6500     6.4890     9.7030     2.1220 
   81.5000   -64.9730    54.1520     5.6100     6.4470     9.6100     2.1170 
   81.6250   -64.4430    53.0720     5.5720     6.4070     9.2320     2.1120 
   81.7500   -63.8340    52.5800     5.5460     6.3790     8.9810     2.1070 
   81.8750   -63.1690    52.3420     5.5420     6.3750     8.9650     2.1050 
   82.0000   -62.4700    52.7450     5.5500     6.3830     8.9910     2.1020 
   82.1250   -61.7290    53.6070     5.5590     6.3920     8.8920     2.0990 
   82.2500   -60.9040    53.9840     5.5300     6.3620     8.7440     2.0950 
   82.3750   -59.8900    53.9530     5.3580     6.1800     8.6270     2.1010 
   82.5000   -58.5810    54.1760     5.0690     5.8730     8.5510     2.1280 
   82.6250   -56.8210    58.3850     4.7510     5.5370     8.0440     2.1680 
   82.7500   -54.5790    65.7740     4.4660     5.2340     6.8000     2.1930 
   82.8750   -51.8540    72.8340     4.3170     5.0760     6.0390     2.1910 
   83.0000   -48.8450    76.3170     4.2680     5.0240     6.1550     2.1800 
   83.1250   -45.8120    77.4990     4.3120     5.0710     6.1450     2.1810 
   83.2500   -43.0380    79.3130     4.4210     5.1860     6.0600     2.1900 
   83.3750   -40.7580    81.8620     4.5820     5.3570     5.9010     2.1920 
   83.5000   -38.9980    82.4440     4.7670     5.5530     5.6970     2.1900 
   83.6250   -37.7360    80.5860     4.9440     5.7410     6.0460     2.1850 
   83.7500   -36.8060    80.3550     5.0990     5.9050     6.7050     2.1800 
   83.8750   -36.0980    82.1730     5.1800     5.9910     6.9800     2.1730 
   84.0000   -35.5000    82.3870     5.1790     5.9900     6.7210     2.1730 
   84.1250   -34.9610    80.5820     5.1140     5.9200     6.3110     2.1790 
   84.2500   -34.4670    80.5150     5.0180     5.8190     6.0290     2.1770 
   84.3750   -34.0610    81.3190     4.9030     5.6970     6.1210     2.1690 
   84.5000   -33.7980    80.5680     4.7870     5.5740     6.5070     2.1800 
   84.6250   -33.7340    78.7550     4.6780     5.4590     6.3390     2.2180 
   84.7500   -33.8370    78.0760     4.5610     5.3350     5.6470     2.2540 
   84.8750   -34.0460    79.1960     4.5470     5.3200     5.3540     2.2680 
   85.0000   -34.2800    81.1570     4.7390     5.5230     5.4400     2.2700 
   85.1250   -34.5160    83.3980     5.1410     5.9490     5.7030     2.2720 
   85.2500   -34.7870    82.8350     5.6190     6.4560     8.6370     2.2640 
   85.3750   -35.1450    80.0590     6.0450     6.9070    12.4310     2.2360 
   85.5000   -35.5890    78.0890     6.3330     7.2130    10.7160     2.2050 
   85.6250   -36.0710    78.6950     6.4180     7.3030     6.6170     2.1970 
   85.7500   -36.5030    80.5920     6.3410     7.2210     5.5420     2.2160 
   85.8750   -36.7980    81.1210     6.1650     7.0350     5.6720     2.2300 
   86.0000   -36.9240    79.3000     5.9850     6.8440     5.2670     2.2100 
   86.1250   -36.8640    76.3680     5.9120     6.7660     5.0290     2.1680 
   86.2500   -36.6470    74.2090     5.9000     6.7540     5.3210     2.1300 
   86.3750   -36.2960    72.8070     5.8250     6.6750     5.7790     2.1090 
   86.5000   -35.8760    72.1110     5.6410     6.4790     6.6960     2.1070 
   86.6250   -35.4770    74.8340     5.3890     6.2120     7.5860     2.1250 
   86.7500   -35.2110    79.6040     5.0920     5.8970     7.0490     2.1420 
   86.8750   -35.2000    83.0120     4.8220     5.6120     6.0480     2.1450 
   87.0000   -35.4750    83.6180     4.5990     5.3750     6.0060     2.1680 
   87.1250   -36.0240    84.9660     4.4680     5.2360     6.1100     2.2090 
   87.2500   -36.7230    86.8900     4.4360     5.2020     5.6680     2.2380 
   87.3750   -37.4320    87.6180     4.5710     5.3460     5.2640     2.2300 
   87.5000   -38.0270    88.1170     4.8690     5.6610     5.2930     2.1920 
   87.6250   -38.4310    87.3560     5.2870     6.1040     6.7990     2.1440 
   87.7500   -38.6590    83.8590     5.7810     6.6270     8.7740     2.1050 
   87.8750   -38.7470    76.8420     6.3120     7.1900     8.7290     2.0820 
   88.0000   -38.7510    68.4880     6.7160     7.6190     8.0920     2.0690 
   88.1250   -38.6900    60.9630     6.9280     7.8430     8.0360     2.0680 
   88.2500   -38.5690    55.9130     6.8890     7.8030     7.9840     2.0790 
   88.3750   -38.3700    55.8210     6.5490     7.4410     8.1230     2.0970 
   88.5000   -38.0900    61.0080     6.1260     6.9940     8.2930     2.1140 
