~V
VERS. 2.00: Ver 2.00
~W
STRT.M 65.0000:
STOP.M 248.0000:
STEP.M 0.1250:
NULL. -999.2500:
UWI. FD10900:
~C
DEPT.M :
TVD. :
DX. :
DY. :
SP.MV :
GR.API :
RI. :
RML.OHMM :
RXO.OHMM :
DEN.GM/CC :
~A
# ...
  101.5000   101.4510    -1.5960     0.3460   -18.1030    81.5560     4.2760     5.0470     5.1580     2.2070 
  101.6250   101.5750    -1.6070     0.3510   -17.9270    77.2560     4.4780     5.2770     5.7240     2.1990 
  101.7500   101.7000    -1.6180     0.3570   -17.8550    75.2550     4.9220     5.7930     6.1610     2.2200 
  101.8750   101.8240    -1.6290     0.3630   -17.9830    74.2250     5.7480     6.8070     6.6960     2.2820 
  102.0000   101.9490    -1.6400     0.3690   -18.2160    75.2050     7.1740     8.6240     9.1150     2.3800 
  102.1250   102.0730    -1.6520     0.3750   -18.4350    75.2890     9.2200    11.2390    14.7820     2.4850 
  102.2500   102.1970    -1.6630     0.3810   -18.5220    73.4800    11.5330    14.1080    21.0870     2.5600 
  102.3750   102.3220    -1.6740     0.3870   -18.4770    71.0940    13.0660    15.8650    23.0930     2.5850 
  102.5000   102.4460    -1.6850     0.3930   -18.3640    71.4730    12.9350    15.4510    19.7860     2.5530 
  102.6250   102.5700    -1.6960     0.3990   -18.3190    74.4630    11.3730    13.2800    14.9620     2.4710 
  102.7500   102.6950    -1.7080     0.4050   -18.4560    76.7390     9.0720    10.3450    11.0530     2.3550 
  102.8750   102.8190    -1.7190     0.4110   -18.7720    75.2290     7.0850     7.9590     8.4500     2.2430 
  103.0000   102.9430    -1.7300     0.4180   -19.1320    72.8600     5.7980     6.5210     7.1660     2.1700 
  103.1250   103.0680    -1.7420     0.4240   -19.5260    71.9990     4.9360     5.6120     6.5600     2.1450 
  103.2500   103.1920    -1.7530     0.4300   -19.8470    76.5390     4.3920     5.0590     5.9200     2.1520 
  103.3750   103.3160    -1.7650     0.4370   -19.9140    83.3760     4.0710     4.7450     5.0240     2.1640 
  103.5000   103.4410    -1.7760     0.4430   -19.5560    89.0200     3.9260     4.6260     4.2780     2.1650 
  103.6250   103.5650    -1.7880     0.4500   -18.9180    89.8510     3.8940     4.6410     4.1840     2.1580 
  103.7500   103.6890    -1.7990     0.4560   -18.1680    87.9510     3.9030     4.6940     4.6620     2.1580 
  103.8750   103.8130    -1.8110     0.4630   -17.5560    86.9930     3.8520     4.6480     4.9500     2.1730 
  104.0000   103.9380    -1.8230     0.4700   -17.3530    87.9100     3.6700     4.4120     4.6370     2.1970 
  104.1250   104.0620    -1.8340     0.4760   -17.4560    90.1900     3.4080     4.0620     4.0560     2.2200 
  104.2500   104.1860    -1.8460     0.4830   -17.5780    91.5210     3.1810     3.7660     3.5230     2.2300 
  104.3750   104.3100    -1.8580     0.4900   -17.5660    94.4140     3.1220     3.7090     3.2430     2.2230 
  104.5000   104.4350    -1.8700     0.4970   -17.5530    96.7530     3.3260     4.0140     3.5590     2.1990 
  104.6250   104.5590    -1.8820     0.5040   -17.7300    95.0220     3.7440     4.5980     4.4180     2.1660 
  104.7500   104.6830    -1.8930     0.5110   -18.0910    87.3430     4.2680     5.2940     5.3280     2.1360 
  104.8750   104.8070    -1.9050     0.5180   -18.6940    81.4610     4.7410     5.8760     5.8330     2.1170 
  105.0000   104.9320    -1.9170     0.5250   -19.5170    80.4480     5.0370     6.1910     5.9240     2.1050 
  105.1250   105.0560    -1.9300     0.5320   -20.4350    82.5610     5.1480     6.2580     5.9060     2.0960 
  105.2500   105.1800    -1.9420     0.5390   -21.1590    81.5870     5.1320     6.1820     5.9160     2.0920 
  105.3750   105.3040    -1.9540     0.5470   -21.6160    79.9090     5.0870     6.0930     5.9110     2.0910 
  105.5000   105.4280    -1.9660     0.5540   -21.8970    77.1180     5.0660     6.0570     5.8840     2.0900 
  105.6250   105.5530    -1.9780     0.5610   -22.0850    74.6040     5.0890     6.1000     5.8670     2.0870 
  105.7500   105.6770    -1.9910     0.5680   -22.1610    70.9980     5.1660     6.2460     5.8710     2.0810 
  105.8750   105.8010    -2.0030     0.5760   -22.1880    69.9380     5.2680     6.4480     5.9730     2.0760 
  106.0000   105.9250    -2.0160     0.5830   -22.1470    70.4610     5.3000     6.5650     6.2550     2.0800 
  106.1250   106.0490    -2.0280     0.5910   -22.0030    72.9330     5.1630     6.4470     6.5600     2.0960 
  106.2500   106.1730    -2.0410     0.5980   -21.5650    74.7660     4.8160     6.0300     6.4900     2.1270 
  106.3750   106.2980    -2.0530     0.6060   -20.9060    78.4920     4.3230     5.4010     5.8040     2.1660 
  106.5000   106.4220    -2.0660     0.6130   -20.1450    84.5110     3.7880     4.7040     4.6860     2.2060 
  106.6250   106.5460    -2.0780     0.6210   -19.2320    93.5580     3.3210     4.0940     3.7180     2.2380 
  106.7500   106.6700    -2.0910     0.6280   -18.2120   100.1750     2.9890     3.6690     3.2450     2.2510 
  106.8750   106.7940    -2.1040     0.6360   -17.1620   103.3130     2.8300     3.4750     3.0770     2.2460 
  107.0000   106.9180    -2.1170     0.6440   -16.3960   104.1800     2.8800     3.5540     3.0380     2.2340 
  107.1250   107.0420    -2.1300     0.6510   -15.9560   104.8670     3.1020     3.8460     3.2450     2.2290 
  107.2500   107.1660    -2.1430     0.6590   -15.7630   104.0550     3.4300     4.2490     3.8490     2.2320 
  107.3750   107.2900    -2.1560     0.6670   -15.7300   100.1190     3.7550     4.6270     4.5730     2.2310 
  107.5000   107.4140    -2.1690     0.6740   -15.8460    95.8150     3.9890     4.8700     4.9120     2.2240 
  107.6250   107.5390    -2.1820     0.6820   -16.0470    93.2460     4.0960     4.9500     4.7490     2.2210 
  107.7500   107.6630    -2.1950     0.6900   -16.2910    92.8590     4.0780     4.8890     4.4690     2.2260 
  107.8750   107.7870    -2.2080     0.6980   -16.5330    92.4770     3.9900     4.7670     4.3830     2.2300 
  108.0000   107.9110    -2.2210     0.7060   -16.6520    91.4090     3.8820     4.6390     4.3890     2.2290 
  108.1250   108.0350    -2.2340     0.7130   -16.6160    92.0980     3.7820     4.5300     4.3210     2.2280 
  108.2500   108.1590    -2.2480     0.7210   -16.5500    93.5380     3.7040     4.4480     4.1650     2.2300 
  108.3750   108.2830    -2.2610     0.7290   -16.5760    95.1320     3.6500     4.3960     4.0260     2.2350 
  108.5000   108.4070    -2.2740     0.7370   -16.6290    94.6040     3.6400     4.4070     3.9670     2.2450 
  108.6250   108.5310    -2.2880     0.7450   -16.6930    94.6030     3.7010     4.5250     4.0180     2.2560 
  108.7500   108.6550    -2.3010     0.7530   -16.6920    94.3690     3.8610     4.7760     4.1850     2.2570 
  108.8750   108.7790    -2.3140     0.7610   -16.7150    93.6150     4.0930     5.1230     4.3700     2.2420 
  109.0000   108.9030    -2.3280     0.7700   -16.7170    92.1640     4.3710     5.5250     4.5880     2.2170 
  109.1250   109.0270    -2.3410     0.7780   -16.7840    90.4660     4.6160     5.8730     4.7940     2.2030 
  109.2500   109.1510    -2.3550     0.7860   -16.8760    89.1120     4.7090     5.9890     4.8180     2.2150 
  109.3750   109.2750    -2.3680     0.7940   -17.0260    87.7900     4.6140     5.8350     4.7320     2.2460 
  109.5000   109.3990    -2.3820     0.8020   -17.1670    89.4810     4.3570     5.4510     4.5220     2.2750 
  109.6250   109.5230    -2.3960     0.8100   -17.1930    92.4530     4.0480     5.0080     4.1490     2.2880 
  109.7500   109.6470    -2.4090     0.8180   -17.0600    94.1940     3.8030     4.6800     3.9110     2.2820 
  109.8750   109.7710    -2.4230     0.8270   -16.8890    93.8000     3.6640     4.5150     3.9540     2.2610 
  110.0000   109.8950    -2.4370     0.8350   -16.6850    94.2930     3.6310     4.4950     4.0620     2.2350 
  110.1250   110.0190    -2.4510     0.8430   -16.5450    96.0350     3.6690     4.5590     4.0830     2.2150 
  110.2500   110.1430    -2.4650     0.8520   -16.5540    95.1200     3.7510     4.6600     4.1250     2.2020 
  110.3750   110.2670    -2.4780     0.8600   -16.6920    91.4280     3.8460     4.7670     4.2940     2.1900 
  110.5000   110.3910    -2.4920     0.8680   -16.8490    88.9310     3.9460     4.8840     4.5450     2.1730 
