~V
VERS. 2.00: Ver 2.00
~W
STRT.M 20.0000:
STOP.M 242.0000:
STEP.M 0.1250:
NULL. -999.2500:
UWI. FD10624:
~C
DEPT.M :
TVD. :
DX. :
DY. :
GR.API :
RML.OHMM :
RI. :
RXO.OHMM :
CALI.CM :
DEN.GM/CC :
SP.MV :
~A
# ...
   94.2500    93.8210     3.2820     4.0420    86.7530     6.5170     5.2640     6.2050    22.3980     2.2560   -10.3410 
   94.3750    93.9420     3.3070     4.0640    89.9130     6.7880     5.4900     6.2810    22.3170     2.2740   -10.2250 
   94.5000    94.0630     3.3310     4.0850    89.3090     7.0500     5.7070     6.5890    22.3510     2.2890   -10.1650 
   94.6250    94.1830     3.3560     4.1060    85.2750     7.2050     5.8810     7.0560    22.4340     2.2940   -10.2930 
   94.7500    94.3040     3.3800     4.1270    83.5300     7.2200     5.9870     7.6600    22.5240     2.2920   -10.4210 
   94.8750    94.4240     3.4050     4.1480    85.7160     7.1100     6.0030     7.9710    22.5660     2.2880   -10.4730 
   95.0000    94.5450     3.4290     4.1700    91.1130     6.9330     5.9420     7.3190    22.5130     2.2880   -10.5750 
   95.1250    94.6660     3.4540     4.1910    96.4260     6.7660     5.8470     7.2680    22.3450     2.2940   -10.6760 
   95.2500    94.7860     3.4780     4.2120    97.2660     6.6670     5.7740     7.0060    22.2160     2.3040   -10.6370 
   95.3750    94.9070     3.5030     4.2330    93.4970     6.6580     5.7470     6.6190    22.1890     2.3090   -10.5280 
   95.5000    95.0270     3.5270     4.2540    88.8850     6.7240     5.7560     6.8140    22.2040     2.3040   -10.3110 
   95.6250    95.1480     3.5520     4.2750    86.1380     6.7900     5.7490     7.2150    22.2390     2.2870   -10.0860 
   95.7500    95.2690     3.5770     4.2970    85.6350     6.7620     5.6760     7.0030    22.3200     2.2680    -9.9670 
   95.8750    95.3890     3.6010     4.3180    88.4550     6.6070     5.5320     6.5120    22.4230     2.2570    -9.8590 
   96.0000    95.5100     3.6260     4.3390    93.9890     6.3750     5.3550     6.1250    22.4380     2.2590    -9.7480 
   96.1250    95.6310     3.6500     4.3600    99.0520     6.1920     5.2170     5.9700    22.3460     2.2700    -9.6740 
   96.2500    95.7510     3.6750     4.3810   100.6370     6.1550     5.1670     6.0280    22.2960     2.2820    -9.6450 
   96.3750    95.8720     3.6990     4.4030    97.7320     6.2870     5.2190     6.2220    22.3340     2.2880    -9.6760 
   96.5000    95.9920     3.7240     4.4240    92.9680     6.5380     5.3490     6.6920    22.4280     2.2870    -9.8350 
   96.6250    96.1130     3.7480     4.4450    91.2770     6.8120     5.5020     6.6450    22.5280     2.2780    -9.9430 
   96.7500    96.2340     3.7730     4.4660    93.4770     7.0130     5.6200     6.5080    22.5830     2.2640    -9.9860 
   96.8750    96.3540     3.7970     4.4870    94.6780     7.0920     5.6690     6.3590    22.5770     2.2440   -10.0830 
   97.0000    96.4750     3.8220     4.5090    92.9420     7.0250     5.6250     6.3230    22.4940     2.2240   -10.1280 
   97.1250    96.5950     3.8470     4.5300    90.8850     6.8060     5.4630     6.2880    22.3150     2.2110   -10.1160 
   97.2500    96.7160     3.8710     4.5510    92.4840     6.5390     5.2450     6.3320    22.1900     2.2160   -10.1830 
   97.3750    96.8370     3.8960     4.5720    96.9420     6.3600     5.0720     6.3070    22.1460     2.2400   -10.2510 
   97.5000    96.9570     3.9200     4.5930    99.8110     6.4250     5.0700     6.0550    22.1560     2.2760   -10.2380 
   97.6250    97.0780     3.9450     4.6140    97.1530     6.9450     5.3740     5.9650    22.2040     2.3160   -10.2600 
   97.7500    97.1980     3.9690     4.6360    89.9780     7.8740     5.9510     7.0790    22.2580     2.3540   -10.3110 
   97.8750    97.3190     3.9940     4.6570    81.6070     9.0170     6.6990    10.8440    22.2280     2.3870   -10.3020 
   98.0000    97.4400     4.0180     4.6780    74.9090     9.9780     7.4040    16.0690    22.1060     2.4110   -10.3920 
   98.1250    97.5600     4.0430     4.6990    72.5700    10.2510     7.7240    14.0750    21.9990     2.4190   -10.6910 
   98.2500    97.6810     4.0670     4.7200    74.0550     9.9110     7.6310     9.7090    21.9590     2.4070   -11.0150 
   98.3750    97.8020     4.0920     4.7420    75.8000     9.2950     7.2950     7.6280    21.9560     2.3740   -11.4320 
   98.5000    97.9220     4.1170     4.7630    75.2040     8.7950     6.9580     7.4330    21.9740     2.3260   -11.9960 
   98.6250    98.0430     4.1410     4.7840    71.0830     8.6970     6.8310     8.1340    22.0550     2.2740   -12.5970 
   98.7500    98.1630     4.1660     4.8050    66.7610     8.9110     6.9240     8.7380    22.1910     2.2230   -13.2520 
   98.8750    98.2840     4.1900     4.8260    63.5550     9.2650     7.1630     9.0500    22.2860     2.1770   -13.9630 
   99.0000    98.4050     4.2150     4.8470    60.7490     9.5610     7.4220     9.1780    22.2860     2.1400   -14.5890 
   99.1250    98.5250     4.2390     4.8690    59.3360     9.6300     7.5770     9.1080    22.2040     2.1150   -15.0940 
   99.2500    98.6460     4.2640     4.8900    60.3450     9.5050     7.6130     8.9930    22.1640     2.1010   -15.4930 
   99.3750    98.7660     4.2880     4.9110    61.7530     9.2680     7.5530     8.9480    22.1740     2.0960   -15.7660 
   99.5000    98.8870     4.3130     4.9320    62.2890     9.0110     7.4310     8.9560    22.2210     2.0980   -15.9360 
   99.6250    99.0080     4.3370     4.9530    62.3400     8.8260     7.2810     8.7870    22.2820     2.1080   -15.9750 
   99.7500    99.1280     4.3620     4.9750    64.1350     8.7360     7.1370     8.4760    22.3090     2.1210   -15.9070 
   99.8750    99.2490     4.3860     4.9960    66.7990     8.7270     7.0230     8.2460    22.2740     2.1340   -15.8890 
  100.0000    99.3690     4.4110     5.0170    68.6760     8.7680     6.9590     8.1280    22.1730     2.1430   -15.9070 
  100.1250    99.4900     4.4360     5.0380    67.5400     8.8490     6.9790     8.1170    22.1330     2.1460   -15.8630 
  100.2500    99.6110     4.4600     5.0590    64.2730     8.9770     7.0780     8.3500    22.2010     2.1450   -15.9070 
  100.3750    99.7310     4.4850     5.0810    61.8010     9.1680     7.2490     8.7800    22.3760     2.1440   -16.0340 
  100.5000    99.8520     4.5090     5.1020    60.0860     9.4050     7.4720     9.1920    22.5840     2.1440   -16.1640 
  100.6250    99.9730     4.5340     5.1230    57.2210     9.6270     7.7180     9.4220    22.8190     2.1470   -16.3520 
  100.7500   100.0930     4.5580     5.1440    54.5480     9.7730     7.9520     9.3570    23.0840     2.1460   -16.5850 
  100.8750   100.2140     4.5830     5.1650    55.9980     9.8220     8.1530     9.1390    23.2770     2.1350   -16.7070 
  101.0000   100.3340     4.6070     5.1860    60.7000     9.7770     8.2920     8.9050    23.2900     2.1090   -16.7130 
  101.1250   100.4550     4.6320     5.2080    63.8970     9.6000     8.2880     8.7950    23.0490     2.0730   -16.6560 
  101.2500   100.5760     4.6560     5.2290    65.9020     9.2470     8.0840     8.7260    22.6700     2.0450   -16.3760 
  101.3750   100.6960     4.6810     5.2500    69.2150     8.6760     7.6370     8.3130    22.3180     2.0470   -15.8050 
  101.5000   100.8170     4.7060     5.2710    75.4530     7.9060     6.9730     7.3210    22.1190     2.0890   -15.0210 
  101.6250   100.9370     4.7300     5.2920    85.0310     7.0370     6.1800     6.0540    22.0150     2.1670   -14.0180 
  101.7500   101.0580     4.7550     5.3140    93.4590     6.2350     5.4170     5.4790    21.9650     2.2500   -12.9960 
  101.8750   101.1790     4.7790     5.3350    95.1360     5.6270     4.8000     5.2600    21.9440     2.3100   -12.0890 
  102.0000   101.2990     4.8040     5.3560    91.0540     5.3150     4.4280     5.1560    21.9230     2.3400   -11.2200 
  102.1250   101.4200     4.8280     5.3770    89.7630     5.4510     4.4370     5.2490    21.8750     2.3560   -10.4430 
  102.2500   101.5400     4.8530     5.3980    90.8960     6.0360     4.8190     5.7180    21.8280     2.3880    -9.9010 
  102.3750   101.6610     4.8770     5.4200    88.1520     7.0830     5.5740     7.3560    21.8100     2.4390    -9.5900 
