~V
VERS. 2.00: Ver 2.00
~W
STRT.M 32.0000:
STOP.M 269.0000:
STEP.M 0.1250:
NULL. -999.2500:
UWI. FD10881:
~C
DEPT.M :
TVD. :
DX. :
DY. :
SP.MV :
GR.API :
RI. :
RML.OHMM :
RXO.OHMM :
~A
# ...
   92.0000    91.6320    -4.7270    -2.3670    -1.7280    76.9080     4.8830     5.5670     7.2040 
   92.1250    91.7540    -4.7510    -2.3800    -1.3040    77.0380     4.8100     5.4300     7.2170 
   92.2500    91.8760    -4.7750    -2.3930    -0.8730    78.3520     4.5280     5.0400     6.3270 
   92.3750    91.9980    -4.8000    -2.4060    -0.6270    79.6440     4.1500     4.5590     5.3720 
   92.5000    92.1200    -4.8240    -2.4180    -0.7010    79.9990     3.8900     4.2480     5.1930 
   92.6250    92.2420    -4.8490    -2.4310    -0.9340    80.8160     3.8280     4.2030     5.3240 
   92.7500    92.3630    -4.8740    -2.4440    -1.1930    82.6050     4.0050     4.4430     5.1370 
   92.8750    92.4850    -4.8980    -2.4570    -1.3420    83.4850     4.3590     4.8920     5.3290 
   93.0000    92.6070    -4.9230    -2.4700    -1.2290    80.3540     4.9450     5.6250     6.2350 
   93.1250    92.7290    -4.9480    -2.4830    -0.8570    75.2380     5.7610     6.6510     7.0760 
   93.2500    92.8510    -4.9730    -2.4970    -0.4150    72.3220     6.6430     7.7600     8.0100 
   93.3750    92.9720    -4.9980    -2.5100    -0.0170    71.2690     7.5160     8.8190     9.5850 
   93.5000    93.0940    -5.0230    -2.5230     0.3700    69.9390     8.1570     9.5970    12.6300 
   93.6250    93.2160    -5.0480    -2.5360     0.6820    67.7150     8.6550    10.1610    14.7070 
   93.7500    93.3380    -5.0730    -2.5490     0.8810    67.4220     9.1430    10.7300    12.8800 
   93.8750    93.4590    -5.0980    -2.5630     1.0330    68.8670     9.6600    11.3490    10.9600 
   94.0000    93.5810    -5.1230    -2.5760     1.1720    69.0370    10.2700    12.1240    11.9960 
   94.1250    93.7030    -5.1480    -2.5890     1.3080    66.9720    10.9760    13.0480    14.2020 
   94.2500    93.8250    -5.1740    -2.6030     1.4810    65.1780    11.4940    13.6760    15.4110 
   94.3750    93.9460    -5.1990    -2.6160     1.5800    65.4160    11.7200    13.8970    15.0960 
   94.5000    94.0680    -5.2240    -2.6300     1.5060    67.0120    11.7150    13.7940    14.3890 
   94.6250    94.1890    -5.2500    -2.6430     1.2970    70.4530    11.6450    13.6330    13.9830 
   94.7500    94.3110    -5.2760    -2.6560     1.0110    74.7040    11.7500    13.7490    14.0170 
   94.8750    94.4330    -5.3010    -2.6700     0.7360    76.2900    11.7320    13.6490    14.9430 
   95.0000    94.5540    -5.3270    -2.6830     0.6150    75.4840    11.2490    12.9590    16.0600 
   95.1250    94.6760    -5.3530    -2.6970     0.6900    75.5590    10.1870    11.5310    16.5650 
   95.2500    94.7970    -5.3780    -2.7110     0.8600    76.7180     8.7220     9.6680    15.7390 
   95.3750    94.9190    -5.4040    -2.7240     0.9410    76.1300     7.2750     7.9150    12.4160 
   95.5000    95.0400    -5.4300    -2.7380     0.7690    75.4610     5.9970     6.4460     8.6750 
   95.6250    95.1620    -5.4560    -2.7520     0.2960    78.2890     5.1540     5.5550     7.1510 
   95.7500    95.2830    -5.4820    -2.7650    -0.2950    82.1290     4.7080     5.1470     6.7330 
   95.8750    95.4050    -5.5080    -2.7790    -0.8060    83.0900     4.5550     5.0670     6.5400 
   96.0000    95.5260    -5.5350    -2.7920    -1.1730    80.9210     4.5270     5.0920     6.7860 
   96.1250    95.6480    -5.5610    -2.8060    -1.2940    78.7480     4.4810     5.0560     7.2040 
   96.2500    95.7690    -5.5870    -2.8190    -1.0970    79.2450     4.4370     4.9930     7.4250 
   96.3750    95.8910    -5.6140    -2.8330    -0.8000    82.4220     4.4240     4.9440     6.6030 
   96.5000    96.0120    -5.6400    -2.8460    -0.5670    86.4580     4.5300     5.0380     5.4550 
   96.6250    96.1330    -5.6670    -2.8600    -0.3470    89.1440     4.7990     5.3510     5.8450 
   96.7500    96.2550    -5.6940    -2.8740    -0.1190    87.1900     5.4890     6.1660     7.3040 
   96.8750    96.3760    -5.7210    -2.8870     0.0690    81.4660     6.5400     7.4030     8.0230 
   97.0000    96.4970    -5.7470    -2.9010     0.2210    74.8960     7.8820     8.9640     8.7450 
   97.1250    96.6190    -5.7740    -2.9140     0.3370    72.6580     9.3300    10.6660    10.6700 
   97.2500    96.7400    -5.8010    -2.9280     0.4560    74.6430    10.5060    12.0450    12.2220 
   97.3750    96.8610    -5.8280    -2.9420     0.6220    75.6200    11.2820    12.9650    12.5210 
   97.5000    96.9820    -5.8560    -2.9560     0.7400    72.8460    11.3400    13.0170    12.5800 
   97.6250    97.1040    -5.8830    -2.9690     0.7380    68.0610    10.7930    12.3270    12.7350 
   97.7500    97.2250    -5.9100    -2.9830     0.6080    62.9650     9.8750    11.1980    12.7300 
   97.8750    97.3460    -5.9380    -2.9960     0.4060    59.6520     8.8020     9.9370    12.7050 
   98.0000    97.4670    -5.9650    -3.0100     0.1700    59.2750     7.9660     9.0210    12.1410 
   98.1250    97.5880    -5.9930    -3.0240    -0.2510    63.1530     7.2410     8.2670    10.2050 
   98.2500    97.7100    -6.0210    -3.0370    -0.4300    70.5370     6.6710     7.7170     8.6710 
   98.3750    97.8310    -6.0480    -3.0510    -0.3270    77.0380     6.2800     7.3490    10.0320 
   98.5000    97.9520    -6.0760    -3.0650     0.0770    79.8850     5.9900     7.0710    11.1690 
   98.6250    98.0730    -6.1040    -3.0780     0.6070    80.0450     5.8090     6.8550     9.2130 
   98.7500    98.1940    -6.1320    -3.0920     0.5220    80.5710     5.7190     6.7210     7.5460 
   98.8750    98.3150    -6.1600    -3.1060    -0.1400    81.8520     5.7770     6.7810     7.5090 
   99.0000    98.4360    -6.1880    -3.1190    -0.8920    80.5600     6.0990     7.2070     7.9280 
   99.1250    98.5570    -6.2160    -3.1330    -1.4770    75.2800     6.7700     8.0960     8.5520 
   99.2500    98.6780    -6.2450    -3.1460    -1.6250    70.0910     7.5920     9.1250     8.9820 
   99.3750    98.7990    -6.2730    -3.1590    -1.2140    70.5580     8.4010    10.1400     9.4840 
   99.5000    98.9200    -6.3010    -3.1730    -0.5100    73.8660     8.9090    10.7360    10.2000 
   99.6250    99.0410    -6.3300    -3.1860     0.0870    72.9950     8.9060    10.6570    10.8240 
   99.7500    99.1620    -6.3580    -3.2000     0.4720    68.2750     8.4520    10.0520    11.0210 
   99.8750    99.2830    -6.3870    -3.2130     0.6750    65.6600     7.6270     8.9920    10.5170 
  100.0000    99.4040    -6.4160    -3.2270     0.5470    67.4970     6.7140     7.8760     9.3610 
  100.1250    99.5250    -6.4440    -3.2400     0.1270    70.9720     5.9360     6.9750     9.0290 
  100.2500    99.6460    -6.4730    -3.2540    -0.4570    73.9760     5.3780     6.3860     9.5570 
  100.3750    99.7660    -6.5020    -3.2670    -1.0710    76.1360     5.0580     6.1000     8.5850 
  100.5000    99.8870    -6.5310    -3.2800    -1.4790    78.1370     4.8700     5.9510     7.1820 
  100.6250   100.0080    -6.5600    -3.2930    -1.7100    78.9160     4.7180     5.8150     7.0830 
  100.7500   100.1290    -6.5890    -3.3060    -1.9120    77.0020     4.5510     5.6230     7.2370 
  100.8750   100.2500    -6.6190    -3.3190    -2.1660    76.7180     4.3860     5.4000     6.9610 
  101.0000   100.3710    -6.6480    -3.3320    -2.4290    80.2840     4.2020     5.1420     6.3770 
  101.1250   100.4910    -6.6780    -3.3450    -2.7530    85.0440     4.0640     4.9460     6.0020 
  101.2500   100.6120    -6.7070    -3.3580    -3.0150    89.2430     4.0290     4.8830     5.9600 
  101.3750   100.7330    -6.7360    -3.3710    -2.9210    94.0940     4.1320     5.0200     5.9290 
  101.5000   100.8540    -6.7660    -3.3850    -2.3250    97.8780     4.3300     5.2930     5.9990 
  101.6250   100.9740    -6.7950    -3.3980    -1.4840    96.0230     4.5200     5.5460     6.1890 
  101.7500   101.0950    -6.8250    -3.4120    -0.7290    89.9890     4.6240     5.6970     6.3950 
  101.8750   101.2160    -6.8550    -3.4250    -0.3900    83.9440     4.5730     5.6220     6.2420 
