~V
VERS. 2.00: Ver 2.00
~W
STRT.M 30.0000:
STOP.M 223.0000:
STEP.M 0.1250:
NULL. -999.2500:
UWI. FD10814:
~C
DEPT.M :
TVD. :
DX. :
DY. :
SP.MV :
GR.API :
RI. :
RML.OHMM :
RXO.OHMM :
DEN.GM/CC :
~A
# ...
  139.5000   134.4120    -0.9040    25.7910   -16.9910    78.7010    13.4610    15.8460    15.1290     2.1960 
  139.6250   134.5230    -0.9060    25.8490   -16.8840    77.8750    14.5440    17.1250    20.9270     2.1950 
  139.7500   134.6330    -0.9070    25.9070   -16.7570    76.7470    15.2890    17.9990    20.9070     2.1990 
  139.8750   134.7440    -0.9080    25.9650   -16.5890    76.3040    15.6030    18.3140    18.0940     2.2030 
  140.0000   134.8550    -0.9090    26.0230   -16.5050    75.8830    15.5770    18.2480    16.5680     2.2080 
  140.1250   134.9650    -0.9110    26.0810   -16.4850    74.5600    15.4770    18.1970    15.2310     2.2240 
  140.2500   135.0760    -0.9120    26.1400   -16.4540    71.5180    15.6910    18.4930    15.2200     2.2590 
  140.3750   135.1860    -0.9130    26.1980   -16.4640    68.6220    16.2160    19.1720    17.6820     2.3030 
  140.5000   135.2970    -0.9150    26.2560   -16.4670    66.7780    16.9340    20.0240    19.0900     2.3380 
  140.6250   135.4070    -0.9160    26.3150   -16.4600    66.5700    17.5700    20.7330    18.5040     2.3490 
  140.7500   135.5180    -0.9170    26.3730   -16.4150    67.0260    17.8670    20.9990    18.5580     2.3380 
  140.8750   135.6280    -0.9190    26.4320   -16.3660    67.9020    17.5920    20.6910    19.4570     2.3110 
  141.0000   135.7380    -0.9200    26.4910   -16.1980    68.7870    17.0950    20.0920    19.5020     2.2710 
  141.1250   135.8490    -0.9210    26.5490   -16.0250    69.3860    16.5940    19.5130    17.6860     2.2240 
  141.2500   135.9590    -0.9230    26.6080   -16.0450    68.5730    16.3920    19.2520    15.6570     2.1880 
  141.3750   136.0690    -0.9240    26.6670   -16.0550    68.4250    16.5220    19.3880    15.6360     2.1710 
  141.5000   136.1800    -0.9250    26.7260   -16.0750    67.3260    16.7460    19.6820    17.6030     2.1660 
  141.6250   136.2900    -0.9270    26.7850   -16.1020    66.4160    16.8500    19.8410    20.1820     2.1610 
  141.7500   136.4000    -0.9280    26.8440   -16.1050    64.9740    16.6840    19.6580    21.0830     2.1560 
  141.8750   136.5100    -0.9290    26.9030   -16.0560    65.0490    16.1650    19.0380    18.5680     2.1460 
  142.0000   136.6200    -0.9310    26.9620   -16.0910    66.4060    15.4480    18.2010    15.4470     2.1340 
  142.1250   136.7310    -0.9320    27.0210   -16.0860    68.6600    14.7610    17.4310    14.7530     2.1310 
  142.2500   136.8410    -0.9330    27.0800   -16.0700    70.3530    14.2960    16.8980    15.0960     2.1410 
  142.3750   136.9510    -0.9350    27.1390   -16.0550    70.8610    14.0680    16.6450    15.0280     2.1550 
  142.5000   137.0610    -0.9360    27.1990   -16.1240    70.9830    14.0290    16.6020    14.9370     2.1610 
  142.6250   137.1710    -0.9370    27.2580   -16.2340    71.5530    14.1390    16.7400    15.0730     2.1540 
  142.7500   137.2810    -0.9390    27.3170   -16.3060    72.8300    14.4090    17.1360    15.1790     2.1420 
  142.8750   137.3910    -0.9400    27.3760   -16.4080    73.9120    14.9990    17.9200    15.8660     2.1320 
  143.0000   137.5010    -0.9410    27.4350   -16.4750    74.4950    15.6820    18.7920    17.3330     2.1350 
  143.1250   137.6110    -0.9430    27.4950   -16.4990    74.9160    15.9480    19.1210    18.3650     2.1510 
  143.2500   137.7210    -0.9440    27.5540   -16.5390    76.0330    15.4140    18.5280    18.6260     2.1660 
  143.3750   137.8310    -0.9460    27.6130   -16.6040    77.4650    14.2230    17.0990    16.8760     2.1660 
  143.5000   137.9410    -0.9470    27.6730   -16.6920    77.9160    12.7660    15.3860    12.8400     2.1610 
  143.6250   138.0510    -0.9480    27.7320   -16.7760    78.7170    11.5770    13.9550     9.9150     2.1610 
  143.7500   138.1610    -0.9500    27.7920   -16.7590    78.3810    10.7510    12.9900     9.8100     2.1610 
  143.8750   138.2710    -0.9510    27.8510   -16.8040    78.8410    10.2610    12.4580    10.7400     2.1540 
  144.0000   138.3810    -0.9520    27.9110   -17.0700    77.8540    10.0830    12.2630    10.6240     2.1450 
  144.1250   138.4910    -0.9540    27.9700   -17.5070    77.0080    10.1640    12.3170     9.8080     2.1440 
  144.2500   138.6010    -0.9550    28.0300   -18.0400    74.9960    10.3370    12.4870     9.7450     2.1520 
  144.3750   138.7110    -0.9570    28.0890   -18.4610    73.9440    10.5600    12.7260    10.4500     2.1690 
  144.5000   138.8210    -0.9580    28.1490   -18.7550    73.4830    10.7990    12.9890    11.2210     2.1900 
  144.6250   138.9310    -0.9600    28.2080   -18.9140    75.2120    10.9840    13.1560    11.5720     2.2030 
  144.7500   139.0410    -0.9610    28.2670   -19.0360    77.3570    11.0150    13.1170    10.5000     2.1990 
  144.8750   139.1500    -0.9630    28.3270   -19.1450    78.4680    10.8280    12.8390     8.7320     2.1840 
  145.0000   139.2600    -0.9640    28.3860   -19.3810    78.8510    10.5020    12.4260     8.4120     2.1720 
  145.1250   139.3700    -0.9660    28.4460   -19.7210    79.2500    10.1460    11.9950     8.7910     2.1670 
  145.2500   139.4800    -0.9680    28.5050   -20.0140    80.3910     9.8170    11.6140     8.8360     2.1670 
  145.3750   139.5900    -0.9690    28.5650   -20.1570    81.1040     9.5750    11.3320     9.1470     2.1690 
  145.5000   139.7000    -0.9710    28.6240   -20.1190    82.1840     9.3920    11.1310     9.7250     2.1740 
  145.6250   139.8100    -0.9720    28.6840   -19.9880    84.6250     9.2330    11.0200    10.2020     2.1810 
  145.7500   139.9200    -0.9740    28.7430   -20.0880    88.1660     9.1430    11.0090    10.4100     2.1870 
  145.8750   140.0300    -0.9750    28.8030   -20.3200    90.3410     9.0880    10.9930    10.4490     2.1960 
  146.0000   140.1400    -0.9770    28.8620   -20.5080    89.5470     8.8700    10.7740    10.2460     2.2070 
  146.1250   140.2500    -0.9790    28.9220   -20.7250    88.0110     8.4410    10.2500     9.6570     2.2190 
  146.2500   140.3600    -0.9800    28.9810   -20.9480    87.0390     7.9100     9.5940     9.1100     2.2290 
  146.3750   140.4700    -0.9820    29.0410   -21.1750    86.8190     7.5590     9.1610     8.3060     2.2350 
  146.5000   140.5790    -0.9830    29.1000   -21.3070    86.8230     7.6100     9.2670     7.2830     2.2330 
  146.6250   140.6890    -0.9850    29.1600   -21.3480    85.4920     8.3280    10.2230     7.7190     2.2230 
  146.7500   140.7990    -0.9870    29.2200   -21.3240    83.5550     9.7030    12.0050    10.3540     2.2070 
  146.8750   140.9090    -0.9880    29.2790   -21.2000    80.1660    11.6790    14.4130    13.7600     2.1930 
  147.0000   141.0190    -0.9900    29.3390   -21.0050    78.4080    13.7550    16.8550    17.4080     2.1820 
  147.1250   141.1290    -0.9910    29.3980   -20.7740    76.6650    15.3950    18.7150    20.3820     2.1770 
  147.2500   141.2390    -0.9930    29.4580   -20.6210    75.1000    16.2860    19.6980    20.3940     2.1680 
  147.3750   141.3480    -0.9950    29.5180   -20.5020    72.3080    16.4740    19.8730    18.9470     2.1580 
  147.5000   141.4580    -0.9960    29.5770   -20.4580    70.9860    16.3160    19.6220    18.1880     2.1500 
  147.6250   141.5680    -0.9980    29.6370   -20.4420    70.4060    15.9250    19.1640    17.4840     2.1480 
  147.7500   141.6780    -1.0000    29.6970   -20.4640    70.6800    15.6230    18.7660    16.2030     2.1500 
  147.8750   141.7880    -1.0010    29.7560   -20.4940    71.6270    15.4730    18.5020    14.6460     2.1480 
  148.0000   141.8970    -1.0030    29.8160   -20.5580    72.4950    15.4810    18.3730    14.0410     2.1480 
  148.1250   142.0070    -1.0050    29.8760   -20.6720    73.5430    15.6240    18.4140    15.1150     2.1490 
  148.2500   142.1170    -1.0070    29.9360   -20.7140    72.9970    15.9010    18.6260    16.2190     2.1550 
  148.3750   142.2270    -1.0090    29.9960   -20.7880    72.8090    16.2430    18.9500    16.1230     2.1580 
  148.5000   142.3370    -1.0110    30.0550   -20.7610    71.8950    16.5760    19.2300    15.3920     2.1570 
