~V
VERS. 2.00: Ver 2.00
~W
STRT.M 12.0000:
STOP.M 226.0000:
STEP.M 0.1250:
NULL. -999.2500:
UWI. FD10605:
~C
DEPT.M :
TVD. :
DX. :
DY. :
GR.API :
RML.OHMM :
RI. :
RXO.OHMM :
CALI.CM :
DEN.GM/CC :
SP.MV :
~A
# ...
   53.2500    53.0820     3.2970     0.4950    77.7860    12.4560     9.3410    10.3810    23.4590     2.1960   -15.3020 
   53.3750    53.2070     3.3110     0.4980    74.2240    12.4740     9.3700    10.4340    23.4600     2.1700   -15.2850 
   53.5000    53.3310     3.3240     0.5010    71.2630    12.5580     9.4520    10.7340    23.5180     2.1400   -15.3690 
   53.6250    53.4550     3.3370     0.5040    70.8580    12.6880     9.5650    10.7510    23.6240     2.1190   -15.5050 
   53.7500    53.5790     3.3500     0.5070    69.2020    12.8270     9.6840    10.7750    23.7070     2.1090   -15.5840 
   53.8750    53.7030     3.3630     0.5100    65.6730    12.9530     9.7960    10.8550    23.7490     2.1080   -15.6630 
   54.0000    53.8270     3.3760     0.5130    64.4160    13.0520     9.8890    10.9940    23.7620     2.1090   -15.7180 
   54.1250    53.9520     3.3900     0.5160    66.6060    13.1100     9.9530    11.0020    23.7180     2.1110   -15.7320 
   54.2500    54.0760     3.4030     0.5190    68.2410    13.1280     9.9880    10.9910    23.6390     2.1130   -15.6910 
   54.3750    54.2000     3.4160     0.5220    67.4610    13.1090     9.9890    10.8540    23.5770     2.1170   -15.6560 
   54.5000    54.3240     3.4290     0.5250    66.7270    13.0590     9.9560    10.6110    23.5610     2.1250   -15.6240 
   54.6250    54.4480     3.4420     0.5280    67.1060    12.9930     9.8910    10.3650    23.6020     2.1350   -15.5370 
   54.7500    54.5720     3.4560     0.5310    65.3320    12.9320     9.8190    10.2700    23.6810     2.1440   -15.4970 
   54.8750    54.6970     3.4690     0.5340    61.6380    12.8880     9.7560    10.3390    23.7200     2.1470   -15.4920 
   55.0000    54.8210     3.4820     0.5370    59.9110    12.8660     9.7130    10.5100    23.5840     2.1440   -15.5030 
   55.1250    54.9450     3.4950     0.5400    64.4640    12.8500     9.6810    10.6280    23.2290     2.1430   -15.5130 
   55.2500    55.0690     3.5080     0.5430    71.2900    12.8020     9.6270    10.4880    22.8730     2.1550   -15.5170 
   55.3750    55.1930     3.5220     0.5450    75.5550    12.6840     9.5240     9.9990    22.6220     2.1790   -15.5600 
   55.5000    55.3180     3.5350     0.5480    76.2940    12.4800     9.3630     9.0310    22.3750     2.1980   -15.5710 
   55.6250    55.4420     3.5480     0.5510    75.4960    12.2080     9.1610     8.5110    22.3700     2.1800   -15.6310 
   55.7500    55.5660     3.5610     0.5540    74.4590    11.9440     8.9780     8.6010    22.7990     2.1240   -15.7620 
   55.8750    55.6900     3.5740     0.5570    72.3400    11.7500     8.8660     9.1320    23.7140     2.0460   -15.9180 
   56.0000    55.8140     3.5880     0.5600    68.4420    11.6570     8.8550     9.4260    24.6540     1.9740   -16.1010 
   56.1250    55.9380     3.6010     0.5630    64.2280    11.6540     8.9560     9.3070    24.7380     1.9350   -16.2970 
   56.2500    56.0630     3.6140     0.5660    62.1260    11.6650     9.0980     9.2880    24.3500     1.9330   -16.5070 
   56.3750    56.1870     3.6270     0.5690    63.2190    11.6370     9.2180     9.0080    24.0650     1.9590   -16.5960 
   56.5000    56.3110     3.6400     0.5720    65.6920    11.5480     9.2770     8.8410    23.8520     2.0060   -16.6310 
   56.6250    56.4350     3.6530     0.5750    66.6190    11.3920     9.2490     9.1060    23.6340     2.0560   -16.6060 
   56.7500    56.5590     3.6670     0.5780    67.4120    11.1720     9.1420     9.2510    23.5040     2.0920   -16.4600 
   56.8750    56.6840     3.6800     0.5810    70.2150    10.8690     8.9460     9.2340    23.5250     2.1050   -16.2230 
   57.0000    56.8080     3.6930     0.5840    75.4830    10.4630     8.6560     9.3390    23.6070     2.1010   -15.8730 
   57.1250    56.9320     3.7060     0.5870    81.7870     9.9590     8.2830     9.4040    23.6220     2.1040   -15.4510 
   57.2500    57.0560     3.7190     0.5900    89.4660     9.4410     7.8900     8.9380    23.4300     2.1260   -15.0100 
   57.3750    57.1800     3.7330     0.5930    97.4110     9.0240     7.5450     8.5860    23.1690     2.1570   -14.6290 
   57.5000    57.3040     3.7460     0.5960   101.2900     8.8560     7.3470     9.3160    23.0420     2.1800   -14.2680 
   57.6250    57.4290     3.7590     0.5990    99.9110     9.1390     7.4650     8.9240    23.0540     2.1840   -13.9020 
   57.7500    57.5530     3.7720     0.6020    96.8730     9.7980     7.9040     8.6580    23.1540     2.1900   -13.5500 
   57.8750    57.6770     3.7850     0.6040    93.0290    10.6170     8.5550     9.5310    23.3320     2.2210   -13.1970 
   58.0000    57.8010     3.7990     0.6070    88.6050    11.2070     9.1410    13.2060    23.4440     2.2800   -12.8720 
   58.1250    57.9250     3.8120     0.6100    86.6310    11.0610     9.1520    21.9230    23.2190     2.3430   -12.5510 
   58.2500    58.0500     3.8250     0.6130    90.0560    10.2330     8.4590    19.5710    22.9160     2.3800   -12.1670 
   58.3750    58.1740     3.8380     0.6160    99.1930     8.9690     7.2890    10.1690    22.7980     2.3870   -11.7570 
   58.5000    58.2980     3.8510     0.6190   111.0550     7.6040     6.0610     6.0720    22.8470     2.3760   -11.3540 
   58.6250    58.4220     3.8650     0.6220   118.3500     6.5040     5.1410     5.2780    22.8900     2.3700   -10.9250 
   58.7500    58.5460     3.8780     0.6250   118.4090     5.8390     4.5830     5.0970    22.9160     2.3720   -10.5150 
   58.8750    58.6700     3.8910     0.6280   113.7880     5.6360     4.3590     4.9600    22.9610     2.3750   -10.1260 
   59.0000    58.7950     3.9040     0.6310   107.9750     5.7900     4.4010     4.8920    23.0140     2.3730    -9.7970 
   59.1250    58.9190     3.9170     0.6340   105.3340     6.1800     4.6360     5.3520    22.9830     2.3630    -9.5230 
   59.2500    59.0430     3.9300     0.6370   107.8140     6.6440     4.9490     6.0960    22.8450     2.3470    -9.4580 
   59.3750    59.1670     3.9440     0.6400   108.4980     7.1000     5.2820     6.1160    22.6990     2.3260    -9.4730 
   59.5000    59.2910     3.9570     0.6430   101.6790     7.4980     5.6010     5.9590    22.6180     2.3030    -9.4940 
   59.6250    59.4150     3.9700     0.6460    94.2020     7.7850     5.8700     6.0120    22.5900     2.2810    -9.5870 
   59.7500    59.5400     3.9830     0.6490    92.3670     7.9490     6.0710     6.3780    22.5820     2.2630    -9.7360 
   59.8750    59.6640     3.9960     0.6520    91.4620     7.9780     6.1790     6.6260    22.6050     2.2530    -9.8860 
   60.0000    59.7880     4.0100     0.6550    87.4470     7.8890     6.1870     6.6030    22.6610     2.2500    -9.9850 
   60.1250    59.9100     4.0330     0.6670    86.0060     7.7350     6.1020     6.3240    22.7010     2.2550   -10.0850 
   60.2500    60.0320     4.0570     0.6790    90.4880     7.6090     5.9860     6.0000    22.6820     2.2640   -10.0750 
   60.3750    60.1540     4.0800     0.6920    96.1670     7.5700     5.8920     5.8650    22.6610     2.2750    -9.9900 
   60.5000    60.2760     4.1040     0.7040    98.9730     7.6380     5.8630     6.0250    22.6680     2.2820    -9.9170 
   60.6250    60.3980     4.1270     0.7160    97.5520     7.7870     5.9250     6.2690    22.6950     2.2830    -9.8600 
   60.7500    60.5210     4.1510     0.7290    95.1620     7.9350     6.0430     6.3840    22.7060     2.2790    -9.8100 
   60.8750    60.6430     4.1740     0.7410    94.7910     8.0240     6.1790     6.3850    22.7010     2.2710    -9.7750 
   61.0000    60.7650     4.1980     0.7530    95.8480     8.0250     6.2890     6.2090    22.6750     2.2610    -9.8170 
   61.1250    60.8870     4.2210     0.7660    96.9900     7.9340     6.3210     6.1620    22.6230     2.2540    -9.9220 
   61.2500    61.0090     4.2450     0.7780    96.7610     7.7890     6.2730     6.0890    22.5880     2.2560   -10.0180 
   61.3750    61.1310     4.2680     0.7900    98.2400     7.6060     6.1530     6.0200    22.5780     2.2680   -10.1540 
