~V
VERS. 2.00: Ver 2.00
~W
STRT.M 50.0000:
STOP.M 219.0000:
STEP.M 0.1250:
NULL. -999.2500:
UWI. FD10804:
~C
DEPT.M :
TVD. :
DX. :
DY. :
SP.MV :
GR.API :
RI. :
RML.OHMM :
RXO.OHMM :
DEN.GM/CC :
~A
# ...
  177.7500   174.1510   -19.9080   -15.9330  -123.6390    67.5000    84.7400    88.9370    39.2480     2.2030 
  177.8750   174.2650   -19.9470   -15.9650  -124.1010    68.5200    87.4050    91.3360    33.4760     2.1990 
  178.0000   174.3800   -19.9860   -15.9960  -124.5260    69.9860    89.6640    93.3610    30.4290     2.1970 
  178.1250   174.4950   -20.0240   -16.0270  -124.8590    70.4240    91.0210    94.4450    26.2760     2.2010 
  178.2500   174.6090   -20.0630   -16.0590  -125.0590    68.6690    91.1270    94.1830    22.6490     2.2100 
  178.3750   174.7240   -20.1020   -16.0900  -125.0920    67.7690    89.3170    92.4920    26.5830     2.2220 
  178.5000   174.8380   -20.1410   -16.1210  -124.9670    67.8250    86.9540    90.6000    39.1190     2.2260 
  178.6250   174.9530   -20.1800   -16.1530  -124.6700    68.7680    85.9910    90.1860    52.3720     2.2220 
  178.7500   175.0680   -20.2180   -16.1840  -124.2230    68.9300    87.1800    92.2080    57.7290     2.2140 
  178.8750   175.1820   -20.2570   -16.2150  -123.6060    69.8700    91.2900    97.5940    60.1560     2.2030 
  179.0000   175.2970   -20.2960   -16.2470  -122.8500    70.8470    99.4820   106.5830    67.3880     2.1960 
  179.1250   175.4110   -20.3350   -16.2780  -121.9680    69.7690   111.4300   119.0230    77.8200     2.2040 
  179.2500   175.5260   -20.3740   -16.3100  -120.9960    66.4820   124.1640   132.7310    88.1010     2.2450 
  179.3750   175.6400   -20.4130   -16.3410  -119.9970    62.4040   136.1320   145.0160    95.2970     2.3120 
  179.5000   175.7550   -20.4520   -16.3720  -119.0130    60.0980   144.2700   153.8490   104.5950     2.3570 
  179.6250   175.8700   -20.4910   -16.4030  -118.0540    58.9270   148.3260   159.6650   110.5120     2.3370 
  179.7500   175.9840   -20.5300   -16.4340  -117.1170    58.8810   152.3220   166.1090   108.2040     2.2700 
  179.8750   176.0990   -20.5690   -16.4650  -116.1840    58.7060   159.6880   177.5000   106.7780     2.2170 
  180.0000   176.2130   -20.6080   -16.4970  -115.2410    58.4750   173.8010   196.4410   102.5510     2.2270 
  180.1250   176.3280   -20.6470   -16.5280  -114.2970    57.5320   196.3190   223.1730    96.3740     2.3270 
  180.2500   176.4430   -20.6860   -16.5590  -113.3680    55.6790   222.8260   253.6600   121.4450     2.4710 
  180.3750   176.5570   -20.7250   -16.5910  -112.4850    53.6020   249.9190   283.2590   183.4360     2.6020 
  180.5000   176.6720   -20.7640   -16.6220  -111.6650    53.0090   271.8410   307.8120   223.5310     2.6670 
  180.6250   176.7860   -20.8030   -16.6530  -110.9420    54.2150   287.6130   326.0890   215.3940     2.6780 
  180.7500   176.9010   -20.8410   -16.6850  -110.3500    57.1410   299.8850   341.4280   191.2680     2.6740 
  180.8750   177.0160   -20.8800   -16.7160  -109.9390    59.6000   314.1520   357.3620   172.0250     2.6880 
  181.0000   177.1300   -20.9190   -16.7480  -109.7070    61.8880   329.7950   373.5700   157.5880     2.7110 
  181.1250   177.2450   -20.9580   -16.7790  -109.6650    63.6830   339.8440   381.6330   158.6180     2.7300 
  181.2500   177.3590   -20.9960   -16.8100  -109.7720    63.8290   329.4520   369.6380   178.9130     2.7330 
  181.3750   177.4740   -21.0350   -16.8420  -109.9720    61.0360   287.9600   330.7590   197.6800     2.7350 
  181.5000   177.5890   -21.0740   -16.8730  -110.2230    57.4950   232.3570   269.3990   213.3570     2.7440 
  181.6250   177.7030   -21.1120   -16.9050  -110.4920    56.6420   157.7980   191.6420   220.4170     2.7440 
  181.7500   177.8180   -21.1510   -16.9360  -110.7300    59.2650    93.2520   117.0950   193.1090     2.7120 
  181.8750   177.9320   -21.1900   -16.9680  -110.8870    64.4870    46.3900    59.6820   150.2680     2.6300 
  182.0000   178.0470   -21.2280   -17.0000  -110.9380    70.4350    15.7160    24.3380   103.2870     2.5160 
  182.1250   178.1620   -21.2670   -17.0310  -110.8740    75.8630     8.4260    11.1900    44.3280     2.3980 
  182.2500   178.2760   -21.3060   -17.0630  -110.7500    79.6140     6.1680     7.4240     9.0340     2.3180 
  182.3750   178.3910   -21.3450   -17.0940  -110.6240    81.4050     5.5250     6.6290     3.9820     2.2920 
  182.5000   178.5050   -21.3830   -17.1260  -110.5360    83.3230     5.7540     6.9880     5.0050     2.3020 
  182.6250   178.6200   -21.4220   -17.1570  -110.4840    85.4810     6.3580     7.7950     7.2690     2.3190 
  182.7500   178.7350   -21.4610   -17.1890  -110.4290    86.2950     6.8720     8.3970     8.1400     2.3290 
  182.8750   178.8490   -21.5000   -17.2200  -110.3550    82.6730     6.9400     8.4720     7.3140     2.3280 
  183.0000   178.9640   -21.5390   -17.2520  -110.2870    76.7210     6.5660     8.0610     6.6840     2.3130 
  183.1250   179.0780   -21.5770   -17.2830  -110.2560    70.8820     5.9500     7.3560     5.7880     2.2950 
  183.2500   179.1930   -21.6160   -17.3150  -110.2790    67.2350     5.3710     6.6380     4.4060     2.2830 
  183.3750   179.3070   -21.6550   -17.3460  -110.3610    67.2070     4.9900     6.1100     3.6760     2.2860 
  183.5000   179.4220   -21.6940   -17.3780  -110.4770    69.1790     4.8800     5.8950     3.5560     2.2850 
  183.6250   179.5360   -21.7330   -17.4090  -110.5970    72.4580     5.0310     6.0730     3.7080     2.2830 
  183.7500   179.6510   -21.7720   -17.4400  -110.7130    76.1540     5.3590     6.5740     4.4040     2.2860 
  183.8750   179.7660   -21.8110   -17.4720  -110.8200    79.1870     5.8120     7.2570     5.5860     2.2980 
  184.0000   179.8800   -21.8500   -17.5030  -110.8930    81.0700     6.2030     7.8640     6.6380     2.3120 
  184.1250   179.9950   -21.8890   -17.5340  -110.9050    81.1160     6.3350     8.1430     7.3570     2.3200 
  184.2500   180.1090   -21.9280   -17.5660  -110.8540    80.6840     6.1640     8.0300     6.9570     2.3220 
  184.3750   180.2240   -21.9670   -17.5970  -110.7320    79.8940     5.7560     7.6040     5.3600     2.3200 
  184.5000   180.3380   -22.0060   -17.6280  -110.5750    79.0630     5.2700     7.1070     4.5640     2.3160 
  184.6250   180.4530   -22.0440   -17.6600  -110.4210    78.5870     4.9390     6.7930     4.8190     2.3130 
  184.7500   180.5680   -22.0830   -17.6920  -110.2770    79.2590     4.8520     6.7830     5.2160     2.3070 
  184.8750   180.6820   -22.1220   -17.7230  -110.1410    81.5900     5.0360     7.0800     6.1940     2.3030 
  185.0000   180.7970   -22.1610   -17.7550  -109.9960    83.3490     5.3530     7.5480     7.4340     2.3120 
  185.1250   180.9110   -22.2000   -17.7860  -109.8310    84.8030     5.7300     8.0640     7.9940     2.3310 
  185.2500   181.0260   -22.2390   -17.8170  -109.6800    84.8770     6.0760     8.5160     8.1020     2.3470 
  185.3750   181.1400   -22.2770   -17.8490  -109.5930    87.1250     6.3160     8.8380     8.1940     2.3440 
  185.5000   181.2550   -22.3160   -17.8800  -109.5820    88.9170     6.4530     9.0360     8.3470     2.3310 
  185.6250   181.3700   -22.3550   -17.9120  -109.6470    89.8160     6.5190     9.1470     8.2920     2.3200 
  185.7500   181.4840   -22.3940   -17.9430  -109.7300    88.6370     6.5440     9.2430     8.1540     2.3230 
  185.8750   181.5990   -22.4320   -17.9750  -109.7900    88.3060     6.6210     9.3570     9.0270     2.3340 
  186.0000   181.7130   -22.4710   -18.0070  -109.8630    90.0300     6.6910     9.4700     9.9710     2.3370 
  186.1250   181.8280   -22.5090   -18.0390  -109.9820    92.2480     6.7600     9.5750     9.2070     2.3300 
  186.2500   181.9430   -22.5480   -18.0710  -110.1810    94.1730     6.8390     9.7050     8.0080     2.3180 
  186.3750   182.0570   -22.5860   -18.1030  -110.4630    94.8520     7.0120     9.9410     7.7510     2.3150 
  186.5000   182.1720   -22.6240   -18.1350  -110.7380    95.9090     7.3070    10.3160     7.9990     2.3150 
  186.6250   182.2860   -22.6630   -18.1670  -110.9360    97.5110     7.6890    10.8060     9.0670     2.3220 
  186.7500   182.4010   -22.7010   -18.1990  -111.0250    99.5830     8.0750    11.3100    10.5210     2.3280 
