~V
VERS. 2.00: Ver 2.00
~W
STRT.M 43.0000:
STOP.M 257.0000:
STEP.M 0.1250:
NULL. -999.2500:
UWI. FD10872:
~C
DEPT.M :
TVD. :
DX. :
DY. :
SP.MV :
GR.API :
RI. :
RML.OHMM :
RXO.OHMM :
DEN.GM/CC :
~A
# ...
  243.7500   231.9580    52.2010   -33.9070     4.1260    78.8730     4.4220     5.1250     6.1120     2.2920 
  243.8750   232.0710    52.2460   -33.9360     4.1260    80.6190     4.4820     5.1620     6.0980     2.2790 
  244.0000   232.1840    52.2920   -33.9640     4.1260    81.0280     4.5350     5.1790     6.0240     2.2640 
  244.1250   232.2960    52.3370   -33.9930     4.1260    80.7130     4.5950     5.1930     5.9400     2.2510 
  244.2500   232.4090    52.3830   -34.0220     4.1260    81.4350     4.6800     5.2490     5.9590     2.2440 
  244.3750   232.5220    52.4280   -34.0510     4.1260    82.6130     4.7650     5.3170     6.0470     2.2450 
  244.5000   232.6350    52.4730   -34.0790     4.1260    82.9000     4.8300     5.3830     6.0930     2.2490 
  244.6250   232.7480    52.5190   -34.1080     4.1260    81.7120     4.8490     5.4120     6.2740     2.2560 
  244.7500   232.8610    52.5640   -34.1370     4.1260    80.1710     4.8180     5.3860     6.4290     2.2650 
  244.8750   232.9730    52.6100   -34.1660     4.1260    79.6160     4.7210     5.2810     6.3890     2.2740 
  245.0000   233.0860    52.6550   -34.1950     4.1260    80.4110     4.5770     5.1280     6.3950     2.2830 
  245.1250   233.1990    52.7000   -34.2230     4.1260    81.5220     4.4390     4.9640     6.4000     2.2900 
  245.2500   233.3120    52.7460   -34.2520     4.1260    81.6430     4.3340     4.8520     6.1330     2.2950 
  245.3750   233.4250    52.7910   -34.2810     4.1260    80.7970     4.3070     4.8250     5.6880     2.2990 
  245.5000   233.5380    52.8370   -34.3100     4.1260    80.4070     4.3180     4.8510     5.4520     2.3010 
  245.6250   233.6510    52.8820   -34.3380     4.1260    79.7570     4.3380     4.8980     5.4250     2.3010 
  245.7500   233.7630    52.9280   -34.3670     4.1260    79.1540     4.3470     4.9230     5.5370     2.2990 
  245.8750   233.8760    52.9730   -34.3960     4.1260    79.8760     4.3430     4.9060     6.0070     2.2990 
  246.0000   233.9890    53.0180   -34.4250     4.1260    82.0290     4.3310     4.8670     6.3760     2.3010 
  246.1250   234.1020    53.0640   -34.4530     4.1260    83.1840     4.3610     4.8590     6.2490     2.3060 
  246.2500   234.2150    53.1090   -34.4820     4.1260    84.5190     4.4180     4.8920     6.0860     2.3100 
  246.3750   234.3280    53.1550   -34.5110     4.1260    86.1100     4.4790     4.9290     5.9630     2.3120 
  246.5000   234.4410    53.2000   -34.5400     4.1260    86.4260     4.5320     4.9740     6.1890     2.3100 
  246.6250   234.5530    53.2450   -34.5690     4.1260    85.1510     4.5340     4.9820     6.9800     2.3050 
  246.7500   234.6660    53.2910   -34.5970     4.1260    84.3960     4.5340     4.9780     7.3620     2.2980 
  246.8750   234.7790    53.3360   -34.6260     4.1260    84.8860     4.5350     4.9720     6.9810     2.2900 
  247.0000   234.8920    53.3820   -34.6550     4.1260    84.9160     4.5330     4.9610     6.5630     2.2840 
  247.1250   235.0050    53.4270   -34.6840     4.1260    82.9060     4.5330     4.9570     6.4540     2.2790 
  247.2500   235.1180    53.4720   -34.7120     4.1260    80.6710     4.5390     4.9690     6.3740     2.2740 
  247.3750   235.2300    53.5180   -34.7410     4.1260    80.3470     4.5410     4.9690     6.2070     2.2700 
  247.5000   235.3430    53.5630   -34.7700     4.1260    81.2640     4.5360     4.9810     6.2620     2.2670 
  247.6250   235.4560    53.6090   -34.7990     4.1260    80.6300     4.5350     4.9830     6.5210     2.2640 
  247.7500   235.5690    53.6540   -34.8280     4.1260    78.9750     4.5280     4.9820     6.6020     2.2650 
  247.8750   235.6820    53.6990   -34.8570     4.1260    80.1650     4.5270     4.9810     6.5350     2.2680 
  248.0000   235.7950    53.7450   -34.8850     4.1260    83.0420     4.5310     4.9800     6.6190     2.2710 
  248.1250   235.9080    53.7900   -34.9140     4.1260    84.6470     4.5310     4.9790     6.6760     2.2710 
  248.2500   236.0200    53.8350   -34.9430     4.1260    85.3350     4.5300     4.9890     6.5090     2.2700 
  248.3750   236.1330    53.8810   -34.9720     4.1260    85.7240     4.5300     4.9790     6.3820     2.2670 
  248.5000   236.2460    53.9260   -35.0010     4.1260    85.4780     4.5300     4.9940     6.5650     2.2650 
  248.6250   236.3590    53.9720   -35.0300     4.1260    84.0560     4.5310     4.9840     7.1820     2.2640 
  248.7500   236.4720    54.0170   -35.0580     4.1260    82.7390     4.5330     4.9900     8.1940     2.2650 
  248.8750   236.5850    54.0620   -35.0870     4.1260    82.3790     4.5330     4.9850     9.1650     2.2650 
  249.0000   236.6980    54.1080   -35.1160     4.1260    82.3010     4.5360     4.9700     9.5050     2.2650 
  249.1250   236.8100    54.1530   -35.1450     4.1260    82.2840     4.5320     4.9780     9.1770     2.2660 
  249.2500   236.9230    54.1980   -35.1740     4.1260    82.3010     4.5270     4.9770     8.7960     2.2680 
  249.3750   237.0360    54.2440   -35.2020     4.1260    82.3010     4.5270     4.9850     9.2990     2.2710 
  249.5000   237.1490    54.2890   -35.2310     4.1260    82.3010     4.5330     4.9930    10.3370     2.2750 
  249.6250   237.2620    54.3350   -35.2600     4.1260    82.3010     4.5410     4.9680    10.4690     2.2790 
  249.7500   237.3750    54.3800   -35.2890     4.1260    82.3010     4.5440     4.9660     9.8570     2.2840 
  249.8750   237.4870    54.4250   -35.3180     4.1260    82.3010     4.5390     4.9770     9.2650     2.2910 
  250.0000   237.6000    54.4710   -35.3470     4.1260    82.3010     4.5330     4.9720     8.3160     2.2980 
  250.1250   237.7130    54.5160   -35.3750     4.1260    82.3010     4.5350     4.9840     6.7620     2.3050 
  250.2500   237.8260    54.5610   -35.4040     4.1260    82.3010     4.5360     4.9870     5.7840     2.3070 
  250.3750   237.9390    54.6070   -35.4330     4.1260    82.3010     4.5410     4.9870     6.0900     2.3020 
  250.5000   238.0520    54.6520   -35.4620     4.1260    82.3010     4.5390     4.9880     6.2870     2.2890 
  250.6250   238.1650    54.6980   -35.4910     4.1260    82.3010     4.5380     4.9720     5.7420     2.2710 
  250.7500   238.2770    54.7430   -35.5200     4.1260    82.3010     4.5330     4.9630     5.2230     2.2520 
  250.8750   238.3900    54.7880   -35.5480     4.1260    82.3010     4.5350     4.9820     5.2960     2.2330 
  251.0000   238.5030    54.8340   -35.5770     4.1260    82.3010     4.5380     5.0050     5.6350     2.2110 
  251.1250   238.6160    54.8790   -35.6060     4.1260    82.3010     4.5380     5.0190     5.3150     2.1830 
  251.2500   238.7290    54.9240   -35.6350     4.1260    82.3010     4.5350     5.0250     4.6920     2.1510 
  251.3750   238.8420    54.9700   -35.6640     4.1260    82.3010     4.5320     5.0190     4.3080     2.1200 
  251.5000   238.9550    55.0150   -35.6920     4.1260    82.3010     4.5300     5.0200     3.9220     2.0950 
  251.6250   239.0670    55.0610   -35.7210     4.1260    82.3010     4.5300     5.0200     3.6330     2.0800 
  251.7500   239.1800    55.1060   -35.7500     4.1260    82.3010     4.5300     5.0200     3.3940     2.0720 
  251.8750   239.2930    55.1510   -35.7790     4.1260    82.3010     4.5300     5.0200     3.1140     2.0680 
  252.0000   239.4060    55.1970   -35.8080     4.1260    82.3010     4.5300     5.0200     2.9900     2.0640 
  252.1250   239.5190    55.2420   -35.8370     4.1260    82.3010     4.5300     5.0200     2.9910     2.0610 
  252.2500   239.6320    55.2870   -35.8650     4.1260    82.3010     4.5300     5.0200     2.9920     2.0600 
  252.3750   239.7440    55.3330   -35.8940     4.1260    82.3010     4.5300     5.0200     2.9920     2.0620 
  252.5000   239.8570    55.3780   -35.9230     4.1260    82.3010     4.5300     5.0200     2.9910     2.0640 
  252.6250   239.9700    55.4240   -35.9520     4.1260    82.3010     4.5300     5.0200     2.9910     2.0670 
  252.7500   240.0830    55.4690   -35.9810     4.1260    82.3010     4.5300     5.0200     2.9910     2.0690 
