~V
VERS. 2.00: Ver 2.00
~W
STRT.M 63.0000:
STOP.M 256.0000:
STEP.M 0.1250:
NULL. -999.2500:
UWI. FD10901:
~C
DEPT.M :
TVD. :
DX. :
DY. :
SP.MV :
GR.API :
RI. :
RML.OHMM :
RXO.OHMM :
DEN.GM/CC :
~A
# ...
  245.5000   241.9730    -7.6390   -27.7130    -3.5450    38.5540     2.1910     2.6910     2.6990     2.3500 
  245.6250   242.0930    -7.6490   -27.7460    -3.5430    43.6530     2.2990     2.7950     2.8660     2.3480 
  245.7500   242.2130    -7.6580   -27.7800    -3.5400    49.7670     2.4580     2.9720     3.0870     2.3440 
  245.8750   242.3330    -7.6680   -27.8130    -3.5380    53.9140     2.6670     3.2160     3.2460     2.3470 
  246.0000   242.4530    -7.6780   -27.8470    -3.5350    56.9600     2.8340     3.4130     3.5670     2.3470 
  246.1250   242.5730    -7.6880   -27.8800    -3.5330    57.1280     2.9160     3.5140     4.0260     2.3380 
  246.2500   242.6930    -7.6970   -27.9140    -3.5300    56.3620     2.8510     3.4190     4.2990     2.3230 
  246.3750   242.8130    -7.7070   -27.9470    -3.5280    54.0590     2.6940     3.2080     4.1920     2.3100 
  246.5000   242.9330    -7.7170   -27.9810    -3.5250    51.7770     2.5150     2.9680     3.5760     2.3070 
  246.6250   243.0530    -7.7260   -28.0140    -3.5230    50.5560     2.4260     2.8420     2.9040     2.3120 
  246.7500   243.1730    -7.7360   -28.0480    -3.5200    53.9160     2.4720     2.8760     2.7990     2.3200 
  246.8750   243.2930    -7.7460   -28.0810    -3.5180    61.9750     2.7010     3.1090     3.0310     2.3280 
  247.0000   243.4130    -7.7550   -28.1150    -3.5150    71.7760     3.0660     3.4800     3.3620     2.3350 
  247.1250   243.5330    -7.7650   -28.1480    -3.5130    76.7730     3.5740     3.9810     4.0950     2.3430 
  247.2500   243.6530    -7.7750   -28.1820    -3.5100    78.0780     4.1210     4.5120     5.1010     2.3490 
  247.3750   243.7730    -7.7840   -28.2160    -3.5080    77.1880     4.6230     5.0120     6.1470     2.3560 
  247.5000   243.8930    -7.7940   -28.2490    -3.5050    77.7450     5.0260     5.4120     6.8530     2.3650 
  247.6250   244.0130    -7.8040   -28.2830    -3.5030    79.0430     5.0200     5.3760     7.0640     2.3740 
  247.7500   244.1330    -7.8130   -28.3160    -3.5000    80.7650     4.7440     5.0540     7.4340     2.3770 
  247.8750   244.2530    -7.8230   -28.3500    -3.4980    81.8800     4.2140     4.4480     7.8860     2.3680 
  248.0000   244.3730    -7.8330   -28.3830    -3.4950    80.8770     3.6150     3.7900     8.1040     2.3510 
  248.1250   244.4930    -7.8420   -28.4170    -3.4930    79.3470     3.1500     3.2940     7.0790     2.3360 
  248.2500   244.6130    -7.8520   -28.4500    -3.4900    77.2630     2.7620     2.9070     4.7560     2.3290 
  248.3750   244.7330    -7.8610   -28.4840    -3.4880    76.3040     2.5200     2.6930     3.3870     2.3330 
  248.5000   244.8530    -7.8710   -28.5180    -3.4850    75.7180     2.3740     2.5830     3.2280     2.3380 
  248.6250   244.9730    -7.8810   -28.5510    -3.4830    75.7180     2.3160     2.5540     3.1140     2.3430 
  248.7500   245.0930    -7.8900   -28.5850    -3.4800    75.7180     2.2910     2.5310     2.9400     2.3470 
  248.8750   245.2130    -7.9000   -28.6180    -3.4780    75.7180     2.2710     2.5030     2.8240     2.3500 
  249.0000   245.3330    -7.9100   -28.6520    -3.4750    75.7180     2.2700     2.4930     2.7340     2.3580 
  249.1250   245.4530    -7.9190   -28.6850    -3.4730    75.7180     2.2830     2.5020     2.6460     2.3670 
  249.2500   245.5730    -7.9290   -28.7190    -3.4700    75.7180     2.2980     2.5130     2.6200     2.3680 
  249.3750   245.6930    -7.9390   -28.7520    -3.4680    75.7180     2.3050     2.5130     2.6260     2.3560 
  249.5000   245.8130    -7.9480   -28.7860    -3.4650    75.7180     2.3080     2.5130     2.5950     2.3480 
  249.6250   245.9330    -7.9580   -28.8200    -3.4630    75.7180     2.3100     2.5110     2.5350     2.3460 
  249.7500   246.0530    -7.9680   -28.8530    -3.4600    75.7180     2.3110     2.5140     2.5250     2.3420 
  249.8750   246.1730    -7.9770   -28.8870    -3.4580    75.7180     2.3110     2.5160     2.5920     2.3270 
  250.0000   246.2940    -7.9870   -28.9200    -3.4550    75.7180     2.3110     2.5170     2.6550     2.3160 
  250.1250   246.4140    -7.9970   -28.9540    -3.4530    75.7180     2.3110     2.5140     2.6920     2.3220 
  250.2500   246.5340    -8.0060   -28.9870    -3.4500    75.7180     2.3110     2.5140     2.7250     2.3400 
  250.3750   246.6540    -8.0160   -29.0210    -3.4480    75.7180     2.3110     2.5160     2.7660     2.3610 
  250.5000   246.7740    -8.0250   -29.0540    -3.4450    75.7180     2.3110     2.5160     2.8530     2.3820 
  250.6250   246.8940    -8.0350   -29.0880    -3.4430    75.7180     2.3110     2.5200     2.9870     2.4020 
  250.7500   247.0140    -8.0450   -29.1220    -3.4400    75.7180     2.3110     2.5220     3.0830     2.4100 
  250.8750   247.1340    -8.0540   -29.1550    -3.4380    75.7180     2.3110     2.5320     3.1300     2.4010 
  251.0000   247.2540    -8.0640   -29.1890    -3.4350    75.7180     2.3110     2.5350     3.1900     2.3860 
  251.1250   247.3740    -8.0740   -29.2220    -3.4330    75.7180     2.3110     2.5350     3.2040     2.3770 
  251.2500   247.4940    -8.0830   -29.2560    -3.4300    75.7180     2.3110     2.5350     3.1510     2.3720 
  251.3750   247.6140    -8.0930   -29.2890    -3.4280    75.7180     2.3110     2.5350     3.0610     2.3660 
  251.5000   247.7340    -8.1030   -29.3230    -3.4250    75.7180     2.3110     2.5350     2.9390     2.3630 
  251.6250   247.8540    -8.1120   -29.3560    -3.4230    75.7180     2.3110     2.5350     2.8210     2.3710 
  251.7500   247.9740    -8.1220   -29.3900    -3.4200    75.7180     2.3110     2.5350     2.7660     2.3880 
  251.8750   248.0940    -8.1320   -29.4240    -3.4180    75.7180     2.3110     2.5350     2.8400     2.4070 
  252.0000   248.2140    -8.1410   -29.4570    -3.4150    75.7180     2.3110     2.5350     2.9770     2.4230 
  252.1250   248.3340    -8.1510   -29.4910    -3.4130    75.7180     2.3110     2.5350     3.0260     2.4310 
  252.2500   248.4540    -8.1610   -29.5240    -3.4100    75.7180     2.3110     2.5350     3.0030     2.4360 
  252.3750   248.5740    -8.1700   -29.5580    -3.4080    75.7180     2.3110     2.5350     2.9690     2.4320 
  252.5000   248.6940    -8.1800   -29.5910    -3.4050    75.7180     2.3110     2.5350     2.9330     2.4290 
  252.6250   248.8140    -8.1890   -29.6250    -3.4030    75.7180     2.3110     2.5350     2.9140     2.4220 
  252.7500   248.9340    -8.1990   -29.6580    -3.4000    75.7180     2.3110     2.5350     2.9340     2.4170 
  252.8750   249.0540    -8.2090   -29.6920    -3.3980    75.7180     2.3110     2.5350     3.0040     2.4080 
  253.0000   249.1740    -8.2180   -29.7260    -3.3950    75.7180     2.3110     2.5350     3.0780     2.4000 
  253.1250   249.2940    -8.2280   -29.7590    -3.3930    75.7180     2.3110     2.5350     3.1000     2.3930 
  253.2500   249.4140    -8.2380   -29.7930    -3.3900    75.7180     2.3110     2.5350     3.0670     2.3880 
  253.3750   249.5340    -8.2470   -29.8260    -3.3880    75.7180     2.3110     2.5350     3.0120     2.3900 
  253.5000   249.6540    -8.2570   -29.8600    -3.3860    75.7180     2.3110     2.5350     2.9910     2.3980 
  253.6250   249.7740    -8.2670   -29.8930    -3.3830    75.7180     2.3110     2.5350     3.0280     2.4010 
  253.7500   249.8940    -8.2760   -29.9270    -3.3810    75.7180     2.3110     2.5350     3.0990     2.3880 
  253.8750   250.0140    -8.2860   -29.9600    -3.3780    75.7180     2.3110     2.5350     3.1400     2.3460 
  254.0000   250.1340    -8.2960   -29.9940    -3.3760    75.7180     2.3110     2.5350     3.1120     2.2860 
  254.1250   250.2540    -8.3050   -30.0280    -3.3730    75.7180     2.3110     2.5350     3.0220     2.2250 
  254.2500   250.3740    -8.3150   -30.0610    -3.3710    75.7180     2.3110     2.5350     2.9140     2.1880 
  254.3750   250.4940    -8.3250   -30.0950    -3.3680    75.7180     2.3110     2.5350     2.8230     2.1670 
  254.5000   250.6140    -8.3340   -30.1280    -3.3660    75.7180     2.3110     2.5350     2.7490     2.1420 
