~V
VERS. 2.00: Ver 2.00
~W
STRT.M 27.0000:
STOP.M 267.0000:
STEP.M 0.1250:
NULL. -999.2500:
UWI. FD10204:
~C
DEPT.M :
TVD. :
DX. :
DY. :
GR.API :
RML.OHMM :
RI. :
RXO.OHMM :
CALI.CM :
SP.MV :
DEN.GM/CC :
~A
   27.0000    27.0000     0.0000     0.0000    43.6060    72.7070     2.5470     1.7580    25.3370  -170.4970     2.2830 
   27.1250    27.1250     0.0000     0.0000    42.5320    44.7490     1.7210     1.8690    25.3410  -163.8040     2.4500 
   27.2500    27.2500     0.0000     0.0000    41.8920    24.7500     1.0260     2.1230    25.3420  -155.9790     2.5890 
   27.3750    27.3750     0.0000     0.0000    42.7980    13.4980     0.5570     2.4570    25.3400  -146.8680     2.6220 
   27.5000    27.5000     0.0000     0.0000    44.7460     8.4920     0.3100     2.9330    25.3400  -136.5110     2.5590 
   27.6250    27.6250     0.0000     0.0000    48.8520     8.1460     0.2680     3.4400    25.3390  -125.0490     2.4450 
   27.7500    27.7500     0.0000     0.0000    56.2820    11.0390     0.3870     4.1230    25.3370  -113.0120     2.3310 
   27.8750    27.8750     0.0000    -0.0010    64.8260    17.4490     0.7030     4.7550    25.3370  -100.8160     2.2420 
   28.0000    28.0000     0.0000    -0.0020    70.7590    27.8950     1.3010     5.1100    25.3390   -88.9950     2.1850 
   28.1250    28.1250     0.0000    -0.0020    73.0200    42.1190     2.3780     4.4260    25.3430   -78.1760     2.1530 
   28.2500    28.2500    -0.0010    -0.0030    74.5070    55.0960     3.9080     3.1850    25.3410   -68.4950     2.1280 
   28.3750    28.3750    -0.0010    -0.0040    75.9330    61.3230     5.7330     3.4520    25.3450   -60.1650     2.1080 
   28.5000    28.5000    -0.0010    -0.0040    75.8120    60.3660     7.5670     5.9900    25.3770   -53.3060     2.1010 
   28.6250    28.6250    -0.0010    -0.0050    72.1980    57.6870     9.1450     8.1320    25.4410   -48.0250     2.1060 
   28.7500    28.7500    -0.0010    -0.0060    67.0270    57.2870    10.4560     9.4190    25.4810   -43.8270     2.1080 
   28.8750    28.8750    -0.0010    -0.0060    62.6490    58.7840    11.5160     9.6470    25.4330   -40.4710     2.0970 
   29.0000    29.0000    -0.0010    -0.0070    61.0610    59.9100    12.3300     9.6230    25.2770   -37.7530     2.0760 
   29.1250    29.1250    -0.0010    -0.0080    62.1670    57.1310    12.8590     9.0930    25.0360   -35.4690     2.0570 
   29.2500    29.2500    -0.0020    -0.0080    63.3030    49.8320    13.1670     8.4480    24.8070   -33.4960     2.0470 
   29.3750    29.3750    -0.0020    -0.0090    61.8820    39.3970    13.2780     9.1310    24.6620   -31.8660     2.0430 
   29.5000    29.5000    -0.0020    -0.0100    57.9780    28.4680    13.2010    10.8070    24.6600   -30.4650     2.0410 
   29.6250    29.6250    -0.0020    -0.0100    56.9440    20.1780    12.9440    12.0610    24.9040   -29.2510     2.0360 
   29.7500    29.7500    -0.0020    -0.0110    61.3080    15.3060    12.6360    12.4030    25.2750   -28.2580     2.0290 
   29.8750    29.8750    -0.0020    -0.0120    68.0560    13.2880    12.4000    11.9400    25.8010   -27.4420     2.0230 
   30.0000    30.0000    -0.0020    -0.0120    72.1860    12.9000    12.3350    11.0490    26.5570   -26.6980     2.0190 
   30.1250    30.1250    -0.0020    -0.0130    69.0550    13.2370    12.5310     9.9680    27.4610   -26.1100     2.0160 
   30.2500    30.2500    -0.0030    -0.0140    62.6700    13.9000    12.9480     9.7770    28.1900   -25.6380     2.0150 
   30.3750    30.3750    -0.0030    -0.0140    59.1140    14.8440    13.5220     9.8720    28.4160   -25.1520     2.0160 
   30.5000    30.5000    -0.0030    -0.0150    60.5390    15.8940    14.1350    10.4990    28.0440   -24.6760     2.0200 
   30.6250    30.6250    -0.0030    -0.0160    63.0350    16.6570    14.5990    11.7000    27.3570   -24.3220     2.0270 
   30.7500    30.7500    -0.0030    -0.0170    62.3120    16.9310    14.8150    12.1010    26.8780   -24.0500     2.0300 
   30.8750    30.8750    -0.0030    -0.0170    60.3460    16.7740    14.7570    11.5230    26.7990   -23.8190     2.0240 
   31.0000    31.0000    -0.0030    -0.0180    59.9970    16.3890    14.4650    10.7350    26.9640   -23.6370     2.0070 
   31.1250    31.1250    -0.0040    -0.0190    62.4560    15.9490    13.9950    10.2730    27.1890   -23.5550     1.9850 
   31.2500    31.2500    -0.0040    -0.0190    64.8070    15.4640    13.4330    10.2690    27.3320   -23.5420     1.9650 
   31.3750    31.3750    -0.0040    -0.0200    64.8770    14.8610    12.7930     9.9840    27.2530   -23.5980     1.9520 
   31.5000    31.5000    -0.0040    -0.0210    63.7200    14.1720    12.1190     9.4130    26.9060   -23.7830     1.9590 
   31.6250    31.6250    -0.0040    -0.0210    63.0720    13.6600    11.5920     9.7170    26.4190   -24.0660     2.0090 
   31.7500    31.7500    -0.0040    -0.0220    62.9730    13.6290    11.4210     9.9800    25.9820   -24.3250     2.1170 
   31.8750    31.8750    -0.0040    -0.0230    62.8290    14.2840    11.7550    10.3520    25.6010   -24.5430     2.2720 
   32.0000    32.0000    -0.0040    -0.0230    64.2590    15.6740    12.6300    12.4360    25.2000   -24.7340     2.4190 
   32.1250    32.1250    -0.0050    -0.0240    68.6160    17.6010    13.9280    18.7640    24.8340   -24.7330     2.4590 
   32.2500    32.2500    -0.0050    -0.0250    72.0810    19.2720    15.1360    25.6980    24.6240   -24.5320     2.3990 
   32.3750    32.3750    -0.0050    -0.0250    72.1980    19.8930    15.7370    23.8120    24.6100   -24.2470     2.2920 
   32.5000    32.5000    -0.0050    -0.0260    69.5340    19.1520    15.4420    16.0200    24.8120   -23.8660     2.1880 
   32.6250    32.6250    -0.0050    -0.0270    66.5810    17.5370    14.3780    13.2430    25.1920   -23.3340     2.1170 
   32.7500    32.7500    -0.0050    -0.0270    64.6910    16.0830    13.2150    12.4040    25.5450   -22.7330     2.0760 
   32.8750    32.8750    -0.0050    -0.0280    63.4270    15.2470    12.3570    12.0200    25.7590   -22.1450     2.0560 
   33.0000    33.0000    -0.0050    -0.0290    63.3950    15.1290    11.9920    11.3080    25.8540   -21.6180     2.0430 
   33.1250    33.1250    -0.0060    -0.0290    64.8380    15.6670    12.1650    10.6500    25.8980   -21.1760     2.0310 
   33.2500    33.2500    -0.0060    -0.0300    64.9730    16.5040    12.6330    10.8040    25.9190   -20.8950     2.0200 
   33.3750    33.3750    -0.0060    -0.0310    63.8850    17.4070    13.2230    11.3580    25.9250   -20.7050     2.0140 
   33.5000    33.5000    -0.0060    -0.0310    63.3100    18.1780    13.7780    11.7280    25.9260   -20.5490     2.0150 
   33.6250    33.6250    -0.0060    -0.0320    63.1660    18.6210    14.1410    11.7700    25.9160   -20.5080     2.0230 
   33.7500    33.7500    -0.0060    -0.0330    62.1230    18.7330    14.2860    12.1300    25.9010   -20.5420     2.0320 
   33.8750    33.8750    -0.0060    -0.0340    60.5020    18.5820    14.2380    12.2140    25.8980   -20.5680     2.0420 
   34.0000    34.0000    -0.0070    -0.0340    60.0620    18.2920    14.0680    11.9200    25.9120   -20.5720     2.0520 
   34.1250    34.1250    -0.0070    -0.0350    60.1180    17.9900    13.8530    11.4960    25.9260   -20.6640     2.0570 
   34.2500    34.2500    -0.0070    -0.0360    59.4090    17.7260    13.6440    11.6540    25.9280   -20.7580     2.0570 
   34.3750    34.3750    -0.0070    -0.0360    59.1120    17.4970    13.4510    12.3960    25.9240   -20.8430     2.0520 
   34.5000    34.5000    -0.0070    -0.0370    61.1840    17.2930    13.2740    12.9380    25.9220   -20.9620     2.0440 
   34.6250    34.6250    -0.0070    -0.0380    64.5690    17.1050    13.1110    13.1200    25.9210   -21.0760     2.0350 
   34.7500    34.7500    -0.0070    -0.0380    65.1490    16.9180    12.9570    13.0210    25.9220   -21.1840     2.0300 
   34.8750    34.8750    -0.0070    -0.0390    62.7090    16.7310    12.8170    12.8900    25.9260   -21.3200     2.0310 
   35.0000    35.0000    -0.0080    -0.0400    59.8980    16.5690    12.7090    12.5530    25.9290   -21.4980     2.0400 
   35.1250    35.1250    -0.0080    -0.0400    57.6060    16.4810    12.6520    12.0980    25.9370   -21.7050     2.0570 
