~V
VERS. 2.00: Ver 2.00
~W
STRT.M 30.0000:
STOP.M 223.0000:
STEP.M 0.1250:
NULL. -999.2500:
UWI. FD10814:
~C
DEPT.M :
TVD. :
DX. :
DY. :
SP.MV :
GR.API :
RI. :
RML.OHMM :
RXO.OHMM :
DEN.GM/CC :
~A
# ...
   93.8750    93.1770    -0.5050     6.4360   -23.3530    70.7020     5.5260     5.8770     7.9500     2.1490 
   94.0000    93.2950    -0.5040     6.4770   -23.0050    71.5200     5.5410     5.9460    15.5120     2.1530 
   94.1250    93.4130    -0.5040     6.5180   -22.5680    72.0720     5.8410     6.2830    26.6330     2.1600 
   94.2500    93.5310    -0.5040     6.5590   -22.1880    71.9930     6.3760     6.8230    23.0350     2.1660 
   94.3750    93.6490    -0.5040     6.6010   -21.9350    71.4950     6.9750     7.4500    13.1920     2.1720 
   94.5000    93.7670    -0.5030     6.6420   -21.7360    72.0890     7.5490     8.0300    11.0660     2.1820 
   94.6250    93.8850    -0.5030     6.6830   -21.5460    72.2390     7.9890     8.4360    11.8780     2.1950 
   94.7500    94.0030    -0.5030     6.7250   -21.4480    73.2020     8.1900     8.6080    12.5590     2.2140 
   94.8750    94.1210    -0.5030     6.7670   -21.4980    73.2070     8.1990     8.5460    12.5310     2.2300 
   95.0000    94.2380    -0.5020     6.8090   -21.5520    73.7960     8.1060     8.4530    11.8250     2.2460 
   95.1250    94.3560    -0.5020     6.8510   -21.5380    74.7270     8.0760     8.5300    11.7220     2.2450 
   95.2500    94.4740    -0.5020     6.8930   -21.5280    76.3460     8.4260     8.9080    11.8440     2.2490 
   95.3750    94.5910    -0.5020     6.9350   -21.3870    76.5200     9.0700     9.5940    11.9650     2.2650 
   95.5000    94.7090    -0.5020     6.9780   -21.1310    75.2750     9.8340    10.3520    12.2640     2.3150 
   95.6250    94.8260    -0.5020     7.0200   -20.8710    73.5540    10.3380    10.8320    12.2780     2.3750 
   95.7500    94.9440    -0.5020     7.0630   -20.6830    72.8290    10.2810    10.7910    12.4980     2.4040 
   95.8750    95.0610    -0.5010     7.1060   -20.6210    73.1850     9.6460    10.1620    12.8530     2.3720 
   96.0000    95.1790    -0.5010     7.1480   -20.6520    73.4420     8.6450     9.2120    11.8160     2.3130 
   96.1250    95.2960    -0.4740     7.1480   -20.8120    74.9890     7.7200     8.2610    10.5520     2.2700 
   96.2500    95.4140    -0.5020     7.1480   -21.1360    77.2950     6.9880     7.5220    10.2590     2.2560 
   96.3750    95.5310    -0.5020     7.1920   -21.7920    78.2790     6.6000     7.0420     9.7120     2.2490 
   96.5000    95.6480    -0.5020     7.2350   -22.5800    77.1620     6.2930     6.6960     8.9000     2.2330 
   96.6250    95.7650    -0.5020     7.2780   -23.3120    75.3240     6.0160     6.3830     7.9780     2.2030 
   96.7500    95.8820    -0.5020     7.3220   -23.8100    73.7350     5.7100     6.0570     7.3370     2.1660 
   96.8750    96.0000    -0.5020     7.3660   -24.0540    71.9750     5.3810     5.7330     7.0980     2.1280 
   97.0000    96.1170    -0.5020     7.4090   -24.0100    70.5780     5.0970     5.4450     6.7340     2.1020 
   97.1250    96.2340    -0.5030     7.4530   -23.5700    69.9080     4.8710     5.2180     6.3880     2.0900 
   97.2500    96.3510    -0.5030     7.4970   -22.9070    70.1740     4.7090     5.0400     6.1100     2.0870 
   97.3750    96.4680    -0.5030     7.5420   -22.1510    70.4370     4.5980     4.8950     5.8770     2.0900 
   97.5000    96.5840    -0.5030     7.5860   -21.4660    71.7030     4.5230     4.7890     5.6650     2.0920 
   97.6250    96.7010    -0.5030     7.6300   -20.9080    72.7850     4.4880     4.7440     5.5620     2.0950 
   97.7500    96.8180    -0.5040     7.6750   -20.5460    74.2930     4.4780     4.7390     5.6320     2.0960 
   97.8750    96.9350    -0.5040     7.7190   -20.1750    75.4340     4.4820     4.7500     5.7100     2.1040 
   98.0000    97.0520    -0.5040     7.7640   -19.7020    76.6500     4.4790     4.7580     5.6960     2.1190 
   98.1250    97.1680    -0.5050     7.8090   -19.2620    76.2070     4.4580     4.7480     5.6710     2.1350 
   98.2500    97.2850    -0.5050     7.8540   -18.9650    74.7960     4.4240     4.7220     5.5870     2.1420 
   98.3750    97.4010    -0.5050     7.8990   -18.9070    72.8550     4.3840     4.6920     5.4210     2.1370 
   98.5000    97.5180    -0.5060     7.9450   -19.0020    72.4360     4.3590     4.6830     5.3480     2.1280 
   98.6250    97.6340    -0.5060     7.9900   -19.2390    73.3620     4.3520     4.6990     5.4460     2.1240 
   98.7500    97.7510    -0.5060     8.0360   -19.5610    75.3930     4.3550     4.7310     5.6130     2.1250 
   98.8750    97.8670    -0.5070     8.0810   -19.8540    75.2570     4.3630     4.7620     5.7240     2.1230 
   99.0000    97.9830    -0.5070     8.1270   -20.0690    74.1800     4.3620     4.7790     5.7630     2.1190 
   99.1250    98.1000    -0.5080     8.1730   -20.2500    72.5020     4.3610     4.7820     5.8880     2.1160 
   99.2500    98.2160    -0.5080     8.2190   -20.3200    73.3480     4.3560     4.7740     5.9830     2.1160 
   99.3750    98.3320    -0.5080     8.2650   -20.3750    73.3000     4.3540     4.7700     5.9280     2.1230 
   99.5000    98.4480    -0.5090     8.3110   -20.4180    73.2770     4.3660     4.7880     6.0520     2.1290 
   99.6250    98.5640    -0.5090     8.3580   -20.4920    72.5520     4.3890     4.8240     6.1220     2.1320 
   99.7500    98.6800    -0.5100     8.4040   -20.6880    72.3010     4.4300     4.8810     5.9330     2.1310 
   99.8750    98.7960    -0.5100     8.4510   -21.0130    72.7620     4.4800     4.9430     5.9080     2.1290 
  100.0000    98.9120    -0.5110     8.4970   -21.4000    72.8140     4.5280     5.0050     6.0870     2.1300 
  100.1250    99.0280    -0.5120     8.5440   -21.6470    72.8740     4.5770     5.0620     6.3350     2.1300 
  100.2500    99.1440    -0.5120     8.5910   -21.8060    73.5120     4.6020     5.0920     6.3970     2.1290 
  100.3750    99.2600    -0.5130     8.6380   -21.9110    75.3510     4.5970     5.0940     6.1940     2.1240 
  100.5000    99.3760    -0.5130     8.6850   -21.9720    77.7770     4.6010     5.1040     6.1340     2.1250 
  100.6250    99.4910    -0.5140     8.7330   -22.0650    78.6510     4.6810     5.2020     6.0390     2.1310 
  100.7500    99.6070    -0.5150     8.7800   -22.3410    78.0970     4.8630     5.4140     5.3780     2.1340 
  100.8750    99.7230    -0.5150     8.8270   -22.8870    76.5980     5.1200     5.7160     5.1820     2.1290 
  101.0000    99.8380    -0.5160     8.8750   -23.7240    74.6720     5.3690     6.0030     6.6990     2.1160 
  101.1250    99.9540    -0.5170     8.9220   -24.7210    71.9310     5.4850     6.1330     8.2070     2.1070 
  101.2500   100.0690    -0.5170     8.9700   -25.2660    69.6100     5.4440     6.0770     7.8590     2.1010 
  101.3750   100.1850    -0.5180     9.0180   -25.2000    69.5740     5.3170     5.9260     6.9010     2.1010 
  101.5000   100.3000    -0.5180     9.0660   -24.7370    71.4930     5.2990     5.9170     6.6740     2.1070 
  101.6250   100.4160    -0.5190     9.1140   -24.1790    72.2130     5.5900     6.2580     6.6380     2.1110 
  101.7500   100.5310    -0.5200     9.1620   -23.6550    70.1130     6.1640     6.9360     8.3670     2.1020 
  101.8750   100.6460    -0.5210     9.2100   -23.4410    67.6490     6.9710     7.8590    12.3480     2.0810 
  102.0000   100.7620    -0.5210     9.2590   -23.5350    66.6730     7.8720     8.8070    14.2100     2.0660 
  102.1250   100.8770    -0.5220     9.3070   -23.8620    67.6390     8.6460     9.5740    12.8410     2.0640 
  102.2500   100.9920    -0.5230     9.3560   -24.3110    67.7180     9.2400    10.1270    11.9060     2.0700 
  102.3750   101.1070    -0.5240     9.4050   -24.8350    66.6020     9.6590    10.5630    13.2120     2.0760 
  102.5000   101.2220    -0.5250     9.4530   -25.4230    66.3030    10.0540    11.0000    14.6240     2.0790 
  102.6250   101.3370    -0.5260     9.5030   -26.0600    66.5890    10.4070    11.3860    14.7560     2.0780 
  102.7500   101.4520    -0.5260     9.5520   -26.7960    67.7740    10.4970    11.4560    14.4900     2.0750 
  102.8750   101.5670    -0.5270     9.6010   -27.5250    66.7040    10.0010    10.9260    14.4660     2.0740 
