~V
VERS. 2.00: Ver 2.00
~W
STRT.M 33.0000:
STOP.M 273.0000:
STEP.M 0.1250:
NULL. -999.2500:
UWI. FD10880:
~C
DEPT.M :
TVD. :
DX. :
DY. :
SP.MV :
GR.API :
RI. :
RML.OHMM :
RXO.OHMM :
DEN.GM/CC :
~A
# ...
   96.8750    95.8090     9.8720     2.3000   -17.6630    87.3350     4.6740     5.1570     5.4690     2.2300 
   97.0000    95.9280     9.9110     2.3060   -18.0120    83.0860     5.4520     6.0360     6.4780     2.2230 
   97.1250    96.0470     9.9490     2.3130   -18.2500    80.4920     6.6540     7.4260     7.3340     2.2190 
   97.2500    96.1660     9.9870     2.3200   -18.0900    77.6740     8.4720     9.5780     8.9830     2.2360 
   97.3750    96.2840    10.0260     2.3260   -17.4500    74.8410    10.7790    12.3670    12.8170     2.2760 
   97.5000    96.4030    10.0640     2.3330   -16.4870    75.9890    13.1130    15.1610    21.4080     2.3200 
   97.6250    96.5220    10.1030     2.3400   -15.4390    80.6970    14.5850    16.8710    33.1380     2.3400 
   97.7500    96.6410    10.1410     2.3460   -14.7170    80.8740    14.4040    16.5180    35.7550     2.3190 
   97.8750    96.7590    10.1800     2.3530   -14.5880    74.6000    12.5090    14.1110    26.2980     2.2650 
   98.0000    96.8780    10.2190     2.3590   -14.9300    68.7210     9.9060    11.0070    15.9620     2.2040 
   98.1250    96.9970    10.2570     2.3660   -15.5000    70.6970     7.8300     8.6300    11.0270     2.1640 
   98.2500    97.1150    10.2960     2.3720   -16.0320    78.3490     6.6370     7.3640     8.8140     2.1570 
   98.3750    97.2340    10.3350     2.3790   -16.1640    84.0010     6.4520     7.3080     7.2950     2.1680 
   98.5000    97.3530    10.3740     2.3850   -15.7690    82.8980     6.9420     8.1110     7.5080     2.1730 
   98.6250    97.4710    10.4120     2.3910   -15.3070    79.3110     7.9610     9.5770     9.3070     2.1590 
   98.7500    97.5900    10.4510     2.3970   -14.8520    77.6550     8.9170    10.7840    10.9480     2.1360 
   98.8750    97.7090    10.4900     2.4030   -14.3670    77.3500     9.2870    11.1580    11.0270     2.1230 
   99.0000    97.8270    10.5300     2.4090   -14.0910    76.1400     8.8120    10.3820    10.0980     2.1290 
   99.1250    97.9460    10.5690     2.4150   -14.1880    75.3260     7.8910     9.0690    10.4410     2.1490 
   99.2500    98.0640    10.6080     2.4220   -14.5150    75.9680     7.1790     8.1650    11.1610     2.1670 
   99.3750    98.1830    10.6470     2.4280   -14.9060    77.0270     6.9880     7.9630     9.9370     2.1730 
   99.5000    98.3010    10.6860     2.4340   -15.1570    76.9130     7.2550     8.3740     8.9380     2.1640 
   99.6250    98.4200    10.7260     2.4400   -15.2010    75.9610     7.8480     9.2070    12.5300     2.1470 
   99.7500    98.5380    10.7650     2.4470   -15.2610    75.1570     8.6660    10.3090    18.7040     2.1270 
   99.8750    98.6560    10.8050     2.4530   -15.3880    74.1510     9.3750    11.2250    18.4430     2.1120 
  100.0000    98.7750    10.8450     2.4590   -15.5300    73.1890     9.6650    11.5560    13.1850     2.1080 
  100.1250    98.8930    10.8840     2.4650   -15.7370    72.4200     9.3560    11.1230    10.8950     2.1130 
  100.2500    99.0120    10.9240     2.4720   -16.0690    72.2000     8.5520    10.0770    11.7720     2.1290 
  100.3750    99.1300    10.9640     2.4780   -16.3440    74.5160     7.5240     8.7880    12.5540     2.1570 
  100.5000    99.2480    11.0040     2.4850   -16.3090    80.0270     6.5160     7.5810    10.6810     2.1930 
  100.6250    99.3660    11.0440     2.4910   -15.9880    84.6230     5.8000     6.7760     8.5780     2.2220 
  100.7500    99.4850    11.0840     2.4980   -15.5610    85.2290     5.4130     6.4310     8.3530     2.2270 
  100.8750    99.6030    11.1240     2.5040   -15.2420    83.6520     5.2750     6.3850     7.8280     2.2120 
  101.0000    99.7210    11.1650     2.5110   -15.3100    84.8920     5.1770     6.3320     7.3100     2.1990 
  101.1250    99.8390    11.2050     2.5180   -15.8320    87.7290     5.0090     6.1430     7.3450     2.2010 
  101.2500    99.9570    11.2450     2.5240   -16.5420    89.4760     4.7530     5.7990     6.9520     2.2140 
  101.3750   100.0750    11.2860     2.5300   -17.1710    87.6000     4.5020     5.4530     6.3760     2.2240 
  101.5000   100.1930    11.3260     2.5370   -17.4160    84.4930     4.3160     5.2220     6.0690     2.2240 
  101.6250   100.3110    11.3670     2.5430   -17.1340    84.5990     4.2170     5.0890     6.1290     2.2180 
  101.7500   100.4290    11.4070     2.5490   -16.5780    88.3580     4.2440     5.0980     6.3000     2.2150 
  101.8750   100.5470    11.4480     2.5550   -16.1780    91.8230     4.3850     5.2620     6.0700     2.2160 
  102.0000   100.6650    11.4890     2.5610   -15.9560    90.5250     4.6450     5.5980     5.9520     2.2150 
  102.1250   100.7830    11.5300     2.5670   -15.9100    87.4900     4.9580     6.0750     6.5310     2.2050 
  102.2500   100.9010    11.5710     2.5730   -16.0030    85.2630     5.1780     6.4050     7.5370     2.1850 
  102.3750   101.0190    11.6120     2.5790   -16.0900    83.9220     5.1720     6.4230     8.5430     2.1630 
  102.5000   101.1370    11.6530     2.5850   -16.3420    83.5490     4.9290     6.0900     8.5660     2.1540 
  102.6250   101.2550    11.6950     2.5910   -16.8290    86.7930     4.5490     5.5590     7.4000     2.1620 
  102.7500   101.3730    11.7360     2.5980   -17.0750    92.7420     4.2450     5.1820     6.0740     2.1860 
  102.8750   101.4900    11.7780     2.6040   -17.2390    96.5130     4.0760     5.0080     6.0920     2.2140 
  103.0000   101.6080    11.8200     2.6100   -17.5360    94.7670     4.0660     5.0690     7.7440     2.2330 
  103.1250   101.7260    11.8610     2.6160   -17.9410    90.3310     4.1600     5.2570     8.4790     2.2370 
  103.2500   101.8430    11.9030     2.6230   -18.3280    86.2860     4.2530     5.4020     7.5470     2.2260 
  103.3750   101.9610    11.9450     2.6290   -18.7990    83.8430     4.3240     5.4920     6.7530     2.2100 
  103.5000   102.0780    11.9870     2.6350   -19.1700    83.4160     4.4280     5.5930     6.6060     2.1990 
  103.6250   102.1960    12.0290     2.6420   -19.1590    83.4470     4.6630     5.8470     6.4190     2.1940 
  103.7500   102.3130    12.0720     2.6490   -18.6940    81.6440     5.1070     6.3870     6.2360     2.1900 
  103.8750   102.4310    12.1140     2.6550   -18.0330    77.1720     5.8360     7.3130     8.1440     2.1840 
  104.0000   102.5480    12.1570     2.6620   -17.5020    73.5540     6.8250     8.5940    16.7250     2.1720 
  104.1250   102.6650    12.1990     2.6680   -17.3990    74.6650     7.8260     9.8950    29.9690     2.1560 
  104.2500   102.7830    12.2420     2.6750   -17.8070    78.9200     8.6310    10.8680    39.7660     2.1360 
  104.3750   102.9000    12.2850     2.6810   -18.4870    80.2620     8.9200    11.1450    44.6180     2.1150 
  104.5000   103.0170    12.3270     2.6880   -19.1470    77.8600     8.5730    10.6080    39.8790     2.0970 
  104.6250   103.1340    12.3700     2.6940   -19.5550    76.3560     7.7250     9.4550    25.0790     2.0860 
  104.7500   103.2520    12.4130     2.7010   -19.4180    77.7430     6.5510     7.9540    14.0600     2.0890 
  104.8750   103.3690    12.4560     2.7080   -18.8640    79.2130     5.3950     6.4980    10.7840     2.1130 
  105.0000   103.4860    12.4990     2.7150   -18.2630    81.3040     4.4990     5.4020     8.7780     2.1580 
  105.1250   103.6030    12.5430     2.7210   -17.7310    86.9000     3.9250     4.7400     6.6770     2.2050 
  105.2500   103.7200    12.5860     2.7280   -17.2510    92.5390     3.7140     4.5550     5.6460     2.2350 
  105.3750   103.8370    12.6300     2.7340   -16.9040    92.7320     3.7010     4.6210     5.3320     2.2410 
  105.5000   103.9540    12.6730     2.7410   -16.7850    89.6270     3.8000     4.8100     5.1700     2.2260 
  105.6250   104.0710    12.7170     2.7470   -16.8020    89.3470     3.8690     4.9150     6.0730     2.2040 
  105.7500   104.1880    12.7610     2.7540   -16.8950    92.1390     3.8280     4.8090     7.3240     2.1920 
  105.8750   104.3050    12.8050     2.7610   -16.9780    96.0400     3.7200     4.5980     6.6730     2.2020 
