~V
VERS. 2.00: Ver 2.00
~W
STRT.M 63.0000:
STOP.M 256.0000:
STEP.M 0.1250:
NULL. -999.2500:
UWI. FD10901:
~C
DEPT.M :
TVD. :
DX. :
DY. :
SP.MV :
GR.API :
RI. :
RML.OHMM :
RXO.OHMM :
DEN.GM/CC :
~A
# ...
   90.3750    90.3720    -0.2960     0.2400   -32.2680    76.3860     5.2960     6.4980     7.1900     2.2080 
   90.5000    90.4970    -0.2970     0.2410   -33.4210    76.4030     5.3970     6.5930     8.2930     2.2370 
   90.6250    90.6220    -0.2990     0.2410   -34.0000    78.5190     5.4030     6.5700     7.0590     2.2310 
   90.7500    90.7470    -0.3010     0.2420   -34.3200    79.0260     5.3460     6.4720     5.8810     2.1950 
   90.8750    90.8720    -0.3030     0.2420   -34.6670    77.2260     5.2910     6.3970     5.7650     2.1670 
   91.0000    90.9970    -0.3040     0.2430   -35.2170    74.4590     5.2580     6.3600     5.5800     2.1570 
   91.1250    91.1220    -0.3060     0.2430   -35.9570    73.1740     5.2730     6.4080     5.6390     2.1540 
   91.2500    91.2470    -0.3080     0.2430   -36.6620    73.6100     5.3450     6.5340     5.8930     2.1480 
   91.3750    91.3720    -0.3090     0.2440   -37.0910    73.3440     5.4190     6.6630     6.0680     2.1390 
   91.5000    91.4970    -0.3110     0.2440   -37.3830    72.7530     5.4820     6.7750     6.1290     2.1360 
   91.6250    91.6220    -0.3130     0.2440   -37.5110    71.4890     5.5040     6.8300     6.0820     2.1380 
   91.7500    91.7470    -0.3150     0.2450   -37.4970    72.2160     5.4980     6.8340     5.8960     2.1400 
   91.8750    91.8720    -0.3160     0.2450   -37.4300    73.1680     5.4590     6.7800     5.6320     2.1360 
   92.0000    91.9970    -0.3180     0.2450   -37.3720    73.7090     5.4000     6.6850     5.4440     2.1300 
   92.1250    92.1220    -0.3200     0.2460   -37.4430    73.3040     5.3430     6.5770     5.4120     2.1310 
   92.2500    92.2470    -0.3210     0.2460   -37.7040    73.3270     5.3170     6.5170     5.5580     2.1360 
   92.3750    92.3720    -0.3230     0.2460   -38.1790    74.1080     5.3900     6.5930     5.8270     2.1440 
   92.5000    92.4970    -0.3250     0.2470   -38.8250    73.8100     5.5280     6.7630     6.0270     2.1470 
   92.6250    92.6220    -0.3260     0.2470   -39.6850    72.5770     5.6890     6.9750     6.1200     2.1460 
   92.7500    92.7470    -0.3280     0.2470   -40.6140    71.1240     5.8170     7.1330     6.1610     2.1420 
   92.8750    92.8720    -0.3300     0.2470   -41.6450    68.8250     5.8390     7.1440     6.1620     2.1440 
   93.0000    92.9970    -0.3310     0.2480   -42.7030    65.7380     5.7570     7.0180     6.1570     2.1480 
   93.1250    93.1220    -0.3330     0.2480   -43.6390    63.0410     5.5840     6.7950     6.1310     2.1510 
   93.2500    93.2470    -0.3350     0.2480   -44.3320    63.5670     5.3630     6.5310     6.0730     2.1450 
   93.3750    93.3720    -0.3360     0.2480   -44.4870    67.6720     5.1500     6.2730     6.0200     2.1380 
   93.5000    93.4970    -0.3380     0.2480   -44.0420    73.1740     4.9690     6.0430     5.9760     2.1390 
   93.6250    93.6220    -0.3400     0.2490   -43.1010    76.0370     4.8550     5.8840     5.6160     2.1470 
   93.7500    93.7470    -0.3410     0.2490   -41.8710    75.5560     4.8100     5.8110     5.2620     2.1540 
   93.8750    93.8720    -0.3430     0.2490   -40.5380    73.6380     4.8510     5.8660     5.6580     2.1610 
   94.0000    93.9970    -0.3450     0.2490   -39.4250    72.6820     4.9420     5.9880     6.1570     2.1680 
   94.1250    94.1220    -0.3460     0.2490   -38.7400    72.5540     5.0490     6.1260     6.2460     2.1660 
   94.2500    94.2470    -0.3480     0.2490   -38.5230    72.6570     5.1160     6.1930     6.2940     2.1500 
   94.3750    94.3720    -0.3500     0.2500   -38.5480    74.5710     5.1140     6.1740     6.3650     2.1330 
   94.5000    94.4970    -0.3510     0.2500   -38.4640    77.6810     5.0730     6.0870     6.3320     2.1310 
   94.6250    94.6220    -0.3530     0.2500   -38.1900    79.4220     5.0050     5.9680     6.2420     2.1450 
   94.7500    94.7470    -0.3550     0.2500   -37.9350    77.9420     4.9740     5.9030     6.1410     2.1540 
   94.8750    94.8720    -0.3560     0.2500   -37.8960    75.3250     5.0030     5.9190     5.9390     2.1520 
   95.0000    94.9970    -0.3580     0.2500   -38.1030    73.5370     5.0940     6.0200     5.7400     2.1390 
   95.1250    95.1220    -0.3600     0.2500   -38.5980    73.5060     5.2060     6.1430     5.6670     2.1260 
   95.2500    95.2470    -0.3610     0.2500   -39.2000    73.2850     5.3060     6.2420     5.8220     2.1170 
   95.3750    95.3720    -0.3630     0.2500   -39.6910    72.2990     5.3530     6.2720     6.0710     2.1210 
   95.5000    95.4970    -0.3640     0.2500   -39.8890    70.3820     5.3310     6.2220     6.0690     2.1300 
   95.6250    95.6220    -0.3660     0.2500   -39.7990    69.2490     5.2690     6.1440     5.8210     2.1390 
   95.7500    95.7470    -0.3680     0.2500   -39.5780    69.0360     5.2060     6.0790     5.5880     2.1410 
   95.8750    95.8720    -0.3690     0.2500   -39.3440    69.4870     5.1500     6.0490     5.5480     2.1410 
   96.0000    95.9970    -0.3710     0.2500   -39.0910    70.7720     5.1070     6.0400     5.6000     2.1400 
   96.1250    96.1220    -0.3720     0.2500   -38.8200    70.7230     5.0530     6.0090     5.6130     2.1400 
   96.2500    96.2470    -0.3740     0.2500   -38.5080    69.2420     4.9620     5.9030     5.6650     2.1390 
   96.3750    96.3720    -0.3760     0.2500   -38.0410    67.4090     4.8450     5.7460     5.7060     2.1460 
   96.5000    96.4970    -0.3770     0.2500   -37.3350    68.0250     4.7280     5.5770     5.5830     2.1530 
   96.6250    96.6220    -0.3790     0.2500   -36.3730    70.0520     4.6250     5.4140     5.6440     2.1530 
   96.7500    96.7470    -0.3800     0.2500   -35.1230    71.7420     4.6730     5.4680     5.8770     2.1430 
   96.8750    96.8720    -0.3820     0.2500   -33.6610    71.1510     5.1760     6.1400     5.9590     2.1490 
   97.0000    96.9970    -0.3830     0.2490   -32.0710    69.6440     6.1370     7.4160     9.0280     2.2070 
   97.1250    97.1220    -0.3850     0.2490   -30.1090    68.7940     7.0090     8.5830    26.2580     2.3280 
   97.2500    97.2470    -0.3870     0.2490   -27.4570    69.0230     7.4850     9.2110    43.7040     2.4420 
   97.3750    97.3720    -0.3880     0.2490   -23.7470    72.0910     7.1460     8.6920    32.2750     2.4650 
   97.5000    97.4970    -0.3900     0.2490   -19.3460    76.1370     6.2040     7.3890    10.8540     2.3960 
   97.6250    97.6220    -0.3910     0.2490   -15.0720    82.2370     5.1030     5.9340     3.9630     2.3070 
   97.7500    97.7470    -0.3930     0.2480   -11.8960    86.3030     4.1780     4.8040     3.8120     2.2620 
   97.8750    97.8720    -0.3940     0.2480   -10.0450    89.9020     3.6200     4.2250     3.8000     2.2650 
   98.0000    97.9970    -0.3960     0.2480    -8.8810    93.4980     3.4880     4.1540     3.7240     2.2870 
   98.1250    98.1220    -0.3970     0.2480    -8.0500    98.0220     3.5670     4.2710     3.6520     2.3000 
   98.2500    98.2470    -0.3990     0.2470    -7.4020   100.0260     3.6660     4.3730     3.6330     2.3000 
   98.3750    98.3720    -0.4010     0.2470    -7.0900    98.6500     3.8070     4.5310     3.6580     2.2920 
   98.5000    98.4970    -0.4020     0.2470    -7.1680    95.3860     3.9800     4.7400     3.7930     2.2870 
   98.6250    98.6220    -0.4040     0.2460    -7.4680    93.1640     4.1410     4.9260     4.0140     2.2750 
   98.7500    98.7470    -0.4050     0.2460    -7.7990    91.3100     4.2460     5.0240     4.1430     2.2510 
   98.8750    98.8720    -0.4070     0.2460    -8.1350    90.0990     4.2680     5.0110     4.0810     2.2250 
   99.0000    98.9970    -0.4080     0.2450    -8.3790    89.0810     4.2200     4.9120     3.9800     2.2140 
   99.1250    99.1210    -0.4100     0.2450    -8.4520    89.7490     4.1140     4.7580     4.0220     2.2250 
   99.2500    99.2460    -0.4110     0.2440    -8.4110    91.4260     4.0480     4.6940     4.0860     2.2370 
   99.3750    99.3710    -0.4130     0.2440    -8.4070    93.2720     4.0960     4.8080     4.0350     2.2370 
