~V
VERS. 2.00: Ver 2.00
~W
STRT.M 65.0000:
STOP.M 248.0000:
STEP.M 0.1250:
NULL. -999.2500:
UWI. FD10900:
~C
DEPT.M :
TVD. :
DX. :
DY. :
SP.MV :
GR.API :
RI. :
RML.OHMM :
RXO.OHMM :
DEN.GM/CC :
~A
# ...
  183.6250   182.0390   -13.9720     9.4280   -17.7570    61.1360    12.1180    12.9050    16.5290     1.9750 
  183.7500   182.1600   -13.9970     9.4470   -17.5770    61.1370    11.0090    11.5740    15.1500     1.9780 
  183.8750   182.2810   -14.0220     9.4670   -17.4500    61.4100     9.5960     9.9450    14.5920     1.9860 
  184.0000   182.4020   -14.0470     9.4870   -17.3390    62.3050     8.3090     8.5150    14.2660     1.9970 
  184.1250   182.5230   -14.0720     9.5070   -17.2580    63.0220     7.4660     7.6170    12.1740     2.0050 
  184.2500   182.6430   -14.0970     9.5270   -17.1710    61.6380     7.2180     7.4010    10.3930     2.0060 
  184.3750   182.7640   -14.1220     9.5470   -17.1170    58.8570     7.5140     7.7870    11.9560     1.9940 
  184.5000   182.8850   -14.1470     9.5670   -17.1400    55.1640     8.2360     8.6150    14.7360     1.9700 
  184.6250   183.0060   -14.1720     9.5860   -17.1560    53.3980     9.0810     9.5190    14.4720     1.9440 
  184.7500   183.1270   -14.1970     9.6060   -17.1610    53.4930     9.6880    10.0990    10.6050     1.9270 
  184.8750   183.2480   -14.2220     9.6260   -17.1980    55.5930     9.8590    10.1770     6.5200     1.9220 
  185.0000   183.3690   -14.2470     9.6460   -17.2540    57.5400     9.6210     9.8300     4.6850     1.9200 
  185.1250   183.4900   -14.2720     9.6660   -17.3210    58.8840     9.2300     9.3670     4.5900     1.9160 
  185.2500   183.6100   -14.2970     9.6860   -17.4610    59.5030     8.9560     9.0770     5.5270     1.9180 
  185.3750   183.7310   -14.3220     9.7060   -17.6140    59.4020     8.9250     9.0740     8.1590     1.9410 
  185.5000   183.8520   -14.3470     9.7250   -17.7710    59.5450     9.1220     9.3220    11.9630     1.9860 
  185.6250   183.9730   -14.3720     9.7450   -17.8800    60.7770     9.3950     9.6430    13.8690     2.0310 
  185.7500   184.0940   -14.3970     9.7650   -17.9080    61.9340     9.6160     9.8890    15.3200     2.0580 
  185.8750   184.2150   -14.4220     9.7850   -17.8370    62.7490     9.7570    10.0320    20.9730     2.0720 
  186.0000   184.3360   -14.4470     9.8050   -17.7050    62.6970     9.8730    10.1340    26.6240     2.0900 
  186.1250   184.4560   -14.4720     9.8250   -17.5570    63.9100    10.0430    10.2930    29.5160     2.1240 
  186.2500   184.5770   -14.4970     9.8440   -17.4930    63.6760    10.3600    10.6180    46.0710     2.1780 
  186.3750   184.6980   -14.5220     9.8640   -17.4770    63.4680    10.8620    11.1330    72.1230     2.2380 
  186.5000   184.8190   -14.5470     9.8840   -17.5710    63.0650    11.4680    11.7210    70.8670     2.2830 
  186.6250   184.9400   -14.5720     9.9040   -17.7160    63.5360    11.9760    12.1740    43.2730     2.3000 
  186.7500   185.0610   -14.5970     9.9240   -17.7980    63.0350    12.2590    12.3990    22.1740     2.2940 
  186.8750   185.1810   -14.6220     9.9440   -17.8360    62.2580    12.2770    12.3930    15.5930     2.2920 
  187.0000   185.3020   -14.6470     9.9630   -17.7960    62.6830    11.9110    12.0430    15.0630     2.3040 
  187.1250   185.4230   -14.6720     9.9830   -17.7350    64.8380    11.1290    11.2770    15.9730     2.3110 
  187.2500   185.5440   -14.6970    10.0030   -17.7390    67.1380     9.8770    10.0030    16.4300     2.2940 
  187.3750   185.6650   -14.7220    10.0230   -17.7670    68.6070     8.3280     8.4020    15.3840     2.2640 
  187.5000   185.7860   -14.7480    10.0420   -17.8460    69.6260     6.8270     6.8480    12.6480     2.2460 
  187.6250   185.9070   -14.7730    10.0620   -17.9140    72.0460     5.6300     5.6240     9.3200     2.2500 
  187.7500   186.0270   -14.7980    10.0820   -18.0080    75.4970     4.8890     4.9030     7.5150     2.2640 
  187.8750   186.1480   -14.8230    10.1020   -18.0990    78.3610     4.6190     4.6990     8.1350     2.2760 
  188.0000   186.2690   -14.8480    10.1220   -18.1810    78.6350     4.7900     4.9560    10.0960     2.2790 
  188.1250   186.3900   -14.8730    10.1420   -18.2590    77.2170     5.2580     5.4980    11.4600     2.2750 
  188.2500   186.5110   -14.8980    10.1620   -18.3060    74.9280     5.9850     6.2740    11.6250     2.2670 
  188.3750   186.6320   -14.9220    10.1820   -18.3960    73.2090     6.9190     7.2480    11.9620     2.2570 
  188.5000   186.7530   -14.9470    10.2020   -18.5090    71.4280     8.0420     8.4040    13.5050     2.2450 
  188.6250   186.8730   -14.9720    10.2220   -18.5700    69.5790     9.2180     9.5910    15.2340     2.2320 
  188.7500   186.9940   -14.9970    10.2420   -18.5730    69.0520    10.2040    10.5390    16.4210     2.2180 
  188.8750   187.1150   -15.0220    10.2620   -18.5240    70.6510    10.8290    11.0860    17.0660     2.2080 
  189.0000   187.2360   -15.0470    10.2820   -18.4330    72.3590    11.0230    11.1960    16.4010     2.2190 
  189.1250   187.3570   -15.0720    10.3020   -18.2750    72.3440    10.9070    11.0250    15.0460     2.2600 
  189.2500   187.4780   -15.0970    10.3210   -18.0910    70.1270    10.6390    10.7570    15.0780     2.3250 
  189.3750   187.5980   -15.1220    10.3410   -17.9200    67.2380    10.3710    10.5450    16.3510     2.3840 
  189.5000   187.7190   -15.1470    10.3610   -17.7550    64.6400    10.1680    10.4330    17.0170     2.4100 
  189.6250   187.8400   -15.1720    10.3810   -17.6060    62.7910     9.9920    10.3380    16.8880     2.3980 
  189.7500   187.9610   -15.1970    10.4010   -17.4420    61.8520     9.7420    10.1240    16.8240     2.3570 
  189.8750   188.0820   -15.2220    10.4210   -17.3220    61.1180     9.3670     9.7320    16.6560     2.3060 
  190.0000   188.2030   -15.2470    10.4410   -17.2640    62.8280     8.8910     9.2050    15.5690     2.2600 
  190.1250   188.3230   -15.2720    10.4610   -17.2860    65.3510     8.4580     8.7320    14.2230     2.2330 
  190.2500   188.4440   -15.2980    10.4810   -17.3570    68.3550     8.1940     8.4520    13.7120     2.2280 
  190.3750   188.5650   -15.3230    10.5010   -17.3350    68.9380     8.0700     8.3230    13.4130     2.2390 
  190.5000   188.6860   -15.3480    10.5210   -17.2680    68.0920     8.0040     8.2430    13.0960     2.2560 
  190.6250   188.8070   -15.3730    10.5410   -17.2210    66.9200     7.9090     8.1120    12.9820     2.2780 
  190.7500   188.9270   -15.3980    10.5610   -17.1460    65.5740     7.7410     7.8980    12.2320     2.3000 
  190.8750   189.0480   -15.4230    10.5820   -17.0730    64.9640     7.5470     7.6720    11.2060     2.3170 
  191.0000   189.1690   -15.4480    10.6020   -16.9940    65.5080     7.4280     7.5520    11.1550     2.3140 
  191.1250   189.2900   -15.4720    10.6220   -16.9090    68.7890     7.4380     7.5920    12.7370     2.2940 
  191.2500   189.4110   -15.4970    10.6420   -16.8230    70.4100     7.5600     7.7590    17.0190     2.2760 
  191.3750   189.5310   -15.5220    10.6630   -16.7510    70.0810     7.6720     7.9020    21.4460     2.2790 
  191.5000   189.6520   -15.5470    10.6830   -16.6560    67.5590     7.6440     7.8730    20.5690     2.2990 
  191.6250   189.7730   -15.5720    10.7030   -16.5280    66.5790     7.4640     7.6580    15.3780     2.3180 
  191.7500   189.8940   -15.5970    10.7230   -16.3240    67.4510     7.2050     7.3450    10.9700     2.3290 
  191.8750   190.0150   -15.6220    10.7440   -16.0650    69.1470     7.0030     7.1000     9.1210     2.3450 
  192.0000   190.1350   -15.6470    10.7640   -15.8450    70.4740     6.9900     7.0720     9.4130     2.3670 
  192.1250   190.2560   -15.6720    10.7840   -15.6970    70.3030     7.2410     7.3350    10.9980     2.3760 
  192.2500   190.3770   -15.6970    10.8050   -15.6350    69.5370     7.8180     7.9460    12.9890     2.3420 
  192.3750   190.4980   -15.7220    10.8250   -15.6030    69.8460     8.6530     8.8250    19.4750     2.2690 
  192.5000   190.6190   -15.7470    10.8450   -15.5580    68.7970     9.6660     9.8820    41.4310     2.1710 
  192.6250   190.7390   -15.7720    10.8650   -15.5130    66.0250    10.6530    10.9070    65.8390     2.0640 
