~V
VERS. 2.00: Ver 2.00
~W
STRT.M 62.0000:
STOP.M 282.0000:
STEP.M 0.1250:
NULL. -999.2500:
UWI. FD10887:
~C
DEPT.M :
TVD. :
DX. :
DY. :
SP.MV :
GR.API :
RI. :
RML.OHMM :
RXO.OHMM :
DEN.GM/CC :
~A
# ...
  171.5000   167.8330    -1.7450    23.8460   -12.1830    48.9790    10.6030    11.6500    11.7580     2.4200 
  171.6250   167.9450    -1.7440    23.9030   -12.1850    50.6960     9.7330    10.6520     8.9750     2.4230 
  171.7500   168.0560    -1.7440    23.9590   -12.1750    53.0740     9.1670    10.0220     7.6960     2.4210 
  171.8750   168.1670    -1.7430    24.0160   -12.1810    55.4020     8.9290     9.8370     8.3300     2.4120 
  172.0000   168.2790    -1.7420    24.0730   -12.2360    57.4540     8.9040     9.8940     8.4550     2.3990 
  172.1250   168.3900    -1.7410    24.1300   -12.3700    58.6540     9.0350    10.0490     7.5640     2.3880 
  172.2500   168.5010    -1.7400    24.1870   -12.5780    58.6750     9.1400    10.1330     6.8410     2.3830 
  172.3750   168.6130    -1.7390    24.2430   -12.8400    57.9880     9.2680    10.1200     7.3700     2.3880 
  172.5000   168.7240    -1.7380    24.3000   -13.1150    58.0870     9.3540    10.0860     8.6370     2.4010 
  172.6250   168.8350    -1.7370    24.3570   -13.3820    58.1630     9.4190    10.1430     8.9310     2.4160 
  172.7500   168.9460    -1.7350    24.4140   -13.6330    57.3210     9.6130    10.4110     8.5250     2.4300 
  172.8750   169.0580    -1.7340    24.4710   -13.8770    54.9570     9.9740    10.9510     8.5610     2.4380 
  173.0000   169.1690    -1.7320    24.5280   -14.1300    52.7890    10.6480    11.8390     8.8120     2.4440 
  173.1250   169.2800    -1.7300    24.5850   -14.4310    51.9690    11.5690    12.9730     9.3530     2.4480 
  173.2500   169.3910    -1.7290    24.6420   -14.8220    52.9820    12.4570    14.0730    10.2840     2.4480 
  173.3750   169.5030    -1.7280    24.6990   -15.3500    54.0200    13.1150    14.8620    11.1140     2.4460 
  173.5000   169.6140    -1.7270    24.7560   -16.0030    52.8960    13.3470    15.0770    11.6710     2.4450 
  173.6250   169.7250    -1.7260    24.8130   -16.7310    49.7310    13.1650    14.7660    11.6300     2.4490 
  173.7500   169.8360    -1.7250    24.8700   -17.4470    48.0260    12.8230    14.2880    10.4660     2.4570 
  173.8750   169.9480    -1.7240    24.9270   -18.0880    49.4750    12.5470    13.9600    10.2360     2.4600 
  174.0000   170.0590    -1.7230    24.9840   -18.6460    52.2300    12.5810    14.0310    12.2550     2.4560 
  174.1250   170.1700    -1.7220    25.0420   -19.1390    54.3250    12.9350    14.4800    13.6920     2.4450 
  174.2500   170.2810    -1.7210    25.0990   -19.5930    54.6240    13.5700    15.2120    13.7250     2.4340 
  174.3750   170.3920    -1.7200    25.1560   -20.0100    53.2710    14.2160    15.9380    13.8620     2.4260 
  174.5000   170.5040    -1.7190    25.2130   -20.3900    51.4580    14.4780    16.1900    14.2270     2.4200 
  174.6250   170.6150    -1.7180    25.2700   -20.7220    51.2360    14.2600    15.9100    14.6070     2.4140 
  174.7500   170.7260    -1.7170    25.3270   -21.0080    51.9200    13.5590    15.0720    14.4750     2.4070 
  174.8750   170.8370    -1.7150    25.3840   -21.2320    52.2520    12.5040    13.8270    13.6310     2.4020 
  175.0000   170.9480    -1.7140    25.4410   -21.3800    52.5290    11.4470    12.6050    12.5860     2.4050 
  175.1250   171.0590    -1.7130    25.4980   -21.4380    53.3810    10.5700    11.6300    11.2320     2.4140 
  175.2500   171.1710    -1.7120    25.5560   -21.4230    53.5230    10.2140    11.2850     9.8530     2.4240 
  175.3750   171.2820    -1.7110    25.6130   -21.3630    52.9420    10.5130    11.7370     9.0090     2.4300 
  175.5000   171.3930    -1.7100    25.6700   -21.2940    52.3730    11.3150    12.7600     9.1210     2.4320 
  175.6250   171.5040    -1.7090    25.7270   -21.2400    51.8630    12.3590    14.0190     9.6420     2.4350 
  175.7500   171.6150    -1.7080    25.7850   -21.2160    50.1450    13.2760    15.0460     8.9750     2.4420 
  175.8750   171.7260    -1.7070    25.8420   -21.2360    48.0280    13.6230    15.2920     7.7210     2.4440 
  176.0000   171.8370    -1.7060    25.9000   -21.2890    47.1820    13.4510    14.8240     7.4840     2.4360 
  176.1250   171.9480    -1.7050    25.9570   -21.3380    47.1350    12.9720    13.7990     7.7710     2.4220 
  176.2500   172.0590    -1.7040    26.0140   -21.3230    47.3400    12.3530    12.7530     7.6750     2.4090 
  176.3750   172.1700    -1.7030    26.0720   -21.1800    48.6370    11.6790    12.0410     7.7390     2.4060 
  176.5000   172.2810    -1.7020    26.1290   -20.8930    51.1380    11.1390    11.6540     8.3840     2.4070 
  176.6250   172.3920    -1.7010    26.1870   -20.4740    53.6370    10.7160    11.5320     8.6190     2.4070 
  176.7500   172.5030    -1.7010    26.2440   -19.9890    54.6370    10.6130    11.5450     8.0950     2.4040 
  176.8750   172.6140    -1.7000    26.3020   -19.5110    55.0650    10.6020    11.5040     7.8580     2.4000 
  177.0000   172.7250    -1.7000    26.3600   -19.1140    54.7840    10.4100    11.2700     7.9020     2.3990 
  177.1250   172.8360    -1.6990    26.4170   -18.8830    52.9780    10.0230    10.8480     8.0860     2.4020 
  177.2500   172.9470    -1.6990    26.4750   -18.8520    51.5890     9.5080    10.2870     8.2860     2.4090 
  177.3750   173.0580    -1.6980    26.5330   -19.0390    51.7980     9.0380     9.7300     8.2160     2.4160 
  177.5000   173.1680    -1.6980    26.5900   -19.3750    53.2990     8.6790     9.3070     8.2340     2.4200 
  177.6250   173.2790    -1.6980    26.6480   -19.7790    54.0050     8.4990     9.1130     8.2500     2.4210 
  177.7500   173.3900    -1.6970    26.7060   -20.1600    53.9400     8.5400     9.1710     8.5550     2.4210 
  177.8750   173.5010    -1.6970    26.7640   -20.4630    52.0690     8.7690     9.4250     8.5250     2.4240 
  178.0000   173.6110    -1.6970    26.8220   -20.6900    48.8360     9.0580     9.7540     7.9850     2.4290 
  178.1250   173.7220    -1.6960    26.8800   -20.8540    46.5780     9.3470    10.0420     8.2950     2.4330 
  178.2500   173.8330    -1.6960    26.9380   -20.9680    47.8890     9.5360    10.2240     9.2310     2.4320 
  178.3750   173.9430    -1.6960    26.9960   -21.0170    51.4780     9.6530    10.3170    10.1660     2.4280 
  178.5000   174.0540    -1.6960    27.0550   -21.0070    53.4640     9.7710    10.4160    10.9930     2.4270 
  178.6250   174.1650    -1.6950    27.1130   -20.9600    52.2740     9.9380    10.6050    11.5560     2.4300 
  178.7500   174.2750    -1.6950    27.1710   -20.9250    51.1950    10.2470    10.9480    12.0780     2.4310 
  178.8750   174.3860    -1.6950    27.2300   -20.9450    50.9120    10.6510    11.3960    35.9570     2.4270 
  179.0000   174.4960    -1.6950    27.2880   -21.0390    50.2560    11.0620    11.8580   150.3630     2.4200 
  179.1250   174.6070    -1.6940    27.3460   -21.2070    48.4940    11.4050    12.2560   224.7900     2.4140 
  179.2500   174.7180    -1.6940    27.4040   -21.4220    47.1100    11.6250    12.5400   125.9570     2.4130 
  179.3750   174.8280    -1.6940    27.4630   -21.6490    48.1080    11.7640    12.7340    39.0610     2.4180 
  179.5000   174.9390    -1.6930    27.5210   -21.8420    50.8970    11.8430    12.8700    30.0660     2.4260 
  179.6250   175.0490    -1.6930    27.5800   -21.9540    53.2960    11.8560    12.9030    23.6690     2.4350 
  179.7500   175.1600    -1.6930    27.6380   -21.9770    54.2310    11.7330    12.7710    17.8710     2.4400 
  179.8750   175.2700    -1.6920    27.6960   -21.9340    53.6860    11.4930    12.4960    13.8370     2.4410 
  180.0000   175.3810    -1.6920    27.7550   -21.8770    52.4190    11.1690    12.1230    15.9940     2.4390 
  180.1250   175.4910    -1.6910    27.8130   -21.8500    50.9130    10.8860    11.8050    16.9760     2.4320 
  180.2500   175.6020    -1.6910    27.8710   -21.8530    50.7890    10.7400    11.6460    12.9290     2.4250 
  180.3750   175.7120    -1.6900    27.9300   -21.8600    51.2280    10.8540    11.7850    11.9560     2.4240 
  180.5000   175.8230    -1.6900    27.9880   -21.8420    50.0930    11.1820    12.1490    20.6270     2.4300 
