~V
VERS. 2.00: Ver 2.00
~W
STRT.M 25.0000:
STOP.M 295.0000:
STEP.M 0.1250:
NULL. -999.2500:
UWI. FD10906:
~C
DEPT.M :
TVD. :
DX. :
DY. :
SP.MV :
GR.API :
RI. :
RML.OHMM :
RXO.OHMM :
DEN.GM/CC :
~A
# ...
  134.5000   128.4690   -30.1540     4.5160   -21.1720    62.7830     9.2430    11.1750    11.9950     2.3910 
  134.6250   128.5740   -30.2220     4.5100   -21.4510    65.6860     9.0790    11.0110    11.0230     2.3970 
  134.7500   128.6780   -30.2900     4.5040   -21.6840    68.6360     8.7240    10.6050    10.0980     2.3300 
  134.8750   128.7830   -30.3580     4.4990   -21.9050    69.4780     8.3050    10.0840     9.3440     2.2350 
  135.0000   128.8870   -30.4270     4.4930   -22.1420    66.5400     7.9540     9.6460     8.8840     2.1620 
  135.1250   128.9920   -30.4950     4.4870   -22.4040    63.2190     7.7440     9.4180     8.8350     2.1290 
  135.2500   129.0960   -30.5630     4.4810   -22.6720    60.3990     7.6800     9.3910     9.0250     2.1230 
  135.3750   129.2010   -30.6320     4.4750   -22.9070    59.8730     7.6980     9.4450     9.2340     2.1250 
  135.5000   129.3050   -30.7000     4.4690   -23.0780    59.2710     7.7600     9.5150     9.2950     2.1250 
  135.6250   129.4100   -30.7680     4.4630   -23.1870    59.1450     7.8520     9.6050     9.1170     2.1250 
  135.7500   129.5140   -30.8370     4.4580   -23.2470    59.6210     7.9700     9.7690     8.9630     2.1280 
  135.8750   129.6190   -30.9060     4.4520   -23.2770    61.5760     8.0960     9.9950     9.0400     2.1320 
  136.0000   129.7230   -30.9740     4.4460   -23.2770    64.0850     8.2000    10.1810     9.2860     2.1330 
  136.1250   129.8270   -31.0430     4.4410   -23.2530    65.6020     8.2500    10.2150     9.6000     2.1340 
  136.2500   129.9320   -31.1110     4.4350   -23.2130    66.8420     8.2110    10.0630     9.8130     2.1350 
  136.3750   130.0360   -31.1800     4.4290   -23.1770    67.1980     8.0850     9.8550     9.7430     2.1370 
  136.5000   130.1400   -31.2490     4.4230   -23.1570    67.1000     7.8920     9.7290     9.3800     2.1400 
  136.6250   130.2440   -31.3170     4.4170   -23.1550    65.6960     7.6730     9.6320     8.9700     2.1430 
  136.7500   130.3480   -31.3860     4.4110   -23.1670    66.3250     7.4570     9.4230     8.6430     2.1430 
  136.8750   130.4530   -31.4550     4.4050   -23.1780    68.6420     7.2670     9.1200     8.3700     2.1360 
  137.0000   130.5570   -31.5240     4.3990   -23.1870    71.2670     7.1270     8.8550     8.1800     2.1240 
  137.1250   130.6610   -31.5930     4.3930   -23.2020    70.2310     7.0580     8.7430     8.1040     2.1130 
  137.2500   130.7650   -31.6620     4.3860   -23.2400    68.6920     7.0770     8.7800     8.1710     2.1100 
  137.3750   130.8690   -31.7310     4.3800   -23.3140    68.5520     7.1670     8.8500     8.3060     2.1140 
  137.5000   130.9730   -31.8000     4.3740   -23.4230    69.8190     7.3070     8.9170     8.4080     2.1220 
  137.6250   131.0770   -31.8690     4.3680   -23.5540    70.5500     7.4710     9.0240     8.5720     2.1280 
  137.7500   131.1810   -31.9380     4.3620   -23.6990    69.9000     7.6350     9.1780     8.9570     2.1280 
  137.8750   131.2850   -32.0070     4.3550   -23.8490    69.8240     7.7830     9.3290     9.4790     2.1220 
  138.0000   131.3890   -32.0760     4.3490   -23.9900    69.5850     7.8990     9.4430     9.8290     2.1160 
  138.1250   131.4930   -32.1450     4.3440   -24.1080    68.0610     7.9850     9.5310     9.7890     2.1110 
  138.2500   131.5970   -32.2150     4.3380   -24.1950    65.7840     8.0460     9.6150     9.5320     2.1090 
  138.3750   131.7010   -32.2840     4.3330   -24.2650    63.5870     8.0890     9.7100     9.3900     2.1120 
  138.5000   131.8050   -32.3530     4.3270   -24.3380    63.5750     8.1170     9.8190     9.4690     2.1230 
  138.6250   131.9090   -32.4230     4.3220   -24.4160    62.9730     8.1370     9.9360     9.6650     2.1380 
  138.7500   132.0120   -32.4920     4.3160   -24.4800    63.5950     8.1620    10.0550     9.7720     2.1520 
  138.8750   132.1160   -32.5610     4.3110   -24.5000    64.7670     8.1980    10.1670     9.6890     2.1580 
  139.0000   132.2200   -32.6310     4.3050   -24.4550    66.9640     8.2390    10.2560     9.7480     2.1560 
  139.1250   132.3240   -32.7000     4.3000   -24.3540    68.2190     8.2610    10.3000    10.4570     2.1520 
  139.2500   132.4270   -32.7700     4.2950   -24.2200    67.4460     8.2430    10.2750    11.3500     2.1530 
  139.3750   132.5310   -32.8390     4.2890   -24.0740    67.2730     8.1820    10.1810    11.2310     2.1560 
  139.5000   132.6350   -32.9090     4.2840   -23.9230    67.5240     8.0830    10.0290    10.1850     2.1570 
  139.6250   132.7390   -32.9790     4.2790   -23.7710    67.5540     7.9730     9.8650     9.4240     2.1540 
  139.7500   132.8420   -33.0480     4.2740   -23.6340    66.8600     7.8840     9.7420     9.3380     2.1500 
  139.8750   132.9460   -33.1180     4.2690   -23.5370    64.6920     7.8390     9.6850     9.5130     2.1430 
  140.0000   133.0490   -33.1880     4.2640   -23.4980    63.4290     7.8450     9.7000     9.7000     2.1370 
  140.1250   133.1530   -33.2570     4.2590   -23.5120    63.2880     7.8800     9.7610    10.0670     2.1310 
  140.2500   133.2570   -33.3270     4.2540   -23.5600    64.7170     7.9150     9.8310    10.7920     2.1270 
  140.3750   133.3600   -33.3970     4.2480   -23.6180    65.9940     7.9240     9.8720    11.1740     2.1240 
  140.5000   133.4640   -33.4670     4.2430   -23.6710    66.0080     7.8920     9.8540    10.5730     2.1230 
  140.6250   133.5670   -33.5370     4.2380   -23.7170    65.5200     7.8280     9.7850     9.8290     2.1240 
  140.7500   133.6710   -33.6060     4.2320   -23.7640    64.2500     7.7520     9.6930     9.7410     2.1270 
  140.8750   133.7740   -33.6760     4.2270   -23.8280    62.9180     7.6850     9.6060     9.9470     2.1290 
  141.0000   133.8780   -33.7460     4.2220   -23.9150    61.6950     7.6370     9.5340    10.0400     2.1300 
  141.1250   133.9810   -33.8160     4.2170   -24.0130    61.1800     7.6060     9.4740    10.0530     2.1310 
  141.2500   134.0850   -33.8860     4.2120   -24.1010    60.9760     7.5920     9.4260     9.9420     2.1330 
  141.3750   134.1880   -33.9560     4.2070   -24.1540    60.4700     7.5920     9.3940     9.5830     2.1370 
  141.5000   134.2920   -34.0260     4.2010   -24.1530    60.8370     7.6070     9.3830     9.1510     2.1410 
  141.6250   134.3950   -34.0960     4.1960   -24.0890    62.4760     7.6300     9.3930     9.0200     2.1460 
  141.7500   134.4990   -34.1660     4.1910   -23.9570    63.6640     7.6520     9.4090     9.2000     2.1510 
  141.8750   134.6020   -34.2360     4.1850   -23.7640    63.2140     7.6390     9.3850     9.2330     2.1540 
  142.0000   134.7060   -34.3060     4.1790   -23.5070    61.1200     7.5380     9.2440     8.9830     2.1510 
  142.1250   134.8090   -34.3760     4.1730   -23.1930    60.5200     7.3190     8.9460     8.7490     2.1440 
  142.2500   134.9120   -34.4460     4.1680   -22.8090    61.7010     6.9830     8.5080     8.5440     2.1410 
  142.3750   135.0160   -34.5160     4.1620   -22.3440    63.7230     6.5910     8.0210     8.2670     2.1500 
  142.5000   135.1190   -34.5860     4.1560   -21.7830    67.0740     6.2060     7.5710     7.9440     2.1690 
  142.6250   135.2220   -34.6560     4.1510   -21.1410    71.0520     5.8710     7.2000     7.3210     2.1890 
  142.7500   135.3260   -34.7260     4.1450   -20.4420    74.7550     5.6180     6.9340     6.5890     2.2010 
  142.8750   135.4290   -34.7970     4.1390   -19.7440    76.8380     5.4720     6.7930     6.3480     2.2090 
  143.0000   135.5320   -34.8670     4.1330   -19.1240    79.3000     5.4740     6.8340     6.3750     2.2200 
  143.1250   135.6350   -34.9370     4.1280   -18.6490    82.2220     5.6320     7.0700     6.3190     2.2330 
  143.2500   135.7390   -35.0070     4.1220   -18.3860    82.5260     5.9530     7.5050     6.4450     2.2360 
  143.3750   135.8420   -35.0780     4.1170   -18.3350    78.6550     6.4000     8.0940     7.0320     2.2210 
  143.5000   135.9450   -35.1480     4.1110   -18.4990    73.4120     6.9360     8.7870     7.8840     2.1980 
