~V
VERS. 2.00: Ver 2.00
~W
STRT.M 30.0000:
STOP.M 262.0000:
STEP.M 0.1250:
NULL. -999.2500:
UWI. FD10852:
~C
DEPT.M :
TVD. :
DX. :
DY. :
SP.MV :
GR.API :
RI. :
RML.OHMM :
RXO.OHMM :
DEN.GM/CC :
~A
# ...
  130.3750   125.6410   -26.2020    -2.1460    -1.1840    66.5740    29.7910    36.3840    27.5100     2.0820 
  130.5000   125.7480   -26.2660    -2.1500    -1.0970    65.4830    28.4670    34.6930    33.5770     2.1080 
  130.6250   125.8550   -26.3300    -2.1540    -0.8990    67.3320    25.8860    31.3310    36.4330     2.1710 
  130.7500   125.9620   -26.3950    -2.1590    -0.8670    71.2380    22.8800    27.6190    28.2090     2.2520 
  130.8750   126.0690   -26.4590    -2.1630    -0.8930    73.2980    21.0560    25.5300    18.1620     2.2890 
  131.0000   126.1760   -26.5240    -2.1670    -0.9160    73.0690    20.2930    25.0140    15.5400     2.2380 
  131.1250   126.2830   -26.5880    -2.1710    -1.1020    73.3650    20.5390    25.7820    17.9330     2.1540 
  131.2500   126.3900   -26.6530    -2.1760    -1.5280    74.2490    20.6560    26.1880    21.9290     2.1130 
  131.3750   126.4960   -26.7180    -2.1800    -2.1070    73.9110    20.7560    26.4160    25.3920     2.1250 
  131.5000   126.6030   -26.7820    -2.1850    -2.7370    72.6840    20.2180    25.5740    29.9450     2.1510 
  131.6250   126.7100   -26.8470    -2.1890    -3.3480    71.7990    19.5130    24.6600    31.1390     2.1630 
  131.7500   126.8170   -26.9120    -2.1940    -3.9360    69.9770    18.9610    24.0110    28.8310     2.1670 
  131.8750   126.9240   -26.9770    -2.1980    -4.5440    66.5060    18.7530    23.8740    29.1130     2.1710 
  132.0000   127.0300   -27.0420    -2.2030    -5.1600    64.6240    18.7580    23.9390    26.4060     2.1770 
  132.1250   127.1370   -27.1070    -2.2070    -5.7860    67.0840    18.8420    24.0190    20.9460     2.1840 
  132.2500   127.2440   -27.1720    -2.2110    -6.4770    72.3450    18.8590    23.9590    16.5220     2.1810 
  132.3750   127.3500   -27.2370    -2.2160    -7.0890    74.9500    19.0280    24.1180    13.4380     2.1610 
  132.5000   127.4570   -27.3030    -2.2200    -7.2800    71.9810    19.4880    24.6960    13.2700     2.1330 
  132.6250   127.5630   -27.3680    -2.2240    -7.0240    67.0150    20.1080    25.4610    13.7850     2.1240 
  132.7500   127.6700   -27.4330    -2.2290    -6.4810    65.8420    20.6330    26.0530    14.3970     2.1380 
  132.8750   127.7760   -27.4990    -2.2330    -5.9460    68.3370    21.0490    26.5100    15.3710     2.1440 
  133.0000   127.8820   -27.5650    -2.2370    -5.8170    70.9980    21.3470    26.8620    16.0280     2.1330 
  133.1250   127.9880   -27.6300    -2.2420    -6.2210    71.2730    21.6360    27.2980    17.1110     2.1280 
  133.2500   128.0950   -27.6960    -2.2460    -6.9670    69.8230    21.8200    27.6250    19.0720     2.1410 
  133.3750   128.2010   -27.7620    -2.2500    -7.7620    68.9360    21.5700    27.3940    20.7420     2.1530 
  133.5000   128.3070   -27.8280    -2.2540    -8.3930    69.4460    20.9590    26.7010    21.1600     2.1420 
  133.6250   128.4130   -27.8940    -2.2580    -8.6890    71.6620    20.1910    25.7480    21.0550     2.1190 
  133.7500   128.5190   -27.9600    -2.2620    -8.6520    72.8850    19.3400    24.7170    20.8440     2.1080 
  133.8750   128.6250   -28.0260    -2.2660    -8.5060    71.3550    18.9620    24.3170    19.2870     2.1150 
  134.0000   128.7310   -28.0930    -2.2700    -8.3600    68.1570    19.2120    24.8150    17.8980     2.1330 
  134.1250   128.8370   -28.1590    -2.2730    -8.2620    65.7610    20.1270    26.2020    19.1840     2.1730 
  134.2500   128.9420   -28.2260    -2.2770    -8.3000    64.3620    21.4780    28.0850    22.1560     2.2650 
  134.3750   129.0480   -28.2920    -2.2810    -8.4160    62.9280    23.0000    30.1180    25.6440     2.3590 
  134.5000   129.1540   -28.3590    -2.2850    -8.5290    61.6460    24.1930    31.5730    26.8450     2.3540 
  134.6250   129.2590   -28.4260    -2.2890    -8.6630    59.9760    24.8470    32.2900    24.5450     2.2540 
  134.7500   129.3650   -28.4920    -2.2930    -8.7670    58.8620    25.0760    32.4560    22.7880     2.1560 
  134.8750   129.4700   -28.5590    -2.2960    -8.7940    60.3730    24.9100    32.1490    22.7460     2.1130 
  135.0000   129.5760   -28.6260    -2.3000    -8.7840    64.5440    24.8480    32.1030    22.9270     2.0960 
  135.1250   129.6810   -28.6930    -2.3040    -8.7600    67.9240    25.0890    32.5320    22.6700     2.0780 
  135.2500   129.7870   -28.7600    -2.3080    -8.7170    67.2250    25.5560    33.2940    21.6570     2.0710 
  135.3750   129.8920   -28.8280    -2.3120    -8.6740    65.2300    26.0530    34.0730    22.5630     2.0790 
  135.5000   129.9970   -28.8950    -2.3160    -8.6160    64.1010    26.3690    34.5550    25.6970     2.0870 
  135.6250   130.1030   -28.9620    -2.3200    -8.3650    63.2870    26.5500    34.8370    26.6100     2.0840 
  135.7500   130.2080   -29.0300    -2.3230    -7.7220    61.6600    26.6610    34.9680    25.2590     2.0810 
  135.8750   130.3130   -29.0970    -2.3270    -6.7670    60.9570    26.8590    35.2360    24.7020     2.0960 
  136.0000   130.4180   -29.1650    -2.3300    -5.7680    61.9580    27.4840    36.0900    24.8800     2.1100 
  136.1250   130.5230   -29.2320    -2.3340    -5.0450    62.0750    28.6490    37.6680    24.9800     2.1180 
  136.2500   130.6280   -29.3000    -2.3370    -4.8910    60.3810    30.2780    39.8670    25.7350     2.1230 
  136.3750   130.7330   -29.3670    -2.3410    -5.1720    58.4800    31.9530    42.0520    27.2390     2.1230 
  136.5000   130.8380   -29.4350    -2.3440    -5.6410    56.6830    33.1440    43.5240    29.0700     2.1120 
  136.6250   130.9430   -29.5030    -2.3480    -6.0470    56.5700    33.8890    44.4670    31.6310     2.0980 
  136.7500   131.0480   -29.5710    -2.3520    -6.0220    60.1480    34.2900    44.9770    33.9400     2.0950 
  136.8750   131.1530   -29.6390    -2.3550    -5.5530    64.2370    33.9940    44.5730    33.9780     2.0970 
  137.0000   131.2580   -29.7070    -2.3590    -5.0010    64.7080    32.7050    42.8960    31.0010     2.0990 
  137.1250   131.3630   -29.7750    -2.3630    -4.5760    63.7920    30.5360    40.0440    28.1700     2.1070 
  137.2500   131.4670   -29.8430    -2.3670    -4.2590    64.2330    27.6140    36.1930    32.1870     2.1340 
  137.3750   131.5720   -29.9110    -2.3710    -4.1140    65.0300    24.7960    32.5530    36.9760     2.1620 
  137.5000   131.6770   -29.9790    -2.3750    -4.2180    64.2100    22.6320    29.8380    31.7700     2.1760 
  137.6250   131.7810   -30.0480    -2.3790    -4.5270    62.4040    21.2380    28.2360    23.4850     2.1780 
  137.7500   131.8860   -30.1160    -2.3830    -4.9730    60.7400    20.9420    28.2060    18.9120     2.1770 
  137.8750   131.9910   -30.1840    -2.3870    -5.4540    59.7420    21.5370    29.3000    17.3680     2.1680 
  138.0000   132.0950   -30.2530    -2.3910    -5.8550    60.9920    22.2450    30.3870    19.0060     2.1520 
  138.1250   132.1990   -30.3210    -2.3950    -6.2230    62.2850    22.7100    30.9250    21.6000     2.1470 
  138.2500   132.3040   -30.3900    -2.3990    -6.6550    63.8620    22.6930    30.6710    22.6680     2.1610 
  138.3750   132.4080   -30.4590    -2.4020    -7.1570    65.5090    22.5270    30.1510    22.2480     2.1770 
  138.5000   132.5130   -30.5280    -2.4060    -7.7060    66.0380    22.5910    30.0370    21.0620     2.1800 
  138.6250   132.6170   -30.5960    -2.4090    -8.2530    64.9580    23.4630    31.2610    20.5220     2.1640 
  138.7500   132.7210   -30.6650    -2.4130    -8.6200    62.6020    25.4660    34.1890    22.5420     2.1420 
  138.8750   132.8250   -30.7340    -2.4160    -8.6440    60.6680    27.4540    37.1040    24.9450     2.1260 
  139.0000   132.9300   -30.8030    -2.4200    -8.2930    60.2310    28.1290    38.1390    25.7460     2.1170 
  139.1250   133.0340   -30.8720    -2.4230    -7.8610    62.2610    26.7720    36.2630    30.1180     2.1160 
  139.2500   133.1380   -30.9410    -2.4270    -7.6790    67.9000    23.1930    31.1650    40.1700     2.1270 
  139.3750   133.2420   -31.0100    -2.4300    -7.9830    71.9030    18.9560    25.2410    40.5360     2.1440 
