~V
VERS. 2.00: Ver 2.00
~W
STRT.M 27.0000:
STOP.M 267.0000:
STEP.M 0.1250:
NULL. -999.2500:
UWI. FD10204:
~C
DEPT.M :
TVD. :
DX. :
DY. :
GR.API :
RML.OHMM :
RI. :
RXO.OHMM :
CALI.CM :
SP.MV :
DEN.GM/CC :
~A
# ...
  134.2500   132.3220    -5.3220   -13.6680    53.9670    21.2560    21.0520    21.8900    21.9080   -39.3400     2.4970 
  134.3750   132.4380    -5.3350   -13.7120    55.4800    21.3900    21.2300    22.2770    22.0680   -39.4230     2.5420 
  134.5000   132.5540    -5.3480   -13.7560    56.1980    21.4870    21.3580    22.5030    22.1620   -39.4770     2.5770 
  134.6250   132.6700    -5.3610   -13.8010    55.0390    21.6180    21.4840    22.6330    22.1190   -39.5360     2.5830 
  134.7500   132.7860    -5.3740   -13.8450    53.2870    21.8360    21.6660    22.3550    21.9290   -39.6050     2.5610 
  134.8750   132.9020    -5.3870   -13.8890    53.3450    22.1530    21.9300    21.8920    21.6680   -39.6410     2.5180 
  135.0000   133.0190    -5.4010   -13.9340    54.0240    22.5250    22.2610    21.9680    21.4710   -39.6040     2.4680 
  135.1250   133.1350    -5.4140   -13.9780    52.1710    22.8600    22.5940    21.9350    21.4430   -39.5280     2.4320 
  135.2500   133.2510    -5.4270   -14.0220    50.0320    23.1010    22.8660    21.9480    21.5300   -39.4300     2.4200 
  135.3750   133.3670    -5.4400   -14.0660    50.8870    23.2450    23.0570    22.8900    21.6720   -39.3230     2.4330 
  135.5000   133.4830    -5.4530   -14.1110    53.9260    23.3320    23.1860    24.0180    21.8300   -39.2120     2.4650 
  135.6250   133.5990    -5.4660   -14.1550    56.3660    23.4310    23.3060    24.2030    21.8860   -39.0280     2.4990 
  135.7500   133.7150    -5.4790   -14.1990    56.6700    23.5990    23.4740    22.7860    21.7880   -38.8000     2.5180 
  135.8750   133.8320    -5.4920   -14.2440    53.8730    23.8440    23.7090    22.0090    21.5950   -38.6230     2.5110 
  136.0000   133.9480    -5.5050   -14.2880    49.7840    24.1310    23.9860    21.9860    21.4310   -38.5150     2.4860 
  136.1250   134.0640    -5.5180   -14.3320    48.3090    24.3650    24.2340    21.3720    21.3830   -38.3920     2.4610 
  136.2500   134.1800    -5.5310   -14.3770    48.3500    24.4500    24.3710    20.9460    21.3890   -38.2590     2.4610 
  136.3750   134.2960    -5.5450   -14.4210    48.3500    24.3170    24.3290    21.1360    21.4540   -38.1530     2.4930 
  136.5000   134.4120    -5.5580   -14.4650    48.6290    23.9530    24.0760    21.7980    21.6380   -38.0930     2.5480 
  136.6250   134.5280    -5.5710   -14.5100    50.4520    23.3960    23.6180    22.9260    21.9020   -38.1100     2.5890 
  136.7500   134.6450    -5.5840   -14.5540    51.7340    22.7850    23.0800    23.7950    22.0670   -38.1510     2.5920 
  136.8750   134.7610    -5.5970   -14.5980    51.4980    22.2220    22.5620    24.4030    22.0160   -38.2140     2.5560 
  137.0000   134.8770    -5.6100   -14.6430    51.3670    21.7940    22.1490    23.5330    21.7370   -38.3060     2.4960 
  137.1250   134.9920    -5.6240   -14.6890    52.1130    21.6170    21.9410    21.8390    21.3560   -38.3630     2.4380 
  137.2500   135.1080    -5.6380   -14.7340    53.0820    21.6730    21.9280    20.2470    21.0700   -38.4390     2.4030 
  137.3750   135.2230    -5.6520   -14.7800    53.4370    21.8720    22.0440    18.5390    20.9530   -38.5240     2.4040 
  137.5000   135.3390    -5.6660   -14.8260    51.6670    22.0590    22.1700    17.8380    20.9780   -38.5610     2.4370 
  137.6250   135.4540    -5.6800   -14.8720    49.5070    22.0490    22.1660    19.3000    21.1300   -38.5540     2.4840 
  137.7500   135.5700    -5.6940   -14.9170    48.9410    21.8370    22.0100    22.0940    21.2770   -38.5940     2.5220 
  137.8750   135.6850    -5.7080   -14.9630    49.3960    21.5270    21.7610    23.1090    21.2980   -38.6560     2.5440 
  138.0000   135.8010    -5.7220   -15.0090    50.8200    21.3130    21.5520    20.6490    21.2510   -38.6820     2.5530 
  138.1250   135.9160    -5.7350   -15.0550    52.4730    21.4510    21.5890    17.8050    21.3240   -38.6910     2.5490 
  138.2500   136.0320    -5.7490   -15.1010    53.3300    21.9570    21.9280    15.8640    21.4730   -38.6900     2.5350 
  138.3750   136.1470    -5.7630   -15.1460    51.1030    22.7260    22.5170    15.0720    21.5680   -38.6850     2.5170 
  138.5000   136.2620    -5.7770   -15.1920    47.1680    23.5170    23.1850    15.6430    21.6250   -38.6870     2.5030 
  138.6250   136.3780    -5.7910   -15.2380    44.9510    23.9180    23.5930    18.3200    21.7610   -38.6630     2.5100 
  138.7500   136.4930    -5.8050   -15.2840    45.6840    23.7410    23.5340    19.9770    21.9450   -38.5760     2.5390 
  138.8750   136.6090    -5.8190   -15.3290    48.9210    23.0240    22.9940    20.4860    22.1100   -38.4480     2.5780 
  139.0000   136.7240    -5.8330   -15.3750    53.0640    22.0090    22.1420    20.1910    22.2150   -38.3380     2.6010 
  139.1250   136.8400    -5.8470   -15.4210    55.1250    20.9910    21.2140    18.9390    22.2580   -38.2550     2.5880 
  139.2500   136.9550    -5.8610   -15.4670    55.0410    20.1210    20.3710    16.5970    22.2770   -38.1690     2.5510 
  139.3750   137.0710    -5.8750   -15.5120    52.8190    19.3910    19.6370    14.7300    22.2880   -38.1060     2.5070 
  139.5000   137.1860    -5.8890   -15.5580    48.9400    18.7400    18.9830    13.4030    22.2900   -38.0620     2.4700 
  139.6250   137.3020    -5.9030   -15.6040    46.5080    18.1210    18.3840    12.9810    22.3040   -38.0100     2.4480 
  139.7500   137.4170    -5.9170   -15.6500    48.4680    17.5610    17.8470    12.4740    22.3490   -37.9540     2.4350 
  139.8750   137.5330    -5.9300   -15.6950    52.5130    17.1640    17.4410    11.5680    22.4300   -37.9130     2.4310 
  140.0000   137.6480    -5.9440   -15.7410    54.5280    17.0410    17.2520    10.9340    22.5610   -37.8710     2.4410 
  140.1250   137.7640    -5.9580   -15.7870    52.6930    17.2850    17.3640    12.0130    22.7560   -37.8450     2.4720 
  140.2500   137.8790    -5.9720   -15.8330    51.0840    17.7520    17.6770    14.5430    22.9480   -37.8680     2.5110 
  140.3750   137.9950    -5.9860   -15.8780    50.8000    18.2670    18.0560    16.7390    23.0680   -37.9090     2.5410 
  140.5000   138.1100    -6.0000   -15.9240    50.5350    18.6310    18.3300    17.5060    23.1000   -37.9370     2.5490 
  140.6250   138.2260    -6.0140   -15.9700    48.0420    18.6610    18.3230    17.2500    23.1050   -37.9630     2.5410 
  140.7500   138.3410    -6.0280   -16.0160    45.9590    18.4390    18.0790    16.1360    23.0770   -38.0340     2.5320 
  140.8750   138.4570    -6.0420   -16.0620    47.1400    18.1020    17.7060    14.6480    23.0110   -38.1290     2.5290 
  141.0000   138.5720    -6.0560   -16.1070    49.7740    17.7920    17.3260    13.7500    22.9860   -38.2170     2.5330 
  141.1250   138.6880    -6.0700   -16.1530    48.3020    17.6430    17.0590    13.8300    23.0680   -38.2930     2.5420 
  141.2500   138.8030    -6.0840   -16.1990    44.6750    17.6550    16.9260    14.6010    23.1610   -38.3540     2.5500 
  141.3750   138.9190    -6.0980   -16.2450    42.7490    17.7590    16.8840    15.9270    23.1980   -38.4100     2.5550 
  141.5000   139.0340    -6.1120   -16.2900    44.1560    17.8420    16.8460    17.4100    23.2060   -38.4660     2.5590 
  141.6250   139.1500    -6.1260   -16.3360    46.4920    17.7790    16.7050    18.2250    23.2330   -38.5110     2.5620 
  141.7500   139.2650    -6.1390   -16.3820    48.5240    17.5590    16.4350    17.6220    23.2480   -38.5360     2.5630 
  141.8750   139.3810    -6.1530   -16.4280    50.5060    17.2210    16.0600    15.7820    23.2450   -38.5230     2.5630 
  142.0000   139.4960    -6.1670   -16.4730    51.7410    16.8140    15.6260    13.3960    23.2430   -38.4650     2.5600 
  142.1250   139.6120    -6.1810   -16.5190    52.5890    16.3590    15.1740    13.0170    23.2460   -38.3710     2.5490 
  142.2500   139.7270    -6.1950   -16.5650    52.9450    15.8840    14.7340    13.2600    23.2500   -38.2540     2.5320 
  142.3750   139.8420    -6.2090   -16.6110    52.1190    15.4370    14.3460    13.4920    23.2510   -38.1130     2.5130 
