~V
VERS. 2.00: Ver 2.00
~W
STRT.M 12.0000:
STOP.M 226.0000:
STEP.M 0.1250:
NULL. -999.2500:
UWI. FD10605:
~C
DEPT.M :
TVD. :
DX. :
DY. :
GR.API :
RML.OHMM :
RI. :
RXO.OHMM :
CALI.CM :
DEN.GM/CC :
SP.MV :
~A
# ...
  218.2500   199.6990    67.0790    29.8800    55.1160     8.2770     7.3240     8.4840    20.3860     2.0940   -25.8860 
  218.3750   199.8010    67.1460    29.9050    55.1160     8.0390     7.1460     7.9250    20.5510     2.0790   -25.2180 
  218.5000   199.9040    67.2130    29.9300    55.1160     7.7140     6.8790     6.9860    20.6150     2.0700   -24.2580 
  218.6250   200.0060    67.2800    29.9550    55.1160     7.3560     6.5650     6.4230    20.5230     2.0750   -23.0950 
  218.7500   200.1090    67.3470    29.9800    55.1160     7.0300     6.2650     6.2760    20.2850     2.0930   -21.9320 
  218.8750   200.2110    67.4140    30.0050    55.1160     6.7730     6.0160     6.2380    20.0160     2.1170   -20.8140 
  219.0000   200.3140    67.4810    30.0300    55.1160     6.5920     5.8360     6.2170    19.8790     2.1400   -19.7130 
  219.1250   200.4160    67.5480    30.0560    55.1160     6.4730     5.7190     6.2870    19.9050     2.1580   -18.7610 
  219.2500   200.5190    67.6150    30.0810    55.1160     6.3700     5.6230     6.2560    20.0000     2.1710   -18.0010 
  219.3750   200.6210    67.6810    30.1060    55.1160     6.2570     5.5210     5.9640    20.1080     2.1770   -17.4270 
  219.5000   200.7240    67.7480    30.1310    55.1160     6.1280     5.4050     5.6240    20.2190     2.1780   -17.0140 
  219.6250   200.8260    67.8150    30.1560    55.1160     6.0030     5.2890     5.4680    20.3000     2.1740   -16.8030 
  219.7500   200.9290    67.8820    30.1810    55.1160     5.9090     5.1990     5.5120    20.3490     2.1720   -16.7290 
  219.8750   201.0320    67.9490    30.2070    55.1160     5.8690     5.1560     5.6350    20.3290     2.1750   -16.7910 
  220.0000   201.1340    68.0160    30.2320    55.1160     5.8830     5.1660     5.7390    20.2680     2.1840   -16.9540 
  220.1250   201.2370    68.0830    30.2570    55.1160     5.9410     5.2190     5.7770    20.2200     2.1900   -17.1480 
  220.2500   201.3390    68.1500    30.2820    55.1160     6.0110     5.2860     5.7410    20.1360     2.1900   -17.3260 
  220.3750   201.4420    68.2170    30.3070    55.1160     6.0770     5.3490     5.6840    19.9480     2.1870   -17.4590 
  220.5000   201.5440    68.2840    30.3320    55.1160     6.1330     5.4000     5.7000    19.7890     2.1910   -17.5650 
  220.6250   201.6470    68.3510    30.3580    55.1160     6.1840     5.4380     5.8340    19.7220     2.2070   -17.5340 
  220.7500   201.7490    68.4180    30.3830    55.1160     6.2330     5.4720     6.0780    19.6910     2.2280   -17.3970 
  220.8750   201.8520    68.4850    30.4080    55.1160     6.2810     5.5040     6.3660    19.7050     2.2440   -17.0880 
  221.0000   201.9540    68.5520    30.4330    55.1160     6.3200     5.5310     6.4970    19.8530     2.2490   -16.7450 
  221.1250   202.0570    68.6190    30.4580    55.1160     6.3450     5.5490     6.2620    20.1090     2.2410   -16.4050 
  221.2500   202.1590    68.6850    30.4830    55.1160     6.3570     5.5580     6.0000    20.2670     2.2280   -16.0640 
  221.3750   202.2620    68.7520    30.5080    55.1160     6.3590     5.5620     5.8940    20.2860     2.2160   -15.7480 
  221.5000   202.3640    68.8190    30.5340    55.1160     6.3570     5.5640     5.8880    20.1730     2.2070   -15.4360 
  221.6250   202.4670    68.8860    30.5590    55.1160     6.3550     5.5640     5.9000    19.8940     2.1970   -15.1930 
  221.7500   202.5690    68.9530    30.5840    55.1160     6.3550     5.5640     6.1830    19.6420     2.1870   -14.9090 
  221.8750   202.6720    69.0200    30.6090    55.1160     6.3550     5.5640     6.7990    19.5160     2.1760   -14.6360 
  222.0000   202.7740    69.0870    30.6340    55.1160     6.3550     5.5640     7.2370    19.4740     2.1650   -14.3350 
  222.1250   202.8770    69.1540    30.6590    55.1160     6.3550     5.5640     6.6250    19.4190     2.1580   -14.0300 
  222.2500   202.9790    69.2210    30.6850    55.1160     6.3550     5.5640     6.1660    19.3120     2.1500   -13.7850 
  222.3750   203.0820    69.2880    30.7100    55.1160     6.3550     5.5640     5.9420    19.2130     2.1390   -13.5700 
  222.5000   203.1840    69.3550    30.7350    55.1160     6.3550     5.5640     5.9670    19.0940     2.1270   -13.3950 
  222.6250   203.2870    69.4220    30.7600    55.1160     6.3550     5.5640     6.0840    18.9720     2.1150   -13.1970 
  222.7500   203.3890    69.4890    30.7850    55.1160     6.3550     5.5640     6.0900    18.8950     2.1040   -13.0630 
  222.8750   203.4920    69.5560    30.8100    55.1160     6.3550     5.5640     5.8130    18.8370     2.0970   -13.0190 
  223.0000   203.5940    69.6220    30.8360    55.1160     6.3550     5.5640     5.7640    18.7740     2.0950   -13.0190 
  223.1250   203.6970    69.6890    30.8610    55.1160     6.3550     5.5640     6.0510    18.7320     2.1020   -13.0190 
  223.2500   203.8000    69.7560    30.8860    55.1160     6.3550     5.5640     6.3040    18.7380     2.1180  -999.2500 
  223.3750   203.9020    69.8230    30.9110    55.1160     6.3550     5.5640     6.0760    18.7460     2.1380  -999.2500 
  223.5000   204.0050    69.8900    30.9360    55.1160     6.3550     5.5640     5.6870    18.7350     2.1570  -999.2500 
  223.6250   204.1070    69.9570    30.9610    55.1160     6.3550     5.5640     5.4550    18.6930     2.1700  -999.2500 
  223.7500   204.2100    70.0240    30.9860    55.1160     6.3550     5.5640     5.5860    18.5200     2.1790  -999.2500 
  223.8750   204.3120    70.0910    31.0120    55.1160     6.3550     5.5640     5.6620    18.0640     2.1860  -999.2500 
  224.0000   204.4150    70.1580    31.0370    55.1160     6.3550     5.5640     5.7170    17.3620     2.1900  -999.2500 
  224.1250   204.5170    70.2250    31.0620    55.1160     6.3550     5.5640     5.6550    16.6740     2.1890  -999.2500 
  224.2500   204.6200    70.2920    31.0870    55.1160     6.3550     5.5640     5.4730    16.3010     2.1810  -999.2500 
  224.3750   204.7220    70.3590    31.1120    55.1160     6.3550     5.5640     5.6140    16.0700     2.1680  -999.2500 
  224.5000   204.8250    70.4260    31.1370    55.1160     6.3550     5.5640     5.8120    15.9030     2.1570  -999.2500 
  224.6250   204.9270    70.4930    31.1630    55.1160     6.3550     5.5640     5.8930    15.8250     2.1520  -999.2500 
  224.7500   205.0300    70.5600    31.1880    55.1160     6.3550     5.5640     5.8400    15.7840     2.1580  -999.2500 
  224.8750   205.1320    70.6260    31.2130    55.1160     6.3550     5.5640     5.8050    15.6650     2.1720  -999.2500 
  225.0000   205.2350    70.6930    31.2380    55.1160     6.3550     5.5640     5.7930    15.5310     2.1870  -999.2500 
  225.1250   205.3370    70.7600    31.2630    55.1160     6.3550     5.5640     5.6450    15.4580     2.1980  -999.2500 
  225.2500   205.4400    70.8270    31.2880    55.1160     6.3550     5.5640     5.6280    15.4610     2.2030  -999.2500 
  225.3750   205.5420    70.8940    31.3140    55.1160     6.3550     5.5640     5.6610    15.4550     2.2030  -999.2500 
  225.5000   205.6450    70.9610    31.3390    55.1160     6.3550     5.5640     5.6670    15.3550     2.1940  -999.2500 
  225.6250   205.7470    71.0280    31.3640    55.1160     6.3550     5.5640     5.7310    15.0550     2.1630  -999.2500 
  225.7500   205.8500    71.0950    31.3890    55.1160     6.3550     5.5640     6.0860    14.5230     2.0870  -999.2500 
  225.8750   205.9520    71.1620    31.4140    55.1160     6.3550     5.5640     6.4970    13.9610     1.9410  -999.2500 
  226.0000   206.0550    71.2290    31.4390    55.1160     6.3550     5.5640     6.7640    13.6400     1.7490  -999.2500 
