~V
VERS. 2.00: Ver 2.00
~W
STRT.M 63.0000:
STOP.M 256.0000:
STEP.M 0.1250:
NULL. -999.2500:
UWI. FD10901:
~C
DEPT.M :
TVD. :
DX. :
DY. :
SP.MV :
GR.API :
RI. :
RML.OHMM :
RXO.OHMM :
DEN.GM/CC :
~A
# ...
  218.1250   215.7080    -5.6900   -20.2460    -4.0290    70.1200    10.5750    12.6760    13.0090     2.3270 
  218.2500   215.8280    -5.6980   -20.2800    -4.4780    68.6350    10.5990    12.3960    12.7030     2.3460 
  218.3750   215.9480    -5.7070   -20.3140    -4.6180    67.9920    10.3240    11.9220    12.6370     2.3440 
  218.5000   216.0680    -5.7150   -20.3490    -4.8690    67.6730    10.1940    11.7430    13.0140     2.3020 
  218.6250   216.1880    -5.7240   -20.3830    -5.2290    67.8110    10.0840    11.6030    12.0530     2.2430 
  218.7500   216.3070    -5.7320   -20.4180    -5.3630    65.8610    10.0070    11.5420    10.9240     2.1980 
  218.8750   216.4270    -5.7410   -20.4520    -5.5160    65.1120     9.8990    11.4390    11.2930     2.1760 
  219.0000   216.5470    -5.7490   -20.4860    -6.1470    66.3050     9.8010    11.3110    12.1990     2.1660 
  219.1250   216.6670    -5.7580   -20.5210    -6.9060    69.3510     9.8030    11.2580    12.1380     2.1640 
  219.2500   216.7870    -5.7670   -20.5550    -7.6280    70.5890     9.7690    11.1030    11.4570     2.1720 
  219.3750   216.9070    -5.7750   -20.5900    -8.1670    71.1400     9.6610    10.8460    11.3720     2.1830 
  219.5000   217.0270    -5.7840   -20.6240    -8.6370    70.8830     9.5530    10.6090    11.7960     2.1940 
  219.6250   217.1470    -5.7930   -20.6580    -9.0300    72.4320     9.4720    10.4050    11.6790     2.1970 
  219.7500   217.2660    -5.8010   -20.6930    -9.1800    73.4960     9.4550    10.3080    10.9600     2.1940 
  219.8750   217.3860    -5.8100   -20.7270    -9.0740    74.1770     9.5280    10.3450    10.5850     2.1880 
  220.0000   217.5060    -5.8200   -20.7620    -8.8640    73.5940     9.6380    10.4760    10.6420     2.1840 
  220.1250   217.6260    -5.8290   -20.7960    -8.6660    71.3110     9.7160    10.5860    10.6970     2.1860 
  220.2500   217.7460    -5.8380   -20.8300    -8.4600    69.1350     9.3650    10.1610    10.6660     2.1920 
  220.3750   217.8650    -5.8470   -20.8650    -8.2880    68.6190     8.4280     9.0450    10.4960     2.2080 
  220.5000   217.9850    -5.8560   -20.8990    -8.0090    71.8680     7.2080     7.6000    10.1670     2.2240 
  220.6250   218.1050    -5.8650   -20.9340    -7.4700    76.8920     6.0000     6.1930     8.9170     2.2370 
  220.7500   218.2250    -5.8740   -20.9690    -6.6700    81.6760     5.2690     5.3840     6.5170     2.2360 
  220.8750   218.3450    -5.8830   -21.0030    -5.8730    83.3570     5.0940     5.2360     5.2120     2.2250 
  221.0000   218.4640    -5.8920   -21.0380    -5.3670    82.1830     5.4480     5.7310     6.0920     2.2150 
  221.1250   218.5840    -5.9010   -21.0730    -5.6570    79.1370     6.3140     6.7800     7.9450     2.2180 
  221.2500   218.7040    -5.9100   -21.1070    -6.6610    75.7260     7.2800     7.8920     9.4560     2.2320 
  221.3750   218.8240    -5.9190   -21.1420    -7.5600    74.0210     7.9740     8.6270     9.9840     2.2400 
  221.5000   218.9430    -5.9280   -21.1770    -7.7540    74.8010     8.0560     8.5920     9.6330     2.2340 
  221.6250   219.0630    -5.9360   -21.2120    -7.3520    78.0630     7.4720     7.8310     8.4870     2.2260 
  221.7500   219.1830    -5.9450   -21.2470    -6.6960    80.9440     6.8230     7.0490     7.6050     2.2270 
  221.8750   219.3030    -5.9540   -21.2810    -5.7710    82.4370     6.3990     6.5310     7.5870     2.2530 
  222.0000   219.4220    -5.9630   -21.3160    -4.8240    81.7880     6.2580     6.3610     7.5010     2.3090 
  222.1250   219.5420    -5.9710   -21.3510    -3.9310    79.8910     6.5240     6.6390    10.3170     2.3870 
  222.2500   219.6620    -5.9800   -21.3860    -3.1070    76.5620     7.1800     7.3190    14.2680     2.4550 
  222.3750   219.7810    -5.9880   -21.4210    -2.7200    73.8270     8.0740     8.2400    12.2060     2.4860 
  222.5000   219.9010    -5.9970   -21.4560    -2.9140    71.6630     8.9080     9.0960    11.4430     2.4680 
  222.6250   220.0210    -6.0060   -21.4900    -3.5340    70.9530     9.4070     9.6070    16.3610     2.4020 
  222.7500   220.1410    -6.0140   -21.5250    -4.3530    71.3300     9.4290     9.5960    16.5440     2.3100 
  222.8750   220.2600    -6.0230   -21.5600    -5.1950    70.9280     8.9780     9.0760    11.7530     2.2420 
  223.0000   220.3800    -6.0310   -21.5950    -6.0920    70.7350     8.4450     8.4530     8.8210     2.2150 
  223.1250   220.5000    -6.0390   -21.6300    -6.9410    71.1880     7.8230     7.7430     7.7460     2.2120 
  223.2500   220.6200    -6.0480   -21.6650    -7.6550    73.1640     7.4790     7.3970     7.4220     2.2100 
  223.3750   220.7390    -6.0560   -21.7000    -8.2310    73.6680     7.7230     7.7070     7.9840     2.2090 
  223.5000   220.8590    -6.0650   -21.7340    -8.7420    72.5360     8.3200     8.3930     8.8770     2.2170 
  223.6250   220.9790    -6.0730   -21.7690    -9.1370    70.5620     9.0190     9.1420     9.9140     2.2270 
  223.7500   221.0990    -6.0820   -21.8040    -9.3690    69.3790     9.6000     9.7440    11.2820     2.2310 
  223.8750   221.2180    -6.0910   -21.8390    -9.6230    67.9950     9.9360    10.0490    12.1310     2.2320 
  224.0000   221.3380    -6.0990   -21.8740    -9.9780    67.2320    10.1540    10.2480    11.5200     2.2340 
  224.1250   221.4580    -6.1080   -21.9090   -10.5190    67.4300    10.4350    10.5370    10.5140     2.2390 
  224.2500   221.5780    -6.1160   -21.9430   -11.0390    67.1560    10.9340    11.1260    10.8660     2.2490 
  224.3750   221.6970    -6.1250   -21.9780   -11.4870    65.8430    11.8830    12.2120    12.9300     2.2640 
  224.5000   221.8170    -6.1330   -22.0130   -11.9080    64.0580    13.3150    13.8360    15.0050     2.2730 
  224.6250   221.9370    -6.1420   -22.0480   -12.3340    63.1140    15.4910    16.2500    16.1480     2.2830 
  224.7500   222.0570    -6.1500   -22.0830   -12.6610    62.3510    18.1220    19.1040    18.3890     2.3080 
  224.8750   222.1760    -6.1590   -22.1180   -12.8670    61.0720    21.1620    22.3790    21.4350     2.3550 
  225.0000   222.2960    -6.1670   -22.1530   -13.0470    59.0860    24.9290    26.4160    29.0540     2.3830 
  225.1250   222.4160    -6.1750   -22.1870   -13.2990    56.9130    29.0660    30.7480    43.7350     2.3690 
  225.2500   222.5360    -6.1840   -22.2220   -13.3590    55.4920    31.8600    33.2840    45.2160     2.3390 
  225.3750   222.6550    -6.1920   -22.2570   -13.3450    55.0770    32.2560    33.2830    31.7690     2.3310 
  225.5000   222.7750    -6.2000   -22.2920   -13.3760    55.9780    30.5930    31.0060    41.9610     2.3280 
  225.6250   222.8950    -6.2090   -22.3260   -13.7800    57.0100    27.4190    27.3460    58.0260     2.2970 
  225.7500   223.0150    -6.2180   -22.3610   -14.0520    57.3120    24.3760    24.0460    39.5780     2.2500 
  225.8750   223.1350    -6.2260   -22.3960   -13.7430    56.6940    21.8890    21.3680    20.8000     2.2160 
  226.0000   223.2540    -6.2350   -22.4300   -13.6310    56.4230    20.0300    19.3530    19.8190     2.2080 
  226.1250   223.3740    -6.2440   -22.4650   -13.3540    56.4260    19.5100    18.8430    21.4610     2.2190 
  226.2500   223.4940    -6.2530   -22.4990   -13.0770    56.7060    20.5700    19.9050    23.7370     2.2480 
  226.3750   223.6140    -6.2620   -22.5340   -12.0750    55.8720    24.0200    24.0160    22.1520     2.3020 
  226.5000   223.7340    -6.2700   -22.5680   -11.1170    55.2130    31.6990    33.5170    21.3580     2.3860 
  226.6250   223.8540    -6.2790   -22.6020   -10.3570    54.6370    40.4040    42.6930    35.0170     2.4870 
  226.7500   223.9730    -6.2880   -22.6370    -9.2900    54.8420    38.2210    40.4120    79.4010     2.5760 
  226.8750   224.0930    -6.2970   -22.6710    -8.5510    55.1340    29.7630    31.0800   127.1210     2.5890 
  227.0000   224.2130    -6.3050   -22.7050    -8.6040    55.6650    15.0160    14.4680   118.2770     2.5130 
  227.1250   224.3330    -6.3140   -22.7400   -10.1800    54.7490     4.7630     4.6640    62.4680     2.3770 
