~V
VERS. 2.00: Ver 2.00
~W
STRT.M 62.0000:
STOP.M 282.0000:
STEP.M 0.1250:
NULL. -999.2500:
UWI. FD10887:
~C
DEPT.M :
TVD. :
DX. :
DY. :
SP.MV :
GR.API :
RI. :
RML.OHMM :
RXO.OHMM :
DEN.GM/CC :
~A
# ...
  198.8750   191.8770    -1.5770    36.9250   -19.5780    57.5310     7.8710     8.4600    10.9100     2.3610 
  199.0000   191.9860    -1.5760    36.9860   -19.5890    56.4640     8.7640     9.4880    11.4880     2.3440 
  199.1250   192.0950    -1.5750    37.0480   -19.6020    56.0250     9.5200    10.3460    10.2590     2.3080 
  199.2500   192.2040    -1.5740    37.1090   -19.6280    55.1520     9.9600    10.8290    10.0890     2.2670 
  199.3750   192.3130    -1.5730    37.1700   -19.6780    54.7640    10.1080    11.0060    10.1070     2.2350 
  199.5000   192.4220    -1.5730    37.2320   -19.7490    55.1010     9.9860    10.8930     9.1650     2.2150 
  199.6250   192.5300    -1.5720    37.2930   -19.8160    55.5430     9.7780    10.6980     8.7310     2.2080 
  199.7500   192.6390    -1.5710    37.3550   -19.8540    55.3380     9.6720    10.6340     8.6750     2.2060 
  199.8750   192.7480    -1.5710    37.4160   -19.8470    55.2000     9.7960    10.7950     8.5160     2.2070 
  200.0000   192.8570    -1.5700    37.4770   -19.8130    55.8140    10.0970    11.1170     8.4870     2.2120 
  200.1250   192.9660    -1.5690    37.5390   -19.7680    56.2870    10.4600    11.4820    10.4190     2.2260 
  200.2500   193.0750    -1.5680    37.6000   -19.7160    56.3180    10.7910    11.8140    13.0290     2.2460 
  200.3750   193.1840    -1.5680    37.6620   -19.6510    56.6190    11.0400    12.0280    11.7710     2.2570 
  200.5000   193.2920    -1.5670    37.7230   -19.5800    57.2250    11.1200    12.0310     9.1040     2.2550 
  200.6250   193.4010    -1.5660    37.7850   -19.5430    56.5980    11.0950    11.9390     8.6380     2.2410 
  200.7500   193.5100    -1.5650    37.8460   -19.5780    54.9380    11.0620    11.8280     9.4660     2.2240 
  200.8750   193.6190    -1.5640    37.9080   -19.7020    54.7400    11.0500    11.7910    10.0870     2.2080 
  201.0000   193.7280    -1.5630    37.9690   -19.8740    55.3640    10.9190    11.6390     9.5480     2.1960 
  201.1250   193.8370    -1.5630    38.0310   -20.0300    55.0940    10.5300    11.1970     8.9050     2.1890 
  201.2500   193.9450    -1.5620    38.0920   -20.1230    55.5800     9.8290    10.4040     8.9860     2.1880 
  201.3750   194.0540    -1.5610    38.1540   -20.1300    59.1490     9.0680     9.5430     8.6630     2.1930 
  201.5000   194.1630    -1.5600    38.2150   -20.0670    62.9510     8.4720     8.8550     7.7680     2.1990 
  201.6250   194.2720    -1.5600    38.2770   -19.9490    63.5410     8.1450     8.4750     7.2020     2.2050 
  201.7500   194.3800    -1.5590    38.3390   -19.8070    61.8430     8.0840     8.3910     7.1000     2.2110 
  201.8750   194.4890    -1.5580    38.4000   -19.6640    60.5520     8.2800     8.5930     7.4270     2.2170 
  202.0000   194.5980    -1.5570    38.4620   -19.5350    60.0630     8.6370     8.9810     7.9580     2.2230 
  202.1250   194.7070    -1.5570    38.5230   -19.4260    59.6680     9.0100     9.3700     8.4400     2.2280 
  202.2500   194.8150    -1.5560    38.5850   -19.3250    59.4240     9.3470     9.7280     8.7020     2.2290 
  202.3750   194.9240    -1.5550    38.6470   -19.2220    58.5310     9.6330    10.0090     8.7060     2.2220 
  202.5000   195.0330    -1.5540    38.7080   -19.1080    57.2940     9.9200    10.2980     8.9470     2.2070 
  202.6250   195.1420    -1.5530    38.7700   -18.9750    57.1820    10.2840    10.6820     9.3460     2.1900 
  202.7500   195.2500    -1.5520    38.8320   -18.8190    58.2040    10.7400    11.1710     9.6710     2.1750 
  202.8750   195.3590    -1.5510    38.8930   -18.6370    58.2910    11.2620    11.7590     9.8940     2.1680 
  203.0000   195.4680    -1.5510    38.9550   -18.4430    57.4000    11.7440    12.2950     9.7530     2.1680 
  203.1250   195.5770    -1.5500    39.0170   -18.2700    57.7990    12.1050    12.7600    10.2100     2.1750 
  203.2500   195.6850    -1.5490    39.0780   -18.1430    58.5510    12.2180    12.9400    11.1040     2.1840 
  203.3750   195.7940    -1.5480    39.1400   -18.0810    57.7920    12.0120    12.7840    10.6450     2.1940 
  203.5000   195.9030    -1.5470    39.2020   -18.0650    56.7730    11.5450    12.3200     9.6480     2.2030 
  203.6250   196.0110    -1.5460    39.2640   -18.0660    57.6120    10.9520    11.6840     9.3040     2.2100 
  203.7500   196.1200    -1.5450    39.3250   -18.0580    58.7640    10.3390    11.0380     8.9220     2.2120 
  203.8750   196.2290    -1.5440    39.3870   -18.0310    58.4730     9.8540    10.5280     8.2460     2.2110 
  204.0000   196.3380    -1.5430    39.4490   -17.9990    57.6210     9.4710    10.1490     7.7350     2.2100 
  204.1250   196.4460    -1.5420    39.5100   -17.9820    56.9850     9.2410     9.9040     7.6850     2.2110 
  204.2500   196.5550    -1.5410    39.5720   -17.9970    55.8200     9.1520     9.7550     7.7830     2.2100 
  204.3750   196.6640    -1.5400    39.6340   -18.0600    55.9050     9.0790     9.6780     7.6810     2.2050 
  204.5000   196.7720    -1.5390    39.6960   -18.1650    58.7740     9.1390     9.7730     7.6460     2.1970 
  204.6250   196.8810    -1.5370    39.7570   -18.2960    61.8770     9.3290    10.1120     7.9230     2.1930 
  204.7500   196.9900    -1.5360    39.8190   -18.4140    61.0150     9.7610    10.7100     8.5640     2.1950 
  204.8750   197.0980    -1.5350    39.8810   -18.4680    57.0660    10.3620    11.4710     9.7900     2.1980 
  205.0000   197.2070    -1.5340    39.9430   -18.4330    54.3080    11.0220    12.3300    10.7110     2.2000 
  205.1250   197.3160    -1.5330    40.0050   -18.3120    53.7400    11.6130    13.1170    10.5740     2.2030 
  205.2500   197.4240    -1.5320    40.0660   -18.1490    53.7550    11.7850    13.3730    10.2860     2.2130 
  205.3750   197.5330    -1.5310    40.1280   -17.9890    53.4650    11.3250    12.8650    10.0680     2.2280 
  205.5000   197.6410    -1.5300    40.1900   -17.8560    53.9520    10.3150    11.6380    10.1660     2.2430 
  205.6250   197.7500    -1.5280    40.2520   -17.7640    55.5350     9.0800    10.1830    10.6840     2.2520 
  205.7500   197.8590    -1.5270    40.3140   -17.7200    57.2460     7.9680     8.8900     9.9850     2.2580 
  205.8750   197.9670    -1.5260    40.3760   -17.7380    58.6550     7.2050     8.0400     8.3380     2.2650 
  206.0000   198.0760    -1.5250    40.4380   -17.8000    60.3150     6.7820     7.6060     7.7710     2.2750 
  206.1250   198.1840    -1.5240    40.4990   -17.8670    62.8360     6.5930     7.4260     7.9000     2.2880 
  206.2500   198.2930    -1.5220    40.5610   -17.8950    64.5930     6.6410     7.5010     7.6240     2.3020 
  206.3750   198.4020    -1.5210    40.6230   -17.8560    64.6010     6.7060     7.5560     7.5840     2.3110 
  206.5000   198.5100    -1.5200    40.6850   -17.7560    63.4720     6.7290     7.5360     8.1980     2.3130 
  206.6250   198.6190    -1.5190    40.7470   -17.6050    61.2170     6.6620     7.4180     8.6550     2.3080 
  206.7500   198.7280    -1.5180    40.8080   -17.4160    59.6050     6.5350     7.2560     8.4970     2.3020 
  206.8750   198.8360    -1.5170    40.8700   -17.1970    60.5570     6.3580     7.0580     7.8710     2.2990 
  207.0000   198.9450    -1.5160    40.9320   -16.9740    62.6840     6.1440     6.8290     7.2970     2.2980 
  207.1250   199.0540    -1.5140    40.9940   -16.7860    63.3160     5.9430     6.6240     7.2130     2.2950 
  207.2500   199.1620    -1.5130    41.0560   -16.6590    62.9280     5.7540     6.4330     7.1480     2.2900 
  207.3750   199.2710    -1.5120    41.1180   -16.6040    62.9780     5.5920     6.2780     6.7600     2.2860 
  207.5000   199.3800    -1.5100    41.1790   -16.5980    63.3240     5.4470     6.1520     6.6480     2.2850 
  207.6250   199.4880    -1.5090    41.2410   -16.6180    63.7390     5.3370     6.0520     6.8120     2.2890 
  207.7500   199.5970    -1.5080    41.3030   -16.6500    64.4200     5.2740     6.0110     6.6690     2.2920 
  207.8750   199.7050    -1.5070    41.3650   -16.6890    63.1880     5.2560     5.9980     6.5230     2.2920 
