~V
VERS. 2.00: Ver 2.00
~W
STRT.M 30.0000:
STOP.M 262.0000:
STEP.M 0.1250:
NULL. -999.2500:
UWI. FD10852:
~C
DEPT.M :
TVD. :
DX. :
DY. :
SP.MV :
GR.API :
RI. :
RML.OHMM :
RXO.OHMM :
DEN.GM/CC :
~A
# ...
   57.3750    57.2730    -2.1190     0.1240    -6.8520    62.4130    11.3160    14.0200    10.7900     2.0990 
   57.5000    57.3970    -2.1370     0.1230    -7.5010    60.0220    11.3630    13.7740    10.2620     2.0980 
   57.6250    57.5200    -2.1550     0.1220    -8.1710    59.7660    10.9480    13.0500     9.6820     2.0950 
   57.7500    57.6440    -2.1730     0.1210    -8.6080    62.2360    10.6000    12.5520     9.4960     2.0870 
   57.8750    57.7680    -2.1920     0.1190    -8.6120    63.1030    10.4260    12.4280     9.3710     2.0790 
   58.0000    57.8910    -2.2100     0.1180    -8.2330    61.8960    10.3290    12.4720     9.0610     2.0780 
   58.1250    58.0150    -2.2290     0.1170    -7.8070    62.4860     9.9410    12.1620     8.8330     2.0710 
   58.2500    58.1390    -2.2470     0.1160    -7.4750    66.5130     9.1190    11.2330     8.6110     2.0630 
   58.3750    58.2620    -2.2660     0.1140    -7.1780    71.6680     7.8960     9.7260     8.5670     2.0800 
   58.5000    58.3860    -2.2850     0.1130    -6.9800    76.4980     6.6440     8.1360     8.1500     2.1260 
   58.6250    58.5090    -2.3040     0.1110    -6.9040    80.7330     5.7020     6.9740     6.7570     2.1760 
   58.7500    58.6330    -2.3230     0.1100    -6.9790    83.9650     5.2690     6.5240     5.6740     2.2090 
   58.8750    58.7560    -2.3420     0.1080    -7.2660    87.3870     5.1780     6.5270     5.6570     2.2230 
   59.0000    58.8800    -2.3610     0.1070    -7.6620    88.6230     5.3030     6.7770     6.9710     2.2160 
   59.1250    59.0030    -2.3800     0.1050    -7.9810    86.1100     5.4960     7.0140     8.4620     2.1940 
   59.2500    59.1270    -2.3990     0.1040    -8.2220    82.4620     5.6660     7.1200     7.6870     2.1820 
   59.3750    59.2500    -2.4180     0.1020    -8.5320    82.0690     5.9020     7.2960     6.3920     2.1840 
   59.5000    59.3740    -2.4380     0.1010    -9.0660    83.5980     6.3280     7.7990     6.5350     2.1890 
   59.6250    59.4970    -2.4570     0.0990    -9.7660    83.9570     7.1640     8.9280     7.3440     2.1800 
   59.7500    59.6210    -2.4770     0.0980   -10.4310    80.7350     8.2920    10.5470     8.7820     2.1490 
   59.8750    59.7440    -2.4960     0.0960   -10.7400    75.6670     9.2080    11.7890    10.0320     2.1080 
   60.0000    59.8680    -2.5160     0.0950   -10.4450    71.9610     9.2220    11.7720    10.2810     2.0800 
   60.1250    59.9910    -2.5360     0.0930    -9.6700    73.3470     8.4570    10.6630     9.6570     2.0880 
   60.2500    60.1150    -2.5550     0.0920    -8.5960    80.4630     7.2370     8.9530     7.8630     2.1370 
   60.3750    60.2380    -2.5750     0.0900    -7.6840    89.5170     6.1440     7.5080     5.9260     2.1940 
   60.5000    60.3610    -2.5950     0.0880    -7.4620    93.1550     5.4910     6.7030     5.5810     2.2170 
   60.6250    60.4850    -2.6150     0.0860    -7.7060    88.0190     5.2100     6.3900     6.3140     2.1940 
   60.7500    60.6080    -2.6350     0.0850    -8.0110    81.5930     5.3910     6.6490     6.6160     2.1540 
   60.8750    60.7310    -2.6550     0.0830    -8.3090    82.4200     6.1120     7.5820     6.5040     2.1360 
   61.0000    60.8550    -2.6750     0.0810    -8.3930    86.9950     7.3720     9.2460     6.9310     2.1470 
   61.1250    60.9780    -2.6960     0.0790    -8.0710    87.2390     9.1480    11.6580     8.9970     2.1680 
   61.2500    61.1010    -2.7160     0.0770    -7.5370    83.1130    10.8510    13.9090    12.4340     2.1850 
   61.3750    61.2250    -2.7370     0.0750    -7.1290    79.6310    11.5920    14.7260    14.1340     2.1830 
   61.5000    61.3480    -2.7570     0.0730    -6.9050    78.9810    10.8240    13.4910    13.1930     2.1560 
   61.6250    61.4710    -2.7780     0.0710    -6.8950    81.5130     9.0820    11.0010    11.8220     2.1310 
   61.7500    61.5950    -2.7980     0.0690    -7.1550    85.1730     7.0870     8.3710     9.6370     2.1430 
   61.8750    61.7180    -2.8190     0.0670    -7.4920    87.5070     5.6890     6.6560     6.7760     2.1780 
   62.0000    61.8410    -2.8400     0.0650    -7.7730    89.0590     5.0190     5.9210     5.7600     2.1910 
   62.1250    61.9640    -2.8610     0.0620    -7.9410    92.2760     4.8850     5.8910     6.1390     2.1800 
   62.2500    62.0870    -2.8820     0.0600    -7.8310    93.9220     5.1200     6.2720     6.0590     2.1740 
   62.3750    62.2110    -2.9030     0.0580    -7.6400    90.6780     5.6050     6.9210     6.0890     2.1780 
   62.5000    62.3340    -2.9250     0.0550    -7.6350    85.8330     6.2880     7.7710     7.4330     2.1680 
   62.6250    62.4570    -2.9460     0.0530    -7.7720    82.9770     7.1580     8.8620     8.6300     2.1490 
   62.7500    62.5800    -2.9670     0.0510    -8.0580    80.7140     8.0780    10.0150     8.4930     2.1440 
   62.8750    62.7030    -2.9890     0.0480    -8.4230    77.7980     8.7670    10.9140     8.6800     2.1470 
   63.0000    62.8260    -3.0100     0.0460    -8.6360    76.0990     8.9280    11.1100     9.3510     2.1340 
   63.1250    62.9490    -3.0320     0.0440    -8.4100    75.7750     8.3840    10.3500     9.4070     2.1100 
   63.2500    63.0720    -3.0540     0.0410    -7.6620    75.8240     7.5840     9.2490     8.6150     2.1120 
   63.3750    63.1950    -3.0760     0.0390    -6.6750    76.6210     6.8670     8.2010     7.2530     2.1420 
   63.5000    63.3180    -3.0980     0.0370    -5.7890    79.1920     6.6330     7.8660     6.2830     2.1710 
   63.6250    63.4410    -3.1200     0.0340    -5.2770    80.3160     7.2710     8.7730     7.1480     2.1710 
   63.7500    63.5640    -3.1420     0.0320    -5.1930    76.7260     8.9160    11.0940    10.3090     2.1350 
   63.8750    63.6870    -3.1640     0.0290    -5.4090    69.6880    11.4850    14.5980    13.4600     2.0880 
   64.0000    63.8100    -3.1860     0.0270    -5.8580    64.6370    13.9330    17.7240    15.0350     2.0570 
   64.1250    63.9330    -3.2090     0.0240    -6.2490    64.1600    15.5350    19.5710    15.7010     2.0580 
   64.2500    64.0560    -3.2310     0.0210    -6.3490    66.1960    15.7460    19.5280    15.5570     2.0690 
   64.3750    64.1790    -3.2530     0.0190    -6.3170    68.2250    15.0250    18.4100    14.7140     2.0730 
   64.5000    64.3020    -3.2760     0.0160    -6.3810    69.8720    14.4050    17.6530    12.8930     2.0670 
   64.6250    64.4250    -3.2980     0.0140    -6.5030    70.4290    14.1260    17.4940    10.5830     2.0710 
   64.7500    64.5480    -3.3210     0.0110    -6.6240    71.0550    13.6600    16.9910     9.7340     2.0910 
   64.8750    64.6710    -3.3440     0.0080    -6.8180    74.4780    12.6080    15.6150    10.8640     2.1230 
   65.0000    64.7940    -3.3660     0.0060    -7.1320    80.3010    11.0650    13.5030    11.9410     2.1650 
   65.1250    64.9170    -3.3890     0.0030    -7.5210    86.7470     9.4660    11.2740    10.6420     2.2020 
   65.2500    65.0400    -3.4120     0.0000    -7.8970    89.0790     8.4940    10.0030     7.9160     2.2150 
   65.3750    65.1630    -3.4350    -0.0020    -8.0890    86.2390     8.1870     9.6900     7.0120     2.2000 
   65.5000    65.2850    -3.4580    -0.0050    -8.1420    79.2420     8.4910    10.2720     8.6110     2.1710 
   65.6250    65.4080    -3.4810    -0.0080    -8.3350    74.3110     9.1370    11.2240    10.1720     2.1410 
   65.7500    65.5310    -3.5040    -0.0100    -8.8310    74.8270     9.4390    11.5640    10.2270     2.1190 
   65.8750    65.6540    -3.5270    -0.0130    -9.5460    78.8010     9.1320    10.9960     8.9070     2.1200 
   66.0000    65.7770    -3.5500    -0.0160   -10.3910    85.6130     8.0860     9.4650     7.3690     2.1440 
   66.1250    65.8990    -3.5730    -0.0190   -11.1130    93.0410     6.9520     7.9830     6.9110     2.1790 
   66.2500    66.0220    -3.5970    -0.0220   -11.4010    98.2750     6.2640     7.2000     6.5500     2.2060 
   66.3750    66.1450    -3.6200    -0.0240   -11.1350    99.2650     5.9940     6.9940     5.9850     2.2140 
