~V
VERS. 2.00: Ver 2.00
~W
STRT.M 15.0000:
STOP.M 282.0000:
STEP.M 0.1250:
NULL. -999.2500:
UWI. FD10218:
~C
DEPT.M :
TVD. :
DX. :
DY. :
DEN.GM/CC :
GR.API :
RML.OHMM :
RI. :
RXO.OHMM :
CALI.CM :
SP.MV :
~A
# ...
   81.0000    80.9990    -0.1620     0.0350     2.2060    69.2930     9.9440     7.8360     8.6460    25.0960   -21.6830 
   81.1250    81.1240    -0.1610     0.0370     2.1940    74.6050     9.8080     7.7050     8.5070    25.3340   -21.9450 
   81.2500    81.2490    -0.1610     0.0400     2.1890    78.3710     9.7570     7.6280     8.0130    25.6470   -22.0910 
   81.3750    81.3740    -0.1610     0.0420     2.1930    79.6760     9.7900     7.6250     7.7170    25.9410   -22.1180 
   81.5000    81.4990    -0.1610     0.0440     2.2040    78.0520     9.8730     7.6930     8.1140    26.0600   -22.0350 
   81.6250    81.6240    -0.1600     0.0460     2.2140    72.8580     9.9340     7.7900     8.4030    25.9480   -21.8020 
   81.7500    81.7480    -0.1600     0.0480     2.2190    68.5740     9.9130     7.8470     8.0220    25.7780   -21.2890 
   81.8750    81.8730    -0.1600     0.0500     2.2190    68.5700     9.7870     7.8210     7.5040    25.7760   -20.6290 
   82.0000    81.9980    -0.1590     0.0520     2.2190    72.7200     9.5760     7.7070     7.1520    25.8540   -19.8960 
   82.1250    82.1230    -0.1590     0.0550     2.2260    79.2480     9.3370     7.5380     6.6960    25.8540   -19.1130 
   82.2500    82.2480    -0.1590     0.0570     2.2370    86.8290     9.1560     7.3890     6.2650    25.6880   -18.3930 
   82.3750    82.3730    -0.1580     0.0590     2.2480    92.9180     9.1130     7.3260     6.1960    25.4580   -17.7470 
   82.5000    82.4980    -0.1580     0.0610     2.2520    94.6500     9.2760     7.4230     6.3530    25.2630   -17.1470 
   82.6250    82.6230    -0.1580     0.0630     2.2510    91.7310     9.7020     7.7890     6.9290    25.0570   -16.7040 
   82.7500    82.7480    -0.1580     0.0650     2.2570    86.9060    10.2660     8.3850     7.9590    24.8350   -16.4930 
   82.8750    82.8730    -0.1570     0.0680     2.2780    82.2180    10.7800     9.0940    10.2420    24.7020   -16.4010 
   83.0000    82.9980    -0.1570     0.0700     2.3110    78.5580    10.9980     9.6760    14.3820    24.6630   -16.3880 
   83.1250    83.1230    -0.1570     0.0720     2.3330    76.8270    10.6310     9.7170    18.2030    24.7900   -16.2970 
   83.2500    83.2480    -0.1560     0.0740     2.3310    76.3870     9.7700     9.1450    16.9680    25.2000   -15.8980 
   83.3750    83.3730    -0.1560     0.0760     2.3050    78.0220     8.6310     8.1420    13.1590    25.7640   -15.1430 
   83.5000    83.4980    -0.1560     0.0780     2.2760    83.2490     7.5040     7.0420    10.7460    26.0270   -14.0480 
   83.6250    83.6230    -0.1550     0.0800     2.2680    88.8650     6.6880     6.1620     7.0830    25.9360   -12.5530 
   83.7500    83.7480    -0.1550     0.0830     2.2850    91.5690     6.2220     5.5830     5.4580    25.8470   -10.8970 
   83.8750    83.8730    -0.1550     0.0850     2.3120    93.4220     6.0600     5.2930     5.4100    25.9200    -9.2370 
   84.0000    83.9980    -0.1550     0.0870     2.3310    95.9210     6.0950     5.2300     5.4140    26.1190    -7.6670 
   84.1250    84.1230    -0.1540     0.0890     2.3290    96.0610     6.2110     5.3130     5.4920    26.3410    -6.3650 
   84.2500    84.2480    -0.1540     0.0910     2.3110    92.8190     6.3020     5.4240     5.4280    26.4330    -5.3100 
   84.3750    84.3730    -0.1540     0.0930     2.2880    90.1140     6.3310     5.5060     5.4130    26.3630    -4.5570 
   84.5000    84.4980    -0.1530     0.0960     2.2680    90.0600     6.3050     5.5390     5.2560    26.2330    -4.1920 
   84.6250    84.6230    -0.1530     0.0980     2.2570    90.9680     6.2580     5.5350     5.0460    26.1650    -4.2080 
   84.7500    84.7480    -0.1530     0.1000     2.2510    92.2420     6.2420     5.5370     4.6120    26.1230    -4.4110 
   84.8750    84.8730    -0.1520     0.1020     2.2440    95.1260     6.2930     5.5800     4.6280    25.9660    -4.8280 
   85.0000    84.9980    -0.1520     0.1040     2.2340    98.4170     6.4270     5.6880     5.0640    25.6980    -5.3800 
   85.1250    85.1230    -0.1520     0.1060     2.2240    98.4050     6.6430     5.8820     5.3330    25.5220    -6.0090 
   85.2500    85.2480    -0.1510     0.1080     2.2200    96.6980     6.8890     6.1320     5.5060    25.4690    -6.8250 
   85.3750    85.3730    -0.1510     0.1110     2.2210    94.0360     7.1070     6.3950     6.1770    25.4670    -7.7000 
   85.5000    85.4980    -0.1510     0.1130     2.2260    90.4400     7.2490     6.6030     6.9600    25.5150    -8.4660 
   85.6250    85.6230    -0.1510     0.1150     2.2290    87.1170     7.2760     6.6770     6.9750    25.7800    -9.1410 
   85.7500    85.7480    -0.1500     0.1170     2.2280    84.5050     7.2300     6.6310     6.5670    26.2070    -9.7400 
   85.8750    85.8730    -0.1500     0.1190     2.2270    82.2200     7.1620     6.5090     6.1830    26.4890   -10.1430 
   86.0000    85.9980    -0.1500     0.1210     2.2270    81.3620     7.1210     6.3760     5.9670    26.3320   -10.3800 
   86.1250    86.1230    -0.1490     0.1240     2.2290    86.1200     7.1450     6.2950     5.9950    25.9900   -10.4370 
   86.2500    86.2480    -0.1490     0.1260     2.2320    91.6170     7.1930     6.2650     6.1780    25.8130   -10.2990 
   86.3750    86.3730    -0.1490     0.1280     2.2390    91.1090     7.1960     6.2360     6.5050    25.9310   -10.0290 
   86.5000    86.4980    -0.1480     0.1300     2.2520    86.6710     7.0710     6.1240     6.8190    26.2480    -9.6330 
   86.6250    86.6230    -0.1480     0.1320     2.2660    85.6790     6.7780     5.8340     6.7340    26.7060    -9.0270 
   86.7500    86.7480    -0.1480     0.1340     2.2690    89.8200     6.4670     5.4460     6.0570    27.0720    -8.3410 
   86.8750    86.8730    -0.1480     0.1360     2.2560    96.4770     6.3680     5.1320     5.0770    27.3240    -7.6550 
   87.0000    86.9980    -0.1470     0.1390     2.2370   101.2410     6.7380     5.1000     4.2260    27.3350    -7.0060 
   87.1250    87.1230    -0.1470     0.1410     2.2480    97.3270     7.8730     5.6330     4.2090    26.9080    -6.5100 
   87.2500    87.2470    -0.1470     0.1430     2.3100    86.8950     9.5900     6.7740     7.4190    26.1080    -6.2210 
   87.3750    87.3720    -0.1460     0.1450     2.4160    77.0110    11.4770     8.4470    21.7270    25.3340    -6.2520 
   87.5000    87.4970    -0.1460     0.1470     2.5230    72.9710    12.8570    10.2030    39.6390    24.9710    -6.7350 
   87.6250    87.6220    -0.1460     0.1490     2.5670    73.0110    12.8780    10.9480    28.2050    25.0170    -7.8260 
   87.7500    87.7470    -0.1450     0.1520     2.5340    74.3970    11.7290    10.3640    16.5850    25.3150    -9.2790 
   87.8750    87.8720    -0.1450     0.1540     2.4390    76.9740    10.0120     8.9960    10.4470    25.8220   -10.9660 
   88.0000    87.9970    -0.1450     0.1560     2.3170    78.4200     8.4410     7.6150     8.2660    26.5080   -12.7140 
   88.1250    88.1220    -0.1450     0.1580     2.2000    75.1900     7.5330     6.7220     7.6510    27.3520   -14.3970 
   88.2500    88.2470    -0.1440     0.1600     2.1030    70.2970     7.1680     6.2740     7.5140    28.5280   -15.9600 
   88.3750    88.3720    -0.1440     0.1620     2.0360    67.1350     7.1420     6.1540     7.1900    29.9420   -17.2530 
   88.5000    88.4970    -0.1440     0.1640     2.0060    67.2060     7.2590     6.2260     6.9570    30.9230   -18.1810 
   88.6250    88.6220    -0.1430     0.1670     2.0210    69.2490     7.3750     6.3650     7.6750    31.1950   -18.7310 
   88.7500    88.7470    -0.1430     0.1690     2.0580    70.6770     7.4290     6.4760     8.2580    30.9500   -18.9880 
   88.8750    88.8720    -0.1430     0.1710     2.0970    70.3690     7.4160     6.5330     8.2080    30.3620   -18.9620 
   89.0000    88.9970    -0.1420     0.1730     2.1220    70.0060     7.3450     6.5310     8.0950    29.5780   -18.7700 
   89.1250    89.1220    -0.1420     0.1750     2.1260    71.5060     7.2150     6.4580     7.7300    28.9800   -18.3550 
