~V
VERS. 2.00: Ver 2.00
~W
STRT.M 20.0000:
STOP.M 242.0000:
STEP.M 0.1250:
NULL. -999.2500:
UWI. FD10624:
~C
DEPT.M :
TVD. :
DX. :
DY. :
GR.API :
RML.OHMM :
RI. :
RXO.OHMM :
CALI.CM :
DEN.GM/CC :
SP.MV :
~A
# ...
  152.0000   148.1110    17.2540    17.1170    51.0930    19.8680    18.0580    18.9500    20.3860     2.5080   -10.3300 
  152.1250   148.2220    17.2950    17.1580    51.5510    19.8260    18.0510    17.8670    20.3440     2.5050   -10.2180 
  152.2500   148.3330    17.3350    17.1990    50.3920    19.7280    18.0050    17.4080    20.1970     2.5100   -10.1480 
  152.3750   148.4440    17.3760    17.2400    48.5980    19.6380    17.9990    18.3500    19.9730     2.5210   -10.1860 
  152.5000   148.5550    17.4160    17.2810    48.5160    19.6010    18.0550    19.7760    19.8250     2.5340   -10.3040 
  152.6250   148.6660    17.4560    17.3220    50.9810    19.6450    18.1560    19.6400    19.7890     2.5420   -10.3890 
  152.7500   148.7770    17.4970    17.3630    52.9730    19.7410    18.2490    18.7750    19.7340     2.5440   -10.5070 
  152.8750   148.8880    17.5370    17.4040    52.4390    19.8730    18.3120    17.7140    19.6860     2.5400   -10.7020 
  153.0000   148.9990    17.5780    17.4450    50.2650    20.0420    18.3580    17.4630    19.6620     2.5330   -10.9050 
  153.1250   149.1100    17.6180    17.4850    49.4680    20.2710    18.4530    18.0630    19.6620     2.5230   -11.0740 
  153.2500   149.2210    17.6590    17.5260    50.1090    20.5540    18.6720    18.7310    19.6750     2.5130   -11.2900 
  153.3750   149.3320    17.6990    17.5670    50.9930    20.8780    19.0670    18.8050    19.6620     2.5030   -11.4360 
  153.5000   149.4430    17.7390    17.6080    51.8750    21.2610    19.6510    19.1400    19.6110     2.4960   -11.5650 
  153.6250   149.5540    17.7800    17.6490    51.5950    21.8090    20.4080    19.6740    19.5490     2.4950   -11.7400 
  153.7500   149.6650    17.8200    17.6900    49.9160    22.5570    21.2320    20.5770    19.4930     2.4990   -11.8950 
  153.8750   149.7760    17.8610    17.7310    48.1580    23.4210    22.0390    21.8510    19.4310     2.5050   -11.9600 
  154.0000   149.8870    17.9010    17.7720    47.3230    24.2110    22.7610    21.6460    19.3760     2.5100   -11.9710 
  154.1250   149.9980    17.9410    17.8130    47.3820    24.7040    23.3350    21.1630    19.3460     2.5110   -11.9880 
  154.2500   150.1090    17.9820    17.8540    48.2610    24.8800    23.7370    21.1940    19.3170     2.5120   -11.9240 
  154.3750   150.2200    18.0220    17.8950    49.6040    24.7360    23.8880    22.1120    19.2910     2.5160   -11.9430 
  154.5000   150.3310    18.0630    17.9360    51.1680    24.3090    23.6820    23.2750    19.2770     2.5240   -11.9880 
  154.6250   150.4420    18.1030    17.9760    52.7650    23.6870    22.9880    22.6060    19.2810     2.5350   -12.0910 
  154.7500   150.5530    18.1440    18.0170    52.7030    23.0270    21.9800    20.7220    19.2860     2.5430   -12.1400 
  154.8750   150.6640    18.1840    18.0580    51.1920    22.3790    20.8940    18.6750    19.3010     2.5430   -12.2270 
  155.0000   150.7750    18.2240    18.0990    49.9440    21.7500    19.9870    17.5720    19.3190     2.5370   -12.3350 
  155.1250   150.8860    18.2650    18.1400    50.6470    21.2140    19.4930    17.4840    19.2970     2.5280   -12.4870 
  155.2500   150.9970    18.3050    18.1810    51.4960    20.8810    19.3720    18.0590    19.2620     2.5190   -12.6350 
  155.3750   151.1080    18.3460    18.2220    52.1670    20.8000    19.5290    18.8330    19.2700     2.5150   -12.7130 
  155.5000   151.2190    18.3860    18.2630    53.0260    20.9060    19.8190    19.5070    19.3020     2.5140   -12.7070 
  155.6250   151.3290    18.4270    18.3040    53.2320    21.0750    20.1110    18.5550    19.3260     2.5160   -12.6670 
  155.7500   151.4400    18.4670    18.3450    52.6760    21.2550    20.3580    17.4110    19.3150     2.5190   -12.6650 
  155.8750   151.5510    18.5070    18.3860    51.1440    21.5070    20.5840    17.0780    19.2940     2.5200   -12.6050 
  156.0000   151.6620    18.5480    18.4270    49.2580    21.8850    20.8260    18.0160    19.2840     2.5190   -12.4950 
  156.1250   151.7730    18.5880    18.4680    48.1460    22.3510    21.1010    19.4000    19.2840     2.5160   -12.3160 
  156.2500   151.8840    18.6290    18.5080    47.3330    22.7570    21.3700    20.1900    19.2840     2.5130   -12.0890 
  156.3750   151.9950    18.6690    18.5490    47.7960    23.0220    21.5770    21.1460    19.2840     2.5130   -11.9070 
  156.5000   152.1060    18.7100    18.5900    49.4630    23.1380    21.6810    21.0710    19.2840     2.5160   -11.7850 
  156.6250   152.2170    18.7500    18.6310    51.2470    23.0720    21.6480    20.8830    19.2820     2.5220   -11.6370 
  156.7500   152.3280    18.7900    18.6720    51.4560    22.7680    21.5020    20.7530    19.2750     2.5250   -11.4800 
  156.8750   152.4390    18.8310    18.7130    51.2560    22.1870    21.2470    20.1730    19.2630     2.5230   -11.3810 
  157.0000   152.5500    18.8710    18.7540    51.3200    21.4520    20.8970    19.0420    19.2720     2.5170   -11.3870 
  157.1250   152.6610    18.9120    18.7950    50.1670    20.8450    20.4680    18.5120    19.2790     2.5090   -11.4420 
  157.2500   152.7720    18.9520    18.8360    49.4010    20.4910    20.0190    18.8300    19.2870     2.5080   -11.5730 
  157.3750   152.8830    18.9930    18.8770    49.5240    20.3350    19.6130    18.9680    19.3010     2.5130   -11.6470 
  157.5000   152.9940    19.0330    18.9180    49.4680    20.2650    19.3090    18.2550    19.3310     2.5220   -11.7340 
  157.6250   153.1050    19.0730    18.9590    48.9440    20.1950    19.1180    17.7440    19.3370     2.5290   -11.7700 
  157.7500   153.2160    19.1140    19.0000    49.2790    20.0750    18.9390    16.8210    19.3210     2.5300   -11.8400 
  157.8750   153.3270    19.1540    19.0400    50.6180    19.8880    18.6810    15.4840    19.3100     2.5270   -11.8780 
  158.0000   153.4380    19.1950    19.0810    50.9590    19.6260    18.2840    14.9480    19.3380     2.5210   -11.8100 
  158.1250   153.5490    19.2350    19.1220    49.7220    19.2700    17.7380    15.1250    19.3970     2.5160   -11.6300 
  158.2500   153.6600    19.2750    19.1630    48.8130    18.8410    17.1820    14.9090    19.4640     2.5120   -11.4680 
  158.3750   153.7710    19.3160    19.2040    49.5410    18.4130    16.7600    15.0230    19.4760     2.5100   -11.3110 
  158.5000   153.8820    19.3560    19.2450    50.9480    18.1240    16.5870    15.6700    19.4050     2.5080   -11.1250 
  158.6250   153.9930    19.3970    19.2860    50.7680    18.1150    16.7380    15.8340    19.3130     2.5080   -11.0000 
  158.7500   154.1040    19.4370    19.3270    48.9600    18.2360    17.0620    15.6060    19.2560     2.5120   -10.8840 
  158.8750   154.2150    19.4780    19.3680    47.0530    18.2680    17.3620    15.5210    19.2280     2.5150   -10.8250 
  159.0000   154.3260    19.5180    19.4090    47.0560    18.0590    17.4290    15.5490    19.2220     2.5170   -10.8710 
  159.1250   154.4370    19.5580    19.4500    48.5230    17.5780    17.1040    15.2990    19.2450     2.5160   -11.0360 
  159.2500   154.5480    19.5990    19.4910    49.1390    16.9810    16.5230    14.8880    19.2790     2.5120   -11.2260 
  159.3750   154.6590    19.6390    19.5310    48.0800    16.3830    15.8540    14.2880    19.2880     2.5090   -11.4550 
  159.5000   154.7700    19.6800    19.5720    46.2230    15.8860    15.2600    14.4990    19.2710     2.5100   -11.7430 
  159.6250   154.8810    19.7200    19.6130    45.1480    15.5960    14.8860    14.7950    19.2370     2.5160   -11.9410 
  159.7500   154.9910    19.7610    19.6540    45.9680    15.5060    14.7400    14.9060    19.2220     2.5260   -12.0940 
  159.8750   155.1020    19.8010    19.6950    47.9850    15.5910    14.7990    15.0640    19.2150     2.5350   -12.2270 
  160.0000   155.2130    19.8410    19.7360    49.7210    15.8030    15.0070    15.3920    19.2030     2.5430   -12.4110 
  160.1250   155.3240    19.8820    19.7770    49.9040    16.0930    15.3070    15.6890    19.1870     2.5460   -12.6290 
