~V
VERS. 2.00: Ver 2.00
~W
STRT.M 55.0000:
STOP.M 289.0000:
STEP.M 0.1250:
NULL. -999.2500:
UWI. FD10909:
~C
DEPT.M :
TVD. :
DX. :
DY. :
SP.MV :
GR.API :
RI. :
RML.OHMM :
RXO.OHMM :
DEN.GM/CC :
~A
# ...
  283.1250   273.7370    57.3720    12.6810    69.3530    53.7720     3.3930     4.3540     3.5050     2.1790 
  283.2500   273.8540    57.4140    12.6910    69.3530    53.7720     3.3930     4.3540     3.2930     2.1870 
  283.3750   273.9720    57.4550    12.7020    69.3530    53.7720     3.3940     4.3540     3.5990     2.2080 
  283.5000   274.0890    57.4970    12.7120    69.3530    53.7720     3.3960     4.3540     4.4050     2.2270 
  283.6250   274.2070    57.5380    12.7230    69.3530    53.7720     3.3990     4.3540     5.2550     2.2410 
  283.7500   274.3240    57.5800    12.7330    69.3530    53.7720     3.4020     4.3540     6.5830     2.2520 
  283.8750   274.4410    57.6210    12.7440    69.3530    53.7720     3.4040     4.3540     8.2500     2.2630 
  284.0000   274.5590    57.6620    12.7540    69.3530    53.7720     3.4050     4.3540     8.9200     2.2700 
  284.1250   274.6760    57.7040    12.7650    69.3530    53.7720     3.4050     4.3540     8.9570     2.2710 
  284.2500   274.7940    57.7450    12.7750    69.3530    53.7720     3.4050     4.3540     8.9570     2.2720 
  284.3750   274.9110    57.7870    12.7860    69.3530    53.7720     3.4050     4.3540     8.9570     2.2730 
  284.5000   275.0290    57.8280    12.7960    69.3530    53.7720     3.4050     4.3540     8.9570     2.2730 
  284.6250   275.1460    57.8700    12.8070    69.3530    53.7720     3.4050     4.3540     8.9570     2.2700 
  284.7500   275.2640    57.9110    12.8170    69.3530    53.7720     3.4050     4.3540     8.9570     2.2650 
  284.8750   275.3810    57.9530    12.8280    69.3530    53.7720     3.4050     4.3540     8.9570     2.2620 
  285.0000   275.4990    57.9940    12.8380    69.3530    53.7720     3.4050     4.3540     8.9570     2.2620 
  285.1250   275.6160    58.0360    12.8490    69.3530    53.7720     3.4050     4.3540     8.9570     2.2640 
  285.2500   275.7330    58.0770    12.8590    69.3530    53.7720     3.4050     4.3540     8.9570     2.2680 
  285.3750   275.8510    58.1190    12.8700    69.3530    53.7720     3.4050     4.3540     8.9570     2.2710 
  285.5000   275.9680    58.1600    12.8800    69.3530    53.7720     3.4050     4.3540     8.9570     2.2730 
  285.6250   276.0860    58.2020    12.8910    69.3530    53.7720     3.4050     4.3540     8.9570     2.2730 
  285.7500   276.2030    58.2430    12.9010    69.3530    53.7720     3.4050     4.3540     8.9570     2.2710 
  285.8750   276.3210    58.2850    12.9110    69.3530    53.7720     3.4050     4.3540     8.9570     2.2700 
  286.0000   276.4380    58.3260    12.9220    69.3530    53.7720     3.4050     4.3540     8.9570     2.2700 
  286.1250   276.5560    58.3680    12.9320    69.3530    53.7720     3.4050     4.3540     8.9570     2.2700 
  286.2500   276.6730    58.4090    12.9430    69.3530    53.7720     3.4050     4.3540     8.9570     2.2690 
  286.3750   276.7900    58.4510    12.9530    69.3530    53.7720     3.4050     4.3540     8.9570     2.2680 
  286.5000   276.9080    58.4920    12.9640    69.3530    53.7720     3.4050     4.3540     8.9570     2.2680 
  286.6250   277.0250    58.5340    12.9740    69.3530    53.7720     3.4050     4.3540     8.9570     2.2680 
  286.7500   277.1430    58.5750    12.9850    69.3530    53.7720     3.4050     4.3540     8.9570     2.2680 
  286.8750   277.2600    58.6160    12.9950    69.3530    53.7720     3.4050     4.3540     8.9570     2.2690 
  287.0000   277.3780    58.6580    13.0060    69.3530    53.7720     3.4050     4.3540     8.9570     2.2680 
  287.1250   277.4950    58.6990    13.0160    69.3530    53.7720     3.4050     4.3540     8.9570     2.2550 
  287.2500   277.6130    58.7410    13.0270    69.3530    53.7720     3.4050     4.3540     8.9570     2.2260 
  287.3750   277.7300    58.7820    13.0370    69.3530    53.7720     3.4050     4.3540     8.9570     2.1920 
  287.5000   277.8480    58.8240    13.0480    69.3530    53.7720     3.4050     4.3540     8.9570     2.1680 
  287.6250   277.9650    58.8650    13.0580    69.3530    53.7720     3.4050     4.3540     8.9570     2.1570 
  287.7500   278.0820    58.9070    13.0690    69.3530    53.7720     3.4050     4.3540     8.9570     2.1550 
  287.8750   278.2000    58.9480    13.0790    69.3530    53.7720     3.4050     4.3540     8.9570     2.1550 
  288.0000   278.3170    58.9900    13.0900    69.3530    53.7720     3.4050     4.3540     8.9570     2.1550 
  288.1250   278.4350    59.0310    13.1000    69.3530    53.7720     3.4050     4.3540     8.9570     2.1550 
  288.2500   278.5520    59.0730    13.1110    69.3530    53.7720     3.4050     4.3540     8.9570     2.1550 
  288.3750   278.6700    59.1140    13.1210    69.3530    53.7720     3.4050     4.3540     8.9570     2.1550 
  288.5000   278.7870    59.1560    13.1310    69.3530    53.7720     3.4050     4.3540     8.9570     2.1550 
  288.6250   278.9050    59.1970    13.1420    69.3530    53.7720     3.4050     4.3540     8.9570     2.1550 
  288.7500   279.0220    59.2390    13.1520    69.3530    53.7720     3.4050     4.3540     8.9110     2.1550 
  288.8750   279.1390    59.2800    13.1630    69.3530    53.7720     3.4050     4.3540     8.6270     2.1550 
  289.0000   279.2570    59.3220    13.1730    69.3530    53.7720     3.4050     4.3540     7.8600     2.1550 
