~V
VERS. 2.00: Ver 2.00
~W
STRT.M 27.0000:
STOP.M 267.0000:
STEP.M 0.1250:
NULL. -999.2500:
UWI. FD10204:
~C
DEPT.M :
TVD. :
DX. :
DY. :
GR.API :
RML.OHMM :
RI. :
RXO.OHMM :
CALI.CM :
SP.MV :
DEN.GM/CC :
~A
# ...
  208.5000   201.7440   -14.4600   -38.3180    47.9700     7.4520     6.4510     7.6640    22.4500   -29.2150     2.4410 
  208.6250   201.8610   -14.4780   -38.3590    48.2640     7.2110     6.2760     7.3100    22.4530   -29.1460     2.4390 
  208.7500   201.9780   -14.4960   -38.4000    48.3190     6.9680     6.0810     7.0690    22.4520   -29.1100     2.4380 
  208.8750   202.0950   -14.5140   -38.4410    47.3660     6.7770     5.9110     6.9350    22.4470   -29.1210     2.4390 
  209.0000   202.2110   -14.5320   -38.4820    46.3560     6.6640     5.7930     7.0650    22.4430   -29.1830     2.4410 
  209.1250   202.3280   -14.5500   -38.5230    47.1970     6.6450     5.7420     7.5130    22.4430   -29.2650     2.4440 
  209.2500   202.4450   -14.5680   -38.5640    48.2230     6.6840     5.7360     7.8970    22.4440   -29.3200     2.4500 
  209.3750   202.5610   -14.5860   -38.6050    47.2030     6.7500     5.7530     8.0300    22.4450   -29.3560     2.4590 
  209.5000   202.6780   -14.6040   -38.6460    45.6520     6.8090     5.7730     8.0200    22.4450   -29.3950     2.4700 
  209.6250   202.7950   -14.6220   -38.6870    47.6530     6.8300     5.7760     7.9690    22.4460   -29.4470     2.4830 
  209.7500   202.9110   -14.6400   -38.7280    51.0330     6.8140     5.7600     7.9140    22.4460   -29.4680     2.4960 
  209.8750   203.0280   -14.6590   -38.7690    51.8740     6.7770     5.7290     7.8670    22.4490   -29.4480     2.5070 
  210.0000   203.1450   -14.6770   -38.8100    49.8700     6.7400     5.6900     7.7270    22.4530   -29.3700     2.5140 
  210.1250   203.2620   -14.6950   -38.8510    48.5990     6.7110     5.6470     7.5200    22.4640   -29.2600     2.5140 
  210.2500   203.3780   -14.7130   -38.8920    48.8810     6.6770     5.5990     7.3470    22.4830   -29.1560     2.5100 
  210.3750   203.4950   -14.7310   -38.9330    49.0300     6.6270     5.5400     7.2700    22.5030   -29.0290     2.5020 
  210.5000   203.6120   -14.7490   -38.9740    48.3450     6.5630     5.4750     7.2950    22.5140   -28.8310     2.4950 
  210.6250   203.7280   -14.7670   -39.0150    48.8430     6.5200     5.4230     7.3130    22.5120   -28.5230     2.4900 
  210.7500   203.8450   -14.7850   -39.0560    52.7130     6.5380     5.4130     7.2830    22.5100   -28.1320     2.4890 
  210.8750   203.9620   -14.8030   -39.0970    61.6000     6.6410     5.4710     7.1570    22.5050   -27.6500     2.4880 
  211.0000   204.0780   -14.8210   -39.1380    75.0430     6.8370     5.6050     6.9840    22.5030   -27.0660     2.4840 
  211.1250   204.1950   -14.8390   -39.1790    88.8790     7.1160     5.8140     6.9890    22.6510   -26.3600     2.4740 
  211.2500   204.3120   -14.8580   -39.2200    98.5240     7.4260     6.0560     7.2790    23.1580   -25.5670     2.4580 
  211.3750   204.4290   -14.8760   -39.2610   102.1810     7.7270     6.2960     7.4410    24.0060   -24.7250     2.4410 
  211.5000   204.5450   -14.8940   -39.3020   101.8970     7.9820     6.5040     7.2150    24.8500   -23.8790     2.4270 
  211.6250   204.6620   -14.9120   -39.3430    99.5570     8.1650     6.6550     7.0720    25.2600   -23.0810     2.4210 
  211.7500   204.7790   -14.9300   -39.3840    96.0010     8.3110     6.7670     7.2900    25.3420   -22.3340     2.4260 
  211.8750   204.8950   -14.9480   -39.4250    92.1970     8.4660     6.8720     7.5020    25.3300   -21.6750     2.4390 
  212.0000   205.0120   -14.9660   -39.4660    88.7460     8.6710     7.0000     7.3760    25.3310   -21.1190     2.4520 
  212.1250   205.1290   -14.9840   -39.5070    87.1150     8.9420     7.1700     7.3590    25.3290   -20.6720     2.4540 
  212.2500   205.2450   -15.0020   -39.5480    85.7810     9.2420     7.3660     7.5610    25.3240   -20.3220     2.4410 
  212.3750   205.3620   -15.0200   -39.5890    83.9490     9.5430     7.5750     7.9620    25.3210   -20.0730     2.4190 
  212.5000   205.4790   -15.0380   -39.6300    82.9390     9.8540     7.8000     8.4790    25.3190   -19.9280     2.4010 
  212.6250   205.5950   -15.0560   -39.6720    84.7420    10.2380     8.0820     8.4820    25.3480   -19.9000     2.4000 
  212.7500   205.7110   -15.0740   -39.7140    89.0290    10.7270     8.4400     8.1830    25.2940   -19.9580     2.4140 
  212.8750   205.8280   -15.0920   -39.7550    91.7500    11.2790     8.8490     8.0310    24.9940   -20.0660     2.4340 
  213.0000   205.9440   -15.1100   -39.7970    88.9870    11.7380     9.2100     8.3420    24.5040   -20.2260     2.4460 
  213.1250   206.0610   -15.1290   -39.8390    82.9710    11.7740     9.3070     9.0730    24.1620   -20.4960     2.4370 
  213.2500   206.1770   -15.1470   -39.8810    79.8660    11.2920     9.0500     9.6530    24.1060   -20.8540     2.4190 
  213.3750   206.2940   -15.1650   -39.9230    83.0560    10.4280     8.4930     9.0680    24.1850   -21.2850     2.4110 
  213.5000   206.4100   -15.1830   -39.9640    90.4790     9.5120     7.8270     8.0140    24.2320   -21.7440     2.4270 
  213.6250   206.5260   -15.2010   -40.0060    95.8160     8.9410     7.3290     7.3180    24.2390   -22.1940     2.4640 
  213.7500   206.6430   -15.2190   -40.0480    97.5480     8.8320     7.1430     7.0190    24.2360   -22.6230     2.4990 
  213.8750   206.7590   -15.2370   -40.0900    96.1280     9.1680     7.3110     7.0820    24.2400   -23.0280     2.5140 
  214.0000   206.8760   -15.2550   -40.1320    92.7900     9.8260     7.7850     7.5410    24.2450   -23.3910     2.5060 
  214.1250   206.9920   -15.2730   -40.1730    90.0230    10.5730     8.4190     8.2660    24.2460   -23.6530     2.4900 
  214.2500   207.1080   -15.2910   -40.2150    90.1210    11.0710     8.9370     8.7930    24.2460   -23.8210     2.4780 
  214.3750   207.2250   -15.3090   -40.2570    91.6420    11.0570     9.1130     8.9950    24.2440   -23.8880     2.4740 
  214.5000   207.3410   -15.3270   -40.2990    91.0000    10.4360     8.8290     8.9420    24.2320   -23.8600     2.4750 
  214.6250   207.4580   -15.3450   -40.3410    88.1900     9.3160     8.0950     8.8060    24.3020   -23.7710     2.4860 
  214.7500   207.5740   -15.3630   -40.3820    84.3030     8.1120     7.1980     8.2800    24.6100   -23.6850     2.5170 
  214.8750   207.6910   -15.3810   -40.4240    76.6340     7.0880     6.3410     7.1990    25.1600   -23.6130     2.5610 
  215.0000   207.8070   -15.3990   -40.4660    66.4210     6.3800     5.6700     5.8350    25.6520   -23.5780     2.5850 
  215.1250   207.9230   -15.4170   -40.5080    60.5190     6.0470     5.2950     5.1760    25.4520   -23.6130     2.5420 
  215.2500   208.0400   -15.4350   -40.5500    59.7830     5.9610     5.1710     4.9900    24.6320   -23.6990     2.4460 
  215.3750   208.1560   -15.4530   -40.5910    61.2600     6.0330     5.2530     5.3160    23.7300   -23.8460     2.3350 
  215.5000   208.2730   -15.4710   -40.6330    63.8880     6.1740     5.4670     5.7980    23.2330   -24.0650     2.2430 
  215.6250   208.3890   -15.4890   -40.6750    69.4770     6.3000     5.7180     6.1110    23.1950   -24.3380     2.2040 
  215.7500   208.5050   -15.5070   -40.7170    77.2830     6.3720     5.9120     6.2910    23.2140   -24.6320     2.2180 
  215.8750   208.6220   -15.5250   -40.7590    84.3580     6.3860     6.0000     6.3460    23.1550   -24.9720     2.2700 
  216.0000   208.7380   -15.5430   -40.8000    87.5870     6.3380     5.9670     6.2280    23.0460   -25.3880     2.3300 
  216.1250   208.8550   -15.5610   -40.8420    86.4700     6.2210     5.8240     6.1350    22.9650   -25.8840     2.3740 
  216.2500   208.9710   -15.5790   -40.8840    84.8000     6.0670     5.6440     6.1620    22.9440   -26.4470     2.3980 
  216.3750   209.0880   -15.5970   -40.9260    83.9490     5.9110     5.4800     6.1760    22.9490   -27.0320     2.4110 
  216.5000   209.2040   -15.6150   -40.9670    82.7420     5.7960     5.3730     6.2090    22.9470   -27.6090     2.4200 
  216.6250   209.3200   -15.6330   -41.0090    81.5380     5.7740     5.3520     6.1610    22.9440   -28.1610     2.4310 
