~V
VERS. 2.00: Ver 2.00
~W
STRT.M 63.0000:
STOP.M 266.0000:
STEP.M 0.1250:
NULL. -999.2500:
UWI. FD10888:
~C
DEPT.M :
TVD. :
DX. :
DY. :
SP.MV :
GR.API :
RI. :
RML.OHMM :
RXO.OHMM :
DEN.GM/CC :
~A
# ...
  126.8750   126.8620    -0.9200    -0.8000   -14.9620    79.1240    11.0020    12.9810    13.7720     2.1470 
  127.0000   126.9870    -0.9240    -0.8030   -13.2490    70.9740    13.5250    16.1250    17.9300     2.1130 
  127.1250   127.1120    -0.9290    -0.8070   -11.5380    65.4240    16.2940    19.5440    20.4900     2.0840 
  127.2500   127.2360    -0.9330    -0.8110   -10.1650    65.1530    18.5890    22.1680    21.7330     2.0670 
  127.3750   127.3610    -0.9370    -0.8150    -9.2200    64.3310    19.9120    23.4910    22.6500     2.0690 
  127.5000   127.4860    -0.9420    -0.8190    -8.6310    60.9610    20.4380    23.8930    22.7600     2.0890 
  127.6250   127.6110    -0.9460    -0.8240    -8.3260    59.5680    21.0020    24.5050    22.2740     2.1310 
  127.7500   127.7360    -0.9510    -0.8280    -8.2320    61.4920    22.0850    25.8840    24.3350     2.1960 
  127.8750   127.8610    -0.9550    -0.8320    -8.1280    64.7130    23.5350    27.7610    30.4590     2.2690 
  128.0000   127.9860    -0.9600    -0.8360    -7.9050    65.9490    24.8230    29.3750    35.8660     2.3200 
  128.1250   128.1100    -0.9650    -0.8410    -7.5070    65.1090    25.3530    29.9060    34.6230     2.3130 
  128.2500   128.2350    -0.9690    -0.8450    -6.8080    63.9110    24.9160    29.1580    28.3690     2.2540 
  128.3750   128.3600    -0.9740    -0.8490    -5.8680    63.8550    23.5350    27.2710    23.2660     2.1740 
  128.5000   128.4850    -0.9790    -0.8540    -4.9310    64.8860    21.8950    25.2110    21.6050     2.1130 
  128.6250   128.6100    -0.9830    -0.8580    -4.2540    64.4000    20.7360    23.8540    21.4610     2.0860 
  128.7500   128.7350    -0.9880    -0.8620    -3.8440    61.4330    20.3540    23.4410    21.4360     2.0800 
  128.8750   128.8590    -0.9930    -0.8670    -3.6230    59.2610    20.6810    23.8010    21.8030     2.0790 
  129.0000   128.9840    -0.9980    -0.8710    -3.4620    58.9780    21.3010    24.4350    22.6060     2.0750 
  129.1250   129.1090    -1.0030    -0.8760    -3.2310    58.7720    22.0400    25.1700    23.4640     2.0690 
  129.2500   129.2340    -1.0080    -0.8800    -2.9490    57.6460    22.8410    25.9430    24.0850     2.0630 
  129.3750   129.3590    -1.0130    -0.8850    -2.7140    60.1680    23.4800    26.4850    24.3900     2.0590 
  129.5000   129.4840    -1.0180    -0.8890    -2.6040    63.0820    23.7770    26.5870    24.5600     2.0570 
  129.6250   129.6080    -1.0230    -0.8940    -2.6270    60.2680    23.6650    26.2160    24.7350     2.0590 
  129.7500   129.7330    -1.0280    -0.8990    -2.7350    56.2680    23.2670    25.5570    24.5720     2.0620 
  129.8750   129.8580    -1.0330    -0.9030    -2.9680    58.7970    22.7750    24.8780    23.4930     2.0630 
  130.0000   129.9830    -1.0380    -0.9080    -3.2760    63.0780    22.3670    24.3820    21.8480     2.0600 
  130.1250   130.1080    -1.0430    -0.9130    -3.5340    61.5150    22.1840    24.1910    20.6740     2.0610 
  130.2500   130.2320    -1.0480    -0.9180    -3.7930    59.3410    22.2010    24.2230    20.4620     2.0660 
  130.3750   130.3570    -1.0530    -0.9230    -3.9650    60.9520    22.2890    24.3070    20.9830     2.0750 
  130.5000   130.4820    -1.0580    -0.9280    -4.1160    64.2130    22.2770    24.2600    21.7580     2.0840 
  130.6250   130.6070    -1.0640    -0.9330    -4.3730    65.5790    22.0560    23.9760    22.1740     2.0900 
  130.7500   130.7320    -1.0690    -0.9380    -4.7350    64.8150    21.7330    23.5860    21.6070     2.0930 
  130.8750   130.8560    -1.0750    -0.9430    -5.2510    61.5030    21.4550    23.2640    20.5860     2.0920 
  131.0000   130.9810    -1.0800    -0.9480    -5.8350    58.4080    21.3110    23.1120    20.3820     2.0920 
  131.1250   131.1060    -1.0860    -0.9540    -6.4210    59.3910    21.4060    23.2750    20.8840     2.0960 
  131.2500   131.2310    -1.0910    -0.9590    -7.0270    63.0640    21.8280    23.8310    21.1360     2.1100 
  131.3750   131.3550    -1.0970    -0.9650    -7.7570    65.3690    22.5350    24.6780    21.4590     2.1430 
  131.5000   131.4800    -1.1020    -0.9700    -8.6460    64.9590    23.4080    25.7270    22.3770     2.1990 
  131.6250   131.6050    -1.1080    -0.9760    -9.5570    64.4100    24.7730    27.3910    23.0460     2.2720 
  131.7500   131.7300    -1.1140    -0.9820   -10.4520    65.0630    26.5720    29.5450    22.7740     2.3440 
  131.8750   131.8540    -1.1200    -0.9880   -11.2440    65.5550    28.3930    31.7390    22.1790     2.3910 
  132.0000   131.9790    -1.1250    -0.9940   -11.7350    65.8810    30.0580    33.7560    23.6380     2.4050 
  132.1250   132.1040    -1.1310    -1.0000   -11.8270    67.7640    31.3600    35.3340    28.2150     2.3920 
  132.2500   132.2280    -1.1370    -1.0070   -11.6180    68.4950    31.9630    36.0930    31.7640     2.3760 
  132.3750   132.3530    -1.1430    -1.0130   -11.3480    66.8230    31.7210    35.8650    32.4030     2.3760 
  132.5000   132.4780    -1.1490    -1.0190   -11.2300    65.3670    30.4070    34.3510    33.2870     2.3840 
  132.6250   132.6020    -1.1550    -1.0260   -11.2610    66.4560    27.9300    31.5130    36.6850     2.3730 
  132.7500   132.7270    -1.1620    -1.0320   -11.2350    66.9190    25.2870    28.5200    40.4240     2.3280 
  132.8750   132.8520    -1.1680    -1.0390   -11.1270    66.3790    22.9040    25.7840    36.9390     2.2540 
  133.0000   132.9760    -1.1740    -1.0460   -10.9380    67.1830    20.9470    23.5370    26.5980     2.1830 
  133.1250   133.1010    -1.1800    -1.0520   -10.6390    69.2120    19.7550    22.2080    19.7690     2.1420 
  133.2500   133.2260    -1.1870    -1.0590   -10.2780    69.1010    19.4200    21.8830    19.3110     2.1310 
  133.3750   133.3500    -1.1930    -1.0660    -9.9590    69.3500    19.9690    22.5440    20.7020     2.1350 
  133.5000   133.4750    -1.2000    -1.0720    -9.7810    69.5150    21.1420    23.8440    22.4130     2.1340 
  133.6250   133.6000    -1.2060    -1.0790    -9.8640    68.4730    22.5540    25.3290    24.8800     2.1180 
  133.7500   133.7240    -1.2130    -1.0860   -10.2170    64.6350    24.0080    26.8070    27.0000     2.0950 
  133.8750   133.8490    -1.2190    -1.0930   -10.8440    61.8770    25.3110    28.0970    27.7780     2.0770 
  134.0000   133.9740    -1.2250    -1.1000   -11.7410    62.1500    26.0700    28.7080    26.9900     2.0700 
  134.1250   134.0980    -1.2320    -1.1080   -12.9270    61.6850    25.3830    27.6800    24.9370     2.0700 
  134.2500   134.2230    -1.2380    -1.1150   -14.2830    60.7040    23.0900    24.8590    22.7530     2.0750 
  134.3750   134.3470    -1.2450    -1.1230   -15.8570    60.0970    19.6870    20.7830    19.7440     2.0860 
  134.5000   134.4720    -1.2510    -1.1300   -17.6110    62.2500    16.0090    16.6830    15.1470     2.1030 
  134.6250   134.5970    -1.2570    -1.1380   -19.4750    68.3730    13.1280    13.5450    11.2150     2.1200 
  134.7500   134.7210    -1.2640    -1.1450   -21.1450    75.9340    11.1370    11.5730     9.4730     2.1320 
  134.8750   134.8460    -1.2700    -1.1530   -22.2770    80.6990    10.1080    10.6560     9.1470     2.1390 
  135.0000   134.9700    -1.2770    -1.1610   -22.9370    81.2400     9.7910    10.4060     9.2970     2.1420 
  135.1250   135.0950    -1.2830    -1.1690   -23.2400    80.1470     9.8570    10.5180     9.5250     2.1410 
  135.2500   135.2200    -1.2900    -1.1770   -23.3120    78.4940     9.9940    10.6610     9.6710     2.1370 
  135.3750   135.3440    -1.2970    -1.1850   -23.2160    78.4700    10.0700    10.7120     9.7470     2.1310 
  135.5000   135.4690    -1.3030    -1.1930   -23.0080    78.8820    10.1050    10.7190     9.9160     2.1280 
  135.6250   135.5930    -1.3100    -1.2010   -22.6910    76.6310    10.2920    10.8960    10.3850     2.1300 
  135.7500   135.7180    -1.3170    -1.2090   -22.2540    74.8110    10.7450    11.3990    11.1730     2.1350 
  135.8750   135.8420    -1.3230    -1.2170   -21.6000    75.8390    11.4070    12.1930    12.3210     2.1400 
