~V
VERS. 2.00: Ver 2.00
~W
STRT.M 55.0000:
STOP.M 289.0000:
STEP.M 0.1250:
NULL. -999.2500:
UWI. FD10909:
~C
DEPT.M :
TVD. :
DX. :
DY. :
SP.MV :
GR.API :
RI. :
RML.OHMM :
RXO.OHMM :
DEN.GM/CC :
~A
# ...
  164.5000   162.1210    18.3170     3.3880    -7.7370    61.7680    15.5510    18.3970    20.4730     2.4800 
  164.6250   162.2380    18.3600     3.3960    -7.6620    60.3390    16.6120    19.3470    20.3960     2.4720 
  164.7500   162.3550    18.4030     3.4040    -7.5940    59.7670    16.7290    19.2480    20.4870     2.4550 
  164.8750   162.4720    18.4460     3.4130    -7.5340    61.2400    16.2680    18.5970    20.4210     2.4350 
  165.0000   162.5890    18.4890     3.4210    -7.4880    62.3530    15.4070    17.5770    19.5930     2.4130 
  165.1250   162.7070    18.5310     3.4290    -7.4630    63.9060    14.2190    16.2000    18.2040     2.3940 
  165.2500   162.8240    18.5740     3.4370    -7.4640    65.6760    12.7640    14.5070    16.4890     2.3780 
  165.3750   162.9410    18.6170     3.4460    -7.4860    68.5680    11.3090    12.8140    14.7960     2.3690 
  165.5000   163.0580    18.6600     3.4540    -7.5180    70.6510    10.2230    11.5740    13.8190     2.3710 
  165.6250   163.1750    18.7030     3.4620    -7.5440    71.3850     9.7740    11.1050    13.4450     2.3870 
  165.7500   163.2920    18.7460     3.4700    -7.5540    69.6810    10.3180    11.8330    14.2400     2.4160 
  165.8750   163.4090    18.7890     3.4780    -7.5480    67.4970    11.9310    13.8130    16.6530     2.4570 
  166.0000   163.5260    18.8320     3.4860    -7.5230    64.7860    14.5830    16.9180    19.3830     2.5140 
  166.1250   163.6440    18.8750     3.4950    -7.4740    63.5450    17.7060    20.4160    22.6370     2.5410 
  166.2500   163.7610    18.9180     3.5030    -7.3870    63.8150    20.3050    23.1020    29.1790     2.5900 
  166.3750   163.8780    18.9610     3.5110    -7.2650    63.4710    21.3180    23.7950    37.4050     2.6150 
  166.5000   163.9950    19.0030     3.5190    -7.1120    63.3190    19.9370    21.7480    40.8130     2.6020 
  166.6250   164.1120    19.0460     3.5270    -6.9490    65.7650    16.8250    17.9240    35.6920     2.5530 
  166.7500   164.2290    19.0890     3.5350    -6.7900    70.4500    13.1510    13.7410    24.9280     2.4840 
  166.8750   164.3460    19.1320     3.5440    -6.6410    73.2710    10.1970    10.6320    15.6830     2.4170 
  167.0000   164.4630    19.1750     3.5520    -6.4950    72.1350     8.5850     9.1460    11.3600     2.3680 
  167.1250   164.5800    19.2180     3.5600    -6.3400    70.8110     7.8580     8.5880    11.9640     2.3380 
  167.2500   164.6970    19.2610     3.5680    -6.1680    70.6400     7.4840     8.3010    17.6620     2.3290 
  167.3750   164.8140    19.3040     3.5760    -5.9790    71.8540     7.1330     7.9250    23.9280     2.3380 
  167.5000   164.9320    19.3470     3.5850    -5.7710    72.9920     6.7880     7.4720    23.2390     2.3650 
  167.6250   165.0490    19.3900     3.5930    -5.5450    74.7950     6.6030     7.1990    15.8370     2.4080 
  167.7500   165.1660    19.4330     3.6010    -5.3070    76.0390     6.8800     7.5190     9.9490     2.4620 
  167.8750   165.2830    19.4760     3.6090    -5.0740    74.7930     7.8310     8.6570    10.6010     2.5110 
  168.0000   165.4000    19.5190     3.6180    -4.8760    70.8660     9.4250    10.4930    15.1640     2.5380 
  168.1250   165.5170    19.5620     3.6260    -4.7330    66.3550    11.1520    12.3810    18.3570     2.5440 
  168.2500   165.6340    19.6060     3.6340    -4.6600    63.5420    12.4360    13.6630    18.4020     2.5440 
  168.3750   165.7510    19.6490     3.6420    -4.6540    61.6140    12.9930    14.1040    17.1390     2.5480 
  168.5000   165.8680    19.6920     3.6500    -4.7070    60.6260    12.9100    13.9090    17.0480     2.5590 
  168.6250   165.9850    19.7350     3.6590    -4.7910    59.7400    12.5790    13.5440    20.0470     2.5640 
  168.7500   166.1020    19.7780     3.6670    -4.8760    58.9190    12.1950    13.1890    24.2980     2.5510 
  168.8750   166.2190    19.8210     3.6750    -4.9390    58.0890    11.8030    12.8350    24.4910     2.5200 
  169.0000   166.3360    19.8640     3.6830    -4.9690    58.7080    11.4150    12.4730    20.1090     2.4840 
  169.1250   166.4530    19.9070     3.6920    -4.9690    61.2670    11.0740    12.1550    15.8380     2.4580 
  169.2500   166.5700    19.9500     3.7000    -4.9420    63.4740    10.8150    11.9420    13.6250     2.4450 
  169.3750   166.6880    19.9930     3.7080    -4.8890    65.2460    10.6510    11.8480    12.8180     2.4420 
  169.5000   166.8050    20.0360     3.7160    -4.8010    65.0520    10.6050    11.8890    13.0850     2.4410 
  169.6250   166.9220    20.0790     3.7240    -4.6800    64.5400    10.6660    12.0360    13.5170     2.4390 
  169.7500   167.0390    20.1230     3.7320    -4.5230    63.6210    10.8010    12.2480    13.2070     2.4390 
  169.8750   167.1560    20.1660     3.7400    -4.3450    63.0580    10.9300    12.4270    12.9230     2.4510 
  170.0000   167.2730    20.2090     3.7480    -4.1620    62.8700    10.9370    12.4310    13.5620     2.4770 
  170.1250   167.3900    20.2520     3.7570    -3.9920    62.1640    10.7840    12.2260    13.9520     2.5030 
  170.2500   167.5070    20.2950     3.7650    -3.8490    60.7690    10.5150    11.8820    13.0690     2.5110 
  170.3750   167.6240    20.3380     3.7730    -3.7280    59.4130    10.2760    11.5910    12.0060     2.5010 
  170.5000   167.7410    20.3820     3.7810    -3.6290    59.0780    10.2860    11.6310    11.6940     2.4950 
  170.6250   167.8580    20.4250     3.7890    -3.5420    58.6200    10.6330    12.1010    11.6440     2.5110 
  170.7500   167.9750    20.4680     3.7970    -3.4640    56.0430    11.2520    12.8980    11.8700     2.5440 
  170.8750   168.0920    20.5110     3.8050    -3.3880    52.6690    11.9250    13.7290    13.3520     2.5710 
  171.0000   168.2090    20.5540     3.8130    -3.3030    49.8910    12.4030    14.2740    16.1820     2.5790 
  171.1250   168.3260    20.5970     3.8210    -3.2090    49.2790    12.5670    14.3970    18.1530     2.5750 
  171.2500   168.4430    20.6410     3.8290    -3.1150    49.8510    12.3950    14.1100    17.4320     2.5720 
  171.3750   168.5600    20.6840     3.8370    -3.0340    51.2400    12.0150    13.6060    15.5630     2.5720 
  171.5000   168.6770    20.7270     3.8450    -2.9800    52.9160    11.5870    13.0990    15.0120     2.5710 
  171.6250   168.7940    20.7700     3.8530    -2.9470    54.8710    11.2690    12.7650    16.1600     2.5670 
  171.7500   168.9110    20.8140     3.8600    -2.9260    56.2050    11.1330    12.6580    17.2200     2.5660 
  171.8750   169.0280    20.8570     3.8680    -2.9030    56.2480    11.1180    12.6850    16.4000     2.5720 
  172.0000   169.1450    20.9000     3.8760    -2.8600    55.6660    11.1530    12.7610    14.6200     2.5860 
  172.1250   169.2620    20.9430     3.8840    -2.7930    55.5030    11.1990    12.8390    14.0350     2.5990 
  172.2500   169.3790    20.9860     3.8920    -2.7020    55.5300    11.2240    12.8810    14.5380     2.6060 
  172.3750   169.4960    21.0300     3.9000    -2.6010    55.0260    11.1760    12.8240    14.5710     2.6030 
  172.5000   169.6130    21.0730     3.9070    -2.5030    54.5460    10.9990    12.6100    13.8450     2.5900 
  172.6250   169.7300    21.1160     3.9150    -2.4050    55.4000    10.7060    12.2650    13.1890     2.5740 
  172.7500   169.8470    21.1590     3.9230    -2.3010    56.0320    10.3360    11.8400    12.7590     2.5600 
  172.8750   169.9640    21.2030     3.9310    -2.1900    56.4350     9.9630    11.4170    12.1630     2.5510 
  173.0000   170.0810    21.2460     3.9390    -2.0880    56.0590     9.6630    11.0830    11.6110     2.5470 
  173.1250   170.1980    21.2890     3.9460    -2.0150    56.3250     9.4870    10.8940    11.5510     2.5420 
  173.2500   170.3150    21.3320     3.9540    -1.9880    55.9310     9.4830    10.8920    11.8230     2.5330 
  173.3750   170.4320    21.3760     3.9620    -2.0010    54.6290     9.6360    11.0650    12.1580     2.5240 
  173.5000   170.5490    21.4190     3.9700    -2.0390    52.6340     9.9450    11.4280    13.0540     2.5220 
