~V
VERS. 2.00: Ver 2.00
~W
STRT.M 43.0000:
STOP.M 257.0000:
STEP.M 0.1250:
NULL. -999.2500:
UWI. FD10872:
~C
DEPT.M :
TVD. :
DX. :
DY. :
SP.MV :
GR.API :
RI. :
RML.OHMM :
RXO.OHMM :
DEN.GM/CC :
~A
# ...
  179.8750   173.7590    29.5440   -20.5450    -4.9700    60.6650     9.0200    10.8820    14.7110     2.4480 
  180.0000   173.8740    29.5860   -20.5710    -4.4680    62.3100     8.8380    10.5840    14.8180     2.4440 
  180.1250   173.9880    29.6290   -20.5970    -3.8400    64.3940     8.6860    10.3250    12.7130     2.4400 
  180.2500   174.1030    29.6710   -20.6230    -3.2260    65.0980     8.5660    10.1330    11.5450     2.4350 
  180.3750   174.2170    29.7140   -20.6490    -2.7700    63.3430     8.4700    10.0130    10.7900     2.4290 
  180.5000   174.3320    29.7560   -20.6750    -2.5350    59.9620     8.3750     9.9040     9.5120     2.4230 
  180.6250   174.4470    29.7990   -20.7010    -2.5060    58.1550     8.2220     9.7160    10.6170     2.4200 
  180.7500   174.5610    29.8410   -20.7270    -2.5630    58.9160     7.9550     9.3630    12.5670     2.4190 
  180.8750   174.6760    29.8840   -20.7530    -2.5820    60.1180     7.6590     8.9500    11.5570     2.4200 
  181.0000   174.7910    29.9260   -20.7790    -2.4850    60.9740     7.3710     8.5730    10.2460     2.4210 
  181.1250   174.9050    29.9690   -20.8050    -2.2500    61.4300     7.2020     8.3630    10.2360     2.4210 
  181.2500   175.0200    30.0110   -20.8310    -1.9410    61.3670     7.2270     8.3890     9.2600     2.4190 
  181.3750   175.1350    30.0540   -20.8570    -1.6280    60.1520     7.4140     8.6240     8.5840     2.4200 
  181.5000   175.2490    30.0960   -20.8840    -1.3660    58.2360     7.7040     8.9730     9.2770     2.4250 
  181.6250   175.3640    30.1380   -20.9100    -1.1920    57.0160     7.9760     9.2850     9.9550     2.4360 
  181.7500   175.4780    30.1810   -20.9360    -1.1030    57.1000     8.2060     9.5530     9.7710     2.4480 
  181.8750   175.5930    30.2230   -20.9630    -1.0870    59.3350     8.3110     9.6760     9.2160     2.4570 
  182.0000   175.7080    30.2650   -20.9890    -1.1220    61.2640     8.3020     9.6730     9.0930     2.4620 
  182.1250   175.8220    30.3080   -21.0150    -1.1960    60.7440     8.1990     9.5780     8.9820     2.4640 
  182.2500   175.9370    30.3500   -21.0420    -1.2970    59.8340     8.0800     9.4620     9.0120     2.4670 
  182.3750   176.0510    30.3920   -21.0690    -1.4200    60.4150     8.0130     9.3910     9.1670     2.4710 
  182.5000   176.1660    30.4350   -21.0950    -1.5620    61.3080     8.0210     9.3990     8.8750     2.4770 
  182.6250   176.2810    30.4770   -21.1220    -1.7230    61.0510     8.1130     9.4930     8.8710     2.4810 
  182.7500   176.3950    30.5190   -21.1480    -1.8850    60.7300     8.2660     9.6390     9.4690     2.4810 
  182.8750   176.5100    30.5610   -21.1750    -2.0000    60.8540     8.4920     9.8720     9.7770     2.4780 
  183.0000   176.6240    30.6040   -21.2020    -2.0000    59.8510     8.7450    10.1250    10.3320     2.4750 
  183.1250   176.7390    30.6460   -21.2280    -1.8070    58.3530     8.9740    10.3500    11.8890     2.4740 
  183.2500   176.8540    30.6890   -21.2540    -1.4440    58.2500     9.1980    10.5780    12.7160     2.4760 
  183.3750   176.9680    30.7310   -21.2800    -1.0040    59.2240     9.3680    10.7270    11.9170     2.4770 
  183.5000   177.0830    30.7740   -21.3070    -0.6310    60.2040     9.4740    10.8100    11.3700     2.4770 
  183.6250   177.1970    30.8170   -21.3330    -0.4580    61.5030     9.5300    10.8200    11.6970     2.4730 
  183.7500   177.3120    30.8590   -21.3590    -0.4970    62.4220     9.5220    10.7700    11.6140     2.4670 
  183.8750   177.4260    30.9020   -21.3850    -0.6790    61.3900     9.5270    10.7570    11.3510     2.4580 
  184.0000   177.5410    30.9450   -21.4110    -0.8730    59.6890     9.5470    10.7870    12.2610     2.4510 
  184.1250   177.6550    30.9870   -21.4370    -0.9660    60.4330     9.5590    10.8170    13.3880     2.4450 
  184.2500   177.7700    31.0300   -21.4630    -0.9180    63.3070     9.5540    10.8220    13.0610     2.4400 
  184.3750   177.8840    31.0730   -21.4900    -0.7430    65.1710     9.6060    10.8790    12.2400     2.4370 
  184.5000   177.9990    31.1150   -21.5160    -0.5060    63.9230     9.6690    10.9170    12.2830     2.4350 
  184.6250   178.1140    31.1580   -21.5420    -0.2620    61.8960     9.7610    10.9790    12.5320     2.4310 
  184.7500   178.2280    31.2000   -21.5680    -0.0470    62.0170    10.0300    11.2530    12.2570     2.4260 
  184.8750   178.3430    31.2430   -21.5940     0.1030    64.2160    10.3940    11.6450    12.6680     2.4200 
  185.0000   178.4570    31.2860   -21.6200     0.1820    64.5790    10.8070    12.0900    13.3170     2.4150 
  185.1250   178.5720    31.3280   -21.6470     0.1950    62.7790    11.1850    12.4810    13.7990     2.4140 
  185.2500   178.6860    31.3710   -21.6730     0.1620    61.0720    11.3570    12.6120    14.7170     2.4180 
  185.3750   178.8010    31.4130   -21.6990     0.1040    60.6680    11.3650    12.5460    14.7280     2.4240 
  185.5000   178.9160    31.4560   -21.7250     0.0310    62.3040    11.2120    12.3200    14.3150     2.4280 
  185.6250   179.0300    31.4980   -21.7510    -0.0790    65.2150    10.9830    12.0520    14.5350     2.4270 
  185.7500   179.1450    31.5400   -21.7780    -0.2390    67.4640    10.7720    11.8270    14.3520     2.4210 
  185.8750   179.2600    31.5820   -21.8040    -0.4420    66.9110    10.6540    11.7240    13.9760     2.4140 
  186.0000   179.3740    31.6250   -21.8310    -0.6350    64.9220    10.6340    11.7280    14.5070     2.4110 
  186.1250   179.4890    31.6670   -21.8570    -0.7110    64.3620    10.7050    11.8260    13.9380     2.4130 
  186.2500   179.6040    31.7090   -21.8840    -0.5720    64.8940    10.8000    11.9510    12.8450     2.4170 
  186.3750   179.7180    31.7510   -21.9100    -0.1400    64.5110    10.9620    12.1510    13.0950     2.4210 
  186.5000   179.8330    31.7930   -21.9360     0.5240    62.6630    11.2130    12.4750    13.9050     2.4220 
  186.6250   179.9480    31.8350   -21.9630     1.2910    61.8840    11.6790    13.0200    16.2740     2.4220 
  186.7500   180.0630    31.8770   -21.9890     1.9770    63.8540    12.2110    13.5980    16.9380     2.4210 
  186.8750   180.1770    31.9190   -22.0160     2.4340    66.5100    12.8410    14.2870    15.3970     2.4210 
  187.0000   180.2920    31.9600   -22.0420     2.6620    67.0820    13.5200    15.0050    17.5100     2.4200 
  187.1250   180.4070    32.0020   -22.0690     2.7510    66.5550    14.0410    15.5440    20.3870     2.4180 
  187.2500   180.5220    32.0440   -22.0950     2.8550    67.5630    14.4750    15.9990    18.9750     2.4150 
  187.3750   180.6360    32.0860   -22.1220     3.0900    69.5710    14.6600    16.1750    17.8110     2.4130 
  187.5000   180.7510    32.1280   -22.1480     3.4640    71.3740    14.6980    16.1980    19.4750     2.4120 
  187.6250   180.8660    32.1700   -22.1740     3.9120    72.7760    14.6950    16.1840    20.2200     2.4150 
  187.7500   180.9810    32.2120   -22.2010     4.3300    73.8450    14.6280    16.0890    19.0710     2.4190 
  187.8750   181.0950    32.2540   -22.2270     4.6370    72.3140    14.4280    15.8540    17.1910     2.4240 
  188.0000   181.2100    32.2960   -22.2540     4.8020    69.8200    14.1750    15.5810    16.0770     2.4270 
  188.1250   181.3250    32.3380   -22.2800     4.8150    68.9740    13.9890    15.4080    15.6640     2.4240 
  188.2500   181.4400    32.3800   -22.3070     4.7170    68.6510    13.9730    15.4250    15.1100     2.4150 
  188.3750   181.5540    32.4220   -22.3330     4.5440    66.6140    14.1690    15.6870    15.2320     2.4020 
  188.5000   181.6690    32.4640   -22.3590     4.3480    65.3520    14.5340    16.1370    15.8720     2.3870 
  188.6250   181.7840    32.5060   -22.3860     4.1650    67.2070    15.0470    16.7340    16.4850     2.3740 
  188.7500   181.8980    32.5480   -22.4120     4.0020    71.3940    15.6700    17.4550    17.7140     2.3670 
  188.8750   182.0130    32.5910   -22.4380     3.8390    74.8780    16.2830    18.1220    18.6100     2.3650 
