~V
VERS. 2.00: Ver 2.00
~W
STRT.M 50.0000:
STOP.M 287.0000:
STEP.M 0.1250:
NULL. -999.2500:
UWI. FD10894:
~C
DEPT.M :
TVD. :
DX. :
DY. :
SP.MV :
GR.API :
RI. :
RML.OHMM :
RXO.OHMM :
DEN.GM/CC :
~A
# ...
  214.2500   206.0760    42.3610     9.0250   -13.9110    66.6240     8.2180     9.5070     9.8860     2.3490 
  214.3750   206.1890    42.4140     9.0350   -13.6960    66.0680     8.2550     9.4880     9.9540     2.3560 
  214.5000   206.3020    42.4660     9.0440   -13.5600    64.8190     8.2820     9.4700    10.3030     2.3620 
  214.6250   206.4160    42.5180     9.0540   -13.4790    62.8350     8.3010     9.4450    11.1130     2.3670 
  214.7500   206.5290    42.5700     9.0640   -13.4190    61.5510     8.3270     9.4600    11.5020     2.3710 
  214.8750   206.6420    42.6220     9.0740   -13.3690    61.0730     8.3320     9.4710    10.4460     2.3720 
  215.0000   206.7550    42.6740     9.0830   -13.3310    61.1660     8.3160     9.4560     9.8180     2.3700 
  215.1250   206.8680    42.7260     9.0930   -13.3230    61.4420     8.2820     9.4110     9.5520     2.3610 
  215.2500   206.9820    42.7780     9.1020   -13.3670    61.7890     8.2630     9.3980     9.4210     2.3470 
  215.3750   207.0950    42.8300     9.1120   -13.4860    62.4250     8.3420     9.4950     9.2610     2.3270 
  215.5000   207.2080    42.8820     9.1220   -13.6840    63.4370     8.4560     9.6470     9.3570     2.3010 
  215.6250   207.3210    42.9340     9.1320   -13.9690    63.9440     8.6450     9.8680     9.6190     2.2780 
  215.7500   207.4350    42.9860     9.1410   -14.3240    62.6830     8.8350    10.1150    10.0230     2.2640 
  215.8750   207.5480    43.0390     9.1510   -14.7400    61.3320     9.0310    10.3630    10.4460     2.2640 
  216.0000   207.6610    43.0910     9.1610   -15.1910    61.1480     9.1740    10.5490    11.1130     2.2720 
  216.1250   207.7740    43.1430     9.1710   -15.6580    61.2010     9.2840    10.6950    11.5830     2.2800 
  216.2500   207.8870    43.1950     9.1800   -16.1130    60.8680     9.3980    10.8350    11.9860     2.2810 
  216.3750   208.0010    43.2470     9.1900   -16.5250    60.7460     9.5250    11.0170    12.6650     2.2770 
  216.5000   208.1140    43.2990     9.2000   -16.8650    61.0990     9.6600    11.2160    13.3810     2.2760 
  216.6250   208.2270    43.3510     9.2090   -17.1010    61.6070     9.7820    11.4030    13.0180     2.2810 
  216.7500   208.3400    43.4030     9.2190   -17.2210    62.5600     9.7430    11.3540    12.6650     2.2880 
  216.8750   208.4530    43.4560     9.2290   -17.2190    64.2610     9.5020    11.0320    12.4060     2.2900 
  217.0000   208.5670    43.5080     9.2380   -17.1260    65.7920     9.0880    10.4830    11.6610     2.2820 
  217.1250   208.6800    43.5600     9.2480   -16.9810    66.6540     8.6320     9.8660    11.3060     2.2690 
  217.2500   208.7930    43.6120     9.2570   -16.8380    66.7580     8.2920     9.4400    10.5900     2.2560 
  217.3750   208.9060    43.6640     9.2670   -16.7420    66.3420     8.1410     9.2730    10.8360     2.2490 
  217.5000   209.0190    43.7160     9.2760   -16.7090    65.0510     8.2220     9.4170    11.3440     2.2450 
  217.6250   209.1330    43.7690     9.2860   -16.7360    63.1900     8.4330     9.7200    11.1890     2.2420 
  217.7500   209.2460    43.8210     9.2950   -16.7880    63.2550     8.6930    10.0500    11.0360     2.2380 
  217.8750   209.3590    43.8730     9.3050   -16.8260    65.0580     8.8530    10.2210    11.3840     2.2320 
  218.0000   209.4720    43.9250     9.3140   -16.8210    67.9510     8.9010    10.2490    11.5020     2.2270 
  218.1250   209.5850    43.9770     9.3240   -16.7580    69.8760     8.7880    10.0610    12.0690     2.2260 
  218.2500   209.6980    44.0290     9.3330   -16.6470    69.5680     8.6120     9.8160    12.4910     2.2290 
  218.3750   209.8120    44.0820     9.3430   -16.5060    67.1380     8.5340     9.7140    11.5060     2.2390 
  218.5000   209.9250    44.1340     9.3520   -16.3590    65.7040     8.6120     9.8230    10.8110     2.2530 
  218.6250   210.0380    44.1860     9.3620   -16.2250    66.8440     8.9640    10.2860    11.7480     2.2690 
  218.7500   210.1510    44.2380     9.3720   -16.1170    67.2750     9.4100    10.8850    12.8400     2.2830 
  218.8750   210.2640    44.2910     9.3810   -16.0450    65.3210     9.8580    11.5150    13.4760     2.2870 
  219.0000   210.3770    44.3430     9.3910   -16.0140    62.8590    10.1580    11.9390    14.1380     2.2800 
  219.1250   210.4900    44.3950     9.4000   -16.0350    62.9970    10.1980    12.0310    13.3820     2.2650 
  219.2500   210.6040    44.4480     9.4100   -16.1110    64.6680    10.1920    12.0080    13.3810     2.2510 
  219.3750   210.7170    44.5000     9.4200   -16.2470    65.1010    10.1660    12.0020    14.2870     2.2480 
  219.5000   210.8300    44.5520     9.4290   -16.4260    63.7600    10.3950    12.3410    16.0020     2.2580 
  219.6250   210.9430    44.6050     9.4390   -16.6190    61.7590    10.9860    13.1540    18.2410     2.2820 
  219.7500   211.0560    44.6570     9.4490   -16.7810    59.9250    11.9830    14.4390    19.4020     2.3140 
  219.8750   211.1690    44.7090     9.4590   -16.8630    57.3130    13.3560    16.1800    22.2660     2.3550 
  220.0000   211.2820    44.7620     9.4690   -16.8360    53.7150    14.9130    18.1250    23.2030     2.4020 
  220.1250   211.3950    44.8140     9.4790   -16.6840    50.7850    16.2650    19.7700    26.0970     2.4550 
  220.2500   211.5080    44.8670     9.4890   -16.4400    49.4540    16.9370    20.5520    24.1810     2.5050 
  220.3750   211.6210    44.9190     9.4990   -16.1500    49.9630    16.7730    20.2420    23.2030     2.5380 
  220.5000   211.7340    44.9720     9.5090   -15.8720    52.2780    15.7830    18.9000    22.2640     2.5410 
  220.6250   211.8470    45.0240     9.5180   -15.6510    56.5930    14.2150    16.8790    21.2170     2.5100 
  220.7500   211.9600    45.0770     9.5280   -15.4990    60.0570    12.6590    14.9140    20.5000     2.4530 
  220.8750   212.0730    45.1290     9.5380   -15.4040    60.5970    11.4200    13.4110    19.2730     2.3860 
  221.0000   212.1860    45.1820     9.5470   -15.3290    59.9370    10.6260    12.4820    17.8650     2.3230 
  221.1250   212.2990    45.2350     9.5570   -15.2390    60.7120    10.2830    12.1020    16.0080     2.2760 
  221.2500   212.4120    45.2870     9.5670   -15.1160    61.8190    10.0970    11.8690    13.7550     2.2480 
  221.3750   212.5250    45.3400     9.5760   -14.9620    61.5750    10.0240    11.7370    13.0180     2.2350 
  221.5000   212.6380    45.3930     9.5860   -14.7970    61.5830    10.0760    11.7330    13.5670     2.2310 
  221.6250   212.7510    45.4450     9.5950   -14.6520    62.8230    10.1430    11.7200    13.7550     2.2300 
  221.7500   212.8640    45.4980     9.6050   -14.5530    63.5910     9.9260    11.3650    13.8500     2.2340 
  221.8750   212.9770    45.5510     9.6150   -14.5240    63.0600     9.3580    10.6030    13.2000     2.2470 
  222.0000   213.0900    45.6030     9.6240   -14.5710    63.0550     8.5680     9.5900    12.1520     2.2660 
  222.1250   213.2030    45.6560     9.6340   -14.7010    65.5540     7.7460     8.6090    11.4640     2.2860 
  222.2500   213.3160    45.7090     9.6440   -14.9020    67.7960     7.1450     7.9360     9.8860     2.3000 
  222.3750   213.4290    45.7610     9.6530   -15.1680    67.1100     6.8080     7.6330     9.5750     2.3050 
  222.5000   213.5410    45.8140     9.6630   -15.4790    65.6910     6.6520     7.5440     9.0610     2.3050 
  222.6250   213.6540    45.8670     9.6730   -15.8150    67.8810     6.6520     7.6170     8.3820     2.3060 
  222.7500   213.7670    45.9200     9.6820   -16.1490    71.2090     6.6670     7.6670     9.3570     2.3090 
  222.8750   213.8800    45.9720     9.6920   -16.4520    70.4030     6.6290     7.6260     8.3840     2.3120 
  223.0000   213.9930    46.0250     9.7010   -16.7010    68.1250     6.6490     7.6520     8.0420     2.3120 
  223.1250   214.1060    46.0780     9.7110   -16.8720    70.2090     6.8390     7.8660    10.3190     2.3100 
  223.2500   214.2190    46.1310     9.7200   -16.9680    74.2530     7.2870     8.3980    12.4340     2.3050 
