~V
VERS. 2.00: Ver 2.00
~W
STRT.M 63.0000:
STOP.M 266.0000:
STEP.M 0.1250:
NULL. -999.2500:
UWI. FD10888:
~C
DEPT.M :
TVD. :
DX. :
DY. :
SP.MV :
GR.API :
RI. :
RML.OHMM :
RXO.OHMM :
DEN.GM/CC :
~A
# ...
  245.5000   242.9070   -15.2740   -19.4540    -7.1870    54.5630     2.8580     3.5270     2.6000     2.2150 
  245.6250   243.0280   -15.2920   -19.4800    -7.5420    62.1430     3.0500     3.7380     3.3040     2.2430 
  245.7500   243.1490   -15.3090   -19.5050    -8.0600    66.6250     3.2030     3.9050     3.8790     2.2580 
  245.8750   243.2700   -15.3270   -19.5300    -8.6240    66.8650     3.2970     4.0020     3.9860     2.2520 
  246.0000   243.3910   -15.3440   -19.5560    -9.0890    63.7850     3.3590     4.0670     3.7410     2.2380 
  246.1250   243.5120   -15.3620   -19.5810    -9.3750    60.8730     3.4430     4.1700     3.5800     2.2280 
  246.2500   243.6330   -15.3790   -19.6070    -9.7620    64.0200     3.5830     4.3470     3.8860     2.2270 
  246.3750   243.7550   -15.3970   -19.6320   -10.4320    74.0570     3.7850     4.6000     4.5490     2.2270 
  246.5000   243.8760   -15.4140   -19.6570   -11.2490    84.1280     4.0280     4.8990     5.2000     2.2210 
  246.6250   243.9970   -15.4310   -19.6830   -12.2300    86.9630     4.2650     5.1780     5.8000     2.2100 
  246.7500   244.1180   -15.4490   -19.7090   -12.7970    83.8580     4.4990     5.4470     6.3840     2.2000 
  246.8750   244.2390   -15.4660   -19.7340   -12.5140    81.3100     4.7270     5.7130     6.6250     2.1990 
  247.0000   244.3600   -15.4830   -19.7590   -11.9780    81.1780     4.9400     5.9770     6.3440     2.2060 
  247.1250   244.4810   -15.5010   -19.7850   -11.5680    82.2920     5.1160     6.2180     6.0010     2.2210 
  247.2500   244.6030   -15.5190   -19.8100   -11.3930    84.8560     5.2030     6.3450     6.3130     2.2360 
  247.3750   244.7240   -15.5360   -19.8350   -11.3220    89.1940     5.1160     6.2320     7.1530     2.2490 
  247.5000   244.8450   -15.5540   -19.8610   -11.2480    92.9850     4.8830     5.9290     7.4220     2.2560 
  247.6250   244.9660   -15.5710   -19.8860   -11.1310    91.2030     4.5470     5.4960     6.5760     2.2620 
  247.7500   245.0870   -15.5890   -19.9110   -10.9820    87.4900     4.2210     5.0880     5.4700     2.2710 
  247.8750   245.2080   -15.6060   -19.9360   -10.8370    85.3490     4.0200     4.8530     4.9300     2.2840 
  248.0000   245.3290   -15.6240   -19.9610   -10.7670    84.6960     3.9520     4.7850     4.8050     2.2940 
  248.1250   245.4510   -15.6420   -19.9870   -10.7540    85.2650     4.0120     4.8680     4.6990     2.2930 
  248.2500   245.5720   -15.6590   -20.0120   -10.8260    83.9760     4.1470     5.0330     4.6170     2.2820 
  248.3750   245.6930   -15.6770   -20.0370   -10.8880    81.8200     4.3010     5.2010     4.7590     2.2710 
  248.5000   245.8140   -15.6940   -20.0620   -10.8990    80.8740     4.4200     5.3120     5.0430     2.2660 
  248.6250   245.9350   -15.7120   -20.0880   -10.8660    80.1820     4.4450     5.2910     5.2560     2.2700 
  248.7500   246.0560   -15.7290   -20.1130   -10.9170    79.5710     4.3710     5.1470     5.3340     2.2800 
  248.8750   246.1780   -15.7470   -20.1380   -11.1320    78.9920     4.2020     4.8900     5.3320     2.2930 
  249.0000   246.2990   -15.7650   -20.1630   -11.4210    76.9560     3.9730     4.5790     5.2520     2.3050 
  249.1250   246.4200   -15.7830   -20.1880   -11.5390    71.8400     3.7390     4.2820     4.9850     2.3150 
  249.2500   246.5410   -15.8000   -20.2130   -11.6060    64.5660     3.5230     4.0220     4.5140     2.3260 
  249.3750   246.6620   -15.8180   -20.2380   -11.6340    57.9550     3.3560     3.8390     3.9870     2.3400 
  249.5000   246.7830   -15.8350   -20.2630   -11.6510    52.0320     3.2630     3.7520     3.6280     2.3540 
  249.6250   246.9050   -15.8530   -20.2890   -11.6790    48.1480     3.2280     3.7290     3.5540     2.3600 
  249.7500   247.0260   -15.8710   -20.3140   -11.6800    47.5430     3.2270     3.7310     3.6260     2.3600 
  249.8750   247.1470   -15.8880   -20.3390   -11.5910    47.7650     3.2400     3.7380     3.6600     2.3620 
  250.0000   247.2680   -15.9060   -20.3640   -11.4100    46.5330     3.2610     3.7540     3.6430     2.3730 
  250.1250   247.3890   -15.9230   -20.3900   -11.1770    46.1850     3.2980     3.7980     3.6350     2.3890 
  250.2500   247.5100   -15.9410   -20.4150   -10.9140    49.4760     3.3490     3.8610     3.6440     2.3960 
  250.3750   247.6320   -15.9580   -20.4400   -10.8130    54.0260     3.4100     3.9280     3.7670     2.3830 
  250.5000   247.7530   -15.9750   -20.4660   -10.8340    57.3240     3.5260     4.0520     4.0940     2.3570 
  250.6250   247.8740   -15.9930   -20.4910   -10.7790    57.2600     3.7920     4.3570     4.5070     2.3360 
  250.7500   247.9950   -16.0100   -20.5170   -10.5570    55.9240     4.2120     4.8590     5.0550     2.3420 
  250.8750   248.1160   -16.0280   -20.5420   -10.1770    54.3800     4.7800     5.5670     6.4670     2.3810 
  251.0000   248.2370   -16.0450   -20.5670    -9.8330    53.1970     5.3900     6.3550     8.5310     2.4300 
  251.1250   248.3590   -16.0620   -20.5920    -9.7730    51.3460     5.8350     6.9000     9.5860     2.4660 
  251.2500   248.4800   -16.0790   -20.6180    -9.7430    47.6190     5.9770     7.0260     9.0910     2.4750 
  251.3750   248.6010   -16.0970   -20.6430    -9.7140    44.4810     5.8510     6.7930     7.9870     2.4570 
  251.5000   248.7220   -16.1140   -20.6680    -9.6840    44.8430     5.5980     6.4000     7.1280     2.4250 
  251.6250   248.8430   -16.1310   -20.6930    -9.6540    47.4460     5.4920     6.2480     6.5510     2.3960 
  251.7500   248.9650   -16.1480   -20.7190    -9.6240    49.4160     5.6690     6.4080     6.2190     2.3860 
  251.8750   249.0860   -16.1660   -20.7440    -9.5950    48.2010     6.0200     6.7160     6.5830     2.4010 
  252.0000   249.2070   -16.1830   -20.7690    -9.5650    46.4390     6.3320     7.0520     7.5550     2.4330 
  252.1250   249.3280   -16.2000   -20.7940    -9.5350    46.2890     6.3690     7.1460     8.4370     2.4670 
  252.2500   249.4490   -16.2170   -20.8190    -9.5060    46.9880     6.0350     6.8660     8.6340     2.4820 
  252.3750   249.5710   -16.2350   -20.8450    -9.4760    47.0480     5.4180     6.2490     7.7310     2.4640 
  252.5000   249.6920   -16.2520   -20.8700    -9.4460    45.6620     4.7460     5.4630     6.1670     2.4180 
  252.6250   249.8130   -16.2690   -20.8950    -9.4170    45.0960     4.2070     4.8080     4.8620     2.3630 
  252.7500   249.9340   -16.2870   -20.9200    -9.3870    45.2250     3.8880     4.4230     4.1480     2.3200 
  252.8750   250.0550   -16.3040   -20.9450    -9.3570    46.8330     3.8370     4.3590     3.8670     2.2940 
  253.0000   250.1770   -16.3220   -20.9700    -9.3270    49.2540     4.0630     4.6300     3.8550     2.2760 
  253.1250   250.2980   -16.3390   -20.9950    -9.2980    52.1000     4.4890     5.1510     4.2930     2.2660 
  253.2500   250.4190   -16.3570   -21.0210    -9.2680    56.4460     4.9280     5.6960     5.5200     2.2620 
  253.3750   250.5400   -16.3740   -21.0460    -9.2380    63.6670     5.1430     5.9550     6.9460     2.2570 
  253.5000   250.6610   -16.3920   -21.0710    -9.2090    69.6550     5.0150     5.7770     6.9560     2.2330 
  253.6250   250.7830   -16.4090   -21.0960    -9.1790    68.9710     4.5230     5.1570     5.3740     2.1810 
  253.7500   250.9040   -16.4270   -21.1210    -9.1490    63.6480     3.8980     4.3930     3.7920     2.1090 
  253.8750   251.0250   -16.4450   -21.1460    -9.1190    57.3840     3.3370     3.7440     2.8660     2.0400 
  254.0000   251.1460   -16.4620   -21.1720    -9.0900    52.2210     3.0180     3.4130     2.3390     1.9950 
  254.1250   251.2670   -16.4800   -21.1970    -9.0600    48.5250     3.0100     3.4590     2.1620     1.9940 
  254.2500   251.3880   -16.4970   -21.2220    -9.0300    47.0880     3.2230     3.7590     2.3580     2.0300 
  254.3750   251.5100   -16.5150   -21.2470    -9.0010    47.2270     3.5450     4.1650     3.0510     2.0810 
  254.5000   251.6310   -16.5320   -21.2720    -8.9710    46.5860     3.8730     4.5540     3.9840     2.1210 
