~V
VERS. 2.00: Ver 2.00
~W
STRT.M 32.0000:
STOP.M 269.0000:
STEP.M 0.1250:
NULL. -999.2500:
UWI. FD10881:
~C
DEPT.M :
TVD. :
DX. :
DY. :
SP.MV :
GR.API :
RI. :
RML.OHMM :
RXO.OHMM :
~A
# ...
  242.0000   221.8140   -67.5440   -35.6780   -13.4390    75.1180     4.1820     5.8980    10.4390 
  242.1250   221.9140   -67.6090   -35.7160   -12.9850    77.3330     4.0090     5.6440     9.4900 
  242.2500   222.0130   -67.6750   -35.7550   -11.9090    77.8210     3.8000     5.3430     7.8010 
  242.3750   222.1120   -67.7400   -35.7930   -10.7350    77.6650     3.6210     5.0840     6.6860 
  242.5000   222.2110   -67.8060   -35.8320    -9.9490    78.4000     3.5090     4.9340     5.7480 
  242.6250   222.3100   -67.8710   -35.8720    -9.7390    78.9500     3.4830     4.9020     5.2260 
  242.7500   222.4090   -67.9360   -35.9110   -10.3550    79.2700     3.5300     4.9720     5.2200 
  242.8750   222.5090   -68.0010   -35.9500   -11.4930    79.3980     3.6390     5.1150     5.5730 
  243.0000   222.6080   -68.0660   -35.9900   -12.7380    78.6830     3.7790     5.2780     5.9070 
  243.1250   222.7070   -68.1310   -36.0300   -13.8780    78.6920     3.9490     5.4780     5.7590 
  243.2500   222.8060   -68.1960   -36.0700   -14.5830    79.7940     4.1400     5.6930     5.6310 
  243.3750   222.9050   -68.2610   -36.1100   -14.9990    80.7060     4.3240     5.9240     6.0490 
  243.5000   223.0040   -68.3260   -36.1490   -15.5010    80.2240     4.4880     6.1200     6.4810 
  243.6250   223.1030   -68.3910   -36.1890   -15.9970    79.3870     4.5580     6.2020     6.5600 
  243.7500   223.2020   -68.4560   -36.2290   -16.2310    80.0750     4.4810     6.0760     7.3550 
  243.8750   223.3010   -68.5210   -36.2700   -16.3510    81.5280     4.2780     5.7560     8.6600 
  244.0000   223.4000   -68.5850   -36.3100   -16.2380    81.3810     4.0080     5.3600     8.7210 
  244.1250   223.4990   -68.6490   -36.3510   -15.5820    78.2020     3.7500     4.9990     7.6170 
  244.2500   223.5980   -68.7140   -36.3920   -14.6150    75.2300     3.6000     4.8090     6.1800 
  244.3750   223.6970   -68.7780   -36.4330   -14.0440    75.2070     3.5440     4.7560     5.1090 
  244.5000   223.7970   -68.8420   -36.4740   -14.0820    77.7050     3.5770     4.8300     4.7230 
  244.6250   223.8960   -68.9060   -36.5150   -14.4550    79.0530     3.6630     4.9600     5.3900 
  244.7500   223.9950   -68.9700   -36.5560   -14.8290    78.3610     3.7750     5.1260     6.7640 
  244.8750   224.0940   -69.0340   -36.5980   -14.6530    77.1810     3.8920     5.2700     6.9390 
  245.0000   224.1930   -69.0980   -36.6390   -14.8100    77.5460     4.0020     5.3690     6.1420 
  245.1250   224.2920   -69.1620   -36.6800   -15.8240    77.8660     4.1550     5.5010     5.9860 
  245.2500   224.3920   -69.2260   -36.7210   -16.8510    76.8270     4.3790     5.7170     6.5120 
  245.3750   224.4910   -69.2900   -36.7630   -17.1920    75.0500     4.6910     6.0760     6.8890 
  245.5000   224.5900   -69.3540   -36.8040   -16.8480    74.2450     5.1140     6.6020     6.5230 
  245.6250   224.6890   -69.4170   -36.8450   -16.3830    75.5210     5.6030     7.2210     6.8070 
  245.7500   224.7890   -69.4810   -36.8860   -16.2940    77.8210     6.1070     7.8420     9.8270 
  245.8750   224.8880   -69.5450   -36.9270   -16.8080    78.8350     6.4170     8.1950    13.6420 
  246.0000   224.9870   -69.6090   -36.9690   -17.5680    78.5460     6.3930     8.1220    15.6270 
  246.1250   225.0860   -69.6720   -37.0100   -18.2370    79.5000     6.0520     7.6660    16.2190 
  246.2500   225.1860   -69.7360   -37.0520   -18.4340    80.5650     5.5090     6.9630    15.4400 
  246.3750   225.2850   -69.8000   -37.0930   -17.9600    79.9280     4.9740     6.2900    12.7550 
  246.5000   225.3840   -69.8640   -37.1340   -16.4670    78.1140     4.5700     5.8000     9.6650 
  246.6250   225.4830   -69.9280   -37.1760   -14.6250    75.9570     4.3110     5.4880     7.7680 
  246.7500   225.5820   -69.9910   -37.2170   -13.3840    74.2240     4.1980     5.3540     6.6250 
  246.8750   225.6820   -70.0550   -37.2590   -13.0960    74.9110     4.1730     5.3280     6.3640 
  247.0000   225.7810   -70.1190   -37.3000   -13.5380    78.0600     4.1780     5.2910     7.0890 
  247.1250   225.8800   -70.1830   -37.3420   -13.8370    78.6990     4.1830     5.2630     7.4490 
  247.2500   225.9790   -70.2470   -37.3830   -13.0080    76.3030     4.2160     5.2680     6.8360 
  247.3750   226.0780   -70.3110   -37.4240   -12.1160    75.3580     4.2620     5.3110     6.1820 
  247.5000   226.1770   -70.3750   -37.4650   -12.1160    76.9640     4.3320     5.4040     5.9810 
  247.6250   226.2760   -70.4390   -37.5060   -12.6250    78.2270     4.3920     5.4670     6.0160 
  247.7500   226.3750   -70.5030   -37.5480   -13.4820    77.5080     4.4170     5.4890     6.3070 
  247.8750   226.4740   -70.5670   -37.5890   -14.1460    77.7340     4.4100     5.4840     6.4730 
  248.0000   226.5740   -70.6310   -37.6300   -13.7820    80.1080     4.3860     5.4600     6.4150 
  248.1250   226.6730   -70.6950   -37.6720   -13.6420    80.8280     4.3590     5.4410     6.5390 
  248.2500   226.7720   -70.7590   -37.7130   -14.4100    79.2880     4.3760     5.4520     6.6750 
  248.3750   226.8710   -70.8240   -37.7540   -15.3250    78.1600     4.4780     5.5530     6.7500 
  248.5000   226.9700   -70.8880   -37.7950   -15.9370    78.8380     4.6820     5.7740     7.0470 
  248.6250   227.0690   -70.9520   -37.8370   -16.2620    78.8480     5.0180     6.1920     7.3620 
  248.7500   227.1680   -71.0160   -37.8780   -16.2620    79.0110     5.4710     6.7490     7.4640 
  248.8750   227.2670   -71.0800   -37.9190   -16.3140    79.7710     5.9480     7.3320     7.7080 
  249.0000   227.3660   -71.1430   -37.9610   -16.5810    77.9720     6.2920     7.7090     8.8310 
  249.1250   227.4660   -71.2070   -38.0030   -16.8710    75.0910     6.4150     7.8030    10.4800 
  249.2500   227.5650   -71.2700   -38.0450   -17.3360    75.9840     6.2670     7.5910    11.7650 
  249.3750   227.6640   -71.3330   -38.0880   -17.8960    79.0190     5.9320     7.1640    12.1770 
  249.5000   227.7630   -71.3970   -38.1300   -18.1750    80.5570     5.5200     6.6690    11.6740 
  249.6250   227.8620   -71.4600   -38.1720   -18.2740    80.8640     5.1750     6.2570    11.0380 
  249.7500   227.9620   -71.5230   -38.2140   -18.3320    82.6400     4.9460     5.9850    10.5080 
  249.8750   228.0610   -71.5860   -38.2570   -18.2750    83.6650     4.8690     5.8810     9.4370 
  250.0000   228.1600   -71.6490   -38.3000   -18.0830    82.3340     4.8490     5.8630     7.8510 
  250.1250   228.2590   -71.7110   -38.3430   -17.9310    81.8980     4.8200     5.8370     7.1940 
  250.2500   228.3590   -71.7740   -38.3860   -17.9570    83.2330     4.7630     5.7710     7.9870 
  250.3750   228.4580   -71.8360   -38.4290   -17.8780    83.5490     4.6730     5.6560     8.3760 
  250.5000   228.5570   -71.8990   -38.4720   -17.5660    81.3650     4.5820     5.5180     7.9500 
  250.6250   228.6570   -71.9610   -38.5150   -17.3630    79.5940     4.5030     5.4010     8.8360 
  250.7500   228.7560   -72.0230   -38.5590   -17.4440    79.6070     4.4910     5.3760     9.9760 
  250.8750   228.8560   -72.0850   -38.6020   -17.5240    79.5590     4.5550     5.4460     9.0000 
  251.0000   228.9550   -72.1460   -38.6460   -17.6770    80.1370     4.6660     5.5870     7.4070 
  251.1250   229.0550   -72.2080   -38.6900   -17.8300    82.3890     4.7960     5.7410     6.7410 
  251.2500   229.1540   -72.2700   -38.7330   -18.1480    84.2580     4.8950     5.8560     6.5750 
  251.3750   229.2540   -72.3320   -38.7770   -18.6490    84.7730     4.9810     5.9500     6.8610 
  251.5000   229.3530   -72.3940   -38.8200   -18.9440    84.6010     5.0880     6.0820     7.5820 
  251.6250   229.4530   -72.4560   -38.8640   -18.8160    84.7180     5.1900     6.1990     8.0930 
  251.7500   229.5530   -72.5170   -38.9070   -18.3420    84.4010     5.2640     6.2940     8.1000 
  251.8750   229.6520   -72.5790   -38.9510   -17.6310    84.0550     5.2900     6.3350     7.8680 
