~V
VERS. 2.00: Ver 2.00
~W
STRT.M 24.0000:
STOP.M 269.0000:
STEP.M 0.1250:
NULL. -999.2500:
UWI. FD10666:
~C
DEPT.M :
TVD. :
DX. :
DY. :
GR.API :
RML.OHMM :
RI. :
RXO.OHMM :
CALI.CM :
DEN.GM/CC :
SP.MV :
~A
# ...
  213.7500   202.8330    50.6080    25.2430    72.8020     9.1300     8.4910     9.3340    20.2630     2.4400   -13.1800 
  213.8750   202.9410    50.6660    25.2680    74.1720     9.3500     8.9380     9.0310    20.2720     2.4390   -13.3400 
  214.0000   203.0490    50.7230    25.2930    78.9850     9.3620     9.1520     8.7350    20.2710     2.4370   -13.5600 
  214.1250   203.1580    50.7800    25.3190    90.3870     9.2570     9.1760     8.5550    20.2710     2.4370   -13.8420 
  214.2500   203.2660    50.8370    25.3440   100.6790     9.1590     9.1450     8.5540    20.2790     2.4380   -14.1650 
  214.3750   203.3740    50.8940    25.3690   104.6410     9.1390     9.1390     8.6980    20.3000     2.4390   -14.5290 
  214.5000   203.4820    50.9520    25.3950   104.1170     9.2460     9.2070     8.9440    20.3360     2.4380   -14.9160 
  214.6250   203.5900    51.0090    25.4200   103.6250     9.5290     9.3840     9.1540    20.3760     2.4350   -15.3090 
  214.7500   203.6990    51.0660    25.4450   102.6950     9.9380     9.6270     9.3360    20.4050     2.4300   -15.6970 
  214.8750   203.8070    51.1230    25.4710    99.2500    10.4120     9.8870     9.4920    20.4130     2.4260   -16.0680 
  215.0000   203.9150    51.1810    25.4960    94.0380    10.8630    10.0980     9.7450    20.4140     2.4220   -16.4040 
  215.1250   204.0230    51.2380    25.5210    91.3980    11.1760    10.1730    10.2030    20.4130     2.4200   -16.6800 
  215.2500   204.1310    51.2950    25.5470    92.7100    11.3160    10.1050    10.6380    20.4130     2.4160   -16.9040 
  215.3750   204.2400    51.3520    25.5720    95.5310    11.3060     9.9230    10.8160    20.4140     2.4110   -17.0810 
  215.5000   204.3480    51.4100    25.5970    96.6180    11.2290     9.7030    10.6520    20.4140     2.4040   -17.2200 
  215.6250   204.4560    51.4670    25.6220    95.5870    11.2520     9.5750    10.4110    20.4120     2.3970   -17.3280 
  215.7500   204.5640    51.5240    25.6480    94.4170    11.5250     9.6470    10.3410    20.4090     2.3920   -17.4290 
  215.8750   204.6720    51.5810    25.6730    94.8300    12.1680    10.0010    10.4440    20.4070     2.3930   -17.5370 
  216.0000   204.7810    51.6390    25.6980    94.5630    13.2610    10.6990    10.6850    20.4170     2.4020   -17.6700 
  216.1250   204.8890    51.6960    25.7240    89.3120    14.9130    11.8500    11.3760    20.4540     2.4160   -17.8430 
  216.2500   204.9970    51.7530    25.7490    80.7090    17.0160    13.3990    12.7400    20.5070     2.4280   -18.0430 
  216.3750   205.1050    51.8100    25.7740    72.9060    19.5020    15.3190    14.6710    20.5440     2.4280   -18.2570 
  216.5000   205.2130    51.8680    25.8000    68.4810    22.2740    17.5480    15.8620    20.5120     2.4120   -18.4880 
  216.6250   205.3220    51.9250    25.8250    65.1190    25.2490    20.0220    17.2140    20.3370     2.3800   -18.7460 
  216.7500   205.4300    51.9820    25.8500    62.5330    28.3220    22.6120    19.0440    20.0720     2.3480   -19.0180 
  216.8750   205.5380    52.0390    25.8760    61.6620    31.4810    25.2790    20.1980    19.8030     2.3220   -19.3020 
  217.0000   205.6460    52.0970    25.9010    62.9860    34.7590    28.0390    20.1490    19.6300     2.3070   -19.5910 
  217.1250   205.7540    52.1540    25.9260    65.3430    38.2500    30.9800    19.8680    19.5780     2.3000   -19.8890 
  217.2500   205.8630    52.2110    25.9510    66.1330    41.9820    34.1420    19.7750    19.5670     2.2950   -20.2010 
  217.3750   205.9710    52.2680    25.9770    65.8830    45.9700    37.5510    20.1480    19.5650     2.2900   -20.5190 
  217.5000   206.0790    52.3260    26.0020    65.4500    50.1880    41.1910    21.4020    19.5650     2.2860   -20.8220 
  217.6250   206.1870    52.3830    26.0270    62.9820    54.6450    45.0550    22.6820    19.5670     2.2830   -21.0960 
  217.7500   206.2950    52.4400    26.0530    58.9010    59.2990    49.0920    22.6790    19.5720     2.2800   -21.3490 
  217.8750   206.4040    52.4970    26.0780    55.9790    64.0850    53.2650    21.9050    19.5810     2.2770   -21.5760 
  218.0000   206.5120    52.5550    26.1030    55.7510    68.7250    57.4020    21.3030    19.5930     2.2720   -21.7790 
  218.1250   206.6200    52.6120    26.1290    55.9190    72.3980    60.9220    21.2570    19.6030     2.2670   -21.9510 
  218.2500   206.7280    52.6690    26.1540    54.4330    74.4390    63.2480    21.7410    19.6030     2.2620   -22.0930 
  218.3750   206.8360    52.7260    26.1790    53.2020    74.5280    64.0100    22.9620    19.5840     2.2590   -22.2170 
  218.5000   206.9450    52.7840    26.2050    54.1510    73.1050    63.4090    24.6090    19.5510     2.2590   -22.3440 
  218.6250   207.0530    52.8410    26.2300    55.8910    71.5850    62.4320    25.4160    19.5060     2.2610   -22.4900 
  218.7500   207.1610    52.8980    26.2550    54.4050    71.5760    62.4700    25.1220    19.4670     2.2640   -22.6440 
  218.8750   207.2690    52.9550    26.2800    51.5360    73.7970    64.2730    24.1260    19.4430     2.2650   -22.8060 
  219.0000   207.3770    53.0130    26.3060    51.2330    78.0060    67.8470    24.3290    19.4330     2.2630   -22.9800 
  219.1250   207.4850    53.0700    26.3310    54.5380    83.0020    72.4150    25.9460    19.4280     2.2570   -23.1560 
  219.2500   207.5940    53.1270    26.3560    56.8390    86.9150    76.3830    27.4670    19.4230     2.2520   -23.3360 
  219.3750   207.7020    53.1840    26.3820    57.9960    88.5570    78.6000    28.2760    19.4280     2.2510   -23.5200 
  219.5000   207.8100    53.2420    26.4070    60.4150    87.7610    78.6640    27.4670    19.4590     2.2550   -23.6970 
  219.6250   207.9180    53.2990    26.4320    62.2210    85.6970    77.2720    27.3890    19.5270     2.2640   -23.8710 
  219.7500   208.0260    53.3560    26.4580    61.7480    84.5310    76.3160    28.4730    19.6230     2.2730   -24.0440 
  219.8750   208.1350    53.4130    26.4830    60.5770    85.4450    76.9990    29.9660    19.7170     2.2800   -24.2090 
  220.0000   208.2430    53.4710    26.5080    59.8540    88.6600    79.7620    30.9680    19.7650     2.2810   -24.3650 
  220.1250   208.3510    53.5280    26.5340    58.6730    93.5750    84.3610    29.9570    19.7750     2.2740   -24.5170 
  220.2500   208.4590    53.5850    26.5590    57.1030    98.4150    89.2820    30.1820    19.7750     2.2610   -24.6630 
  220.3750   208.5670    53.6420    26.5840    56.3200   101.7660    93.2260    32.3770    19.7800     2.2450   -24.8020 
  220.5000   208.6760    53.7000    26.6090    55.4150   102.6500    95.1850    36.2930    19.7920     2.2310   -24.9390 
  220.6250   208.7840    53.7570    26.6350    53.8700   101.0860    94.4400    40.7780    19.8210     2.2260   -25.0630 
  220.7500   208.8920    53.8140    26.6600    52.9580    98.1030    91.9590    42.6040    19.8640     2.2290   -25.1810 
  220.8750   209.0000    53.8710    26.6850    52.6720    94.9410    88.7450    39.3170    19.9180     2.2380   -25.3070 
  221.0000   209.1080    53.9290    26.7110    52.8700    93.0610    85.7560    33.3470    19.9790     2.2510   -25.4330 
  221.1250   209.2170    53.9860    26.7360    54.0030    90.6640    83.7140    29.1850    20.0360     2.2610   -25.5540 
  221.2500   209.3250    54.0430    26.7610    55.6570    88.4140    82.4750    27.6200    20.0810     2.2660   -25.6660 
  221.3750   209.4330    54.1000    26.7870    57.8440    87.4510    81.6620    26.9740    20.1090     2.2650   -25.7650 
  221.5000   209.5410    54.1580    26.8120    59.2740    86.1220    80.7630    26.7710    20.1250     2.2610   -25.8480 
  221.6250   209.6490    54.2150    26.8370    59.2000    84.5540    79.2330    26.6570    20.1290     2.2550   -25.9130 
  221.7500   209.7580    54.2720    26.8630    58.4900    82.3980    77.0690    26.1910    20.1270     2.2520   -25.9690 
  221.8750   209.8660    54.3290    26.8880    58.2290    79.9260    74.6030    25.4480    20.1240     2.2500   -26.0270 
