~V
VERS. 2.00: Ver 2.00
~W
STRT.M 22.0000:
STOP.M 238.0000:
STEP.M 0.1250:
NULL. -999.2500:
UWI. FD10612:
~C
DEPT.M :
TVD. :
DX. :
DY. :
GR.API :
RML.OHMM :
RI. :
RXO.OHMM :
CALI.CM :
DEN.GM/CC :
SP.MV :
~A
# ...
  129.2500   126.8790    14.2210    10.5270    66.9760    40.4190    36.7640    21.0360    22.2570     2.1620   -11.0740 
  129.3750   126.9930    14.2650    10.5520    64.1480    43.1670    39.1360    23.7390    22.2730     2.1530   -10.5360 
  129.5000   127.1070    14.3100    10.5770    62.2950    46.8900    42.5480    26.7030    22.2890     2.1450   -10.2090 
  129.6250   127.2200    14.3540    10.6030    61.6080    50.8630    46.4780    29.3720    22.2190     2.1360    -9.9880 
  129.7500   127.3340    14.3990    10.6280    59.8290    54.0140    49.8630    31.7060    22.0890     2.1250    -9.7670 
  129.8750   127.4480    14.4430    10.6540    58.4650    55.6120    51.8450    31.1070    21.9620     2.1120    -9.5950 
  130.0000   127.5620    14.4880    10.6790    59.2590    55.5070    52.0780    27.9510    21.9040     2.1060    -9.3980 
  130.1250   127.6760    14.5330    10.7040    59.7960    54.2120    50.9140    24.4870    21.8430     2.1320    -9.2780 
  130.2500   127.7900    14.5770    10.7300    56.8390    53.0090    49.6670    23.7270    21.7080     2.2070    -9.2450 
  130.3750   127.9030    14.6220    10.7550    51.4010    52.7250    49.2230    29.0470    21.5610     2.3310    -9.2740 
  130.5000   128.0170    14.6660    10.7800    47.8550    53.7180    50.0670    38.0530    21.5010     2.4830    -9.3070 
  130.6250   128.1310    14.7110    10.8060    49.7320    55.7640    52.2190    40.0310    21.5860     2.6180    -9.2600 
  130.7500   128.2450    14.7550    10.8310    52.9770    57.6270    54.5390    40.0470    21.6870     2.7030    -9.1330 
  130.8750   128.3590    14.8000    10.8560    52.9710    58.1440    55.8010    40.4660    21.7620     2.7320    -8.9820 
  131.0000   128.4720    14.8440    10.8820    49.4320    56.5780    55.0710    40.9430    21.7890     2.7140    -8.8770 
  131.1250   128.5860    14.8890    10.9070    47.0610    52.8550    52.0170    38.5600    21.7300     2.6730    -8.7300 
  131.2500   128.7000    14.9340    10.9320    47.8980    48.3700    47.9880    33.7500    21.6290     2.6330    -8.6160 
  131.3750   128.8140    14.9780    10.9580    48.7680    44.1540    44.0690    29.5350    21.6030     2.6030    -8.5950 
  131.5000   128.9280    15.0230    10.9830    47.6490    40.8090    40.9330    28.4610    21.6790     2.5830    -8.6040 
  131.6250   129.0410    15.0670    11.0090    47.1530    38.5550    38.8270    28.4190    21.8580     2.5650    -8.7960 
  131.7500   129.1550    15.1120    11.0340    47.6950    36.9750    37.3720    26.7800    21.9950     2.5450    -9.0590 
  131.8750   129.2690    15.1560    11.0590    48.3870    35.8220    36.3430    24.1730    21.9970     2.5270    -9.2410 
  132.0000   129.3830    15.2010    11.0850    50.3140    34.9710    35.5960    22.5360    21.8540     2.5170    -9.3820 
  132.1250   129.4970    15.2450    11.1100    52.9290    34.5140    35.1880    23.5970    21.7290     2.5220    -9.4600 
  132.2500   129.6110    15.2900    11.1350    53.4820    34.5200    35.2120    26.3760    21.6900     2.5310    -9.5020 
  132.3750   129.7240    15.3340    11.1610    51.5180    35.0670    35.7720    29.6620    21.7820     2.5350    -9.4870 
  132.5000   129.8380    15.3790    11.1860    49.4430    36.1070    36.8660    30.5630    22.0040     2.5310    -9.4980 
  132.6250   129.9520    15.4240    11.2110    48.9580    37.3860    38.3320    29.6780    22.1920     2.5280    -9.5660 
  132.7500   130.0660    15.4680    11.2370    49.3780    38.3610    39.6160    31.0140    22.1780     2.5370    -9.7130 
  132.8750   130.1800    15.5130    11.2620    50.0480    38.5680    40.1330    32.8910    22.0600     2.5540    -9.9780 
  133.0000   130.2930    15.5570    11.2870    50.7490    37.7860    39.5150    34.1630    21.9310     2.5690   -10.3330 
  133.1250   130.4070    15.6020    11.3130    51.3710    36.1690    37.8270    33.6720    21.8430     2.5680   -10.8840 
  133.2500   130.5210    15.6460    11.3380    51.6820    34.5140    35.9590    29.4580    21.8230     2.5560   -11.3930 
  133.3750   130.6350    15.6910    11.3640    51.6120    33.4520    34.6340    24.9700    21.8700     2.5480   -11.8150 
  133.5000   130.7490    15.7350    11.3890    49.8260    33.3640    34.3250    24.7110    21.9170     2.5560   -12.3200 
  133.6250   130.8620    15.7800    11.4140    46.2240    34.3390    35.2480    27.2330    21.9090     2.5830   -12.8830 
  133.7500   130.9760    15.8250    11.4400    43.7430    35.7050    36.7650    29.4870    21.8980     2.6130   -13.4290 
  133.8750   131.0900    15.8690    11.4650    45.2360    36.8230    38.1940    31.2860    21.8720     2.6350   -13.9690 
  134.0000   131.2040    15.9140    11.4900    48.8690    37.1890    38.8720    32.0340    21.8140     2.6440   -14.3720 
  134.1250   131.3180    15.9580    11.5160    50.9700    36.5670    38.3790    31.7020    21.7470     2.6430   -14.7080 
  134.2500   131.4310    16.0030    11.5410    52.7850    35.4650    37.2720    30.5300    21.7220     2.6410   -15.1210 
  134.3750   131.5450    16.0470    11.5660    54.4660    34.3290    36.0780    29.7820    21.7450     2.6430   -15.5660 
  134.5000   131.6590    16.0920    11.5920    53.8500    33.4520    35.1310    29.4130    21.8060     2.6470   -15.9030 
  134.6250   131.7730    16.1360    11.6170    51.0090    32.9380    34.5510    29.6120    21.8450     2.6460   -16.2120 
  134.7500   131.8870    16.1810    11.6430    48.4630    32.6140    34.1770    31.7720    21.8640     2.6360   -16.6360 
  134.8750   132.0010    16.2250    11.6680    46.5030    32.3380    33.8800    32.4360    21.8300     2.6230   -17.0290 
  135.0000   132.1140    16.2700    11.6930    45.2440    31.9970    33.5510    26.5510    21.7100     2.6150   -17.4180 
  135.1250   132.2280    16.3150    11.7190    47.1120    31.4920    33.0840    24.8110    21.6140     2.6160   -17.6040 
  135.2500   132.3420    16.3590    11.7440    50.7390    30.8410    32.4560    25.5890    21.6190     2.6190   -17.6620 
  135.3750   132.4560    16.4040    11.7690    53.6260    30.1110    31.7050    25.5740    21.7090     2.6130   -17.6700 
  135.5000   132.5700    16.4480    11.7950    53.6770    29.4350    30.9470    24.5360    21.7910     2.5920   -17.6170 
  135.6250   132.6830    16.4930    11.8200    51.2820    29.0630    30.4180    21.0490    21.8210     2.5640   -17.4450 
  135.7500   132.7970    16.5370    11.8450    49.6230    29.1510    30.3020    19.6490    21.8090     2.5480   -17.1990 
  135.8750   132.9110    16.5820    11.8710    49.0960    29.8000    30.7410    20.1700    21.7650     2.5550   -17.1080 
  136.0000   133.0250    16.6260    11.8960    48.8900    30.9880    31.7640    22.4050    21.7210     2.5820   -17.0700 
  136.1250   133.1390    16.6710    11.9210    48.5870    32.5590    33.2650    24.4260    21.7030     2.6180   -17.0930 
  136.2500   133.2520    16.7160    11.9470    49.0720    34.1150    34.8120    27.1010    21.7010     2.6490   -17.1860 
  136.3750   133.3660    16.7600    11.9720    50.8280    35.3640    36.0520    29.4500    21.7150     2.6700   -17.2170 
  136.5000   133.4800    16.8050    11.9980    52.9450    36.1390    36.7670    30.5520    21.7520     2.6840   -17.2690 
  136.6250   133.5940    16.8490    12.0230    54.6230    36.4260    36.9240    29.9040    21.7930     2.6940   -17.3250 
  136.7500   133.7080    16.8940    12.0480    55.3430    36.5420    36.8770    27.8140    21.7740     2.7020   -17.2240 
  136.8750   133.8220    16.9380    12.0740    54.5740    36.7570    36.9240    24.7580    21.7040     2.7050   -17.0410 
  137.0000   133.9350    16.9830    12.0990    53.3490    37.2480    37.2920    22.8160    21.6260     2.7050   -16.8880 
  137.1250   134.0490    17.0270    12.1240    52.7870    37.9820    38.0300    24.5300    21.6160     2.7080   -16.8040 
  137.2500   134.1630    17.0720    12.1500    53.3880    38.5150    38.7040    28.2820    21.6330     2.7170   -16.7150 
  137.3750   134.2770    17.1160    12.1750    54.0600    38.3230    38.7310    31.3030    21.6680     2.7290   -16.6570 
