~V
VERS. 2.00: Ver 2.00
~W
STRT.M 53.0000:
STOP.M 258.0000:
STEP.M 0.1250:
NULL. -999.2500:
UWI. FD10870:
~C
DEPT.M :
TVD. :
DX. :
DY. :
SP.MV :
GR.API :
RI. :
RML.OHMM :
RXO.OHMM :
DEN.GM/CC :
~A
# ...
  244.6250   229.1790   -53.9840    21.3800     1.5910   100.0900     4.3690     4.8240     5.3820     2.3370 
  244.7500   229.2810   -54.0370    21.4280     1.5910    95.1480     4.1810     4.6010     5.1580     2.3450 
  244.8750   229.3840   -54.0910    21.4760     1.5910    92.7690     4.0470     4.4670     5.1260     2.3460 
  245.0000   229.4860   -54.1440    21.5240     1.5910    90.5090     3.9780     4.4030     4.7680     2.3440 
  245.1250   229.5890   -54.1970    21.5720     1.5910    88.4950     3.9250     4.3600     4.5100     2.3490 
  245.2500   229.6910   -54.2500    21.6200     1.5910    86.4670     3.8670     4.3060     4.7810     2.3610 
  245.3750   229.7940   -54.3020    21.6680     1.5910    84.7580     3.8080     4.2480     5.1820     2.3650 
  245.5000   229.8960   -54.3550    21.7170     1.5910    82.1770     3.7850     4.2340     5.1410     2.3480 
  245.6250   229.9990   -54.4080    21.7650     1.5910    80.6310     3.8170     4.2670     4.8520     2.3300 
  245.7500   230.1010   -54.4610    21.8130     1.5910    80.2550     3.8930     4.3530     4.8360     2.3260 
  245.8750   230.2040   -54.5140    21.8610     1.5910    82.6090     3.9960     4.4590     5.1270     2.3370 
  246.0000   230.3060   -54.5670    21.9100     1.5910    85.4290     4.1040     4.5680     5.3330     2.3490 
  246.1250   230.4090   -54.6200    21.9580     1.5910    88.4820     4.1760     4.6320     5.2590     2.3590 
  246.2500   230.5110   -54.6730    22.0060     1.5910    90.6630     4.2030     4.6460     5.1980     2.3660 
  246.3750   230.6130   -54.7260    22.0540     1.5910    92.0010     4.1930     4.6090     5.2380     2.3690 
  246.5000   230.7160   -54.7790    22.1030     1.5910    92.1390     4.1530     4.5470     5.2160     2.3730 
  246.6250   230.8180   -54.8320    22.1510     1.5910    90.6680     4.0960     4.4770     5.2590     2.3860 
  246.7500   230.9210   -54.8850    22.1990     1.5910    89.1910     4.0590     4.4400     5.2780     2.3970 
  246.8750   231.0230   -54.9380    22.2470     1.5910    86.5700     4.0620     4.4700     5.2140     2.3970 
  247.0000   231.1260   -54.9910    22.2950     1.5910    86.0720     4.1100     4.5510     5.3840     2.3810 
  247.1250   231.2280   -55.0440    22.3430     1.5910    86.0750     4.1800     4.6560     5.8100     2.3660 
  247.2500   231.3310   -55.0970    22.3910     1.5910    88.4140     4.2290     4.7260     6.0850     2.3520 
  247.3750   231.4330   -55.1500    22.4390     1.5910    89.0850     4.2270     4.7360     5.9210     2.3450 
  247.5000   231.5360   -55.2030    22.4880     1.5910    89.8530     4.1880     4.6890     5.5340     2.3370 
  247.6250   231.6380   -55.2560    22.5360     1.5910    89.7440     4.1250     4.6080     5.2860     2.3310 
  247.7500   231.7410   -55.3090    22.5840     1.5910    90.9370     4.0790     4.5400     5.2890     2.3260 
  247.8750   231.8430   -55.3620    22.6320     1.5910    92.2820     4.1040     4.5610     5.3790     2.3190 
  248.0000   231.9450   -55.4150    22.6800     1.5910    93.5320     4.2420     4.7130     5.3370     2.3090 
  248.1250   232.0480   -55.4680    22.7280     1.5910    92.7060     4.5210     5.0240     5.4000     2.2960 
  248.2500   232.1500   -55.5210    22.7760     1.5910    90.9500     4.9110     5.4660     6.0190     2.2930 
  248.3750   232.2530   -55.5740    22.8240     1.5910    89.4720     5.3780     5.9890     7.2190     2.3030 
  248.5000   232.3550   -55.6270    22.8730     1.5910    88.5280     5.8520     6.5350     8.6640     2.3250 
  248.6250   232.4580   -55.6800    22.9210     1.5910    85.9250     6.2760     7.0430     9.3630     2.3350 
  248.7500   232.5600   -55.7330    22.9690     1.5910    82.5090     6.5310     7.3650     8.9760     2.3340 
  248.8750   232.6630   -55.7860    23.0170     1.5910    79.4540     6.4630     7.2940     8.5950     2.3280 
  249.0000   232.7650   -55.8390    23.0650     1.5910    78.0790     6.1370     6.9140     8.3820     2.3270 
  249.1250   232.8680   -55.8920    23.1130     1.5910    77.5720     5.7370     6.4430     7.9330     2.3320 
  249.2500   232.9700   -55.9450    23.1610     1.5910    77.5720     5.4270     6.0800     7.1370     2.3390 
  249.3750   233.0730   -55.9980    23.2090     1.5910    77.5720     5.3400     5.9900     6.1570     2.3590 
  249.5000   233.1750   -56.0510    23.2580     1.5910    77.5720     5.3370     5.9900     5.8870     2.3890 
  249.6250   233.2770   -56.1040    23.3060     1.5910    77.5720     5.3380     5.9990     6.3730     2.4180 
  249.7500   233.3800   -56.1570    23.3540     1.5910    77.5720     5.3390     6.0130     6.4130     2.4300 
  249.8750   233.4820   -56.2100    23.4020     1.5910    77.5720     5.3390     6.0270     5.7110     2.4250 
  250.0000   233.5850   -56.2630    23.4500     1.5910    77.5720     5.3400     6.0370     5.4300     2.4250 
  250.1250   233.6870   -56.3160    23.4980     1.5910    77.5720     5.3400     6.0420     5.9940     2.4260 
  250.2500   233.7900   -56.3690    23.5460     1.5910    77.5720     5.3380     6.0520     7.3250     2.4170 
  250.3750   233.8920   -56.4220    23.5940     1.5910    77.5720     5.3280     6.1860     8.5150     2.3730 
  250.5000   233.9950   -56.4750    23.6420     1.5910    77.5720     5.3170     6.3320     8.0010     2.3240 
  250.6250   234.0970   -56.5280    23.6910     1.5910    77.5720     5.3110     6.3800     6.4040     2.2900 
  250.7500   234.2000   -56.5810    23.7390     1.5910    77.5720     5.3110     6.3600     5.2190     2.2880 
  250.8750   234.3020   -56.6340    23.7870     1.5910    77.5720     5.3170     6.2260     4.9340     2.3020 
  251.0000   234.4040   -56.6870    23.8350     1.5910    77.5720     5.3220     6.1500     5.1130     2.3260 
  251.1250   234.5070   -56.7400    23.8830     1.5910    77.5720     5.3210     6.1470     5.2230     2.3550 
  251.2500   234.6090   -56.7940    23.9310     1.5910    77.5720     5.3210     6.1540     5.2450     2.3780 
  251.3750   234.7120   -56.8470    23.9790     1.5910    77.5720     5.3210     6.1570     5.2390     2.3900 
  251.5000   234.8140   -56.9000    24.0270     1.5910    77.5720     5.3210     6.1600     5.1880     2.3850 
  251.6250   234.9170   -56.9530    24.0760     1.5910    77.5720     5.3210     6.1600     5.0080     2.3780 
  251.7500   235.0190   -57.0060    24.1240     1.5910    77.5720     5.3210     6.1600     4.8140     2.3710 
  251.8750   235.1220   -57.0590    24.1720     1.5910    77.5720     5.3210     6.1600     4.7170     2.3650 
  252.0000   235.2240   -57.1120    24.2200     1.5910    77.5720     5.3210     6.1600     4.6650     2.3590 
  252.1250   235.3270   -57.1650    24.2680     1.5910    77.5720     5.3210     6.1600     4.6690     2.3610 
  252.2500   235.4290   -57.2180    24.3160     1.5910    77.5720     5.3210     6.1600     4.7090     2.3760 
  252.3750   235.5320   -57.2710    24.3640     1.5910    77.5720     5.3210     6.1600     4.8810     2.3920 
  252.5000   235.6340   -57.3240    24.4120     1.5910    77.5720     5.3210     6.1600     5.3660     2.4030 
  252.6250   235.7360   -57.3770    24.4610     1.5910    77.5720     5.3210     6.1600     5.5340     2.4210 
  252.7500   235.8390   -57.4300    24.5090     1.5910    77.5720     5.3210     6.1600     4.8290     2.4520 
  252.8750   235.9410   -57.4830    24.5570     1.5910    77.5720     5.3210     6.1600     4.0410     2.4750 
  253.0000   236.0440   -57.5360    24.6050     1.5910    77.5720     5.3210     6.1600     3.7680     2.4600 
  253.1250   236.1460   -57.5890    24.6530     1.5910    77.5720     5.3210     6.1600     3.8100     2.4260 
  253.2500   236.2490   -57.6420    24.7010     1.5910    77.5720     5.3210     6.1600     3.8790     2.3940 
  253.3750   236.3510   -57.6950    24.7490     1.5910    77.5720     5.3210     6.1600     3.7470     2.3820 
  253.5000   236.4540   -57.7480    24.7970     1.5910    77.5720     5.3210     6.1600     3.5330     2.3740 
  253.6250   236.5560   -57.8010    24.8450     1.5910    77.5720     5.3210     6.1600     3.4280     2.3790 
