~V
VERS. 2.00: Ver 2.00
~W
STRT.M 44.0000:
STOP.M 206.0000:
STEP.M 0.1250:
NULL. -999.2500:
UWI. FD10808:
~C
DEPT.M :
TVD. :
DX. :
DY. :
SP.MV :
GR.API :
RI. :
RML.OHMM :
RXO.OHMM :
DEN.GM/CC :
~A
# ...
  107.8750   106.2130    -4.1950    11.1810   -17.8540    59.8390     7.0460     8.0610     7.8910     2.0520 
  108.0000   106.3280    -4.2160    11.2250   -17.7290    59.7740     6.9200     7.8970     7.7570     2.0510 
  108.1250   106.4430    -4.2380    11.2690   -17.7470    59.8800     6.7470     7.6870     7.6590     2.0590 
  108.2500   106.5570    -4.2600    11.3140   -17.8790    60.5090     6.5390     7.4590     7.5650     2.0650 
  108.3750   106.6720    -4.2820    11.3580   -18.0300    61.0630     6.3370     7.2400     7.5720     2.0660 
  108.5000   106.7870    -4.3040    11.4030   -18.0830    60.3950     6.1440     7.0410     7.6700     2.0630 
  108.6250   106.9020    -4.3260    11.4470   -17.9630    59.4050     5.9730     6.8670     7.6750     2.0600 
  108.7500   107.0160    -4.3490    11.4920   -17.7780    58.9330     5.8340     6.7250     7.5550     2.0570 
  108.8750   107.1310    -4.3710    11.5370   -17.5500    59.9140     5.7260     6.6130     7.4070     2.0530 
  109.0000   107.2450    -4.3930    11.5810   -17.2940    61.3270     5.6450     6.5240     7.1320     2.0490 
  109.1250   107.3600    -4.4160    11.6260   -17.0450    62.1260     5.5940     6.4550     7.0900     2.0490 
  109.2500   107.4740    -4.4380    11.6710   -16.8230    62.3780     5.5770     6.4180     7.5810     2.0600 
  109.3750   107.5890    -4.4600    11.7170   -16.4250    64.2090     5.6250     6.4500     8.1270     2.0780 
  109.5000   107.7030    -4.4830    11.7620   -15.9220    67.0770     5.7830     6.5820     8.5690     2.0940 
  109.6250   107.8170    -4.5060    11.8070   -15.3390    70.1220     6.0290     6.8160     8.9570     2.1010 
  109.7500   107.9310    -4.5280    11.8530   -14.7120    71.4910     6.3060     7.1260     8.9880     2.1070 
  109.8750   108.0460    -4.5510    11.8980   -13.9050    72.3950     6.6670     7.5620     8.6770     2.1170 
  110.0000   108.1600    -4.5740    11.9440   -12.8780    73.3260     7.1610     8.1150     8.5050     2.1370 
  110.1250   108.2740    -4.5970    11.9890   -11.6590    73.3570     7.6080     8.5880     9.1210     2.1720 
  110.2500   108.3880    -4.6200    12.0350   -10.2540    73.1580     7.6940     8.6980    13.3430     2.2230 
  110.3750   108.5020    -4.6430    12.0810    -8.7790    74.5840     7.2650     8.2180    22.0240     2.2610 
  110.5000   108.6160    -4.6660    12.1270    -7.1890    77.6230     6.3430     7.2460    23.6930     2.2690 
  110.6250   108.7300    -4.6890    12.1730    -5.7380    81.8580     5.2680     6.0720    13.5830     2.2370 
  110.7500   108.8440    -4.7120    12.2190    -4.6740    85.7440     4.3500     5.0200     5.4490     2.2090 
  110.8750   108.9570    -4.7360    12.2650    -4.0890    89.3030     3.6710     4.2710     3.8190     2.2030 
  111.0000   109.0710    -4.7590    12.3110    -3.8740    92.6410     3.2730     3.8560     3.5840     2.2140 
  111.1250   109.1850    -4.7820    12.3580    -3.9350    94.3750     3.2030     3.7940     3.7750     2.2260 
  111.2500   109.2980    -4.8060    12.4040    -4.2100    94.4730     3.3900     4.0220     4.0330     2.2310 
  111.3750   109.4120    -4.8290    12.4510    -4.7670    91.3630     3.8200     4.5460     3.9450     2.2180 
  111.5000   109.5250    -4.8530    12.4970    -5.6350    86.8950     4.4850     5.3600    10.1370     2.1890 
  111.6250   109.6390    -4.8770    12.5440    -6.7810    81.8190     5.4140     6.4600    20.3600     2.1710 
  111.7500   109.7520    -4.9000    12.5910    -8.0630    79.0160     6.4650     7.6120    19.2700     2.1840 
  111.8750   109.8660    -4.9240    12.6380    -9.0250    77.5240     7.2390     8.4590    11.6860     2.2200 
  112.0000   109.9790    -4.9480    12.6860    -9.6400    75.8900     7.6280     8.7990     8.7150     2.2400 
  112.1250   110.0920    -4.9720    12.7330    -9.9290    72.3760     7.4590     8.5780     8.2840     2.2200 
  112.2500   110.2050    -4.9960    12.7800   -10.0310    68.2260     7.0230     8.0560     8.4460     2.1770 
  112.3750   110.3190    -5.0200    12.8270   -10.0260    64.3860     6.5720     7.5010     8.8090     2.1480 
  112.5000   110.4320    -5.0440    12.8750   -10.0110    63.0730     6.1730     7.0320     8.8110     2.1440 
  112.6250   110.5450    -5.0680    12.9220    -9.9610    65.0140     5.8450     6.6700     8.2470     2.1530 
  112.7500   110.6580    -5.0920    12.9700    -9.8050    69.3640     5.6010     6.4170     7.7710     2.1580 
  112.8750   110.7710    -5.1170    13.0180    -9.5370    71.5930     5.4980     6.3070     7.9360     2.1560 
  113.0000   110.8830    -5.1410    13.0660    -9.1370    71.3250     5.5310     6.3570     7.7690     2.1510 
  113.1250   110.9960    -5.1660    13.1140    -8.6100    68.1990     5.7530     6.5720     7.2810     2.1450 
  113.2500   111.1090    -5.1900    13.1620    -7.9580    65.8140     6.0180     6.8320     7.8890     2.1470 
  113.3750   111.2220    -5.2150    13.2100    -7.3070    64.6630     6.1660     6.9440     9.0320     2.1650 
  113.5000   111.3350    -5.2390    13.2580    -6.4870    66.8000     6.0260     6.7620     9.1700     2.1960 
  113.6250   111.4470    -5.2640    13.3060    -5.5360    71.4560     5.5730     6.2230     8.2540     2.2230 
  113.7500   111.5600    -5.2890    13.3540    -4.6220    77.5800     4.8730     5.4480     6.9630     2.2300 
  113.8750   111.6720    -5.3130    13.4020    -3.7340    81.1240     4.1270     4.6360     5.5230     2.2250 
  114.0000   111.7850    -5.3380    13.4510    -2.9240    82.9870     3.5120     3.9810     4.1770     2.2260 
  114.1250   111.8980    -5.3620    13.4990    -2.4460    82.7210     3.1590     3.6060     3.4530     2.2380 
  114.2500   112.0100    -5.3870    13.5480    -2.3960    82.5770     3.0390     3.4880     3.4600     2.2460 
  114.3750   112.1230    -5.4120    13.5960    -2.7370    80.0000     3.0980     3.5880     3.7410     2.2420 
  114.5000   112.2350    -5.4370    13.6450    -3.4850    76.4710     3.3290     3.8670     4.1930     2.2270 
  114.6250   112.3470    -5.4620    13.6940    -4.3530    73.3400     3.7580     4.3620     4.8670     2.2130 
  114.7500   112.4600    -5.4870    13.7430    -5.2760    71.3720     4.4260     5.0910     5.3660     2.2200 
  114.8750   112.5720    -5.5120    13.7910    -6.0730    70.0960     5.3500     6.0930     6.0210     2.2620 
  115.0000   112.6840    -5.5370    13.8400    -6.6730    68.4900     6.5290     7.3170     9.0580     2.3070 
  115.1250   112.7970    -5.5620    13.8890    -7.1410    66.2030     7.8230     8.6370    13.9610     2.3100 
  115.2500   112.9090    -5.5870    13.9380    -7.5520    63.8590     9.0490     9.8400    15.5560     2.2620 
  115.3750   113.0210    -5.6120    13.9870    -7.9740    61.9220     9.9000    10.6960    13.7250     2.1960 
  115.5000   113.1330    -5.6380    14.0360    -8.4850    61.4900    10.3040    11.1640    12.7070     2.1510 
  115.6250   113.2450    -5.6630    14.0860    -9.0460    62.1530    10.3760    11.3170    13.5570     2.1380 
  115.7500   113.3570    -5.6880    14.1350    -9.6420    63.4640    10.2470    11.2280    14.7200     2.1400 
  115.8750   113.4690    -5.7130    14.1840   -10.3030    63.8470     9.8120    10.8130    15.0830     2.1420 
  116.0000   113.5810    -5.7390    14.2340   -10.8020    63.7350     9.0670    10.0600    14.7270     2.1410 
  116.1250   113.6930    -5.7640    14.2830   -11.1340    63.3130     8.1080     9.0780    13.8120     2.1450 
  116.2500   113.8050    -5.7900    14.3330   -11.3990    64.5260     7.2360     8.1860    12.2020     2.1560 
  116.3750   113.9170    -5.8150    14.3820   -11.5810    66.1990     6.7870     7.7600    10.0060     2.1710 
  116.5000   114.0290    -5.8410    14.4320   -11.5660    68.1720     6.9370     8.0200     8.8990     2.1990 
  116.6250   114.1410    -5.8660    14.4810   -11.3900    68.3150     7.8570     9.1390     9.3750     2.2620 
  116.7500   114.2530    -5.8920    14.5310   -11.1220    67.6720     9.4190    10.9610    11.3200     2.3630 
  116.8750   114.3640    -5.9180    14.5810   -10.7660    66.1160    11.4750    13.1640    14.8510     2.4650 
