~V
VERS. 2.00: Ver 2.00
~W
STRT.M 65.0000:
STOP.M 248.0000:
STEP.M 0.1250:
NULL. -999.2500:
UWI. FD10900:
~C
DEPT.M :
TVD. :
DX. :
DY. :
SP.MV :
GR.API :
RI. :
RML.OHMM :
RXO.OHMM :
DEN.GM/CC :
~A
# ...
  211.0000   208.4980   -19.4440    13.8290   -25.8350    77.7920     3.4310     3.9460     6.4400     2.1780 
  211.1250   208.6190   -19.4690    13.8490   -26.1260    74.6540     3.6760     4.2270     6.7670     2.1650 
  211.2500   208.7400   -19.4940    13.8690   -26.3910    73.5770     3.9450     4.5340     8.0890     2.1620 
  211.3750   208.8610   -19.5190    13.8890   -26.7440    72.4780     4.2010     4.8120    10.8580     2.1670 
  211.5000   208.9810   -19.5450    13.9090   -27.0410    70.9690     4.4210     5.0230    13.0440     2.1740 
  211.6250   209.1020   -19.5700    13.9290   -27.3390    70.6670     4.6140     5.1650    12.4680     2.1740 
  211.7500   209.2230   -19.5950    13.9490   -27.6700    72.1810     4.8520     5.3220    10.0200     2.1600 
  211.8750   209.3440   -19.6200    13.9690   -27.6720    75.7580     5.2400     5.6730     8.3570     2.1460 
  212.0000   209.4640   -19.6460    13.9900   -26.9680    77.6730     5.8550     6.3600     8.3320     2.1590 
  212.1250   209.5850   -19.6710    14.0100   -25.9270    76.0320     6.6000     7.2460     9.4950     2.2040 
  212.2500   209.7060   -19.6960    14.0300   -25.1280    71.0420     7.2800     8.0530    12.5190     2.2510 
  212.3750   209.8270   -19.7210    14.0500   -24.6540    66.3100     7.6860     8.4780    16.6040     2.2590 
  212.5000   209.9470   -19.7470    14.0710   -24.3930    63.6450     7.6610     8.3370    17.8560     2.2210 
  212.6250   210.0680   -19.7720    14.0910   -24.0520    63.1680     7.2560     7.7640    15.1930     2.1720 
  212.7500   210.1890   -19.7980    14.1110   -23.6500    63.9070     6.5520     6.8860    12.2240     2.1420 
  212.8750   210.3090   -19.8230    14.1310   -23.1950    64.9660     5.7190     5.8930    11.1520     2.1330 
  213.0000   210.4300   -19.8480    14.1520   -22.5500    63.6380     4.9490     5.0140    10.9630     2.1320 
  213.1250   210.5510   -19.8740    14.1720   -21.6600    61.2760     4.3840     4.4100    10.8310     2.1300 
  213.2500   210.6710   -19.8990    14.1930   -20.6200    58.8400     4.1400     4.2440    10.6720     2.1370 
  213.3750   210.7920   -19.9250    14.2130   -19.4640    58.8890     4.2840     4.6400    10.7030     2.1650 
  213.5000   210.9130   -19.9500    14.2340   -18.1980    59.2700     4.7910     5.5500    12.8530     2.2300 
  213.6250   211.0330   -19.9760    14.2540   -16.9360    58.6330     5.2440     6.3590    20.0230     2.3230 
  213.7500   211.1540   -20.0020    14.2750   -15.8230    55.9260     5.0900     6.2890    32.6420     2.4060 
  213.8750   211.2740   -20.0270    14.2950   -14.9770    54.0700     4.2280     5.2120    43.2630     2.4310 
  214.0000   211.3950   -20.0530    14.3160   -14.3710    53.4170     2.9180     3.5140    40.8660     2.3760 
  214.1250   211.5160   -20.0790    14.3360   -13.7510    53.8150     1.7090     1.9770    25.7080     2.2710 
  214.2500   211.6360   -20.1040    14.3570   -13.1030    51.5920     0.9690     1.0890     9.8480     2.1670 
  214.3750   211.7570   -20.1300    14.3770   -12.4910    48.1050     0.6130     0.7170     2.3500     2.1030 
  214.5000   211.8770   -20.1560    14.3980   -12.0600    43.8400     0.5030     0.6640     1.0780     2.0960 
  214.6250   211.9980   -20.1820    14.4190   -11.8450    42.0970     0.5160     0.7560     1.1270     2.1280 
  214.7500   212.1180   -20.2080    14.4390   -11.7860    44.2690     0.5780     0.8840     1.3730     2.1680 
  214.8750   212.2390   -20.2340    14.4600   -11.9040    48.3850     0.6310     0.9640     1.6680     2.1910 
  215.0000   212.3600   -20.2590    14.4810   -12.2230    50.7680     0.6540     0.9690     1.7920     2.1960 
  215.1250   212.4800   -20.2850    14.5010   -12.6820    48.9050     0.6510     0.9320     1.5900     2.2060 
  215.2500   212.6010   -20.3110    14.5220   -13.0110    43.8000     0.6420     0.8990     1.2240     2.2440 
  215.3750   212.7210   -20.3370    14.5430   -13.2050    38.2390     0.6460     0.9070     1.0140     2.2990 
  215.5000   212.8420   -20.3630    14.5630   -13.2190    32.7440     0.6660     0.9520     1.2420     2.3340 
  215.6250   212.9620   -20.3900    14.5840   -13.1290    28.7900     0.6830     0.9930     2.1810     2.3200 
  215.7500   213.0830   -20.4160    14.6050   -13.1050    26.2370     0.6710     0.9860     3.3180     2.2690 
  215.8750   213.2030   -20.4420    14.6250   -13.1910    26.0810     0.6250     0.9240     3.2920     2.2260 
  216.0000   213.3230   -20.4680    14.6460   -13.3200    26.9390     0.5570     0.8300     2.1320     2.2150 
  216.1250   213.4440   -20.4940    14.6670   -13.4020    28.8650     0.4970     0.7460     1.2630     2.2250 
  216.2500   213.5640   -20.5210    14.6870   -13.4690    29.7860     0.4610     0.6980     1.0500     2.2380 
  216.3750   213.6850   -20.5470    14.7080   -13.5900    29.7710     0.4460     0.6810     1.0250     2.2430 
  216.5000   213.8050   -20.5730    14.7290   -13.7270    30.2310     0.4490     0.6890     1.0170     2.2340 
  216.6250   213.9260   -20.5990    14.7490   -13.8560    32.5320     0.4640     0.7150     1.0150     2.2170 
  216.7500   214.0460   -20.6260    14.7700   -13.9210    37.4640     0.4890     0.7580     1.0700     2.2070 
  216.8750   214.1660   -20.6520    14.7910   -13.8440    42.6660     0.5190     0.8080     1.1930     2.2100 
  217.0000   214.2870   -20.6790    14.8120   -13.6090    47.3710     0.5470     0.8560     1.2870     2.2230 
  217.1250   214.4070   -20.7050    14.8320   -13.3870    50.9340     0.5720     0.8940     1.3070     2.2370 
  217.2500   214.5280   -20.7310    14.8530   -13.2830    52.1420     0.5920     0.9200     1.2880     2.2470 
  217.3750   214.6480   -20.7580    14.8740   -13.1850    51.3170     0.6060     0.9370     1.3010     2.2500 
  217.5000   214.7680   -20.7840    14.8950   -13.0890    48.0080     0.6100     0.9470     1.3950     2.2490 
  217.6250   214.8890   -20.8110    14.9150   -13.0540    44.5160     0.6050     0.9510     1.5030     2.2450 
  217.7500   215.0090   -20.8370    14.9360   -13.0310    42.9550     0.5930     0.9470     1.5190     2.2370 
  217.8750   215.1300   -20.8640    14.9570   -13.0560    42.3050     0.5760     0.9340     1.4210     2.2280 
  218.0000   215.2500   -20.8900    14.9780   -13.1120    43.0390     0.5560     0.9120     1.2920     2.2160 
  218.1250   215.3700   -20.9170    14.9990   -13.2570    42.7460     0.5330     0.8810     1.2620     2.1940 
  218.2500   215.4910   -20.9440    15.0190   -13.4020    42.1990     0.5050     0.8410     1.3020     2.1620 
  218.3750   215.6110   -20.9700    15.0400   -13.4580    40.3340     0.4780     0.7990     1.2660     2.1310 
  218.5000   215.7310   -20.9970    15.0610   -13.5120    37.1410     0.4610     0.7720     1.1500     2.1200 
  218.6250   215.8520   -21.0240    15.0820   -13.5720    33.5150     0.4680     0.7860     1.0720     2.1420 
  218.7500   215.9720   -21.0500    15.1020   -13.5350    30.1510     0.5040     0.8530     1.1470     2.2010 
  218.8750   216.0920   -21.0770    15.1230   -13.4640    27.7460     0.5580     0.9520     1.5070     2.2750 
  219.0000   216.2130   -21.1040    15.1440   -13.4210    27.2920     0.6160     1.0520     2.1110     2.3280 
  219.1250   216.3330   -21.1310    15.1640   -13.4150    28.3780     0.6680     1.1290     2.4380     2.3350 
  219.2500   216.4530   -21.1570    15.1850   -13.4480    32.0570     0.6990     1.1570     2.1550     2.3010 
  219.3750   216.5740   -21.1840    15.2060   -13.4840    37.7080     0.7030     1.1430     1.8050     2.2630 
  219.5000   216.6940   -21.2110    15.2260   -13.3840    45.6420     0.6800     1.0960     1.8130     2.2440 
  219.6250   216.8140   -21.2380    15.2470   -13.2810    52.3080     0.6410     1.0290     1.8650     2.2470 
  219.7500   216.9350   -21.2650    15.2670   -13.2590    53.6990     0.5960     0.9530     1.7070     2.2630 
  219.8750   217.0550   -21.2920    15.2880   -13.2740    49.4040     0.5540     0.8740     1.4650     2.2820 
  220.0000   217.1750   -21.3190    15.3090   -13.2260    42.1810     0.5150     0.7990     1.2690     2.2980 
