~V
VERS. 2.00: Ver 2.00
~W
STRT.M 55.0000:
STOP.M 289.0000:
STEP.M 0.1250:
NULL. -999.2500:
UWI. FD10909:
~C
DEPT.M :
TVD. :
DX. :
DY. :
SP.MV :
GR.API :
RI. :
RML.OHMM :
RXO.OHMM :
DEN.GM/CC :
~A
# ...
  219.2500   213.5890    36.5480     7.3300    -8.5040    76.9300     9.7690    11.0030    11.3320     2.2890 
  219.3750   213.7070    36.5890     7.3410    -8.3970    77.9680     9.5930    10.8140    12.2460     2.2770 
  219.5000   213.8250    36.6290     7.3510    -8.2630    77.4640     9.5020    10.7180    13.1030     2.2580 
  219.6250   213.9430    36.6690     7.3610    -8.1220    75.6220     9.4200    10.6290    12.3020     2.2420 
  219.7500   214.0610    36.7100     7.3710    -8.0140    73.3770     9.2840    10.4840    10.9160     2.2300 
  219.8750   214.1790    36.7500     7.3810    -7.9600    71.9390     9.1150    10.3030    10.1470     2.2160 
  220.0000   214.2970    36.7900     7.3920    -7.9540    70.8380     9.0500    10.2330     9.8160     2.2020 
  220.1250   214.4140    36.8310     7.4020    -7.9670    69.4640     9.2380    10.4300     9.7430     2.1930 
  220.2500   214.5320    36.8710     7.4120    -7.9810    67.7530     9.8110    10.9870    10.1340     2.1920 
  220.3750   214.6500    36.9110     7.4220    -7.9980    67.1270    10.7380    11.9270    11.0500     2.1940 
  220.5000   214.7680    36.9520     7.4320    -8.0260    67.1190    11.9030    13.3180    12.5470     2.1940 
  220.6250   214.8860    36.9920     7.4420    -8.0540    67.9510    13.0520    14.7470    14.3060     2.1930 
  220.7500   215.0040    37.0320     7.4520    -8.0450    67.2950    13.9290    15.7570    15.5290     2.1930 
  220.8750   215.1220    37.0730     7.4620    -7.9810    66.4240    14.4880    16.3750    15.5550     2.1950 
  221.0000   215.2400    37.1130     7.4720    -7.8810    65.8240    14.8490    16.7750    14.5520     2.1990 
  221.1250   215.3580    37.1530     7.4820    -7.7920    67.1340    15.2320    17.1970    14.0500     2.2030 
  221.2500   215.4750    37.1940     7.4920    -7.7600    68.5710    15.6920    17.7060    16.3380     2.2030 
  221.3750   215.5930    37.2340     7.5020    -7.7900    69.7040    16.0640    18.1170    21.4690     2.1990 
  221.5000   215.7110    37.2740     7.5130    -7.8750    69.5760    16.1010    18.1580    25.0560     2.1970 
  221.6250   215.8290    37.3150     7.5230    -8.0020    69.2460    15.7000    17.7150    23.4440     2.2040 
  221.7500   215.9470    37.3550     7.5330    -8.1610    69.1050    14.9260    16.8590    19.4720     2.2240 
  221.8750   216.0650    37.3950     7.5440    -8.3170    70.2090    14.0950    15.9410    17.3350     2.2590 
  222.0000   216.1830    37.4350     7.5540    -8.4450    71.5510    13.5310    15.3180    16.1520     2.3000 
  222.1250   216.3010    37.4760     7.5640    -8.5220    72.0100    13.3990    15.1710    14.6250     2.3260 
  222.2500   216.4180    37.5160     7.5740    -8.5440    71.0780    13.7270    15.5340    14.5640     2.3150 
  222.3750   216.5360    37.5560     7.5850    -8.5110    70.7850    14.2460    16.1080    16.0510     2.2740 
  222.5000   216.6540    37.5970     7.5950    -8.4120    71.1300    14.5320    16.4240    16.7970     2.2360 
  222.6250   216.7720    37.6370     7.6050    -8.2580    72.2260    14.3470    16.2190    16.3530     2.2280 
  222.7500   216.8900    37.6770     7.6150    -8.0650    70.9960    13.7750    15.5880    15.5750     2.2480 
  222.8750   217.0080    37.7170     7.6260    -7.8690    69.8400    13.1760    14.9250    14.5200     2.2690 
  223.0000   217.1260    37.7580     7.6360    -7.7060    68.8740    12.9260    14.6480    13.1900     2.2690 
  223.1250   217.2440    37.7980     7.6460    -7.5990    70.8680    13.0830    14.8220    12.4260     2.2500 
  223.2500   217.3620    37.8380     7.6560    -7.5540    72.2360    13.5080    15.2920    13.2940     2.2300 
  223.3750   217.4790    37.8790     7.6670    -7.5510    73.2560    13.9890    15.8240    15.6700     2.2250 
  223.5000   217.5970    37.9190     7.6770    -7.5680    73.3820    14.3450    16.2170    17.5310     2.2330 
  223.6250   217.7150    37.9590     7.6870    -7.5820    72.7980    14.5020    16.3910    16.9300     2.2410 
  223.7500   217.8330    38.0000     7.6970    -7.5880    72.2060    14.5150    16.4050    15.1600     2.2360 
  223.8750   217.9510    38.0400     7.7080    -7.5830    71.5720    14.6390    16.5430    14.8270     2.2190 
  224.0000   218.0690    38.0800     7.7180    -7.5700    72.2670    15.2020    17.1640    16.1880     2.2000 
  224.1250   218.1870    38.1200     7.7280    -7.5500    72.4980    16.2790    18.3550    17.6640     2.1890 
  224.2500   218.3050    38.1610     7.7390    -7.5200    72.8990    17.7330    19.9620    19.2280     2.1890 
  224.3750   218.4220    38.2010     7.7490    -7.4640    71.6610    19.2780    21.6700    22.1660     2.1940 
  224.5000   218.5400    38.2410     7.7600    -7.3710    70.4350    20.6690    23.2070    25.3120     2.1970 
  224.6250   218.6580    38.2820     7.7700    -7.2380    69.7690    21.7070    24.3550    26.4850     2.1970 
  224.7500   218.7760    38.3220     7.7800    -7.0800    69.8020    22.3020    25.0120    26.0080     2.1960 
  224.8750   218.8940    38.3620     7.7910    -6.9400    69.6520    22.5370    25.2720    25.7120     2.1980 
  225.0000   219.0120    38.4020     7.8010    -6.8440    67.8600    22.5540    25.2900    26.2620     2.2020 
  225.1250   219.1300    38.4430     7.8110    -6.7860    67.0740    22.5770    25.3160    26.2020     2.2060 
  225.2500   219.2480    38.4830     7.8220    -6.7460    68.0310    22.6830    25.4330    25.2270     2.2080 
  225.3750   219.3650    38.5230     7.8320    -6.6950    71.3170    22.8140    25.5780    25.6410     2.2060 
  225.5000   219.4830    38.5640     7.8430    -6.6360    72.6170    22.8980    25.6710    27.5310     2.2050 
  225.6250   219.6010    38.6040     7.8530    -6.5760    72.0080    22.9070    25.6800    28.5100     2.2070 
  225.7500   219.7190    38.6440     7.8640    -6.4920    69.7120    22.8500    25.6180    28.1060     2.2110 
  225.8750   219.8370    38.6840     7.8740    -6.3660    68.2170    22.7430    25.5000    27.1030     2.2140 
  226.0000   219.9550    38.7250     7.8840    -6.1780    67.2740    22.4870    25.2160    25.4370     2.2130 
  226.1250   220.0730    38.7650     7.8950    -5.9470    66.0680    21.9090    24.5780    23.9070     2.2100 
  226.2500   220.1910    38.8050     7.9050    -5.6970    64.9590    20.7990    23.3510    23.6930     2.2080 
  226.3750   220.3080    38.8460     7.9150    -5.4470    65.0130    19.2560    21.5860    24.6500     2.2110 
  226.5000   220.4260    38.8860     7.9250    -5.2150    67.8220    17.5520    19.4650    25.8160     2.2200 
  226.6250   220.5440    38.9260     7.9360    -5.0110    70.2230    16.0400    17.5760    24.9530     2.2310 
  226.7500   220.6620    38.9660     7.9460    -4.8690    70.6690    15.0520    16.4550    20.6440     2.2390 
  226.8750   220.7800    39.0070     7.9570    -4.8040    69.0790    14.6400    16.0140    15.9410     2.2430 
  227.0000   220.8980    39.0470     7.9670    -4.8280    68.3520    14.7490    16.1320    14.0920     2.2420 
  227.1250   221.0160    39.0870     7.9780    -4.9020    69.0240    15.0690    16.4730    14.6580     2.2410 
  227.2500   221.1340    39.1270     7.9880    -4.9710    69.5100    15.2760    16.6950    16.1550     2.2390 
  227.3750   221.2520    39.1670     7.9990    -4.9880    69.0860    15.2170    16.6320    17.1580     2.2380 
  227.5000   221.3690    39.2070     8.0090    -4.9440    67.5870    14.8780    16.2690    16.4900     2.2340 
  227.6250   221.4870    39.2480     8.0200    -4.8970    67.2600    14.4350    15.7950    14.4740     2.2300 
  227.7500   221.6050    39.2880     8.0300    -4.9250    67.9440    14.0520    15.3860    12.9510     2.2280 
  227.8750   221.7230    39.3280     8.0410    -5.0540    69.3120    13.8080    15.1240    13.0500     2.2320 
  228.0000   221.8410    39.3680     8.0510    -5.2690    70.0070    13.8190    15.1370    13.8840     2.2470 
  228.1250   221.9590    39.4080     8.0620    -5.5020    69.6350    14.1970    15.5410    14.3650     2.2820 
  228.2500   222.0770    39.4480     8.0720    -5.6990    67.8600    15.0700    16.5120    14.8840     2.3460 
