~V
VERS. 2.00: Ver 2.00
~W
STRT.M 50.0000:
STOP.M 287.0000:
STEP.M 0.1250:
NULL. -999.2500:
UWI. FD10894:
~C
DEPT.M :
TVD. :
DX. :
DY. :
SP.MV :
GR.API :
RI. :
RML.OHMM :
RXO.OHMM :
DEN.GM/CC :
~A
# ...
  205.1250   197.8010    38.5800     8.3240   -13.5670    69.1120    20.1010    24.1810    28.8790     2.1670 
  205.2500   197.9140    38.6320     8.3340   -13.3360    66.8780    21.9570    26.2170    32.7420     2.1540 
  205.3750   198.0280    38.6840     8.3430   -13.0850    65.7350    23.7870    28.1970    35.4720     2.1440 
  205.5000   198.1410    38.7350     8.3530   -12.8280    66.2940    25.1860    29.5790    36.9250     2.1350 
  205.6250   198.2550    38.7870     8.3620   -12.5900    66.0580    25.4930    29.7480    38.9130     2.1290 
  205.7500   198.3680    38.8390     8.3720   -12.3940    64.0080    24.9350    28.9390    40.3830     2.1250 
  205.8750   198.4810    38.8900     8.3810   -12.2620    61.6810    23.6950    27.3290    38.9860     2.1260 
  206.0000   198.5950    38.9420     8.3900   -12.2000    62.1450    22.1780    25.4300    34.9030     2.1310 
  206.1250   198.7080    38.9930     8.4000   -12.2190    64.3180    20.8590    23.8470    29.8420     2.1380 
  206.2500   198.8220    39.0450     8.4090   -12.3130    65.8380    19.9670    22.8590    26.5340     2.1440 
  206.3750   198.9350    39.0970     8.4190   -12.4840    65.4390    19.7000    22.6740    25.6010     2.1480 
  206.5000   199.0490    39.1480     8.4280   -12.7220    63.2180    19.7010    22.7560    24.8550     2.1480 
  206.6250   199.1620    39.2000     8.4380   -13.0200    60.9370    19.4130    22.3290    23.3680     2.1440 
  206.7500   199.2760    39.2510     8.4470   -13.3550    61.1550    18.6640    21.3050    22.2640     2.1380 
  206.8750   199.3890    39.3030     8.4560   -13.7010    63.4140    17.6790    19.9600    20.6420     2.1330 
  207.0000   199.5030    39.3540     8.4660   -14.0240    64.8060    16.6710    18.6440    19.6710     2.1330 
  207.1250   199.6160    39.4060     8.4750   -14.2890    64.8160    16.0620    17.8670    20.0820     2.1390 
  207.2500   199.7300    39.4580     8.4850   -14.4820    64.0710    15.5650    17.2710    21.0720     2.1500 
  207.3750   199.8430    39.5090     8.4940   -14.6000    63.6020    15.1440    16.7750    20.7860     2.1640 
  207.5000   199.9570    39.5610     8.5030   -14.6750    63.5800    14.5890    16.0890    19.4020     2.1800 
  207.6250   200.0700    39.6120     8.5120   -14.7440    64.7430    13.7840    15.0890    18.3010     2.1940 
  207.7500   200.1840    39.6640     8.5220   -14.8460    66.5120    12.6730    13.7670    17.0250     2.2050 
  207.8750   200.2970    39.7160     8.5310   -15.0050    67.5690    11.5470    12.5020    14.8450     2.2140 
  208.0000   200.4100    39.7670     8.5400   -15.2060    67.1250    10.5790    11.4390    13.7550     2.2210 
  208.1250   200.5240    39.8190     8.5500   -15.4180    64.5190     9.8180    10.5800    13.0190     2.2270 
  208.2500   200.6370    39.8700     8.5590   -15.5950    63.2620     9.3150     9.9940    11.6610     2.2320 
  208.3750   200.7510    39.9220     8.5690   -15.6940    64.6840     9.1180     9.7590    11.1900     2.2390 
  208.5000   200.8640    39.9740     8.5780   -15.7080    66.2340     9.2400     9.9330    11.8220     2.2480 
  208.6250   200.9780    40.0250     8.5870   -15.6430    65.8960     9.5140    10.2780    11.5030     2.2640 
  208.7500   201.0910    40.0770     8.5970   -15.5400    63.2520     9.4540    10.2100    10.8860     2.2840 
  208.8750   201.2050    40.1290     8.6060   -15.4370    60.9320     9.1520     9.8520    10.4490     2.3040 
  209.0000   201.3180    40.1800     8.6150   -15.3720    61.4020     8.6950     9.2850     9.8860     2.3160 
  209.1250   201.4310    40.2320     8.6240   -15.3710    65.1640     8.2980     8.8290    10.1620     2.3140 
  209.2500   201.5450    40.2840     8.6330   -15.4350    69.0480     8.2000     8.7610     9.8860     2.3020 
  209.3750   201.6580    40.3360     8.6430   -15.5610    69.0530     8.4150     9.1160     9.3570     2.2860 
  209.5000   201.7720    40.3880     8.6520   -15.7270    66.8620     8.8280     9.6210     9.8860     2.2730 
  209.6250   201.8850    40.4390     8.6610   -15.9140    65.3950     9.0830     9.9490    10.5180     2.2650 
  209.7500   201.9980    40.4910     8.6710   -16.1050    64.9200     9.3540    10.2270    10.8860     2.2640 
  209.8750   202.1120    40.5430     8.6800   -16.2830    65.2950     9.3260    10.1630    11.1130     2.2690 
  210.0000   202.2250    40.5950     8.6900   -16.4390    66.1300     9.5220    10.4190    10.8860     2.2780 
  210.1250   202.3380    40.6470     8.6990   -16.5550    66.5590    10.1390    11.1690    12.2950     2.2880 
  210.2500   202.4520    40.6990     8.7090   -16.6220    65.0160    11.1420    12.3830    15.5680     2.2970 
  210.3750   202.5650    40.7500     8.7190   -16.6240    63.1500    12.4310    13.8940    17.2610     2.3010 
  210.5000   202.6780    40.8020     8.7290   -16.5670    63.3190    13.9820    15.7060    16.6770     2.2970 
  210.6250   202.7920    40.8540     8.7380   -16.4700    63.6330    15.4000    17.3180    15.8960     2.2890 
  210.7500   202.9050    40.9060     8.7480   -16.3710    62.5670    16.3390    18.4210    18.3630     2.2810 
  210.8750   203.0180    40.9580     8.7580   -16.3190    60.3860    16.8830    19.0620    21.0800     2.2750 
  211.0000   203.1320    41.0090     8.7670   -16.3460    59.4920    16.8480    19.0100    21.6600     2.2700 
  211.1250   203.2450    41.0610     8.7770   -16.4710    60.3540    16.5550    18.6690    20.7840     2.2650 
  211.2500   203.3580    41.1130     8.7870   -16.6710    61.9820    16.4000    18.5140    19.9440     2.2580 
  211.3750   203.4720    41.1650     8.7960   -16.9110    62.2600    16.7560    19.1390    18.8750     2.2570 
  211.5000   203.5850    41.2170     8.8060   -17.1400    60.1680    17.6740    20.4860    21.0720     2.2700 
  211.6250   203.6980    41.2690     8.8160   -17.3190    57.4110    18.8940    22.2130    25.1270     2.2990 
  211.7500   203.8110    41.3210     8.8260   -17.4340    56.3390    20.1130    23.8550    29.3180     2.3280 
  211.8750   203.9250    41.3730     8.8360   -17.4840    56.4040    20.7860    24.7230    28.3320     2.3350 
  212.0000   204.0380    41.4250     8.8460   -17.4890    56.8600    21.2760    25.3300    27.3690     2.3150 
  212.1250   204.1510    41.4770     8.8560   -17.4680    57.1580    21.7650    25.8830    29.1230     2.2810 
  212.2500   204.2640    41.5290     8.8660   -17.4390    57.5610    22.5560    26.8180    32.2820     2.2580 
  212.3750   204.3780    41.5810     8.8770   -17.4080    58.2900    23.9020    28.3890    36.1650     2.2570 
  212.5000   204.4910    41.6330     8.8870   -17.3750    59.0890    25.7140    30.4560    37.5580     2.2650 
  212.6250   204.6040    41.6850     8.8960   -17.3370    60.4380    27.7360    32.7180    41.9440     2.2650 
  212.7500   204.7170    41.7370     8.9060   -17.2890    61.5560    29.7960    35.0190    45.9150     2.2520 
  212.8750   204.8300    41.7890     8.9160   -17.2260    62.6020    31.8510    37.5080    45.2480     2.2320 
  213.0000   204.9440    41.8410     8.9260   -17.1450    64.1100    33.6940    39.8030    45.3110     2.2180 
  213.1250   205.0570    41.8930     8.9360   -17.0350    64.9100    32.9380    38.8230    48.6430     2.2180 
  213.2500   205.1700    41.9450     8.9460   -16.8870    63.5330    29.8490    35.0590    54.7920     2.2320 
  213.3750   205.2830    41.9970     8.9560   -16.6770    61.6740    24.5380    28.4210    48.5290     2.2500 
  213.5000   205.3970    42.0490     8.9650   -16.3930    61.6410    18.2320    20.8480    31.1470     2.2660 
  213.6250   205.5100    42.1010     8.9750   -16.0220    64.8240    13.9140    15.7590    18.3260     2.2770 
  213.7500   205.6230    42.1530     8.9850   -15.5820    68.0770    10.7660    12.1320    13.2690     2.2870 
  213.8750   205.7360    42.2050     8.9950   -15.1040    69.4070     9.0970    10.3490    12.2190     2.3010 
  214.0000   205.8490    42.2570     9.0050   -14.6360    68.6840     8.4220     9.6820    11.0360     2.3190 
  214.1250   205.9630    42.3090     9.0150   -14.2290    67.4700     8.2380     9.5350    10.0240     2.3360 
