~V
VERS. 2.00: Ver 2.00
~W
STRT.M 1.0000:
STOP.M 198.0000:
STEP.M 0.1250:
NULL. -999.2500:
UWI. FD10802:
~C
DEPT.M :
TVD. :
DX. :
DY. :
SP.MV :
GR.API :
RI. :
RML.OHMM :
RXO.OHMM :
DEN.GM/CC :
~A
# ...
   28.3750    28.3750     0.0290    -0.1040    96.6910    36.7530     0.1530     0.2040     0.5310     2.2580 
   28.5000    28.5000     0.0290    -0.1050    97.0920    35.7800     0.1620     0.2060     0.5330     2.2580 
   28.6250    28.6250     0.0290    -0.1050    96.6820    35.8240     0.1490     0.2050     0.5350     2.2580 
   28.7500    28.7500     0.0290    -0.1060    95.2580    37.5150     0.1310     0.1750     0.5350     2.2580 
   28.8750    28.8750     0.0290    -0.1060    93.3050    39.3660     0.1220     0.1640     0.5290     2.2580 
   29.0000    29.0000     0.0290    -0.1060    91.5240    41.2240     0.1220     0.1590     0.5160     2.2580 
   29.1250    29.1250     0.0300    -0.1070    90.0240    42.2960     0.1170     0.1590     0.5030     2.2580 
   29.2500    29.2500     0.0300    -0.1070    88.8850    43.3540     0.1170     0.1610     0.4840     2.2580 
   29.3750    29.3750     0.0300    -0.1080    87.8140    44.2770     0.1120     0.1560     0.4470     2.2580 
   29.5000    29.5000     0.0300    -0.1080    86.7820    45.4580     0.1100     0.1530     0.3980     2.2580 
   29.6250    29.6250     0.0300    -0.1080    85.6850    46.3380     0.1120     0.1720     0.3570     2.2580 
   29.7500    29.7500     0.0310    -0.1090    84.6780    46.3970     0.1140     0.1790     0.3530     2.2580 
   29.8750    29.8750     0.0310    -0.1090    83.9840    44.9470     0.1160     0.1790     0.3970     2.2580 
   30.0000    30.0000     0.0310    -0.1100    83.6940    43.3910     0.1180     0.1740     0.4150     2.2580 
   30.1250    30.1250     0.0310    -0.1100    83.8690    42.1090     0.1210     0.1610     0.3670     2.2580 
   30.2500    30.2500     0.0310    -0.1110    84.4810    42.3880     0.1270     0.1760     0.3320     2.2580 
   30.3750    30.3750     0.0320    -0.1110    85.3820    42.0980     0.1380     0.1860     0.3450     2.2580 
   30.5000    30.5000     0.0320    -0.1110    86.2470    41.5130     0.1380     0.2020     0.3730     2.2580 
   30.6250    30.6250     0.0320    -0.1120    86.9260    40.1770     0.1410     0.2070     0.3950     2.2580 
   30.7500    30.7500     0.0320    -0.1120    87.2020    39.3690     0.1430     0.2040     0.4000     2.2580 
   30.8750    30.8750     0.0320    -0.1130    87.1600    39.1210     0.1400     0.1980     0.3940     2.2580 
   31.0000    31.0000     0.0330    -0.1130    86.7170    38.6940     0.1500     0.2000     0.3860     2.2580 
   31.1250    31.1250     0.0330    -0.1140    85.9100    38.2870     0.1510     0.2040     0.3800     2.2580 
   31.2500    31.2500     0.0330    -0.1140    84.8350    38.5630     0.1510     0.2220     0.3740     2.2580 
   31.3750    31.3750     0.0330    -0.1150    83.7200    40.6000     0.1460     0.2450     0.3680     2.2580 
   31.5000    31.5000     0.0330    -0.1150    82.7690    43.3610     0.1380     0.2450     0.3610     2.2580 
   31.6250    31.6250     0.0330    -0.1160    81.9610    45.9550     0.1370     0.2730     0.3490     2.2580 
   31.7500    31.7500     0.0340    -0.1160    81.3140    48.1360     0.1370     0.2890     0.3370     2.2580 
   31.8750    31.8750     0.0340    -0.1170    80.6730    49.5870     0.1460     0.2750     0.3340     2.2580 
   32.0000    32.0000     0.0340    -0.1170    80.1940    49.4550     0.1540     0.2600     0.3330     2.2580 
   32.1250    32.1250     0.0340    -0.1170    79.8030    47.9700     0.1550     0.2180     0.3290     2.2580 
   32.2500    32.2500     0.0340    -0.1180    79.4330    46.5400     0.1500     0.2050     0.3280     2.2580 
   32.3750    32.3750     0.0350    -0.1180    79.1520    46.0380     0.1490     0.1940     0.3300     2.2580 
   32.5000    32.5000     0.0350    -0.1190    79.1490    46.0080     0.1450     0.1960     0.3370     2.2580 
   32.6250    32.6250     0.0350    -0.1190    79.4610    47.1470     0.1450     0.1940     0.3540     2.2580 
   32.7500    32.7500     0.0350    -0.1200    79.9450    48.6080     0.1510     0.2070     0.3730     2.2580 
   32.8750    32.8750     0.0350    -0.1200    80.6220    51.1860     0.1480     0.2200     0.3960     2.2580 
   33.0000    33.0000     0.0360    -0.1210    81.2500    52.5940     0.1480     0.2180     0.4260     2.2580 
   33.1250    33.1250     0.0360    -0.1210    81.7280    51.8610     0.1480     0.2150     0.4610     2.2580 
   33.2500    33.2500     0.0360    -0.1220    81.9010    49.5890     0.1480     0.2140     0.5050     2.2580 
   33.3750    33.3750     0.0360    -0.1220    81.8680    47.0290     0.1520     0.2070     0.5620     2.2580 
   33.5000    33.5000     0.0360    -0.1230    81.6750    45.9540     0.1480     0.2100     0.6380     2.2580 
   33.6250    33.6250     0.0360    -0.1240    81.3530    45.3760     0.1470     0.2070     0.7260     2.2580 
   33.7500    33.7500     0.0360    -0.1240    80.8430    45.7110     0.1400     0.2130     0.7910     2.2580 
   33.8750    33.8750     0.0370    -0.1250    80.2990    45.2130     0.1380     0.2100     0.8270     2.2580 
   34.0000    34.0000     0.0370    -0.1250    79.7450    44.2230     0.1400     0.2180     0.8760     2.2580 
   34.1250    34.1250     0.0370    -0.1260    79.1540    41.7520     0.1350     0.2190     0.8520     2.2580 
   34.2500    34.2500     0.0370    -0.1260    78.7170    40.0550     0.1480     0.2150     0.6680     2.2580 
   34.3750    34.3750     0.0370    -0.1270    78.2800    39.4300     0.1530     0.2220     0.5690     2.2580 
   34.5000    34.5000     0.0370    -0.1270    77.8870    41.1290     0.1550     0.2180     0.6700     2.2580 
   34.6250    34.6250     0.0370    -0.1280    77.6160    43.9260     0.1610     0.2150     0.7700     2.2580 
   34.7500    34.7500     0.0370    -0.1280    77.8180    46.6420     0.1530     0.2190     0.8010     2.2580 
   34.8750    34.8750     0.0370    -0.1290    78.1730    48.3350     0.1500     0.2160     0.8160     2.2580 
   35.0000    35.0000     0.0370    -0.1290    78.4580    49.6070     0.1500     0.2190     0.8450     2.2580 
   35.1250    35.1250     0.0370    -0.1300    78.8480    50.6900     0.1520     0.2290     0.8900     2.2580 
   35.2500    35.2500     0.0370    -0.1300    79.1440    53.2870     0.1560     0.2220     0.9580     2.2580 
   35.3750    35.3750     0.0380    -0.1310    79.4530    55.8530     0.1490     0.2160     1.0430     2.2580 
   35.5000    35.5000     0.0380    -0.1310    79.8870    58.5260     0.1410     0.2200     1.1360     2.2580 
   35.6250    35.6250     0.0380    -0.1320    80.2670    59.1460     0.1320     0.2200     1.2350     2.2580 
   35.7500    35.7500     0.0380    -0.1320    80.2850    58.9560     0.1330     0.2450     1.3440     2.2580 
   35.8750    35.8750     0.0380    -0.1330    80.1120    57.2790     0.1240     0.2490     1.5250     2.2580 
   36.0000    36.0000     0.0380    -0.1330    79.7830    54.6080     0.1320     0.2580     1.8830     2.2580 
   36.1250    36.1250     0.0380    -0.1340    79.3260    49.2140     0.1400     0.2670     2.3510     2.2580 
   36.2500    36.2500     0.0380    -0.1340    78.8820    43.9430     0.1460     0.2780     2.8570     2.2580 
   36.3750    36.3750     0.0380    -0.1350    78.4860    41.0710     0.1560     0.2940     3.3040     2.2580 
   36.5000    36.5000     0.0390    -0.1350    78.0960    41.3060     0.1590     0.2940     4.2810     2.2580 
   36.6250    36.6250     0.0390    -0.1360    77.6530    43.5140     0.1520     0.2930   -23.8950     2.2580 
   36.7500    36.7500     0.0390    -0.1360    77.3360    45.1220     0.1630     0.2930   -98.0600     2.2580 
   36.8750    36.8750     0.0390    -0.1370    77.1480    46.5770     0.1640     0.2920  -114.3670     2.2580 
   37.0000    37.0000     0.0390    -0.1370    77.1010    46.2010     0.1720     0.2880   -46.4390     2.2580 
   37.1250    37.1250     0.0390    -0.1370    77.0160    44.8650     0.1740     0.2700    -9.9790     2.2580 
   37.2500    37.2500     0.0400    -0.1380    76.9170    43.7250     0.1740     0.2520    -6.7500     2.2580 
   37.3750    37.3750     0.0400    -0.1380    76.7560    43.0570     0.1740     0.2350     2.0390     2.2580 
