~V
VERS. 2.00: Ver 2.00
~W
STRT.M 30.0000:
STOP.M 262.0000:
STEP.M 0.1250:
NULL. -999.2500:
UWI. FD10852:
~C
DEPT.M :
TVD. :
DX. :
DY. :
SP.MV :
GR.API :
RI. :
RML.OHMM :
RXO.OHMM :
DEN.GM/CC :
~A
# ...
   48.2500    48.2160    -1.0150     0.1560    -3.6340   122.4260     3.3820     5.3070     4.2620     2.2610 
   48.3750    48.3400    -1.0270     0.1570    -3.9290   122.1840     3.4260     5.3010     4.2760     2.2870 
   48.5000    48.4650    -1.0400     0.1570    -3.7630   120.5880     3.4270     5.2380     4.2120     2.2970 
   48.6250    48.5890    -1.0520     0.1570    -3.4120   119.5590     3.3930     5.1350     4.1500     2.2860 
   48.7500    48.7140    -1.0650     0.1580    -3.1590   120.0450     3.3260     4.9850     4.1720     2.2760 
   48.8750    48.8380    -1.0770     0.1580    -2.9330   123.0320     3.2490     4.8230     4.1670     2.2690 
   49.0000    48.9620    -1.0900     0.1580    -2.6910   126.9910     3.1710     4.6720     4.0860     2.2590 
   49.1250    49.0870    -1.1030     0.1590    -2.5890   130.8560     3.1460     4.6400     4.0140     2.2470 
   49.2500    49.2110    -1.1150     0.1590    -2.6720   129.0430     3.2670     4.7650     3.9740     2.2280 
   49.3750    49.3350    -1.1280     0.1590    -2.8890   121.4940     3.5020     5.0130     3.9290     2.1960 
   49.5000    49.4600    -1.1410     0.1590    -3.2230   113.3510     3.6740     5.2950     4.2440     2.1810 
   49.6250    49.5840    -1.1540     0.1590    -3.5250   108.6860     3.7570     5.3670     5.0330     2.2070 
   49.7500    49.7080    -1.1670     0.1600    -3.6540   108.9020     3.5610     5.1390     4.9630     2.2380 
   49.8750    49.8330    -1.1810     0.1600    -3.7400   111.6100     3.4510     4.7750     4.2360     2.2380 
   50.0000    49.9570    -1.1940     0.1600    -3.9630   113.3890     3.5490     4.7150     4.1230     2.2250 
   50.1250    50.0810    -1.2070     0.1600    -4.2900   110.6940     3.9630     5.1190     4.5830     2.2300 
   50.2500    50.2050    -1.2210     0.1600    -4.6390   104.2930     5.1410     6.6150     6.5590     2.2770 
   50.3750    50.3300    -1.2340     0.1600    -4.7900    96.6810     7.4640     9.8100    11.1520     2.3550 
   50.5000    50.4540    -1.2480     0.1600    -4.4920    89.2130    11.3480    15.0370    15.7820     2.4420 
   50.6250    50.5780    -1.2620     0.1600    -3.8770    81.1660    15.6990    20.6610    20.7590     2.5110 
   50.7500    50.7020    -1.2760     0.1600    -3.2140    72.8140    18.8550    24.5080    30.5810     2.5350 
   50.8750    50.8270    -1.2900     0.1600    -2.8040    66.8400    20.0890    25.5540    46.2140     2.4880 
   51.0000    50.9510    -1.3040     0.1590    -2.9470    65.6700    18.6230    23.1080    50.7530     2.3560 
   51.1250    51.0750    -1.3180     0.1590    -3.5440    67.4610    16.0770    19.5350    32.7400     2.2050 
   51.2500    51.1990    -1.3320     0.1590    -4.3390    69.2400    13.3740    16.1140    16.2030     2.1200 
   51.3750    51.3230    -1.3460     0.1590    -5.0660    70.4070    11.3170    13.7310    12.2100     2.0990 
   51.5000    51.4480    -1.3600     0.1590    -5.4150    73.1710    10.1180    12.4810    10.5440     2.0990 
   51.6250    51.5720    -1.3750     0.1580    -5.2640    76.3490     9.5540    11.9550     9.8460     2.0940 
   51.7500    51.6960    -1.3890     0.1580    -4.8160    77.2520     9.3640    11.7540     9.8660     2.0930 
   51.8750    51.8200    -1.4040     0.1580    -4.3790    75.1100     9.3430    11.7070     9.5530     2.1060 
   52.0000    51.9440    -1.4190     0.1580    -4.0760    73.4060     9.5650    11.9480     9.6090     2.1240 
   52.1250    52.0680    -1.4330     0.1570    -4.0130    72.4570    10.0100    12.4640    10.3330     2.1280 
   52.2500    52.1920    -1.4480     0.1570    -4.2650    70.4640    10.5500    13.0770    10.9190     2.1160 
   52.3750    52.3170    -1.4630     0.1570    -4.6770    66.8320    11.0960    13.6760    11.1280     2.1010 
   52.5000    52.4410    -1.4780     0.1560    -5.0540    64.9580    11.5340    14.1280    11.2810     2.0920 
   52.6250    52.5650    -1.4930     0.1560    -5.3710    64.9390    11.8560    14.4750    11.4580     2.0910 
   52.7500    52.6890    -1.5080     0.1560    -5.6170    65.2990    12.0790    14.7650    11.5320     2.0890 
   52.8750    52.8130    -1.5230     0.1550    -5.8260    66.0210    12.2390    15.0620    11.5950     2.0830 
   53.0000    52.9370    -1.5380     0.1550    -6.0900    67.5890    12.2880    15.2250    11.7340     2.0800 
   53.1250    53.0610    -1.5530     0.1540    -6.4650    68.7260    12.1440    15.1490    11.6510     2.0840 
   53.2500    53.1850    -1.5690     0.1540    -6.8820    68.2600    11.8490    14.8370    11.1430     2.0850 
   53.3750    53.3090    -1.5840     0.1540    -7.2960    66.8210    11.4040    14.3030    10.6560     2.0800 
   53.5000    53.4330    -1.5990     0.1530    -7.5520    65.4110    10.9070    13.7090    10.6510     2.0800 
   53.6250    53.5570    -1.6150     0.1520    -7.4170    65.2030    10.4040    12.9570    10.8040     2.0870 
   53.7500    53.6810    -1.6310     0.1520    -6.7940    65.2190    10.1250    12.4040    10.5050     2.0920 
   53.8750    53.8050    -1.6460     0.1510    -5.9090    64.1150    10.5080    12.7050    10.0900     2.0890 
   54.0000    53.9290    -1.6620     0.1510    -5.0980    62.1310    12.3580    14.9230    10.2090     2.0900 
   54.1250    54.0530    -1.6780     0.1500    -4.7150    62.3580    16.0360    19.5330    14.0090     2.1200 
   54.2500    54.1770    -1.6940     0.1490    -4.8460    63.7360    22.1930    27.4780    36.6110     2.2220 
   54.3750    54.3010    -1.7100     0.1490    -5.2080    63.9590    27.4070    33.2620    64.8390     2.3890 
   54.5000    54.4250    -1.7260     0.1480    -5.6150    62.4690    27.0540    32.0110    67.0640     2.5480 
   54.6250    54.5490    -1.7420     0.1470    -5.8180    62.1380    22.2970    25.5460    49.6020     2.6240 
   54.7500    54.6730    -1.7590     0.1460    -5.5880    67.2280    14.4090    15.4950    26.2590     2.5760 
   54.8750    54.7970    -1.7750     0.1450    -5.1520    75.4000     8.1560     8.5390    10.0810     2.4440 
   55.0000    54.9210    -1.7910     0.1450    -4.7920    80.9130     5.6970     6.0490     6.1980     2.3060 
   55.1250    55.0450    -1.8080     0.1440    -4.4830    83.0370     4.7000     5.2180     5.2140     2.2330 
   55.2500    55.1690    -1.8240     0.1430    -4.2390    85.5210     4.4540     5.1860     4.8320     2.2200 
   55.3750    55.2930    -1.8410     0.1420    -4.1650    88.9630     4.5100     5.3750     5.5970     2.2120 
   55.5000    55.4160    -1.8580     0.1410    -4.2390    89.8550     4.4730     5.2800     6.6920     2.1970 
   55.6250    55.5400    -1.8750     0.1400    -4.4070    90.1190     4.3230     5.0080     6.5130     2.2040 
   55.7500    55.6640    -1.8920     0.1390    -4.6660    91.8610     4.3230     4.9330     5.3450     2.2440 
   55.8750    55.7880    -1.9090     0.1380    -4.9360    93.5550     4.4830     5.1220     4.3820     2.2810 
   56.0000    55.9120    -1.9260     0.1370    -5.2020    92.5690     4.7230     5.4810     5.7480     2.2660 
   56.1250    56.0360    -1.9430     0.1360    -5.4890    90.8680     4.9040     5.7880     9.3430     2.2130 
   56.2500    56.1590    -1.9600     0.1340    -5.7850    90.2820     4.7940     5.6820     9.8910     2.1750 
   56.3750    56.2830    -1.9770     0.1330    -6.1010    92.3880     4.3860     5.1650     6.7090     2.1810 
   56.5000    56.4070    -1.9950     0.1320    -6.5620    96.5350     3.9240     4.5450     4.5460     2.2150 
   56.6250    56.5310    -2.0120     0.1310    -7.0630   100.8790     3.6370     4.1650     4.3110     2.2400 
   56.7500    56.6550    -2.0300     0.1300    -7.3370   100.9370     3.9000     4.5390     4.4850     2.2460 
   56.8750    56.7780    -2.0470     0.1290    -7.2890    94.5190     4.8050     5.7630     5.4970     2.2370 
   57.0000    56.9020    -2.0650     0.1280    -6.9690    82.8570     6.4230     7.9650     7.6450     2.2070 
   57.1250    57.0260    -2.0830     0.1270    -6.5910    71.9740     8.4880    10.6910     9.5440     2.1600 
   57.2500    57.1490    -2.1010     0.1250    -6.5010    65.7710    10.2290    12.8450    10.5940     2.1170 
