~V
VERS. 2.00: Ver 2.00
~W
STRT.M 32.0000:
STOP.M 269.0000:
STEP.M 0.1250:
NULL. -999.2500:
UWI. FD10881:
~C
DEPT.M :
TVD. :
DX. :
DY. :
SP.MV :
GR.API :
RI. :
RML.OHMM :
RXO.OHMM :
~A
# ...
   82.0000    81.8260    -3.0050    -1.4380     0.4000    88.4330     3.3080     3.8060     4.9210 
   82.1250    81.9490    -3.0240    -1.4480     0.2070    91.3550     3.2270     3.7080     4.5300 
   82.2500    82.0730    -3.0430    -1.4580     0.0200    93.8580     3.2320     3.6950     4.7050 
   82.3750    82.1960    -3.0620    -1.4680    -0.0040    94.2490     3.3400     3.8100     5.0180 
   82.5000    82.3190    -3.0810    -1.4780     0.2500    91.3230     3.5160     3.9920     5.4540 
   82.6250    82.4420    -3.1010    -1.4890     0.6810    85.9230     3.7550     4.2310     5.8720 
   82.7500    82.5650    -3.1200    -1.4990     1.1390    81.3860     4.0540     4.5430     5.8760 
   82.8750    82.6880    -3.1390    -1.5090     1.4080    79.6350     4.3650     4.8640     6.0550 
   83.0000    82.8110    -3.1590    -1.5200     1.3730    78.9290     4.7470     5.2780     6.9780 
   83.1250    82.9340    -3.1780    -1.5300     1.1630    75.6400     5.1500     5.7220     7.6930 
   83.2500    83.0570    -3.1980    -1.5400     0.9070    72.1140     5.5230     6.1110     7.7560 
   83.3750    83.1800    -3.2180    -1.5510     0.7030    70.8340     5.8320     6.4220     7.8200 
   83.5000    83.3030    -3.2380    -1.5610     0.7090    70.5420     6.0260     6.6410     8.0790 
   83.6250    83.4260    -3.2580    -1.5720     0.9550    69.4660     6.1130     6.7570     8.2930 
   83.7500    83.5490    -3.2770    -1.5820     1.2730    68.6160     5.9310     6.5530     8.3830 
   83.8750    83.6720    -3.2970    -1.5930     1.5190    67.8180     5.5940     6.1560     8.4490 
   84.0000    83.7950    -3.3170    -1.6040     1.7180    67.0430     5.2500     5.7320     8.6150 
   84.1250    83.9180    -3.3370    -1.6140     1.8420    68.5940     5.1420     5.5980     8.1730 
   84.2500    84.0410    -3.3580    -1.6250     1.8580    74.0540     5.5160     6.0830    11.1120 
   84.3750    84.1630    -3.3780    -1.6360     1.8100    76.8280     6.4310     7.2710    26.8060 
   84.5000    84.2860    -3.3980    -1.6470     1.7630    72.3040     7.7780     8.8780    37.3220 
   84.6250    84.4090    -3.4180    -1.6580     1.7970    65.1960     8.7710     9.9020    26.5040 
   84.7500    84.5320    -3.4380    -1.6690     1.9100    62.2840     9.0020     9.9190    17.8670 
   84.8750    84.6550    -3.4590    -1.6800     1.9460    63.7950     8.5810     9.1210    16.0110 
   85.0000    84.7780    -3.4790    -1.6910     1.7520    66.8310     7.9910     8.2630    10.6810 
   85.1250    84.9000    -3.5000    -1.7020     1.3400    69.0540     8.2300     8.4830     8.7010 
   85.2500    85.0230    -3.5200    -1.7130     0.8410    68.0450     9.6240    10.0910    16.1390 
   85.3750    85.1460    -3.5410    -1.7240     0.4750    63.7920    11.8960    12.6970    32.0860 
   85.5000    85.2690    -3.5620    -1.7350     0.4160    60.2790    14.1540    15.2650    45.9300 
   85.6250    85.3920    -3.5820    -1.7460     0.6810    58.6970    15.4210    16.6520    42.5010 
   85.7500    85.5140    -3.6030    -1.7580     1.2150    58.4340    15.0030    16.0720    26.0660 
   85.8750    85.6370    -3.6240    -1.7690     1.8180    58.9760    13.4350    14.2640    15.8150 
   86.0000    85.7600    -3.6450    -1.7800     2.2770    59.9050    11.7700    12.4430    13.7980 
   86.1250    85.8820    -3.6660    -1.7920     2.4300    59.3650    10.6540    11.3340    13.1860 
   86.2500    86.0050    -3.6870    -1.8030     2.2380    59.3180    10.2690    11.0680    12.9180 
   86.3750    86.1280    -3.7080    -1.8140     1.8880    60.9950    10.2100    11.1200    12.9390 
   86.5000    86.2510    -3.7290    -1.8260     1.5680    62.6150    10.2970    11.2780    13.3530 
   86.6250    86.3730    -3.7510    -1.8380     1.4350    61.4100    10.4360    11.4770    13.6050 
   86.7500    86.4960    -3.7720    -1.8490     1.5680    59.2580    10.6090    11.7220    13.2190 
   86.8750    86.6180    -3.7930    -1.8610     1.7970    60.3810    10.7710    11.9690    12.6480 
   87.0000    86.7410    -3.8150    -1.8720     1.9350    63.8400    10.8710    12.1070    12.0740 
   87.1250    86.8640    -3.8360    -1.8840     2.0170    64.4420    10.8770    12.1110    11.8770 
   87.2500    86.9860    -3.8580    -1.8960     2.0350    60.1010    10.7920    12.0000    12.1930 
   87.3750    87.1090    -3.8790    -1.9080     1.9860    56.3730    10.6290    11.7800    12.3640 
   87.5000    87.2310    -3.9010    -1.9190     1.8820    59.2280    10.4160    11.5580    12.1690 
   87.6250    87.3540    -3.9220    -1.9310     1.7140    64.3330    10.2250    11.3640    11.8830 
   87.7500    87.4760    -3.9440    -1.9430     1.5540    66.1060    10.1230    11.2850    11.6790 
   87.8750    87.5990    -3.9660    -1.9550     1.4640    63.4470    10.1680    11.3720    11.4540 
   88.0000    87.7210    -3.9880    -1.9670     1.4370    60.3350    10.3260    11.5840    11.4700 
   88.1250    87.8440    -4.0100    -1.9800     1.4160    59.7910    10.5000    11.7920    12.1460 
   88.2500    87.9660    -4.0320    -1.9920     1.3720    61.0780    10.5580    11.8520    12.9060 
   88.3750    88.0890    -4.0540    -2.0040     1.3140    62.0270    10.5240    11.8350    13.0240 
   88.5000    88.2110    -4.0760    -2.0160     1.1990    60.9850    10.4110    11.7310    12.8480 
   88.6250    88.3330    -4.0980    -2.0280     1.1100    60.8280    10.1990    11.5180    12.5120 
   88.7500    88.4560    -4.1210    -2.0410     1.2330    63.5500     9.8510    11.1280    12.3450 
   88.8750    88.5780    -4.1430    -2.0530     1.5540    67.2780     9.3910    10.6000    12.5600 
   89.0000    88.7010    -4.1650    -2.0650     1.9500    69.7790     8.8980    10.0230    11.9560 
   89.1250    88.8230    -4.1880    -2.0780     2.2600    69.9670     8.5340     9.6280    10.8350 
   89.2500    88.9450    -4.2110    -2.0900     2.3050    68.3900     8.4840     9.6340    10.5820 
   89.3750    89.0670    -4.2330    -2.1020     2.1270    69.0160     8.7930    10.1090    11.0180 
   89.5000    89.1900    -4.2560    -2.1150     1.9290    70.4500     9.4170    10.9500    11.9690 
   89.6250    89.3120    -4.2790    -2.1270     1.7860    68.9250    10.1360    11.8650    13.5560 
   89.7500    89.4340    -4.3020    -2.1400     1.7730    63.7910    10.5620    12.3240    15.2250 
   89.8750    89.5560    -4.3250    -2.1520     1.9590    59.9940    10.5000    12.1380    16.1330 
   90.0000    89.6790    -4.3480    -2.1640     2.2140    60.0230    10.0970    11.5250    15.2240 
   90.1250    89.8010    -4.3710    -2.1770     2.3150    60.2530     9.6230    10.8680    12.8850 
   90.2500    89.9230    -4.3940    -2.1890     2.2610    60.3190     9.4580    10.6760    11.4470 
   90.3750    90.0450    -4.4180    -2.2020     2.1650    61.0900     9.8730    11.2810    11.7040 
   90.5000    90.1670    -4.4410    -2.2140     2.0180    63.1810    10.7380    12.4940    13.0860 
   90.6250    90.2900    -4.4640    -2.2270     1.8350    64.8280    11.5980    13.5650    15.0310 
   90.7500    90.4120    -4.4880    -2.2400     1.6040    66.5310    11.6890    13.5850    19.7430 
   90.8750    90.5340    -4.5110    -2.2520     1.3250    68.7570    10.6070    12.1190    23.3730 
   91.0000    90.6560    -4.5350    -2.2650     0.9590    70.0480     8.6860     9.6870    18.8330 
   91.1250    90.7780    -4.5590    -2.2780     0.5560    68.6620     6.5970     7.2060    12.5070 
   91.2500    90.9000    -4.5820    -2.2900     0.0620    68.4930     5.1000     5.5270     8.6000 
   91.3750    91.0220    -4.6060    -2.3030    -0.5260    72.4140     4.2160     4.5730     6.1130 
   91.5000    91.1440    -4.6300    -2.3160    -1.1000    76.2640     3.9420     4.3420     5.7650 
   91.6250    91.2660    -4.6540    -2.3290    -1.5590    77.6970     4.0890     4.5880     5.6620 
   91.7500    91.3880    -4.6780    -2.3410    -1.8640    77.0670     4.4120     5.0170     5.7430 
   91.8750    91.5100    -4.7020    -2.3540    -1.9520    77.0500     4.7530     5.4440     6.5010 
