~V
VERS. 2.00: Ver 2.00
~W
STRT.M 32.0000:
STOP.M 275.0000:
STEP.M 0.1250:
NULL. -999.2500:
UWI. FD10902:
~C
DEPT.M :
TVD. :
DX. :
DY. :
SP.MV :
GR.API :
RI. :
RML.OHMM :
RXO.OHMM :
DEN.GM/CC :
~A
# ...
  178.0000   171.1260    37.1490   -10.8610    -0.3770    47.0610     4.3510     5.6290     4.7880     2.3950 
  178.1250   171.2370    37.2040   -10.8790    -0.3840    46.0430     4.3290     5.5760     4.6390     2.3900 
  178.2500   171.3480    37.2600   -10.8960    -0.4650    45.0020     4.3220     5.5550     4.6540     2.3920 
  178.3750   171.4580    37.3150   -10.9140    -0.5160    43.7260     4.3370     5.5620     4.8100     2.3980 
  178.5000   171.5690    37.3710   -10.9320    -0.6400    43.4570     4.3690     5.6010     4.9220     2.4000 
  178.6250   171.6790    37.4260   -10.9490    -0.8650    43.0570     4.3900     5.6240     4.8700     2.3900 
  178.7500   171.7900    37.4820   -10.9670    -1.1570    42.5880     4.3910     5.6190     4.7640     2.3870 
  178.8750   171.9010    37.5380   -10.9840    -1.3980    40.9620     4.3560     5.5610     4.6830     2.3860 
  179.0000   172.0110    37.5930   -11.0020    -1.5930    40.8940     4.3110     5.4920     4.6030     2.3830 
  179.1250   172.1220    37.6490   -11.0190    -1.7300    40.5490     4.2720     5.4430     4.5130     2.3780 
  179.2500   172.2320    37.7040   -11.0370    -1.8050    40.8930     4.2600     5.4290     4.5570     2.3770 
  179.3750   172.3430    37.7600   -11.0540    -1.8150    40.3280     4.2800     5.4660     4.7720     2.3850 
  179.5000   172.4540    37.8150   -11.0720    -1.8680    40.1060     4.3210     5.5220     4.8920     2.3950 
  179.6250   172.5640    37.8710   -11.0900    -1.9270    39.4750     4.3700     5.5920     4.8440     2.4090 
  179.7500   172.6750    37.9260   -11.1070    -1.9850    38.8100     4.4070     5.6420     4.7760     2.4090 
  179.8750   172.7850    37.9820   -11.1250    -2.0870    38.7910     4.4210     5.6640     4.6860     2.4060 
  180.0000   172.8960    38.0370   -11.1430    -2.1720    38.8440     4.3960     5.6410     4.5160     2.3990 
  180.1250   173.0070    38.0930   -11.1600    -2.3450    38.7320     4.3450     5.5730     4.4530     2.4020 
  180.2500   173.1170    38.1480   -11.1780    -2.5260    39.0970     4.2820     5.4840     4.5860     2.3950 
  180.3750   173.2280    38.2040   -11.1960    -2.6940    40.6870     4.2180     5.3880     4.6690     2.3840 
  180.5000   173.3380    38.2590   -11.2130    -2.7660    42.5400     4.1640     5.3080     4.6690     2.3690 
  180.6250   173.4490    38.3150   -11.2310    -2.8540    43.2620     4.1230     5.2680     4.7060     2.3670 
  180.7500   173.5600    38.3710   -11.2490    -3.0670    42.4170     4.1000     5.2570     4.7380     2.3740 
  180.8750   173.6700    38.4260   -11.2660    -3.3690    41.3700     4.0900     5.2580     4.7110     2.3830 
  181.0000   173.7810    38.4820   -11.2840    -3.6270    40.8120     4.0860     5.2680     4.6310     2.3790 
  181.1250   173.8910    38.5370   -11.3020    -3.9190    40.9510     4.0940     5.2780     4.5570     2.3770 
  181.2500   174.0020    38.5930   -11.3190    -4.1390    42.2760     4.1060     5.2970     4.6500     2.3810 
  181.3750   174.1120    38.6480   -11.3370    -4.2140    43.8860     4.1400     5.3280     4.8610     2.3940 
  181.5000   174.2230    38.7040   -11.3550    -4.2290    44.6970     4.1930     5.3880     4.9090     2.3920 
  181.6250   174.3330    38.7590   -11.3730    -4.2110    44.0060     4.2490     5.4510     4.8140     2.3770 
  181.7500   174.4440    38.8150   -11.3900    -4.1140    43.6330     4.2820     5.4920     4.8130     2.3620 
  181.8750   174.5550    38.8710   -11.4080    -3.9330    44.7680     4.2950     5.5060     4.8990     2.3570 
  182.0000   174.6650    38.9260   -11.4260    -3.5110    47.4100     4.2800     5.4810     4.9600     2.3690 
  182.1250   174.7760    38.9820   -11.4430    -2.9290    49.1320     4.2590     5.4480     4.9670     2.3800 
  182.2500   174.8860    39.0370   -11.4610    -2.5290    49.7410     4.2380     5.4230     4.8640     2.3880 
  182.3750   174.9970    39.0930   -11.4780    -2.0380    49.9470     4.2200     5.4030     4.8060     2.3880 
  182.5000   175.1080    39.1480   -11.4960    -1.5920    51.0730     4.2060     5.3830     4.9340     2.3820 
  182.6250   175.2180    39.2040   -11.5130    -1.4270    52.2980     4.1910     5.3580     5.0760     2.3840 
  182.7500   175.3290    39.2600   -11.5310    -1.4660    53.3630     4.1520     5.3010     4.8900     2.3810 
  182.8750   175.4390    39.3150   -11.5490    -1.4950    53.1230     4.1060     5.2390     4.6040     2.3830 
  183.0000   175.5500    39.3710   -11.5660    -1.5190    51.9890     4.0690     5.1910     4.5640     2.3930 
  183.1250   175.6600    39.4260   -11.5840    -1.5800    50.1190     4.0670     5.1900     4.5650     2.4270 
  183.2500   175.7710    39.4820   -11.6020    -1.6550    49.5470     4.1070     5.2410     4.5390     2.4590 
  183.3750   175.8820    39.5370   -11.6190    -1.6990    49.3720     4.1680     5.3030     4.5800     2.4670 
  183.5000   175.9920    39.5930   -11.6370    -1.7590    49.0730     4.2170     5.3400     4.6370     2.4490 
  183.6250   176.1030    39.6480   -11.6550    -1.8450    48.3800     4.2510     5.3430     4.6450     2.4220 
  183.7500   176.2130    39.7040   -11.6730    -1.8590    48.1710     4.2720     5.3350     4.6500     2.3980 
  183.8750   176.3240    39.7600   -11.6900    -1.7940    47.8740     4.2870     5.3310     4.6330     2.3760 
  184.0000   176.4340    39.8150   -11.7080    -1.7060    46.9850     4.3030     5.3430     4.6960     2.3700 
  184.1250   176.5450    39.8710   -11.7260    -1.5030    45.8830     4.3210     5.3770     4.8670     2.3700 
  184.2500   176.6550    39.9260   -11.7430    -1.0720    45.1420     4.3320     5.3940     4.8530     2.3700 
  184.3750   176.7660    39.9820   -11.7610    -0.7470    45.1470     4.3110     5.3760     4.6580     2.3710 
  184.5000   176.8760    40.0380   -11.7790    -0.6010    45.8590     4.2550     5.3130     4.5570     2.3790 
  184.6250   176.9870    40.0930   -11.7960    -0.5610    47.1600     4.1820     5.2250     4.5450     2.3870 
  184.7500   177.0970    40.1490   -11.8140    -0.5890    47.2870     4.1120     5.1500     4.5010     2.3930 
  184.8750   177.2080    40.2050   -11.8320    -0.6730    46.8870     4.0540     5.0960     4.4780     2.3900 
  185.0000   177.3180    40.2600   -11.8500    -0.7930    45.7840     4.0120     5.0560     4.5400     2.3950 
  185.1250   177.4290    40.3160   -11.8670    -1.0390    46.4560     3.9620     4.9940     4.5420     2.3940 
  185.2500   177.5390    40.3720   -11.8850    -1.2980    47.5160     3.9500     4.9620     4.4260     2.3900 
  185.3750   177.6500    40.4270   -11.9030    -1.7040    49.8790     4.0560     5.0760     4.3890     2.3760 
  185.5000   177.7600    40.4830   -11.9210    -2.0600    54.5260     4.3230     5.4180     4.6880     2.3620 
  185.6250   177.8710    40.5390   -11.9390    -2.1410    62.3380     4.7090     5.9260     5.5950     2.3540 
  185.7500   177.9810    40.5940   -11.9560    -1.8600    71.6230     5.1030     6.4540     6.7800     2.3550 
  185.8750   178.0920    40.6500   -11.9740    -1.4460    77.2650     5.3570     6.7830     7.1310     2.3710 
  186.0000   178.2020    40.7060   -11.9920    -1.0120    77.1240     5.3590     6.7520     6.5670     2.3900 
  186.1250   178.3130    40.7620   -12.0100    -0.7280    71.9220     5.1390     6.4240     5.9950     2.4000 
  186.2500   178.4230    40.8170   -12.0270    -0.6410    65.8500     4.7590     5.9080     5.5410     2.3950 
  186.3750   178.5340    40.8730   -12.0450    -0.5410    61.2500     4.3670     5.4110     5.0700     2.3890 
  186.5000   178.6440    40.9290   -12.0620    -0.4890    57.9500     4.0920     5.0910     4.6890     2.3890 
  186.6250   178.7550    40.9850   -12.0800    -0.5110    55.2010     3.9380     4.9260     4.4540     2.3980 
  186.7500   178.8650    41.0410   -12.0970    -0.5790    52.9930     3.8860     4.8770     4.3470     2.4030 
  186.8750   178.9760    41.0960   -12.1150    -0.6160    52.8180     3.8810     4.8850     4.3180     2.3910 
  187.0000   179.0860    41.1520   -12.1330    -0.5090    53.6960     3.8990     4.9150     4.3340     2.3730 
