~V
VERS. 2.00: Ver 2.00
~W
STRT.M 33.0000:
STOP.M 287.0000:
STEP.M 0.1250:
NULL. -999.2500:
UWI. FD10889:
~C
DEPT.M :
TVD. :
DX. :
DY. :
SP.MV :
GR.API :
RI. :
RML.OHMM :
RXO.OHMM :
DEN.GM/CC :
~A
# ...
  160.7500   154.8480   -26.7890   -18.4320    -6.4550    56.8960    23.6220    26.0680    26.8660     2.0870 
  160.8750   154.9540   -26.8350   -18.4790    -7.0350    50.6630    24.1980    26.7530    24.9320     2.0850 
  161.0000   155.0600   -26.8820   -18.5270    -7.6790    45.0530    24.4400    26.9900    24.1230     2.0790 
  161.1250   155.1660   -26.9280   -18.5740    -8.4420    45.8630    24.5670    27.0880    27.0960     2.0780 
  161.2500   155.2720   -26.9740   -18.6220    -9.3130    50.6500    24.8560    27.4290    30.4690     2.0940 
  161.3750   155.3780   -27.0200   -18.6690   -10.4290    52.3420    25.4670    28.2040    28.6330     2.1320 
  161.5000   155.4840   -27.0670   -18.7170   -11.7090    49.1220    26.3130    29.3370    27.7920     2.1890 
  161.6250   155.5900   -27.1130   -18.7650   -12.9110    44.2400    27.2070    30.5330    28.4080     2.2440 
  161.7500   155.6950   -27.1590   -18.8130   -14.2520    42.8720    27.0100    30.2710    27.2760     2.2750 
  161.8750   155.8010   -27.2060   -18.8620   -15.3180    43.9680    25.1880    28.1250    26.9150     2.2790 
  162.0000   155.9060   -27.2520   -18.9100   -16.1410    45.0730    22.4700    24.9280    28.9260     2.2650 
  162.1250   156.0120   -27.2990   -18.9580   -16.9930    45.7610    19.5510    21.5680    24.8080     2.2520 
  162.2500   156.1170   -27.3450   -19.0060   -17.6900    48.6020    17.8030    19.7120    21.2860     2.2540 
  162.3750   156.2230   -27.3920   -19.0550   -18.1260    53.8120    17.2980    19.2740    18.1510     2.2750 
  162.5000   156.3280   -27.4390   -19.1030   -18.5870    57.5340    17.8290    20.0780    18.1200     2.3090 
  162.6250   156.4330   -27.4860   -19.1520   -19.0550    56.4320    19.3730    22.0130    22.0060     2.3470 
  162.7500   156.5380   -27.5330   -19.2000   -19.4740    51.8920    21.4110    24.3610    27.1110     2.3790 
  162.8750   156.6440   -27.5800   -19.2480   -19.8280    47.5530    23.2040    26.3250    28.7780     2.4030 
  163.0000   156.7490   -27.6270   -19.2970   -19.9770    44.6160    24.2150    27.2980    25.6910     2.4200 
  163.1250   156.8540   -27.6750   -19.3450   -19.8960    43.8110    24.5440    27.5450    27.9280     2.4380 
  163.2500   156.9590   -27.7220   -19.3940   -19.8710    44.1620    24.7720    27.6890    29.5680     2.4640 
  163.3750   157.0640   -27.7690   -19.4430   -19.8320    45.0270    25.1730    28.0240    27.4350     2.4980 
  163.5000   157.1690   -27.8160   -19.4920   -19.8590    45.6670    26.1120    28.9660    27.5140     2.5320 
  163.6250   157.2740   -27.8620   -19.5410   -19.9470    45.6190    27.9350    30.7970    27.9350     2.5560 
  163.7500   157.3780   -27.9090   -19.5910   -20.0250    44.9530    30.2770    32.9380    29.3010     2.5630 
  163.8750   157.4830   -27.9550   -19.6410   -20.0490    45.2030    32.2490    34.5120    31.7260     2.5580 
  164.0000   157.5880   -28.0010   -19.6910   -20.1880    48.4570    32.7160    34.3450    31.2490     2.5470 
  164.1250   157.6930   -28.0480   -19.7410   -20.2280    51.3910    31.5840    32.6280    32.2910     2.5370 
  164.2500   157.7980   -28.0940   -19.7910   -20.0450    51.1960    29.8460    30.5990    27.3330     2.5340 
  164.3750   157.9020   -28.1410   -19.8410   -19.7770    49.0200    28.0850    28.7000    24.0330     2.5350 
  164.5000   158.0070   -28.1870   -19.8910   -19.4960    47.8190    25.9890    25.7880    18.4930     2.5320 
  164.6250   158.1120   -28.2340   -19.9410   -18.9800    49.2080    22.7380    22.1390    16.3150     2.5090 
  164.7500   158.2160   -28.2800   -19.9920   -18.3580    52.9550    18.0880    17.3840    13.2640     2.4560 
  164.8750   158.3210   -28.3260   -20.0420   -17.8070    56.3700    13.2010    12.5190    10.7910     2.3810 
  165.0000   158.4250   -28.3730   -20.0930   -17.4720    57.8110     9.0070     8.9580     8.2440     2.3060 
  165.1250   158.5290   -28.4200   -20.1430   -17.5530    58.8580     6.6510     6.4900     6.6680     2.2550 
  165.2500   158.6340   -28.4660   -20.1940   -17.7280    61.4460     5.6000     5.5200     4.7060     2.2410 
  165.3750   158.7380   -28.5120   -20.2450   -17.9330    63.9480     5.7170     5.8160     4.4260     2.2580 
  165.5000   158.8420   -28.5590   -20.2970   -18.0190    64.2100     6.8560     6.9670     5.9890     2.2980 
  165.6250   158.9460   -28.6050   -20.3480   -17.9290    62.3020     9.0350     9.2560     9.4390     2.3500 
  165.7500   159.0500   -28.6510   -20.4000   -17.9330    61.0760    12.4440    12.6360    13.0360     2.4060 
  165.8750   159.1540   -28.6980   -20.4510   -17.9840    59.7330    16.1900    16.4120    15.5670     2.4610 
  166.0000   159.2580   -28.7440   -20.5030   -18.1240    56.7860    19.8890    20.0900    19.2080     2.5110 
  166.1250   159.3620   -28.7910   -20.5540   -18.1500    52.1810    22.8110    22.8920    24.1590     2.5530 
  166.2500   159.4660   -28.8380   -20.6060   -18.0820    48.4230    24.8520    24.8260    29.1990     2.5830 
  166.3750   159.5700   -28.8850   -20.6570   -18.0790    46.4900    26.2290    26.1800    34.2360     2.6020 
  166.5000   159.6730   -28.9320   -20.7090   -18.1700    48.4450    26.8770    27.0180    34.3250     2.6050 
  166.6250   159.7770   -28.9790   -20.7610   -18.1330    51.0440    27.0210    27.5370    29.2130     2.5850 
  166.7500   159.8800   -29.0260   -20.8130   -18.1790    49.1570    26.8250    27.9400    26.3770     2.5380 
  166.8750   159.9840   -29.0730   -20.8650   -18.3060    44.7270    26.3760    28.1150    28.0400     2.4760 
  167.0000   160.0870   -29.1210   -20.9160   -18.2570    42.7540    25.7700    28.0000    30.8080     2.4200 
  167.1250   160.1900   -29.1680   -20.9680   -18.0550    45.1740    25.2580    27.8580    31.2840     2.3870 
  167.2500   160.2940   -29.2160   -21.0200   -17.7680    47.0320    25.1410    28.0050    28.7300     2.3800 
  167.3750   160.3970   -29.2640   -21.0720   -17.4210    48.7570    25.4730    28.5690    29.7320     2.3860 
  167.5000   160.5000   -29.3110   -21.1240   -17.2430    49.9410    26.3520    29.6810    28.0130     2.3880 
  167.6250   160.6030   -29.3590   -21.1770   -17.1090    49.1650    27.6460    31.1990    25.9870     2.3830 
  167.7500   160.7060   -29.4070   -21.2290   -17.0040    47.2710    29.0230    32.6870    27.6000     2.3770 
  167.8750   160.8090   -29.4540   -21.2820   -16.9830    46.9120    30.0300    33.6550    31.0920     2.3800 
  168.0000   160.9120   -29.5020   -21.3340   -16.9990    47.9920    30.4960    33.9640    31.9310     2.3940 
  168.1250   161.0150   -29.5500   -21.3870   -17.0440    47.4490    30.6300    33.9130    34.2770     2.4120 
  168.2500   161.1170   -29.5980   -21.4400   -17.1120    44.7000    30.8520    34.0610    34.0660     2.4270 
  168.3750   161.2200   -29.6450   -21.4930   -16.9630    41.9630    31.6550    34.9360    35.7690     2.4420 
  168.5000   161.3230   -29.6930   -21.5460   -16.7780    39.9570    33.1280    36.5920    34.8280     2.4630 
  168.6250   161.4250   -29.7400   -21.5990   -16.7870    40.0440    34.9910    38.6310    36.8550     2.4900 
  168.7500   161.5280   -29.7880   -21.6520   -16.7320    41.3500    36.4510    40.0950    37.4040     2.5120 
  168.8750   161.6300   -29.8360   -21.7060   -16.8540    42.0220    36.8950    40.3470    39.9550     2.5170 
  169.0000   161.7320   -29.8840   -21.7590   -17.0460    42.3640    35.9600    39.0410    43.0210     2.5060 
  169.1250   161.8350   -29.9320   -21.8130   -17.1730    42.7630    34.1000    36.8290    36.1520     2.4920 
  169.2500   161.9370   -29.9800   -21.8660   -17.1950    43.8240    32.2260    34.7260    30.4350     2.4880 
  169.3750   162.0390   -30.0280   -21.9200   -17.1730    46.2400    30.6330    33.0100    29.5820     2.4900 
  169.5000   162.1410   -30.0760   -21.9750   -17.1380    49.4800    29.5320    31.8630    34.2780     2.4820 
  169.6250   162.2430   -30.1240   -22.0290   -17.0990    51.2590    28.7900    31.0840    40.7220     2.4590 
  169.7500   162.3440   -30.1710   -22.0840   -17.0410    49.6630    28.2840    30.5460    40.1760     2.4270 
