~V
VERS. 2.00: Ver 2.00
~W
STRT.M 12.0000:
STOP.M 226.0000:
STEP.M 0.1250:
NULL. -999.2500:
UWI. FD10605:
~C
DEPT.M :
TVD. :
DX. :
DY. :
GR.API :
RML.OHMM :
RI. :
RXO.OHMM :
CALI.CM :
DEN.GM/CC :
SP.MV :
~A
# ...
   78.0000    77.3700     7.3980     2.4330    69.4340    15.6450    13.1740    13.8620    22.5870     2.1520   -18.6250 
   78.1250    77.4920     7.4210     2.4460    68.5060    14.7090    12.5620    12.9380    22.4310     2.1430   -18.7360 
   78.2500    77.6140     7.4450     2.4580    69.6050    13.6940    11.8010    11.8090    22.1480     2.1580   -18.7730 
   78.3750    77.7360     7.4680     2.4700    72.0460    12.9110    11.1290    11.1400    21.7930     2.1870   -18.7500 
   78.5000    77.8580     7.4920     2.4830    73.1690    12.5860    10.7340    11.1680    21.6680     2.2170   -18.6590 
   78.6250    77.9800     7.5150     2.4950    71.1320    12.9010    10.8030    10.6120    21.9100     2.2310   -18.5820 
   78.7500    78.1020     7.5390     2.5080    69.0520    13.6030    11.2260    10.4860    22.2330     2.2250   -18.5180 
   78.8750    78.2240     7.5630     2.5200    68.0780    14.2760    11.7400    11.8110    22.4340     2.2020   -18.4840 
   79.0000    78.3460     7.5860     2.5320    67.3860    14.3640    11.8750    14.2990    22.5000     2.1750   -18.3700 
   79.1250    78.4680     7.6100     2.5450    68.3900    13.2920    11.0190    15.2630    22.4800     2.1640   -18.1720 
   79.2500    78.5910     7.6330     2.5570    72.9070    11.3940     9.4140    12.0000    22.3580     2.1790   -17.9040 
   79.3750    78.7130     7.6570     2.5690    82.1550     9.2650     7.6280     8.0010    22.0940     2.2170   -17.6400 
   79.5000    78.8350     7.6800     2.5820    93.5120     7.5540     6.1960     5.8140    21.8680     2.2670   -17.3770 
   79.6250    78.9570     7.7040     2.5940   100.5040     6.8650     5.4990     5.2760    21.8000     2.3230   -17.2000 
   79.7500    79.0790     7.7270     2.6060    99.2610     7.2190     5.5100     5.8750    21.8480     2.3830   -17.1850 
   79.8750    79.2010     7.7510     2.6190    90.9840     8.6110     6.2740     8.8540    21.9400     2.4360   -17.2610 
   80.0000    79.3230     7.7740     2.6310    80.3530    10.8910     7.8270    16.2560    22.0460     2.4620   -17.4770 
   80.1250    79.4450     7.7980     2.6430    72.0610    13.6010    10.1030    24.0330    22.0860     2.4310   -17.7420 
   80.2500    79.5670     7.8210     2.6560    67.8210    15.8120    12.3550    19.6840    22.1060     2.3550   -18.0010 
   80.3750    79.6890     7.8450     2.6680    66.5580    16.7990    13.7290    16.1720    22.1550     2.2630   -18.2750 
   80.5000    79.8110     7.8680     2.6800    66.9400    16.3050    13.7150    15.6590    22.2730     2.1950   -18.5250 
   80.6250    79.9340     7.8920     2.6930    69.5070    14.5840    12.4480    15.2430    22.4530     2.1820   -18.6840 
   80.7500    80.0560     7.9150     2.7050    75.0740    12.5540    10.8250    12.8270    22.5870     2.2070   -18.6860 
   80.8750    80.1780     7.9390     2.7180    82.2740    10.7100     9.2920     9.3860    22.6340     2.2470   -18.5920 
   81.0000    80.3000     7.9620     2.7300    86.3060     9.2720     8.0370     7.6010    22.5960     2.2830   -18.4370 
   81.1250    80.4220     7.9860     2.7420    85.9960     8.3280     7.1410     7.2920    22.4630     2.3070   -18.2440 
   81.2500    80.5440     8.0100     2.7550    85.5200     7.7290     6.5130     7.2180    22.2850     2.3260   -18.1650 
   81.3750    80.6660     8.0330     2.7670    88.3420     7.3880     6.1090     6.6830    22.1970     2.3450   -18.0970 
   81.5000    80.7880     8.0570     2.7790    93.5590     7.2300     5.8860     6.1850    22.1860     2.3630   -18.1020 
   81.6250    80.9100     8.0800     2.7920    96.5540     7.2110     5.8140     5.9620    22.2030     2.3720   -18.1180 
   81.7500    81.0320     8.1040     2.8040    97.2930     7.2600     5.8260     5.9500    22.2140     2.3710   -18.1490 
   81.8750    81.1540     8.1270     2.8160    98.0780     7.3320     5.8870     6.2430    22.1960     2.3670   -18.1340 
   82.0000    81.2770     8.1510     2.8290    98.6580     7.3790     5.9530     6.5070    22.1740     2.3680   -18.0750 
   82.1250    81.3990     8.1740     2.8410    97.3150     7.3660     5.9750     6.3340    22.1570     2.3820   -18.0430 
   82.2500    81.5210     8.1980     2.8530    96.2500     7.3200     5.9590     6.2550    22.0970     2.4000   -17.9540 
   82.3750    81.6430     8.2210     2.8660    97.9880     7.2840     5.9350     6.6830    21.9860     2.4100   -17.8600 
   82.5000    81.7650     8.2450     2.8780    99.5560     7.2980     5.9360     6.3060    21.8940     2.4070   -17.7190 
   82.6250    81.8870     8.2680     2.8900    96.7460     7.3840     5.9860     6.1840    21.8730     2.3980   -17.6450 
   82.7500    82.0090     8.2920     2.9030    91.7440     7.5140     6.0710     6.2800    21.8820     2.3950   -17.5810 
   82.8750    82.1310     8.3150     2.9150    89.6460     7.6610     6.1700     6.7510    21.8780     2.3990   -17.6130 
   83.0000    82.2530     8.3390     2.9280    91.5660     7.8080     6.2660     7.2700    21.8590     2.4010   -17.7730 
   83.1250    82.3750     8.3620     2.9400    93.4120     7.9560     6.3530     6.7600    21.8320     2.3850   -17.9540 
   83.2500    82.4980     8.3860     2.9520    91.6620     8.1040     6.4380     6.6320    21.8290     2.3510   -18.1420 
   83.3750    82.6200     8.4100     2.9650    86.7390     8.2210     6.5040     7.0390    21.9500     2.3110   -18.2750 
   83.5000    82.7420     8.4330     2.9770    83.0400     8.2430     6.5050     7.6070    22.2920     2.2790   -18.4040 
   83.6250    82.8640     8.4570     2.9890    84.2420     8.0740     6.3700     7.3850    22.7020     2.2680   -18.5230 
   83.7500    82.9860     8.4800     3.0020    88.2220     7.7460     6.1130     6.7230    22.8880     2.2780   -18.6220 
   83.8750    83.1080     8.5040     3.0140    92.5050     7.3420     5.7940     5.9970    22.7540     2.3020   -18.7010 
   84.0000    83.2300     8.5270     3.0260    96.4210     6.9890     5.5040     5.5700    22.4550     2.3320   -18.6590 
   84.1250    83.3520     8.5510     3.0390    99.8680     6.8220     5.3460     5.4800    22.1770     2.3580   -18.5800 
   84.2500    83.4740     8.5740     3.0510   101.8240     6.8370     5.3220     5.7460    21.9970     2.3770   -18.4710 
   84.3750    83.5960     8.5980     3.0630   100.4040     6.9730     5.4010     6.2620    21.8910     2.3870   -18.3820 
   84.5000    83.7180     8.6210     3.0760    97.1720     7.1470     5.5260     6.8950    21.8470     2.3850   -18.2830 
   84.6250    83.8410     8.6450     3.0880    97.0240     7.2750     5.6270     6.8130    21.8910     2.3700   -18.1280 
   84.7500    83.9630     8.6680     3.1000   100.0580     7.3460     5.6790     6.3410    21.9710     2.3480   -18.0240 
   84.8750    84.0850     8.6920     3.1130   103.7110     7.3850     5.6930     6.1850    22.0360     2.3210   -17.9100 
   85.0000    84.2070     8.7150     3.1250   103.3920     7.4220     5.6950     6.4800    22.0710     2.2970   -17.8400 
   85.1250    84.3290     8.7390     3.1380    98.7020     7.4790     5.7070     6.8340    22.0440     2.2820   -17.7420 
   85.2500    84.4510     8.7620     3.1500    94.7480     7.5710     5.7480     6.8390    21.9050     2.2790   -17.6750 
   85.3750    84.5730     8.7860     3.1620    93.1270     7.7320     5.8410     6.8050    21.7190     2.2830   -17.6130 
   85.5000    84.6950     8.8100     3.1750    92.6830     8.0150     6.0180     6.6530    21.6220     2.2850   -17.6250 
   85.6250    84.8170     8.8330     3.1870    90.6290     8.4990     6.3340     7.0690    21.6230     2.2750   -17.6970 
   85.7500    84.9390     8.8570     3.1990    87.4640     9.1480     6.7810     7.8160    21.6510     2.2530   -17.8000 
   85.8750    85.0610     8.8800     3.2120    83.9320     9.8880     7.3200     9.0730    21.6760     2.2250   -17.9720 
   86.0000    85.1840     8.9040     3.2240    80.8410    10.6050     7.8790     9.9970    21.6980     2.2000   -18.1420 
   86.1250    85.3060     8.9270     3.2360    80.9650    11.1680     8.3560     9.9880    21.6940     2.1820   -18.3940 
