~V
VERS. 2.00: Ver 2.00
~W
STRT.M 30.0000:
STOP.M 210.0000:
STEP.M 0.1250:
NULL. -999.2500:
UWI. FD10800:
~C
DEPT.M :
TVD. :
DX. :
DY. :
SP.MV :
GR.API :
RI. :
RML.OHMM :
RXO.OHMM :
DEN.GM/CC :
~A
# ...
   39.1250    39.1240    -0.0840    -0.1070    -3.5740    44.5830     0.0680     0.1690     0.0140     2.1330 
   39.2500    39.2490    -0.0860    -0.1080    -3.7760    44.8940     0.0680     0.1700     0.0220     2.1330 
   39.3750    39.3740    -0.0880    -0.1090    -3.7940    45.2750     0.0680     0.1650     0.0210     2.1330 
   39.5000    39.4990    -0.0900    -0.1090    -3.6980    45.3100     0.0680     0.1600     0.0150     2.1330 
   39.6250    39.6240    -0.0920    -0.1100    -3.4910    44.5870     0.0680     0.1550     0.0000     2.1330 
   39.7500    39.7490    -0.0950    -0.1110    -3.2980    43.7770     0.0680     0.1530    -0.0050     2.1330 
   39.8750    39.8740    -0.0970    -0.1120    -2.9200    42.9460     0.0670     0.1540     0.0010     2.1330 
   40.0000    39.9990    -0.0990    -0.1120    -2.2870    42.3990     0.0670     0.1490    -0.0020     2.1330 
   40.1250    40.1240    -0.1010    -0.1130    -1.1950    40.5210     0.0670     0.1450    -0.0050     2.1330 
   40.2500    40.2490    -0.1030    -0.1140     0.2970    37.8720     0.0670     0.1450     0.0050     2.1330 
   40.3750    40.3740    -0.1060    -0.1140     2.2330    35.3750     0.0680     0.1490     0.0140     2.1330 
   40.5000    40.4990    -0.1080    -0.1150     4.3050    33.8900     0.0680     0.1570     0.0140     2.1330 
   40.6250    40.6240    -0.1100    -0.1150     5.9610    33.6260     0.0680     0.1640     0.0120     2.1330 
   40.7500    40.7490    -0.1120    -0.1160     6.1590    34.3500     0.0680     0.1660     0.0110     2.1330 
   40.8750    40.8730    -0.1150    -0.1170     4.8810    35.7600     0.0670     0.1660     0.0090     2.1330 
   41.0000    40.9980    -0.1170    -0.1170     3.3480    37.0180     0.0670     0.1700     0.0050     2.1330 
   41.1250    41.1230    -0.1190    -0.1170     1.8620    37.8830     0.0670     0.1670    -0.0010     2.1330 
   41.2500    41.2480    -0.1220    -0.1180     0.6050    38.0830     0.0670     0.1650    -0.0020     2.1330 
   41.3750    41.3730    -0.1240    -0.1180    -0.8800    38.0130     0.0670     0.1590     0.0070     2.1330 
   41.5000    41.4980    -0.1260    -0.1190    -2.3010    37.9700     0.0670     0.1550     0.0090     2.1330 
   41.6250    41.6230    -0.1290    -0.1190    -3.6080    38.0730     0.0670     0.1540     0.0080   194.3050 
   41.7500    41.7480    -0.1310    -0.1190    -4.8470    37.9390     0.0670     0.1550     0.0080     2.1330 
   41.8750    41.8730    -0.1340    -0.1200    -5.9200    37.0780     0.0670     0.1570     0.0060     2.1330 
   42.0000    41.9980    -0.1360    -0.1200    -6.8170    37.0260     0.0670     0.1570     0.0030     2.1330 
   42.1250    42.1230    -0.1380    -0.1200    -7.3040    36.8320     0.0670     0.1620     0.0010     2.1330 
   42.2500    42.2480    -0.1410    -0.1200    -7.4650    36.6800     0.0670     0.1620     0.0040     2.1330 
   42.3750    42.3730    -0.1430    -0.1210    -7.3330    35.2420     0.0670     0.1650     0.0140     2.1330 
   42.5000    42.4980    -0.1460    -0.1210    -6.9700    34.0520     0.0670     0.1610     0.0150     2.1330 
   42.6250    42.6230    -0.1480    -0.1210    -6.3580    33.5810     0.0670     0.1640     0.0080     2.1330 
   42.7500    42.7480    -0.1500    -0.1210    -5.6310    34.6780     0.0670     0.1710     0.0070     2.1330 
   42.8750    42.8730    -0.1530    -0.1210    -4.8810    36.6360     0.0670     0.1720     0.0090     2.1330 
   43.0000    42.9980    -0.1550    -0.1210    -4.2840    37.9560     0.0670     0.1690     0.0110     2.1330 
   43.1250    43.1230    -0.1580    -0.1210    -3.8520    37.7690     0.0670     0.1630     0.1210     2.1330 
   43.2500    43.2480    -0.1600    -0.1210    -3.6910    37.4320     0.0670     0.1550     0.2260     2.1330 
   43.3750    43.3730    -0.1630    -0.1210    -3.6720    37.5970     0.0670     0.1530     0.1130     2.1330 
   43.5000    43.4980    -0.1650    -0.1210    -3.6570    37.5370     0.0670     0.1540     0.0040     2.1330 
   43.6250    43.6230    -0.1680    -0.1210    -3.5790    37.5720     0.0670     0.1550     0.0040     2.1330 
   43.7500    43.7480    -0.1700    -0.1210    -3.3380    36.7480     0.0670     0.1550     0.0030     2.1330 
   43.8750    43.8730    -0.1730    -0.1210    -2.9640    36.3060     0.0670     0.1540     0.0040     2.1330 
   44.0000    43.9980    -0.1750    -0.1210    -2.5350    34.7830     0.0670     0.1520     0.0060     2.1330 
   44.1250    44.1230    -0.1780    -0.1210    -2.3690    34.1330     0.0670     0.1530     0.0080     2.1330 
   44.2500    44.2480    -0.1800    -0.1210    -2.4430    33.9370     0.0670     0.1590     0.0060     2.1330 
   44.3750    44.3730    -0.1830    -0.1210    -2.5800    34.6230     0.0670     0.1650     0.0010     2.1330 
   44.5000    44.4980    -0.1850    -0.1210    -2.5790    35.4340     0.0670     0.1700     0.0010     2.1330 
   44.6250    44.6230    -0.1880    -0.1210    -2.5690    35.9920     0.0670     0.1760     0.0040     2.1330 
   44.7500    44.7480    -0.1910    -0.1210    -2.6090    36.2070     0.0670     0.1780     0.0030     2.1330 
   44.8750    44.8730    -0.1930    -0.1200    -2.5940    36.2900     0.0650     0.1780     0.0030     2.1330 
   45.0000    44.9980    -0.1960    -0.1200    -2.3990    36.5280     0.0590     0.1800     0.0060     2.1330 
   45.1250    45.1230    -0.1990    -0.1200    -1.9920    36.5880     0.0540     0.1800     0.0080     2.1330 
   45.2500    45.2480    -0.2010    -0.1200    -1.5110    36.1550     0.0450     0.1810     0.0090     2.1330 
   45.3750    45.3730    -0.2040    -0.1200    -0.9650    35.4250     0.0430     0.1820     0.0100     2.1330 
   45.5000    45.4980    -0.2070    -0.1190    -0.4150    35.2970     0.0380     0.1890     0.0160     2.1330 
   45.6250    45.6230    -0.2090    -0.1190     0.2150    35.2760     0.0440     0.1940     0.0850     2.1330 
   45.7500    45.7480    -0.2120    -0.1190     0.8800    34.9080     0.0460     0.1990     0.1880     2.1330 
   45.8750    45.8720    -0.2150    -0.1190     1.4990    34.0480     0.0460     0.1980     0.1620     2.1330 
   46.0000    45.9970    -0.2170    -0.1190     1.7890    33.5210     0.0490     0.1910     0.0540     2.1330 
   46.1250    46.1220    -0.2200    -0.1190     1.7210    34.4740     0.0450     0.1900     0.0100     2.1330 
   46.2500    46.2470    -0.2230    -0.1190     1.3850    35.9510     0.0410     0.1920     0.0130     2.1330 
   46.3750    46.3720    -0.2250    -0.1190     0.6390    37.1080     0.0430     0.1980     0.0140     2.1330 
   46.5000    46.4970    -0.2280    -0.1180    -0.3540    36.8870     0.0410     0.1990     0.0080     2.1330 
   46.6250    46.6220    -0.2310    -0.1180    -1.2800    35.9430     0.0460     0.1980    -0.1810     2.1380 
   46.7500    46.7470    -0.2330    -0.1180    -2.0260    35.1250     0.0480     0.1950    -0.3600     2.1340 
   46.8750    46.8720    -0.2360    -0.1180    -2.5600    35.3070     0.0500     0.1970    -0.1900     2.1230 
   47.0000    46.9970    -0.2390    -0.1180    -2.9010    35.6230     0.0520     0.2040    -0.0050     2.1210 
   47.1250    47.1220    -0.2410    -0.1180    -3.0960    35.1870     0.0450     0.2060     0.0370     2.1400 
   47.2500    47.2470    -0.2440    -0.1180    -3.0300    34.5370     0.0410     0.2050     0.0390     2.1670 
   47.3750    47.3720    -0.2470    -0.1180    -2.7840    34.8170     0.0370     0.2300     0.0130     2.1800 
   47.5000    47.4970    -0.2490    -0.1180    -2.4600    35.6380     0.0330     0.2370     0.0090     2.1750 
   47.6250    47.6220    -0.2520    -0.1180    -2.0990    35.7420     0.0370     0.2340     0.0100     2.1610 
   47.7500    47.7470    -0.2540    -0.1180    -1.7650    34.6160     0.0450     0.2800     0.0100     2.1550 
   47.8750    47.8720    -0.2570    -0.1180    -1.4560    34.0070     0.0540     0.2930     0.0070     2.1500 
   48.0000    47.9970    -0.2600    -0.1180    -1.2050    33.7460     0.0520     0.2950     0.0050     2.1400 
   48.1250    48.1220    -0.2620    -0.1180    -1.0610    34.4900     0.0540     0.3120     0.0060     2.1310 
