~V
VERS. 2.00: Ver 2.00
~W
STRT.M 32.0000:
STOP.M 275.0000:
STEP.M 0.1250:
NULL. -999.2500:
UWI. FD10902:
~C
DEPT.M :
TVD. :
DX. :
DY. :
SP.MV :
GR.API :
RI. :
RML.OHMM :
RXO.OHMM :
DEN.GM/CC :
~A
# ...
   59.3750    59.3250     1.4970    -0.2850   -11.4270    68.5000     8.1790    10.5370    28.4980     2.1670 
   59.5000    59.4490     1.5090    -0.2890   -11.2590    67.5930     7.8030     9.8570    19.3720     2.1570 
   59.6250    59.5730     1.5210    -0.2920   -10.7080    68.3680     6.9940     8.6330    10.6270     2.1470 
   59.7500    59.6980     1.5340    -0.2950    -9.7860    71.1950     6.1390     7.4610     7.5600     2.1390 
   59.8750    59.8220     1.5460    -0.2980    -8.5790    73.8880     5.5840     6.7990     7.2110     2.1340 
   60.0000    59.9460     1.5580    -0.3010    -6.9330    76.1080     5.3810     6.6230     7.1930     2.1270 
   60.1250    60.0710     1.5710    -0.3050    -4.8180    78.3880     5.2820     6.5350     7.1940     2.1350 
   60.2500    60.1950     1.5840    -0.3080    -2.6820    83.0350     5.0820     6.2440     6.8130     2.1650 
   60.3750    60.3190     1.5960    -0.3110    -1.2280    91.2290     4.6710     5.6350     5.6710     2.2220 
   60.5000    60.4440     1.6090    -0.3140    -0.5210   102.3900     4.1470     4.8970     4.2620     2.2750 
   60.6250    60.5680     1.6220    -0.3180    -0.2170   113.1450     3.6660     4.2640     3.5020     2.3130 
   60.7500    60.6920     1.6340    -0.3210    -0.1560   120.1350     3.2980     3.8150     3.2710     2.3200 
   60.8750    60.8160     1.6470    -0.3240    -0.1900   123.4440     3.0940     3.5910     3.2120     2.3070 
   61.0000    60.9410     1.6600    -0.3280    -0.2680   123.8070     3.0440     3.5620     3.3170     2.2870 
   61.1250    61.0650     1.6730    -0.3310    -0.3770   122.1840     3.1080     3.6390     3.3590     2.2830 
   61.2500    61.1890     1.6860    -0.3340    -0.5620   119.0060     3.1850     3.7200     3.2920     2.2920 
   61.3750    61.3140     1.6990    -0.3380    -0.7500   116.3840     3.2320     3.7680     3.2690     2.2970 
   61.5000    61.4380     1.7120    -0.3410    -1.0450   114.6460     3.2220     3.7550     3.2880     2.3050 
   61.6250    61.5620     1.7250    -0.3450    -1.3840   113.8290     3.1590     3.6780     3.2830     2.3110 
   61.7500    61.6860     1.7380    -0.3480    -1.8510   112.8210     3.0560     3.5320     3.2910     2.3170 
   61.8750    61.8110     1.7510    -0.3510    -2.5140   112.8930     3.0170     3.4490     3.3320     2.3120 
   62.0000    61.9350     1.7650    -0.3550    -3.3950   113.5130     3.2060     3.6460     3.4680     2.3250 
   62.1250    62.0590     1.7780    -0.3580    -4.4840   112.4090     3.7270     4.2770     4.2540     2.3600 
   62.2500    62.1830     1.7920    -0.3610    -5.6790   108.1560     4.5440     5.3240     8.3680     2.4140 
   62.3750    62.3080     1.8050    -0.3650    -6.9320   102.1330     5.3020     6.3010    14.0420     2.4470 
   62.5000    62.4320     1.8190    -0.3680    -8.1850    97.0110     5.8780     6.9950    13.6280     2.4320 
   62.6250    62.5560     1.8320    -0.3720    -9.6280    92.3660     6.2450     7.3430     8.4090     2.3800 
   62.7500    62.6800     1.8460    -0.3750   -11.1710    87.5620     6.3980     7.4000     6.0800     2.3520 
   62.8750    62.8040     1.8590    -0.3790   -12.6220    82.2640     6.5110     7.5080    10.1780     2.3630 
   63.0000    62.9290     1.8730    -0.3830   -13.6550    76.0530     6.6950     7.8370    15.9450     2.3680 
   63.1250    63.0530     1.8870    -0.3860   -14.3520    70.0790     6.9790     8.3160    14.7300     2.3210 
   63.2500    63.1770     1.9010    -0.3900   -14.7160    67.5110     7.0730     8.4330     9.4360     2.2330 
   63.3750    63.3010     1.9150    -0.3930   -14.9420    68.8010     6.8320     8.0750     7.0550     2.1640 
   63.5000    63.4250     1.9290    -0.3970   -14.9830    70.5790     6.3150     7.3820     6.9180     2.1360 
   63.6250    63.5490     1.9430    -0.4000   -14.9460    70.4710     5.8400     6.8360     7.0130     2.1390 
   63.7500    63.6740     1.9570    -0.4040   -15.0100    71.5990     5.8020     6.9030     7.0540     2.1520 
   63.8750    63.7980     1.9710    -0.4080   -15.2580    76.8700     5.9760     7.2070     7.1780     2.1630 
   64.0000    63.9220     1.9850    -0.4110   -15.5930    82.8400     6.1620     7.4800     7.4870     2.1600 
   64.1250    64.0460     2.0000    -0.4150   -15.6720    82.6640     6.2640     7.6100     7.7660     2.1520 
   64.2500    64.1700     2.0140    -0.4190   -15.4890    76.3160     6.2930     7.6300     7.7570     2.1410 
   64.3750    64.2940     2.0280    -0.4220   -15.0680    68.2650     6.2580     7.5670     7.5490     2.1360 
   64.5000    64.4180     2.0430    -0.4260   -14.4050    63.8890     6.1610     7.4260     7.3300     2.1340 
   64.6250    64.5420     2.0570    -0.4300   -13.5220    62.9410     5.9820     7.1980     7.1560     2.1380 
   64.7500    64.6670     2.0710    -0.4340   -12.8520    64.4910     5.7490     6.9140     6.8420     2.1500 
   64.8750    64.7910     2.0860    -0.4370   -12.6640    65.8380     5.5130     6.6370     6.3880     2.1600 
   65.0000    64.9150     2.1000    -0.4410   -13.0270    68.1170     5.3270     6.4350     6.0990     2.1580 
   65.1250    65.0390     2.1150    -0.4450   -13.6550    70.9990     5.2400     6.3620     6.2190     2.1470 
   65.2500    65.1630     2.1300    -0.4490   -14.2790    73.1150     5.2540     6.4130     6.7170     2.1390 
   65.3750    65.2870     2.1440    -0.4530   -14.7430    72.3910     5.4080     6.6330     7.2100     2.1460 
   65.5000    65.4110     2.1590    -0.4570   -14.8280    70.2640     5.6730     6.9630     7.5080     2.1730 
   65.6250    65.5350     2.1740    -0.4610   -14.6110    68.9330     5.9260     7.2770     7.5930     2.2060 
   65.7500    65.6590     2.1890    -0.4650   -14.2310    69.2410     6.1120     7.5010     7.3580     2.2260 
   65.8750    65.7830     2.2040    -0.4690   -13.9370    69.4240     6.1660     7.5680     7.0800     2.2140 
   66.0000    65.9070     2.2190    -0.4730   -13.6720    69.2390     6.0750     7.4430     7.2740     2.1830 
   66.1250    66.0310     2.2340    -0.4770   -13.4110    67.9710     5.9010     7.2180     7.5960     2.1450 
   66.2500    66.1550     2.2490    -0.4800   -12.9620    66.7260     5.7090     6.9680     7.3810     2.1140 
   66.3750    66.2790     2.2640    -0.4840   -12.3130    64.5330     5.5600     6.7810     7.0340     2.0900 
   66.5000    66.4030     2.2790    -0.4880   -11.5890    62.3510     5.5110     6.7280     7.0110     2.0830 
   66.6250    66.5270     2.2940    -0.4920   -10.8480    60.3990     5.4790     6.6980     6.9960     2.1010 
   66.7500    66.6510     2.3090    -0.4960   -10.1950    60.1310     5.3940     6.6100     6.7260     2.1350 
   66.8750    66.7750     2.3250    -0.5000    -9.8480    61.1680     5.2430     6.4360     6.3840     2.1610 
   67.0000    66.8990     2.3400    -0.5040    -9.9500    62.6940     5.0570     6.2110     6.1440     2.1660 
   67.1250    67.0230     2.3550    -0.5080   -10.2820    63.9700     4.8760     5.9760     5.9580     2.1550 
   67.2500    67.1470     2.3710    -0.5120   -10.6160    63.2260     4.7720     5.8380     5.8490     2.1380 
   67.3750    67.2710     2.3870    -0.5160   -10.8140    62.0050     4.7700     5.8370     5.9640     2.1210 
   67.5000    67.3950     2.4020    -0.5190   -10.8470    61.4770     4.8630     5.9620     6.1900     2.1100 
   67.6250    67.5190     2.4180    -0.5230   -10.7570    62.7180     5.0000     6.1430     6.1410     2.1050 
   67.7500    67.6430     2.4340    -0.5270   -10.6030    64.4620     5.1130     6.2770     6.0040     2.1120 
   67.8750    67.7670     2.4500    -0.5310   -10.4280    65.1090     5.1520     6.3180     6.1030     2.1210 
   68.0000    67.8910     2.4660    -0.5350   -10.3060    65.5020     5.1160     6.2670     6.1750     2.1290 
   68.1250    68.0150     2.4820    -0.5390   -10.1570    66.2110     5.0250     6.1490     6.1390     2.1230 
   68.2500    68.1390     2.4980    -0.5430   -10.0620    68.9520     4.9140     6.0160     6.1210     2.1070 
   68.3750    68.2630     2.5140    -0.5480   -10.0760    72.2110     4.8190     5.9030     5.9880     2.0910 
