~V
VERS. 2.00: Ver 2.00
~W
STRT.M 33.0000:
STOP.M 273.0000:
STEP.M 0.1250:
NULL. -999.2500:
UWI. FD10880:
~C
DEPT.M :
TVD. :
DX. :
DY. :
SP.MV :
GR.API :
RI. :
RML.OHMM :
RXO.OHMM :
DEN.GM/CC :
~A
# ...
  261.1250   240.6240    85.4430    17.3500   -15.5370    79.4020     5.0440     5.7510     7.3160     2.1820 
  261.2500   240.7330    85.5030    17.3620   -15.5370    79.8600     5.2780     6.0310     7.3950     2.1890 
  261.3750   240.8420    85.5630    17.3740   -15.5370    81.3080     5.6180     6.4390     7.6530     2.2090 
  261.5000   240.9510    85.6230    17.3860   -15.5370    81.4660     6.0620     6.9600     8.4010     2.2410 
  261.6250   241.0590    85.6840    17.3980   -15.5370    79.6960     6.4830     7.4530     9.2210     2.2690 
  261.7500   241.1680    85.7440    17.4100   -15.5370    77.3790     6.7540     7.7630     9.7240     2.2860 
  261.8750   241.2770    85.8040    17.4220   -15.5370    76.6080     6.8110     7.8030    10.5450     2.2900 
  262.0000   241.3860    85.8640    17.4330   -15.5370    77.8400     6.6270     7.5750    12.7280     2.2810 
  262.1250   241.4950    85.9240    17.4450   -15.5370    80.4310     6.3020     7.1860    15.5810     2.2600 
  262.2500   241.6040    85.9850    17.4570   -15.5370    82.6210     5.9330     6.7670    15.3930     2.2350 
  262.3750   241.7130    86.0450    17.4690   -15.5370    83.8490     5.6260     6.4430    11.9920     2.2200 
  262.5000   241.8220    86.1050    17.4810   -15.5370    84.7900     5.4050     6.2140     9.4840     2.2150 
  262.6250   241.9310    86.1650    17.4930   -15.5370    85.5470     5.3140     6.1430     8.4820     2.2110 
  262.7500   242.0400    86.2250    17.5050   -15.5370    84.9230     5.3590     6.2340     7.6280     2.2030 
  262.8750   242.1480    86.2860    17.5170   -15.5370    83.4200     5.4810     6.3830     7.5940     2.1950 
  263.0000   242.2570    86.3460    17.5290   -15.5370    83.3870     5.6580     6.5950     8.5200     2.1940 
  263.1250   242.3660    86.4060    17.5410   -15.5370    85.3400     5.8310     6.7900     9.0770     2.1960 
  263.2500   242.4750    86.4660    17.5530   -15.5370    86.6030     5.9530     6.9170     9.1620     2.1960 
  263.3750   242.5840    86.5260    17.5650   -15.5370    85.6620     6.0020     6.9700     9.2700     2.1940 
  263.5000   242.6930    86.5860    17.5770   -15.5370    83.9840     5.9270     6.8610     9.0700     2.1950 
  263.6250   242.8020    86.6470    17.5890   -15.5370    82.9150     5.7730     6.6690     8.7280     2.1990 
  263.7500   242.9110    86.7070    17.6010   -15.5370    82.4870     5.5790     6.4400     8.5600     2.2040 
  263.8750   243.0200    86.7670    17.6130   -15.5370    82.0050     5.4140     6.2480     8.0620     2.2070 
  264.0000   243.1290    86.8270    17.6250   -15.5370    82.8760     5.3180     6.1340     7.4690     2.2060 
  264.1250   243.2370    86.8870    17.6370   -15.5370    84.5000     5.3330     6.1720     7.6120     2.2030 
  264.2500   243.3460    86.9480    17.6490   -15.5370    85.1860     5.4210     6.2900     8.1870     2.2000 
  264.3750   243.4550    87.0080    17.6610   -15.5370    84.9470     5.5150     6.4220     8.5540     2.2000 
  264.5000   243.5640    87.0680    17.6730   -15.5370    84.9170     5.5470     6.4770     8.7310     2.1990 
  264.6250   243.6730    87.1280    17.6850   -15.5370    85.0220     5.5000     6.4290     8.7350     2.1960 
  264.7500   243.7820    87.1880    17.6970   -15.5370    84.9760     5.3590     6.2480     8.8030     2.1910 
  264.8750   243.8910    87.2490    17.7090   -15.5370    85.4640     5.2280     6.0900     8.9480     2.1880 
  265.0000   244.0000    87.3090    17.7210   -15.5370    86.9050     5.1280     5.9680     8.4900     2.1930 
  265.1250   244.1090    87.3690    17.7330   -15.5370    87.8060     5.0620     5.8790     7.8210     2.2030 
  265.2500   244.2180    87.4290    17.7450   -15.5370    87.9090     5.0550     5.8740     7.2540     2.2120 
  265.3750   244.3260    87.4890    17.7570   -15.5370    87.8510     5.0550     5.8720     6.9430     2.2150 
  265.5000   244.4350    87.5490    17.7690   -15.5370    87.8600     5.0550     5.8730     7.4960     2.2100 
  265.6250   244.5440    87.6100    17.7810   -15.5370    87.8600     5.0550     5.8740     8.4350     2.2010 
  265.7500   244.6530    87.6700    17.7930   -15.5370    87.8600     5.0550     5.8680     9.1550     2.1940 
  265.8750   244.7620    87.7300    17.8050   -15.5370    87.8600     5.0550     5.8760     9.1220     2.1970 
  266.0000   244.8710    87.7900    17.8170   -15.5370    87.8600     5.0550     5.8750     7.9700     2.2120 
  266.1250   244.9800    87.8500    17.8290   -15.5370    87.8600     5.0540     5.8870     6.9750     2.2290 
  266.2500   245.0890    87.9110    17.8410   -15.5370    87.8600     5.0540     5.9020     7.1110     2.2400 
  266.3750   245.1980    87.9710    17.8530   -15.5370    87.8600     5.0540     5.9120     7.5250     2.2400 
  266.5000   245.3070    88.0310    17.8650   -15.5370    87.8600     5.0540     5.9260     7.7120     2.2320 
  266.6250   245.4150    88.0910    17.8770   -15.5370    87.8600     5.0540     5.9290     7.9690     2.2210 
  266.7500   245.5240    88.1510    17.8890   -15.5370    87.8600     5.0540     5.9310     8.1180     2.2130 
  266.8750   245.6330    88.2110    17.9010   -15.5370    87.8600     5.0540     5.9320     7.8280     2.2120 
  267.0000   245.7420    88.2720    17.9130   -15.5370    87.8600     5.0540     5.9330     7.3160     2.2120 
  267.1250   245.8510    88.3320    17.9250   -15.5370    87.8600     5.0540     5.9330     6.8610     2.2110 
  267.2500   245.9600    88.3920    17.9370   -15.5370    87.8600     5.0530     5.9180     6.5200     2.2070 
  267.3750   246.0690    88.4520    17.9490   -15.5370    87.8600     5.0520     5.9030     6.4430     2.2020 
  267.5000   246.1780    88.5120    17.9610   -15.5370    87.8600     5.0520     5.8880     6.6770     2.1930 
  267.6250   246.2870    88.5730    17.9730   -15.5370    87.8600     5.0510     5.8780     7.0040     2.1820 
  267.7500   246.3960    88.6330    17.9850   -15.5370    87.8600     5.0510     5.8780     7.5490     2.1730 
  267.8750   246.5040    88.6930    17.9960   -15.5370    87.8600     5.0510     5.8780     7.9050     2.1710 
  268.0000   246.6130    88.7530    18.0080   -15.5370    87.8600     5.0510     5.8780     7.3580     2.1760 
  268.1250   246.7220    88.8130    18.0200   -15.5370    87.8600     5.0510     5.8780     6.9850     2.1820 
  268.2500   246.8310    88.8740    18.0320   -15.5370    87.8600     5.0510     5.8780     7.4840     2.1840 
  268.3750   246.9400    88.9340    18.0440   -15.5370    87.8600     5.0510     5.8780     7.9380     2.1830 
  268.5000   247.0490    88.9940    18.0560   -15.5370    87.8600     5.0510     5.8780     7.8780     2.1790 
  268.6250   247.1580    89.0540    18.0680   -15.5370    87.8600     5.0510     5.8780     7.8750     2.1760 
  268.7500   247.2670    89.1140    18.0800   -15.5370    87.8600     5.0510     5.8780     8.2750     2.1740 
  268.8750   247.3760    89.1740    18.0920   -15.5370    87.8600     5.0510     5.8780     8.3140     2.1760 
  269.0000   247.4840    89.2350    18.1040   -15.5370    87.8600     5.0510     5.8780     8.5570     2.1830 
  269.1250   247.5930    89.2950    18.1160   -15.5370    87.8600     5.0510     5.8780    10.2960     2.1920 
  269.2500   247.7020    89.3550    18.1280   -15.5370    87.8600     5.0510     5.8780    12.0550     2.1950 
  269.3750   247.8110    89.4150    18.1400   -15.5370    87.8600     5.0510     5.8780    14.5950     2.1880 
  269.5000   247.9200    89.4750    18.1520   -15.5370    87.8600     5.0510     5.8780    19.0330     2.1680 
  269.6250   248.0290    89.5360    18.1640   -15.5370    87.8600     5.0510     5.8780    18.5630     2.1400 
  269.7500   248.1380    89.5960    18.1760   -15.5370    87.8600     5.0510     5.8780    12.3580     2.1050 
  269.8750   248.2470    89.6560    18.1880   -15.5370    87.8600     5.0510     5.8780     8.2840     2.0650 
  270.0000   248.3560    89.7160    18.2000   -15.5370    87.8600     5.0510     5.8780     6.8380     2.0210 
  270.1250   248.4650    89.7760    18.2120   -15.5370    87.8600     5.0510     5.8780     5.4130     1.9810 
