~V
VERS. 2.00: Ver 2.00
~W
STRT.M 64.0000:
STOP.M 246.0000:
STEP.M 0.1250:
NULL. -999.2500:
UWI. FD10853:
~C
DEPT.M :
TVD. :
DX. :
DY. :
SP.MV :
GR.API :
RI. :
RML.OHMM :
RXO.OHMM :
DEN.GM/CC :
~A
# ...
   73.1250    73.1240     0.0500    -0.1230   -15.6690    89.9640     5.8450     6.9230     6.2300     2.2590 
   73.2500    73.2490     0.0500    -0.1250   -15.5870    92.9830     5.6500     6.7110     5.8620     2.2700 
   73.3750    73.3740     0.0500    -0.1270   -15.5810    96.1420     5.4810     6.5440     5.4960     2.2730 
   73.5000    73.4990     0.0510    -0.1290   -15.6480    99.9740     5.3800     6.4700     5.5690     2.2630 
   73.6250    73.6240     0.0510    -0.1320   -15.8110   102.2080     5.2980     6.4140     5.9200     2.2600 
   73.7500    73.7490     0.0510    -0.1340   -15.9980   102.1950     5.2140     6.3190     5.9070     2.2660 
   73.8750    73.8740     0.0510    -0.1360   -16.1690    99.5620     5.1550     6.2440     5.5740     2.2770 
   74.0000    73.9990     0.0510    -0.1380   -16.2010    97.0780     5.1630     6.2520     5.3240     2.2780 
   74.1250    74.1240     0.0510    -0.1400   -16.2040    93.7650     5.3010     6.4310     5.3390     2.2820 
   74.2500    74.2490     0.0510    -0.1420   -16.3160    93.0090     5.5420     6.7560     5.6260     2.2990 
   74.3750    74.3740     0.0510    -0.1440   -16.4670    91.8280     5.8370     7.1230     6.0040     2.3370 
   74.5000    74.4990     0.0510    -0.1460   -16.5330    93.2290     6.1330     7.4650     6.2920     2.3630 
   74.6250    74.6240     0.0510    -0.1480   -16.5010    92.1010     6.5010     7.9060     6.3340     2.3640 
   74.7500    74.7490     0.0510    -0.1500   -16.4110    89.2920     6.9230     8.4260     6.4260     2.3360 
   74.8750    74.8740     0.0510    -0.1520   -16.3500    84.3810     7.2350     8.8280     7.6090     2.3100 
   75.0000    74.9990     0.0500    -0.1540   -16.2820    79.7960     7.3180     8.9370    10.0920     2.2940 
   75.1250    75.1240     0.0500    -0.1560   -16.0860    76.0940     7.1760     8.7150    11.0660     2.2850 
   75.2500    75.2490     0.0500    -0.1580   -15.8650    76.2450     6.8620     8.2280     8.8180     2.2760 
   75.3750    75.3740     0.0500    -0.1610   -15.6520    81.0080     6.4940     7.7030     6.4890     2.2640 
   75.5000    75.4990     0.0500    -0.1630   -15.5640    85.5930     6.2650     7.4360     6.4370     2.2480 
   75.6250    75.6240     0.0490    -0.1650   -15.4920    85.8430     6.2070     7.4550     7.2950     2.2350 
   75.7500    75.7490     0.0490    -0.1670   -15.6250    81.2350     6.3670     7.7450     7.4620     2.2360 
   75.8750    75.8740     0.0490    -0.1690   -15.7600    78.2110     6.5640     8.0080     6.9730     2.2470 
   76.0000    75.9990     0.0480    -0.1710   -15.7840    78.8250     6.5590     7.9440     6.4570     2.2590 
   76.1250    76.1240     0.0480    -0.1730   -15.7770    81.3980     6.3900     7.6510     6.3680     2.2570 
   76.2500    76.2490     0.0480    -0.1750   -15.8350    83.8550     6.1640     7.2970     6.4970     2.2410 
   76.3750    76.3740     0.0470    -0.1770   -15.8770    83.6140     5.9930     7.0160     6.3460     2.2310 
   76.5000    76.4990     0.0470    -0.1790   -15.8920    83.9170     5.9860     6.9560     6.0900     2.2390 
   76.6250    76.6240     0.0460    -0.1810   -15.8720    82.7900     6.1330     7.0990     6.0180     2.2620 
   76.7500    76.7490     0.0460    -0.1830   -15.7980    81.6280     6.4750     7.4910     6.4580     2.2710 
   76.8750    76.8730     0.0450    -0.1850   -15.7090    78.9490     7.0090     8.1280     7.9340     2.2670 
   77.0000    76.9980     0.0450    -0.1870   -15.5700    77.8240     7.5050     8.6830     9.3630     2.2470 
   77.1250    77.1230     0.0440    -0.1880   -15.3190    78.3870     7.7730     8.9430     9.2370     2.2290 
   77.2500    77.2480     0.0440    -0.1900   -14.9800    78.6670     7.6270     8.6760     8.6000     2.2260 
   77.3750    77.3730     0.0430    -0.1920   -14.6510    79.0060     7.2010     8.0770     7.9420     2.2400 
   77.5000    77.4980     0.0420    -0.1940   -14.4170    79.4410     6.7390     7.4920     6.7940     2.2560 
   77.6250    77.6230     0.0420    -0.1960   -14.3090    80.6820     6.4660     7.1990     6.0900     2.2530 
   77.7500    77.7480     0.0410    -0.1980   -14.2510    81.8340     6.5040     7.3280     6.2610     2.2390 
   77.8750    77.8730     0.0400    -0.2000   -14.3480    82.9120     6.7070     7.6620     6.7240     2.2270 
   78.0000    77.9980     0.0400    -0.2020   -14.5090    82.8060     6.9730     7.9960     7.0700     2.2280 
   78.1250    78.1230     0.0390    -0.2030   -14.4160    81.4070     7.1660     8.1770     7.2670     2.2340 
   78.2500    78.2480     0.0380    -0.2050   -14.0240    78.6330     7.4300     8.4130     7.3960     2.2430 
   78.3750    78.3730     0.0370    -0.2070   -13.5040    78.1600     8.1420     9.2380     7.4710     2.2410 
   78.5000    78.4980     0.0370    -0.2090   -12.9390    78.7020     9.4630    10.8810     8.1680     2.2280 
   78.6250    78.6230     0.0360    -0.2110   -12.3970    80.3880    11.1970    13.0630    11.3620     2.2010 
   78.7500    78.7480     0.0350    -0.2120   -11.7830    79.5040    13.2990    15.6510    16.4620     2.1770 
   78.8750    78.8730     0.0340    -0.2140   -10.9160    76.8690    15.1650    17.7740    18.9190     2.1640 
   79.0000    78.9980     0.0330    -0.2160    -9.7720    72.8320    16.1760    18.7280    17.5230     2.1610 
   79.1250    79.1230     0.0320    -0.2180    -8.3680    71.4120    16.6130    19.0190    15.0790     2.1640 
   79.2500    79.2480     0.0320    -0.2190    -7.0460    73.3890    16.5930    18.8780    13.2680     2.1770 
   79.3750    79.3730     0.0310    -0.2210    -6.0400    76.4890    16.9250    19.3810    16.3000     2.1990 
   79.5000    79.4980     0.0300    -0.2230    -5.5000    78.0690    18.2080    21.1300    28.7590     2.2140 
   79.6250    79.6230     0.0290    -0.2250    -5.2440    77.0190    20.1200    23.5610    41.1460     2.2140 
   79.7500    79.7480     0.0280    -0.2260    -5.0080    74.1380    21.6810    25.3450    40.4320     2.1990 
   79.8750    79.8730     0.0270    -0.2280    -4.5770    69.3180    22.1950    25.7230    31.0220     2.1810 
   80.0000    79.9980     0.0260    -0.2300    -3.9870    66.0500    21.4710    24.5520    23.0310     2.1640 
   80.1250    80.1230     0.0250    -0.2310    -3.1990    66.0520    19.9120    22.5020    19.0300     2.1490 
   80.2500    80.2480     0.0240    -0.2330    -2.3630    68.7480    18.3550    20.6770    16.9220     2.1380 
   80.3750    80.3730     0.0220    -0.2350    -1.6170    70.0800    17.1370    19.3280    15.4330     2.1350 
   80.5000    80.4980     0.0210    -0.2360    -1.1560    68.4220    16.0690    18.1600    14.7930     2.1400 
   80.6250    80.6230     0.0200    -0.2380    -0.9950    67.9250    15.2820    17.2700    14.2820     2.1470 
   80.7500    80.7480     0.0190    -0.2400    -1.0270    68.6680    14.8250    16.7350    13.2560     2.1480 
   80.8750    80.8730     0.0180    -0.2410    -1.1440    70.9680    14.7620    16.6350    12.2940     2.1460 
   81.0000    80.9980     0.0160    -0.2430    -1.2200    71.0650    15.2040    17.1380    12.2390     2.1380 
   81.1250    81.1230     0.0150    -0.2440    -1.2610    70.9740    16.0410    18.0970    13.6340     2.1330 
   81.2500    81.2480     0.0140    -0.2460    -1.2200    68.8000    17.1330    19.2970    16.5470     2.1260 
   81.3750    81.3730     0.0130    -0.2480    -1.0170    66.5920    18.1230    20.3020    18.5280     2.1180 
   81.5000    81.4980     0.0110    -0.2490    -0.5760    64.9420    18.7570    20.8400    18.3920     2.1070 
   81.6250    81.6230     0.0100    -0.2510     0.0560    65.5990    18.8420    20.7860    18.3110     2.1030 
   81.7500    81.7480     0.0090    -0.2520     0.5230    66.5090    18.6240    20.4610    18.6340     2.1100 
   81.8750    81.8730     0.0070    -0.2540     0.5920    67.8660    18.2860    20.0740    18.3530     2.1170 
   82.0000    81.9980     0.0060    -0.2550     0.3190    68.2810    17.9340    19.7340    17.7390     2.1150 
   82.1250    82.1230     0.0050    -0.2570    -0.2000    69.1660    17.4660    19.2880    16.9830     2.1070 
