~V
VERS. 2.00: Ver 2.00
~W
STRT.M 30.0000:
STOP.M 223.0000:
STEP.M 0.1250:
NULL. -999.2500:
UWI. FD10814:
~C
DEPT.M :
TVD. :
DX. :
DY. :
SP.MV :
GR.API :
RI. :
RML.OHMM :
RXO.OHMM :
DEN.GM/CC :
~A
# ...
  203.3750   190.0940    -2.1160    57.0570    -1.9400    59.7770     5.2300     6.3100     4.4770     2.3250 
  203.5000   190.2020    -2.1200    57.1190    -2.0330    59.0480     5.1480     6.2460     4.4690     2.3170 
  203.6250   190.3110    -2.1240    57.1810    -2.2450    59.6330     5.1010     6.2000     4.4120     2.3010 
  203.7500   190.4200    -2.1270    57.2420    -2.2270    61.5070     5.0650     6.1670     4.7360     2.2760 
  203.8750   190.5280    -2.1310    57.3040    -2.1550    63.6140     5.0950     6.1900     5.4190     2.2590 
  204.0000   190.6370    -2.1340    57.3660    -2.0910    64.5140     5.1680     6.2590     5.7780     2.2580 
  204.1250   190.7450    -2.1380    57.4280    -2.0420    62.8240     5.2610     6.3530     5.7790     2.2740 
  204.2500   190.8540    -2.1420    57.4900    -2.2100    61.0050     5.3680     6.4670     5.7880     2.3010 
  204.3750   190.9630    -2.1450    57.5520    -2.5160    60.0480     5.4630     6.5680     6.0290     2.3270 
  204.5000   191.0710    -2.1490    57.6130    -2.4840    60.2550     5.5270     6.6380     6.2850     2.3460 
  204.6250   191.1800    -2.1530    57.6750    -2.3500    59.6510     5.5560     6.6850     6.2270     2.3490 
  204.7500   191.2880    -2.1560    57.7370    -2.2130    58.9900     5.5810     6.7190     6.2550     2.3450 
  204.8750   191.3970    -2.1600    57.7990    -2.0600    58.2490     5.5930     6.7450     6.5440     2.3430 
  205.0000   191.5050    -2.1630    57.8610    -1.9080    57.8600     5.5870     6.7470     6.6450     2.3380 
  205.1250   191.6140    -2.1670    57.9230    -1.7740    57.3010     5.5500     6.7090     6.5130     2.3220 
  205.2500   191.7230    -2.1710    57.9840    -1.7960    58.1060     5.4910     6.6480     6.2610     2.3010 
  205.3750   191.8310    -2.1740    58.0460    -1.7300    60.0700     5.4240     6.5790     5.8230     2.2920 
  205.5000   191.9400    -2.1780    58.1080    -1.7010    62.2750     5.3610     6.5200     5.5670     2.2920 
  205.6250   192.0480    -2.1820    58.1700    -1.6650    64.3690     5.3270     6.4930     5.8560     2.2940 
  205.7500   192.1570    -2.1850    58.2320    -1.6500    66.4980     5.3030     6.4700     6.1890     2.2890 
  205.8750   192.2650    -2.1890    58.2940    -1.6080    68.6110     5.2600     6.4180     6.0470     2.2830 
  206.0000   192.3740    -2.1920    58.3560    -1.5480    69.4080     5.1840     6.3330     5.7180     2.2810 
  206.1250   192.4820    -2.1960    58.4180    -1.5130    69.4040     5.1050     6.2420     5.6080     2.2860 
  206.2500   192.5900    -2.2000    58.4800    -1.4530    68.9310     5.0420     6.1890     5.5290     2.2900 
  206.3750   192.6990    -2.2040    58.5420    -1.4250    68.5070     5.0530     6.2280     5.3870     2.2950 
  206.5000   192.8070    -2.2080    58.6050    -1.3890    67.5420     5.1370     6.3510     5.4720     2.2910 
  206.6250   192.9160    -2.2120    58.6670    -1.4520    65.7100     5.2590     6.5250     5.8010     2.2840 
  206.7500   193.0240    -2.2160    58.7290    -1.4840    63.8870     5.4010     6.7020     6.1370     2.2730 
  206.8750   193.1320    -2.2200    58.7910    -1.5400    63.1600     5.5100     6.8300     6.3700     2.2690 
  207.0000   193.2410    -2.2240    58.8530    -1.4910    64.0820     5.5660     6.8920     6.5100     2.2730 
  207.1250   193.3490    -2.2290    58.9160    -1.4420    64.2920     5.5530     6.8750     6.4500     2.2850 
  207.2500   193.4570    -2.2330    58.9780    -1.3620    63.9040     5.5180     6.8160     6.1960     2.2980 
  207.3750   193.5650    -2.2370    59.0400    -1.2130    63.0180     5.4660     6.7410     5.9720     2.2970 
  207.5000   193.6740    -2.2420    59.1030    -1.1750    63.0410     5.4220     6.6890     5.9900     2.2780 
  207.6250   193.7820    -2.2460    59.1650    -1.1250    62.8870     5.4220     6.6820     6.0340     2.2570 
  207.7500   193.8900    -2.2510    59.2270    -1.0400    62.5290     5.4160     6.6900     5.9360     2.2590 
  207.8750   193.9980    -2.2550    59.2900    -1.0690    61.5500     5.4320     6.7090     5.9530     2.2790 
  208.0000   194.1070    -2.2600    59.3520    -1.2360    61.0960     5.4150     6.7000     7.3500     2.2990 
  208.1250   194.2150    -2.2650    59.4140    -1.3080    60.6560     5.3860     6.6820     9.1020     2.3080 
  208.2500   194.3230    -2.2690    59.4760    -1.3110    61.1140     5.3530     6.6540     8.3760     2.3140 
  208.3750   194.4320    -2.2740    59.5390    -1.3110    62.4370     5.3080     6.5830     6.8900     2.3180 
  208.5000   194.5400    -2.2790    59.6010    -1.3110    62.7280     5.2660     6.4760     6.4820     2.3160 
  208.6250   194.6480    -2.2840    59.6630    -1.3110    61.2460     5.2090     6.3750     6.5020     2.3050 
  208.7500   194.7560    -2.2890    59.7260    -1.3110    58.1710     5.1730     6.3060     6.5660     2.2950 
  208.8750   194.8650    -2.2930    59.7880    -1.3110    55.4060     5.1490     6.3020     6.0960     2.2920 
  209.0000   194.9730    -2.2980    59.8500    -1.3110    54.1530     5.1590     6.3450     5.5440     2.2940 
  209.1250   195.0810    -2.3030    59.9120    -1.3110    53.9040     5.1890     6.3840     5.6050     2.2900 
  209.2500   195.1890    -2.3080    59.9750    -1.3110    54.4010     5.2170     6.4230     5.7750     2.2850 
  209.3750   195.2980    -2.3130    60.0370    -1.3110    55.0380     5.2400     6.4470     5.7330     2.2870 
  209.5000   195.4060    -2.3180    60.0990    -1.3110    55.3480     5.2320     6.4380     5.7760     2.2930 
  209.6250   195.5140    -2.3230    60.1620    -1.3110    54.4500     5.1940     6.3900     6.3320     2.3000 
  209.7500   195.6220    -2.3290    60.2240    -1.3110    53.6050     5.1310     6.3180     6.7240     2.3020 
  209.8750   195.7310    -2.3340    60.2860    -1.3110    53.6800     5.0650     6.2350     5.9060     2.3100 
  210.0000   195.8390    -2.3390    60.3490    -1.3110    54.8150     5.0010     6.1570     4.9750     2.3230 
  210.1250   195.9470    -2.3440    60.4110    -1.3110    54.8850     4.9740     6.1190     5.0630     2.3370 
  210.2500   196.0550    -2.3490    60.4740    -1.3110    54.7020     4.9810     6.1240     5.6810     2.3370 
  210.3750   196.1630    -2.3540    60.5360    -1.3110    54.4860     5.0460     6.1960     6.1620     2.3260 
  210.5000   196.2710    -2.3590    60.5990    -1.3110    55.2600     5.1470     6.3120     6.2580     2.3190 
  210.6250   196.3800    -2.3640    60.6610    -1.3110    56.5270     5.2590     6.4380     6.1780     2.3310 
  210.7500   196.4880    -2.3690    60.7240    -1.3110    57.6950     5.3690     6.5670     5.9640     2.3490 
  210.8750   196.5960    -2.3740    60.7860    -1.3110    59.1670     5.4720     6.6820     5.7250     2.3620 
  211.0000   196.7040    -2.3790    60.8490    -1.3110    59.8710     5.5770     6.7890     5.9170     2.3650 
  211.1250   196.8120    -2.3850    60.9110    -1.3110    60.2820     5.6680     6.8870     6.6430     2.3650 
  211.2500   196.9200    -2.3900    60.9740    -1.3110    60.1490     5.7450     6.9740     7.4790     2.3560 
  211.3750   197.0280    -2.3950    61.0360    -1.3110    60.5810     5.8300     7.0570     7.5270     2.3450 
  211.5000   197.1370    -2.4000    61.0990    -1.3110    61.0400     5.8880     7.1210     6.9300     2.3370 
  211.6250   197.2450    -2.4050    61.1610    -1.3110    61.0560     5.9360     7.1660     6.4850     2.3370 
  211.7500   197.3530    -2.4100    61.2240    -1.3110    61.0590     5.9550     7.1910     6.1050     2.3350 
  211.8750   197.4610    -2.4150    61.2860    -1.3110    60.5210     5.9640     7.2040     5.9460     2.3300 
  212.0000   197.5690    -2.4200    61.3480    -1.3110    60.5240     5.9820     7.2250     6.2340     2.3270 
  212.1250   197.6770    -2.4250    61.4110    -1.3110    59.9510     6.0020     7.2570     6.9850     2.3320 
  212.2500   197.7850    -2.4300    61.4730    -1.3110    59.7180     6.0230     7.2860     8.2000     2.3420 
  212.3750   197.8940    -2.4350    61.5360    -1.3110    59.6100     6.0310     7.3060     9.4420     2.3530 
