~V
VERS. 2.00: Ver 2.00
~W
STRT.M 34.0000:
STOP.M 260.0000:
STEP.M 0.1250:
NULL. -999.2500:
UWI. FD10858:
~C
DEPT.M :
TVD. :
DX. :
DY. :
SP.MV :
GR.API :
RI. :
RML.OHMM :
RXO.OHMM :
DEN.GM/CC :
~A
# ...
  198.2500   185.3470   -38.3650   -41.5260   -16.5650    51.7430     9.6200    10.9920    11.9090     2.5810 
  198.3750   185.4570   -38.4050   -41.5700   -16.5330    49.4060     9.9440    11.7350    13.1820     2.6850 
  198.5000   185.5670   -38.4450   -41.6140   -16.4880    48.8160     9.7120    11.7110    15.0310     2.7350 
  198.6250   185.6770   -38.4860   -41.6570   -16.4450    51.3470     8.3040    10.1180    15.2540     2.7120 
  198.7500   185.7870   -38.5260   -41.7010   -16.4190    55.8610     6.1330     7.4660    14.6210     2.6250 
  198.8750   185.8970   -38.5660   -41.7450   -16.4200    61.0580     3.6440     4.3160    12.8320     2.4950 
  199.0000   186.0070   -38.6060   -41.7890   -16.4470    65.7190     1.9340     2.2600     8.9890     2.3670 
  199.1250   186.1160   -38.6460   -41.8330   -16.4930    66.7210     1.1270     1.3110     4.2330     2.2800 
  199.2500   186.2260   -38.6870   -41.8770   -16.5380    63.2530     0.7700     0.9260     1.5670     2.2380 
  199.3750   186.3360   -38.7270   -41.9210   -16.5530    58.6370     0.6580     0.8450     1.2090     2.2290 
  199.5000   186.4460   -38.7670   -41.9650   -16.5120    56.6550     0.6630     0.8990     1.2380     2.2310 
  199.6250   186.5560   -38.8080   -42.0090   -16.3920    58.1030     0.7430     1.0260     1.2590     2.2370 
  199.7500   186.6660   -38.8480   -42.0530   -16.1990    60.3270     0.8720     1.1930     1.2520     2.2510 
  199.8750   186.7750   -38.8880   -42.0970   -15.9480    61.7310     1.0550     1.4130     1.4230     2.2760 
  200.0000   186.8850   -38.9280   -42.1410   -15.6740    63.2740     1.2730     1.6690     1.9380     2.3060 
  200.1250   186.9950   -38.9690   -42.1860   -15.4130    66.6130     1.4720     1.8910     2.4410     2.3320 
  200.2500   187.1050   -39.0090   -42.2300   -15.1930    70.6550     1.6170     2.0430     2.5380     2.3510 
  200.3750   187.2140   -39.0490   -42.2740   -15.0290    72.9980     1.6900     2.0930     2.4340     2.3600 
  200.5000   187.3240   -39.0900   -42.3190   -14.9100    73.5420     1.6940     2.0620     2.4270     2.3600 
  200.6250   187.4330   -39.1300   -42.3630   -14.8200    75.1910     1.6700     2.0160     2.5060     2.3510 
  200.7500   187.5430   -39.1710   -42.4080   -14.7320    78.4770     1.6410     1.9880     2.5780     2.3410 
  200.8750   187.6530   -39.2110   -42.4530   -14.6350    82.6900     1.6090     1.9820     2.5930     2.3360 
  201.0000   187.7620   -39.2510   -42.4970   -14.5300    85.8900     1.5840     1.9940     2.5630     2.3370 
  201.1250   187.8720   -39.2910   -42.5420   -14.4320    87.2630     1.5750     2.0200     2.5070     2.3410 
  201.2500   187.9810   -39.3320   -42.5870   -14.3580    88.0160     1.5760     2.0600     2.4710     2.3430 
  201.3750   188.0910   -39.3720   -42.6320   -14.3360    88.0600     1.5920     2.1090     2.4800     2.3420 
  201.5000   188.2000   -39.4120   -42.6770   -14.3870    88.0960     1.6050     2.1530     2.4720     2.3400 
  201.6250   188.3090   -39.4530   -42.7220   -14.5450    89.4740     1.6170     2.1870     2.4190     2.3370 
  201.7500   188.4190   -39.4930   -42.7670   -14.8180    92.9100     1.6200     2.1990     2.3450     2.3340 
  201.8750   188.5280   -39.5340   -42.8120   -15.2190    96.2030     1.6060     2.1880     2.3330     2.3290 
  202.0000   188.6370   -39.5740   -42.8570   -15.7220    96.5960     1.5830     2.1500     2.3960     2.3220 
  202.1250   188.7470   -39.6140   -42.9030   -16.3120    94.7560     1.5730     2.1060     2.4520     2.3200 
  202.2500   188.8560   -39.6550   -42.9480   -16.9660    93.6090     1.6140     2.1170     2.4660     2.3350 
  202.3750   188.9650   -39.6950   -42.9930   -17.6860    92.8610     1.7360     2.2440     2.4160     2.3710 
  202.5000   189.0750   -39.7360   -43.0390   -18.4700    91.1000     1.9930     2.5700     2.3720     2.4080 
  202.6250   189.1840   -39.7760   -43.0840   -19.3310    87.3050     2.4030     3.1110     3.0070     2.4200 
  202.7500   189.2930   -39.8160   -43.1290   -20.2590    82.7600     2.9160     3.7830     5.2430     2.3960 
  202.8750   189.4020   -39.8570   -43.1750   -21.2440    76.8200     3.4780     4.4860     7.3620     2.3460 
  203.0000   189.5120   -39.8970   -43.2200   -22.2530    70.5250     3.9320     5.0000     7.2470     2.2970 
  203.1250   189.6210   -39.9380   -43.2650   -23.2370    66.3600     4.1630     5.1940     6.4630     2.2640 
  203.2500   189.7300   -39.9780   -43.3100   -24.1400    65.1350     4.2090     5.1500     6.3350     2.2450 
  203.3750   189.8390   -40.0190   -43.3550   -24.8980    65.3230     4.1500     5.0020     6.4170     2.2380 
  203.5000   189.9490   -40.0600   -43.4000   -25.4890    64.6000     4.0950     4.8970     6.5540     2.2370 
  203.6250   190.0580   -40.1000   -43.4450   -25.8920    64.0300     4.0950     4.8710     6.7140     2.2410 
  203.7500   190.1670   -40.1410   -43.4900   -26.1390    65.2230     4.0980     4.8440     6.7130     2.2470 
  203.8750   190.2760   -40.1820   -43.5350   -26.2410    67.5590     4.0930     4.7970     6.5700     2.2530 
  204.0000   190.3860   -40.2220   -43.5810   -26.2370    68.2240     4.0980     4.7590     6.4620     2.2590 
  204.1250   190.4950   -40.2630   -43.6260   -26.1490    66.2180     4.1300     4.7830     6.1440     2.2660 
  204.2500   190.6040   -40.3040   -43.6710   -26.0230    66.1960     4.1820     4.8530     5.5060     2.2730 
  204.3750   190.7140   -40.3440   -43.7160   -25.9040    67.3390     4.2600     4.9860     5.3300     2.2790 
  204.5000   190.8230   -40.3850   -43.7610   -25.8310    66.7250     4.3250     5.0850     6.0450     2.2840 
  204.6250   190.9320   -40.4260   -43.8060   -25.8310    64.9650     4.3220     5.0800     6.6870     2.2840 
  204.7500   191.0410   -40.4670   -43.8510   -25.8990    65.1400     4.2440     4.9620     6.5620     2.2780 
  204.8750   191.1510   -40.5070   -43.8960   -26.0320    68.1630     4.1320     4.7680     6.0360     2.2680 
  205.0000   191.2600   -40.5480   -43.9410   -26.2240    70.4550     4.0570     4.6390     5.5760     2.2600 
  205.1250   191.3690   -40.5890   -43.9860   -26.4920    68.9940     4.1060     4.6620     5.4160     2.2560 
  205.2500   191.4780   -40.6300   -44.0310   -26.8530    65.8790     4.2810     4.8370     5.6220     2.2540 
  205.3750   191.5880   -40.6710   -44.0750   -27.3270    63.5720     4.5540     5.1110     6.0820     2.2500 
  205.5000   191.6970   -40.7110   -44.1200   -27.8910    63.8330     4.8720     5.4230     6.5120     2.2410 
  205.6250   191.8060   -40.7520   -44.1650   -28.5020    65.5100     5.2840     5.8020     6.6000     2.2280 
  205.7500   191.9160   -40.7920   -44.2100   -29.0870    67.3070     5.8820     6.3910     6.6630     2.2180 
  205.8750   192.0250   -40.8330   -44.2550   -29.5680    67.9580     6.8520     7.3930     7.2590     2.2150 
  206.0000   192.1340   -40.8740   -44.3000   -29.8970    67.0120     8.2200     8.8430     8.1480     2.2140 
  206.1250   192.2440   -40.9150   -44.3450   -30.0360    65.3300     9.9540    10.7080     8.8560     2.2050 
  206.2500   192.3530   -40.9550   -44.3900   -30.0050    63.2960    11.8390    12.7520     9.5660     2.1860 
  206.3750   192.4620   -40.9960   -44.4350   -29.8240    61.1060    13.9190    14.9970    10.2450     2.1640 
  206.5000   192.5720   -41.0370   -44.4790   -29.5500    60.4410    15.9130    17.1070    10.5970     2.1450 
  206.6250   192.6810   -41.0770   -44.5240   -29.2330    61.7190    17.6550    18.8820    11.1800     2.1330 
  206.7500   192.7900   -41.1180   -44.5690   -28.9180    62.8500    19.2220    20.3960    12.0030     2.1280 
  206.8750   192.9000   -41.1590   -44.6140   -28.6290    63.4570    20.3170    21.4070    12.3100     2.1310 
  207.0000   193.0090   -41.1990   -44.6590   -28.3550    64.1610    21.1250    22.1040    11.9580     2.1390 
  207.1250   193.1180   -41.2400   -44.7040   -28.0610    64.3930    21.4120    22.2980    11.3200     2.1500 
  207.2500   193.2280   -41.2810   -44.7490   -27.7100    62.6170    21.3390    22.1790    11.0890     2.1570 
