~V
VERS. 2.00: Ver 2.00
~W
STRT.M 30.0000:
STOP.M 262.0000:
STEP.M 0.1250:
NULL. -999.2500:
UWI. FD10852:
~C
DEPT.M :
TVD. :
DX. :
DY. :
SP.MV :
GR.API :
RI. :
RML.OHMM :
RXO.OHMM :
DEN.GM/CC :
~A
# ...
  176.0000   162.9690   -52.3930    -2.9870    -5.0640    57.7720    10.0780    12.8280     7.5750     2.3880 
  176.1250   163.0700   -52.4660    -2.9880    -5.2100    56.2030    10.1600    12.9610     8.3660     2.3760 
  176.2500   163.1710   -52.5400    -2.9900    -5.5650    56.1420    10.2190    13.0910     9.2940     2.3780 
  176.3750   163.2710   -52.6140    -2.9920    -6.1440    58.9860    10.2880    13.2410     9.8340     2.3930 
  176.5000   163.3720   -52.6880    -2.9940    -6.7330    62.3890    10.3560    13.3760     9.8390     2.4080 
  176.6250   163.4730   -52.7610    -2.9960    -6.9840    63.3100    10.3560    13.3980     9.3850     2.4150 
  176.7500   163.5750   -52.8350    -2.9980    -6.5700    61.1680    10.2980    13.3670     8.7210     2.4150 
  176.8750   163.6760   -52.9080    -3.0000    -5.6760    58.8560    10.1370    13.2110     8.4720     2.4110 
  177.0000   163.7770   -52.9820    -3.0020    -4.8340    57.5040     9.8690    12.9170     8.9290     2.4180 
  177.1250   163.8780   -53.0550    -3.0040    -4.5010    57.0280     9.5820    12.5790     9.5130     2.4310 
  177.2500   163.9790   -53.1280    -3.0060    -4.7630    58.0020     9.2900    12.1950     9.8950     2.4360 
  177.3750   164.0800   -53.2020    -3.0080    -5.3140    60.2110     9.0910    11.9360     9.6290     2.4250 
  177.5000   164.1820   -53.2750    -3.0100    -5.8730    62.3600     9.0890    11.9750     8.3190     2.4120 
  177.6250   164.2830   -53.3480    -3.0120    -6.2440    63.3220     9.3750    12.4260     7.3120     2.4080 
  177.7500   164.3850   -53.4210    -3.0140    -6.1460    62.5970     9.8740    13.1200     7.2600     2.4040 
  177.8750   164.4860   -53.4940    -3.0150    -5.6130    60.4260    10.4380    13.8500     7.3480     2.4070 
  178.0000   164.5870   -53.5670    -3.0170    -4.9440    60.8620    10.8870    14.3710     7.2410     2.4220 
  178.1250   164.6890   -53.6400    -3.0190    -4.2790    64.4310    11.0810    14.5230     7.2030     2.4290 
  178.2500   164.7900   -53.7130    -3.0210    -3.6010    68.5000    10.9730    14.2990     7.3810     2.4170 
  178.3750   164.8920   -53.7860    -3.0230    -3.1320    69.1960    10.5880    13.7370     7.3500     2.4000 
  178.5000   164.9940   -53.8580    -3.0250    -2.9390    66.2280    10.0540    13.0460     7.1030     2.4000 
  178.6250   165.0950   -53.9310    -3.0260    -2.8380    61.8790     9.5940    12.4890     7.1700     2.4060 
  178.7500   165.1970   -54.0040    -3.0280    -2.6780    60.2340     9.3150    12.2050     7.3610     2.4160 
  178.8750   165.2990   -54.0760    -3.0300    -2.4590    61.8510     9.2080    12.1100     7.6400     2.4260 
  179.0000   165.4000   -54.1490    -3.0310    -2.3230    63.6920     9.2860    12.2390     8.3330     2.4260 
  179.1250   165.5020   -54.2220    -3.0330    -2.3220    63.9150     9.4350    12.4180     8.6200     2.4160 
  179.2500   165.6040   -54.2940    -3.0350    -2.5200    63.3350     9.6950    12.7090     8.5630     2.4040 
  179.3750   165.7060   -54.3670    -3.0370    -2.8820    63.1940     9.9770    12.9870     9.0800     2.4020 
  179.5000   165.8070   -54.4400    -3.0380    -3.2140    62.1480    10.2380    13.2470     9.3190     2.4070 
  179.6250   165.9090   -54.5120    -3.0400    -3.4960    59.8840    10.4340    13.4160     9.2640     2.4130 
  179.7500   166.0110   -54.5850    -3.0420    -3.4880    56.6910    10.4190    13.3500     9.8980     2.4150 
  179.8750   166.1130   -54.6570    -3.0440    -3.0580    56.0120    10.3480    13.2290    10.1740     2.4090 
  180.0000   166.2140   -54.7300    -3.0460    -2.2740    59.0490    10.1740    13.0010     9.7060     2.4010 
  180.1250   166.3160   -54.8020    -3.0480    -1.3210    62.8440    10.0290    12.8490     9.3700     2.4020 
  180.2500   166.4180   -54.8750    -3.0500    -0.5170    63.5150     9.9610    12.7950     9.2980     2.4100 
  180.3750   166.5200   -54.9470    -3.0510    -0.1490    62.4780     9.9050    12.7850    10.0220     2.4120 
  180.5000   166.6220   -55.0190    -3.0530    -0.2190    62.8690     9.8930    12.8100    11.0620     2.4100 
  180.6250   166.7240   -55.0920    -3.0540    -0.4350    65.1840     9.8880    12.8190    11.0460     2.4160 
  180.7500   166.8260   -55.1640    -3.0560    -0.6230    67.3290     9.9840    12.9530    10.3620     2.4270 
  180.8750   166.9270   -55.2370    -3.0570    -0.6540    67.5510    10.0300    12.9710     9.8460     2.4350 
  181.0000   167.0290   -55.3090    -3.0590    -0.4310    66.0620    10.1690    13.1430     9.6490     2.4430 
  181.1250   167.1310   -55.3820    -3.0600    -0.0860    64.7020    10.3480    13.3990    10.0310     2.4460 
  181.2500   167.2330   -55.4540    -3.0620     0.2510    65.0020    10.5620    13.7320    10.7630     2.4410 
  181.3750   167.3350   -55.5270    -3.0640     0.6910    67.4020    10.7170    13.9870    11.8990     2.4290 
  181.5000   167.4370   -55.5990    -3.0650     1.1880    67.6960    10.7720    14.1160    12.9140     2.4110 
  181.6250   167.5390   -55.6710    -3.0670     1.5520    64.0820    10.7370    14.0430    12.2770     2.3920 
  181.7500   167.6400   -55.7440    -3.0690     1.7870    60.2490    10.6000    13.7940    10.9170     2.3850 
  181.8750   167.7420   -55.8160    -3.0700     1.8740    60.3270    10.5030    13.5830    10.2680     2.3950 
  182.0000   167.8440   -55.8890    -3.0720     1.7700    61.7030    10.4160    13.4050    10.5990     2.4190 
  182.1250   167.9460   -55.9610    -3.0730     1.5730    60.5260    10.4780    13.4790    11.3040     2.4380 
  182.2500   168.0480   -56.0340    -3.0740     1.3190    57.1050    10.6160    13.6590    11.4470     2.4420 
  182.3750   168.1500   -56.1060    -3.0760     1.0250    55.3650    10.7820    13.8820    11.5710     2.4310 
  182.5000   168.2510   -56.1790    -3.0770     0.6670    57.7530    10.9250    14.0670    13.0400     2.4100 
  182.6250   168.3530   -56.2510    -3.0780     0.4560    60.2060    11.0040    14.1330    13.1020     2.3930 
  182.7500   168.4550   -56.3240    -3.0800     0.2180    60.3650    11.0210    14.0990    12.3070     2.3930 
  182.8750   168.5570   -56.3960    -3.0810     0.1030    59.6850    10.9740    13.9790    11.9940     2.4060 
  183.0000   168.6590   -56.4690    -3.0830     0.2870    59.6690    10.8960    13.8310    11.6930     2.4110 
  183.1250   168.7610   -56.5410    -3.0840     0.6570    60.1350    10.8200    13.7270    11.1460     2.3990 
  183.2500   168.8620   -56.6140    -3.0860     0.9960    60.2240    10.7480    13.6250    10.9220     2.3890 
  183.3750   168.9640   -56.6860    -3.0870     1.0630    60.2720    10.6260    13.4330    11.3070     2.3890 
  183.5000   169.0660   -56.7580    -3.0880     0.6660    60.0060    10.4680    13.1690    11.6020     2.3960 
  183.6250   169.1680   -56.8310    -3.0900    -0.0090    59.3060    10.3090    12.9180    11.2270     2.3990 
  183.7500   169.2700   -56.9030    -3.0910    -0.7200    60.0930    10.1820    12.6850    10.6010     2.3940 
  183.8750   169.3720   -56.9760    -3.0930    -1.2370    60.3340    10.0700    12.4980    10.0660     2.3890 
  184.0000   169.4740   -57.0480    -3.0940    -1.1980    59.1960     9.9750    12.3660    10.1660     2.3930 
  184.1250   169.5750   -57.1210    -3.0960    -0.7110    58.1370     9.9100    12.3080    10.7170     2.4020 
  184.2500   169.6770   -57.1930    -3.0970    -0.1830    59.2930     9.7990    12.1700    10.7070     2.4010 
  184.3750   169.7790   -57.2660    -3.0990     0.2400    60.4520     9.6460    11.9950    10.1200     2.3920 
  184.5000   169.8810   -57.3380    -3.1010     0.6060    60.2840     9.4140    11.6930     9.5070     2.3890 
  184.6250   169.9830   -57.4100    -3.1020     0.8050    59.7990     9.1580    11.3450     9.3560     2.4010 
  184.7500   170.0850   -57.4830    -3.1030     0.7780    59.1750     8.9860    11.1190     9.6090     2.4210 
  184.8750   170.1870   -57.5550    -3.1050     0.6940    58.8200     8.9850    11.1040     9.6100     2.4240 
  185.0000   170.2890   -57.6280    -3.1060     0.6400    58.9070     9.1880    11.3480     9.3750     2.4100 
