~V
VERS. 2.00: Ver 2.00
~W
STRT.M 62.0000:
STOP.M 282.0000:
STEP.M 0.1250:
NULL. -999.2500:
UWI. FD10887:
~C
DEPT.M :
TVD. :
DX. :
DY. :
SP.MV :
GR.API :
RI. :
RML.OHMM :
RXO.OHMM :
DEN.GM/CC :
~A
# ...
  217.1250   207.7350    -1.4170    45.9560   -14.5550    65.4530     1.7340     1.9540     2.1190     2.2980 
  217.2500   207.8430    -1.4160    46.0180   -14.5270    69.2420     2.2120     2.5420     2.9630     2.2990 
  217.3750   207.9520    -1.4140    46.0800   -14.5770    71.0150     2.9150     3.3650     4.4570     2.3180 
  217.5000   208.0600    -1.4130    46.1430   -14.7140    70.7530     3.6190     4.1460     5.4160     2.3430 
  217.6250   208.1690    -1.4120    46.2050   -14.9370    71.7260     4.0680     4.5850     5.0060     2.3650 
  217.7500   208.2770    -1.4100    46.2670   -15.1990    75.0450     4.1880     4.6030     4.3440     2.3760 
  217.8750   208.3860    -1.4090    46.3290   -15.4450    77.3950     4.0200     4.3100     4.4820     2.3790 
  218.0000   208.4940    -1.4080    46.3910   -15.6360    77.1750     3.8460     4.0480     4.7780     2.3780 
  218.1250   208.6030    -1.4060    46.4530   -15.7630    76.1350     3.7780     3.9740     4.6950     2.3750 
  218.2500   208.7110    -1.4050    46.5150   -15.8490    76.1890     3.8200     4.0680     4.9280     2.3720 
  218.3750   208.8200    -1.4040    46.5770   -15.9180    77.1160     3.8520     4.1780     5.6910     2.3700 
  218.5000   208.9280    -1.4030    46.6400   -15.9930    78.2670     3.8430     4.2400     6.1160     2.3730 
  218.6250   209.0360    -1.4020    46.7020   -16.0940    79.7070     3.7870     4.2280     5.6580     2.3790 
  218.7500   209.1450    -1.4010    46.7640   -16.2310    82.7930     3.7050     4.1500     4.9330     2.3860 
  218.8750   209.2530    -1.4000    46.8260   -16.4050    89.1990     3.6340     4.0800     4.5540     2.3890 
  219.0000   209.3620    -1.3990    46.8880   -16.5910    97.1230     3.6250     4.0870     4.4990     2.3860 
  219.1250   209.4700    -1.3980    46.9510   -16.7450   102.4040     3.7240     4.2270     4.8030     2.3780 
  219.2500   209.5780    -1.3970    47.0130   -16.8330   102.6880     3.9170     4.4630     5.2900     2.3690 
  219.3750   209.6870    -1.3970    47.0750   -16.8280    98.8460     4.1620     4.7360     5.7210     2.3620 
  219.5000   209.7950    -1.3960    47.1370   -16.7380    94.3650     4.3880     4.9550     6.1870     2.3590 
  219.6250   209.9040    -1.3950    47.2000   -16.5720    92.8460     4.6080     5.1510     6.5340     2.3620 
  219.7500   210.0120    -1.3930    47.2620   -16.3580    92.7930     4.8170     5.3310     6.4250     2.3700 
  219.8750   210.1200    -1.3920    47.3240   -16.1300    90.1050     5.1140     5.6230     6.1450     2.3860 
  220.0000   210.2290    -1.3910    47.3860   -15.9280    84.9910     5.4770     5.9990     6.8970     2.4040 
  220.1250   210.3370    -1.3900    47.4480   -15.7850    80.8370     5.9910     6.6030     8.5840     2.4130 
  220.2500   210.4460    -1.3880    47.5110   -15.7070    79.7920     6.5890     7.2620     9.8290     2.4040 
  220.3750   210.5540    -1.3870    47.5730   -15.6930    80.1860     7.1590     7.8850    10.5010     2.3760 
  220.5000   210.6630    -1.3860    47.6350   -15.7330    79.8120     7.6200     8.3270    10.7080     2.3420 
  220.6250   210.7710    -1.3850    47.6970   -15.8380    78.0730     7.8680     8.5230    10.7140     2.3150 
  220.7500   210.8800    -1.3840    47.7590   -16.0150    77.6200     8.0060     8.6240    10.8300     2.3000 
  220.8750   210.9880    -1.3820    47.8210   -16.2600    79.4070     8.1370     8.7400    10.8040     2.2930 
  221.0000   211.0960    -1.3810    47.8840   -16.5310    80.4610     8.4940     9.1250    10.7830     2.2890 
  221.1250   211.2050    -1.3800    47.9460   -16.7670    78.0880     9.1120     9.8110    11.3280     2.2870 
  221.2500   211.3130    -1.3790    48.0080   -16.9230    73.6660     9.9830    10.7970    12.9250     2.2870 
  221.3750   211.4220    -1.3780    48.0700   -16.9730    70.5100    11.1330    12.1020    15.9010     2.2850 
  221.5000   211.5300    -1.3770    48.1320   -16.9280    69.5450    12.3050    13.4200    18.3800     2.2810 
  221.6250   211.6390    -1.3760    48.1940   -16.7930    69.7890    13.2450    14.3970    18.6130     2.2750 
  221.7500   211.7470    -1.3750    48.2560   -16.5980    69.4500    13.8130    14.9080    18.4080     2.2700 
  221.8750   211.8560    -1.3740    48.3190   -16.3830    68.2430    14.1030    15.1270    18.1860     2.2660 
  222.0000   211.9640    -1.3730    48.3810   -16.1980    66.7250    14.3280    15.3000    17.0830     2.2610 
  222.1250   212.0730    -1.3710    48.4430   -16.0850    66.2910    14.8060    15.8620    15.9460     2.2550 
  222.2500   212.1810    -1.3700    48.5050   -16.0470    66.5750    15.4420    16.5770    15.7990     2.2470 
  222.3750   212.2890    -1.3690    48.5670   -16.0680    66.1910    16.0220    17.1910    16.8640     2.2410 
  222.5000   212.3980    -1.3680    48.6290   -16.1210    64.3850    16.4520    17.6250    18.2180     2.2390 
  222.6250   212.5060    -1.3670    48.6910   -16.1910    63.0170    16.5250    17.6080    18.9600     2.2430 
  222.7500   212.6150    -1.3660    48.7530   -16.2630    63.4520    16.3430    17.3310    18.4890     2.2510 
  222.8750   212.7230    -1.3650    48.8160   -16.3100    63.9760    16.0590    16.9750    17.0710     2.2590 
  223.0000   212.8320    -1.3640    48.8780   -16.3040    63.3710    15.8720    16.7290    16.1850     2.2610 
  223.1250   212.9400    -1.3630    48.9400   -16.2230    63.5650    15.9360    16.8170    16.1860     2.2560 
  223.2500   213.0490    -1.3620    49.0020   -16.0900    65.5610    16.2500    17.2040    16.8830     2.2450 
  223.3750   213.1570    -1.3610    49.0640   -15.9370    67.5810    16.5820    17.6180    17.9040     2.2340 
  223.5000   213.2660    -1.3600    49.1260   -15.7950    66.4550    16.7720    17.8820    18.1410     2.2290 
  223.6250   213.3740    -1.3590    49.1880   -15.6730    63.4400    16.9220    18.0420    18.1460     2.2340 
  223.7500   213.4830    -1.3570    49.2500   -15.5730    62.2740    17.3150    18.4350    18.1480     2.2510 
  223.8750   213.5910    -1.3560    49.3130   -15.5110    63.5390    18.2790    19.4620    17.3710     2.2850 
  224.0000   213.6990    -1.3550    49.3750   -15.4950    63.7450    19.9670    21.3860    23.1990     2.3390 
  224.1250   213.8080    -1.3540    49.4370   -15.5140    61.1060    22.3950    24.2850    39.3380     2.4110 
  224.2500   213.9160    -1.3530    49.4990   -15.5240    58.6230    24.3820    26.6540    47.9360     2.4820 
  224.3750   214.0250    -1.3510    49.5610   -15.4760    57.0530    24.9900    27.3720    40.5050     2.5240 
  224.5000   214.1330    -1.3500    49.6230   -15.3500    56.0500    23.9830    26.1400    30.8740     2.5190 
  224.6250   214.2420    -1.3490    49.6850   -15.1420    56.5610    21.7730    23.4810    24.5910     2.4660 
  224.7500   214.3500    -1.3480    49.7480   -14.8750    58.1590    19.8300    21.1510    20.7000     2.3920 
  224.8750   214.4590    -1.3460    49.8100   -14.5750    59.3040    18.8970    19.9620    19.9640     2.3240 
  225.0000   214.5670    -1.3450    49.8720   -14.2940    60.2350    18.7950    19.7310    20.3590     2.2770 
  225.1250   214.6750    -1.3430    49.9340   -14.1060    62.6690    19.2220    20.1370    20.5010     2.2460 
  225.2500   214.7840    -1.3420    49.9960   -14.0520    64.5050    19.6530    20.6670    19.5440     2.2240 
  225.3750   214.8920    -1.3410    50.0580   -14.1340    64.2700    19.6440    20.8500    17.5200     2.2090 
  225.5000   215.0010    -1.3390    50.1210   -14.2640    62.7870    18.9040    20.1680    16.2650     2.2020 
  225.6250   215.1090    -1.3380    50.1830   -14.3390    61.2610    17.2840    18.4740    16.8120     2.2030 
  225.7500   215.2180    -1.3360    50.2450   -14.2990    60.2830    15.4970    16.5080    17.2160     2.2080 
  225.8750   215.3260    -1.3350    50.3070   -14.1330    60.1110    13.9950    14.8020    15.4850     2.2140 
  226.0000   215.4350    -1.3340    50.3690   -13.8920    61.3840    13.2170    13.9150    13.5110     2.2170 
  226.1250   215.5430    -1.3320    50.4310   -13.6370    62.5290    13.2010    13.9370    13.0410     2.2180 
