~V
VERS. 2.00: Ver 2.00
~W
STRT.M 20.0000:
STOP.M 242.0000:
STEP.M 0.1250:
NULL. -999.2500:
UWI. FD10624:
~C
DEPT.M :
TVD. :
DX. :
DY. :
GR.API :
RML.OHMM :
RI. :
RXO.OHMM :
CALI.CM :
DEN.GM/CC :
SP.MV :
~A
# ...
  176.7500   170.0830    25.2580    25.2190    68.4470    17.7300    17.7420    13.9190    19.4090     2.2650   -13.4980 
  176.8750   170.1940    25.2990    25.2600    70.5230    17.5190    17.4270    13.0430    19.4090     2.2670   -13.6250 
  177.0000   170.3050    25.3390    25.3010    69.4640    17.4610    17.2430    13.1200    19.4110     2.2650   -13.9000 
  177.1250   170.4160    25.3790    25.3420    66.7970    17.6300    17.3240    14.3150    19.4110     2.2540   -14.1530 
  177.2500   170.5270    25.4200    25.3830    65.1280    17.9960    17.6390    15.2830    19.4110     2.2430   -14.3400 
  177.3750   170.6380    25.4600    25.4240    65.8700    18.5230    18.1370    15.6070    19.4110     2.2370   -14.4810 
  177.5000   170.7490    25.5010    25.4650    68.8580    19.1290    18.7210    16.2040    19.4110     2.2430   -14.5680 
  177.6250   170.8600    25.5410    25.5060    71.8780    19.6730    19.2280    17.0850    19.4090     2.2610   -14.5240 
  177.7500   170.9710    25.5820    25.5470    72.9940    20.0670    19.5520    17.6410    19.4090     2.2800   -14.4370 
  177.8750   171.0820    25.6220    25.5880    71.2800    20.2880    19.6490    17.6350    19.4100     2.2920   -14.3120 
  178.0000   171.1930    25.6620    25.6290    67.5410    20.3400    19.5140    17.0100    19.4110     2.2940   -14.1030 
  178.1250   171.3040    25.7030    25.6700    64.9970    20.2010    19.1470    15.9650    19.4110     2.2880   -13.9310 
  178.2500   171.4150    25.7430    25.7110    64.1540    19.8890    18.6540    14.7640    19.4110     2.2800   -13.7730 
  178.3750   171.5260    25.7840    25.7510    63.9510    19.4130    18.1020    14.2260    19.4110     2.2710   -13.6330 
  178.5000   171.6370    25.8240    25.7920    65.0540    18.8270    17.5340    14.3290    19.4110     2.2640   -13.5270 
  178.6250   171.7480    25.8650    25.8330    68.3870    18.2760    17.0150    13.9680    19.4130     2.2630   -13.4530 
  178.7500   171.8590    25.9050    25.8740    70.6170    17.9290    16.6370    12.9790    19.4230     2.2780   -13.4300 
  178.8750   171.9700    25.9450    25.9150    68.8260    17.9240    16.5220    12.2760    19.4430     2.3140   -13.5400 
  179.0000   172.0810    25.9860    25.9560    64.8740    18.3600    16.8060    11.8700    19.4470     2.3670   -13.7730 
  179.1250   172.1920    26.0260    25.9970    62.3640    19.4160    17.7450    12.3330    19.4260     2.4150   -14.0860 
  179.2500   172.3030    26.0670    26.0380    62.5210    21.0810    19.3620    13.4660    19.4140     2.4340   -14.4200 
  179.3750   172.4140    26.1070    26.0790    63.3410    23.3730    21.6600    15.2910    19.4110     2.4160   -14.7670 
  179.5000   172.5250    26.1480    26.1200    62.3020    26.2080    24.4970    17.8960    19.4110     2.3660   -15.0760 
  179.6250   172.6360    26.1880    26.1610    59.2330    29.3500    27.5580    18.9800    19.4080     2.3080   -15.3340 
  179.7500   172.7460    26.2280    26.2020    57.9720    32.3410    30.3530    19.4720    19.4060     2.2630   -15.5660 
  179.8750   172.8570    26.2690    26.2420    59.6920    34.8600    32.5510    19.3640    19.4070     2.2380   -15.7290 
  180.0000   172.9680    26.3090    26.2830    61.1480    36.7800    34.0560    19.6720    19.4070     2.2300   -15.8450 
  180.1250   173.0780    26.3510    26.3280    60.2490    38.1740    35.0000    20.1320    19.4100     2.2330   -15.9340 
  180.2500   173.1870    26.3930    26.3720    60.4060    39.4030    35.8090    20.5080    19.4110     2.2410   -16.0530 
  180.3750   173.2960    26.4350    26.4160    62.3040    40.6710    36.7310    20.2530    19.4110     2.2520   -16.1010 
  180.5000   173.4050    26.4760    26.4600    62.6810    42.0610    37.9120    19.6210    19.4110     2.2650   -16.1750 
  180.6250   173.5140    26.5180    26.5050    59.9680    43.4800    39.4190    19.1560    19.4110     2.2780   -16.2660 
  180.7500   173.6230    26.5600    26.5490    56.4910    44.5760    40.9570    19.6950    19.4110     2.2860   -16.3660 
  180.8750   173.7330    26.6020    26.5930    55.3180    44.8350    41.9990    21.2370    19.4110     2.2870   -16.4140 
  181.0000   173.8420    26.6440    26.6380    55.3580    43.7420    41.8790    23.8440    19.4110     2.2830   -16.4540 
  181.1250   173.9510    26.6850    26.6820    55.1210    40.8840    39.8920    25.8940    19.4090     2.2780   -16.4440 
  181.2500   174.0600    26.7270    26.7260    56.2170    37.0030    36.5690    25.7180    19.4090     2.2770   -16.4540 
  181.3750   174.1690    26.7690    26.7700    59.7680    32.8710    32.6490    22.0010    19.4100     2.2830   -16.5160 
  181.5000   174.2780    26.8110    26.8150    65.2620    29.1760    28.9160    18.8320    19.4120     2.2930   -16.6150 
  181.6250   174.3880    26.8530    26.8590    68.1140    26.4410    26.0350    17.5800    19.4190     2.3030   -16.7510 
  181.7500   174.4970    26.8940    26.9030    68.0470    24.5610    24.0280    17.0630    19.4360     2.3100   -16.9070 
  181.8750   174.6060    26.9360    26.9470    66.9760    23.3990    22.8120    15.9680    19.4570     2.3140   -17.1330 
  182.0000   174.7150    26.9780    26.9920    66.0210    22.7640    22.2260    14.6080    19.4680     2.3130   -17.3260 
  182.1250   174.8240    27.0200    27.0360    65.9970    22.4800    22.1110    14.3610    19.4710     2.3080   -17.4840 
  182.2500   174.9330    27.0610    27.0800    65.4850    22.3020    22.1810    14.9330    19.4710     2.2990   -17.5880 
  182.3750   175.0430    27.1030    27.1250    65.0900    22.1370    22.2890    15.6070    19.4710     2.2880   -17.6730 
  182.5000   175.1520    27.1450    27.1690    65.0440    21.9660    22.3360    16.1640    19.4710     2.2770   -17.7490 
  182.6250   175.2610    27.1870    27.2130    64.9630    21.8170    22.2360    16.5440    19.4710     2.2700   -17.7420 
  182.7500   175.3700    27.2290    27.2570    64.8230    21.7000    22.0190    16.7620    19.4710     2.2660   -17.6770 
  182.8750   175.4790    27.2700    27.3020    65.6110    21.6290    21.7590    16.7400    19.4710     2.2650   -17.5160 
  183.0000   175.5880    27.3120    27.3460    67.1170    21.6580    21.5790    16.3130    19.4710     2.2620   -17.4190 
  183.1250   175.6980    27.3540    27.3900    67.2950    21.9650    21.6970    16.0710    19.4810     2.2530   -17.3570 
  183.2500   175.8070    27.3960    27.4340    66.8870    22.6930    22.2360    16.3340    19.5050     2.2400   -17.3810 
  183.3750   175.9160    27.4380    27.4790    65.9630    23.9720    23.3140    17.1890    19.5310     2.2330   -17.4610 
  183.5000   176.0250    27.4790    27.5230    63.0260    25.8400    24.9900    18.1220    19.5550     2.2440   -17.5880 
  183.6250   176.1340    27.5210    27.5670    58.0520    28.2130    27.2600    19.5810    19.6020     2.2910   -17.7300 
  183.7500   176.2430    27.5630    27.6110    53.8110    30.6380    29.7280    21.7900    19.6650     2.3630   -17.8970 
  183.8750   176.3530    27.6050    27.6560    51.4550    32.6590    31.9350    23.7800    19.7140     2.4420   -18.0770 
  184.0000   176.4620    27.6470    27.7000    50.6870    33.8720    33.3840    24.7460    19.7460     2.5000   -18.2390 
  184.1250   176.5710    27.6880    27.7440    52.4500    33.9620    33.5900    23.9810    19.7970     2.5060   -18.2960 
  184.2500   176.6800    27.7300    27.7890    55.8860    33.3180    32.8990    23.5130    19.8830     2.4670   -18.2610 
  184.3750   176.7890    27.7720    27.8330    59.3540    32.3500    31.7740    23.5650    19.9530     2.4030   -18.1420 
  184.5000   176.8980    27.8140    27.8770    62.3760    31.4630    30.7010    23.2690    19.9860     2.3430   -17.9520 
  184.6250   177.0080    27.8550    27.9210    64.4850    30.9910    30.0820    22.2730    19.9860     2.3150   -17.7570 
  184.7500   177.1170    27.8970    27.9660    65.5620    30.9260    29.9230    21.2710    19.9490     2.3160   -17.5370 
  184.8750   177.2260    27.9390    28.0100    65.3690    31.1750    30.1200    20.7950    19.8720     2.3310   -17.3110 
