~V
VERS. 2.00: Ver 2.00
~W
STRT.M 30.0000:
STOP.M 223.0000:
STEP.M 0.1250:
NULL. -999.2500:
UWI. FD10814:
~C
DEPT.M :
TVD. :
DX. :
DY. :
SP.MV :
GR.API :
RI. :
RML.OHMM :
RXO.OHMM :
DEN.GM/CC :
~A
# ...
   57.3750    57.3700    -0.4440     0.1770   -14.8670    67.7270     5.2240     7.5690     6.2550     2.0380 
   57.5000    57.4950    -0.4460     0.1810   -14.6010    68.0390     5.1640     7.3960     6.3590     2.0410 
   57.6250    57.6200    -0.4480     0.1850   -14.2500    68.5780     5.2130     7.5250     6.4710     2.0480 
   57.7500    57.7440    -0.4500     0.1890   -13.7600    68.5350     5.4600     8.0000     6.6670     2.0520 
   57.8750    57.8690    -0.4510     0.1940   -12.9670    68.0230     5.7670     8.5590     7.3800     2.0500 
   58.0000    57.9940    -0.4530     0.1980   -11.8530    69.2220     5.8740     8.8300    10.5740     2.0520 
   58.1250    58.1190    -0.4550     0.2020   -10.2680    74.2720     5.7040     8.6050    14.3110     2.0760 
   58.2500    58.2440    -0.4570     0.2070    -8.4590    82.6500     5.1720     7.8640    12.2800     2.1280 
   58.3750    58.3690    -0.4590     0.2110    -6.8610    91.3730     4.4890     6.8520     6.8160     2.1910 
   58.5000    58.4940    -0.4610     0.2160    -5.8780    98.0090     3.8450     5.9070     4.4970     2.2240 
   58.6250    58.6190    -0.4620     0.2200    -5.5450   101.1260     3.3500     5.1790     4.4750     2.1910 
   58.7500    58.7440    -0.4640     0.2250    -5.6940   102.5850     3.0230     4.7250     4.3530     2.1150 
   58.8750    58.8690    -0.4660     0.2300    -6.2010   103.5580     2.9320     4.6190     4.1230     2.0730 
   59.0000    58.9930    -0.4680     0.2350    -6.9520   103.5890     3.0250     4.8030     3.9610     2.0960 
   59.1250    59.1180    -0.4700     0.2390    -8.2470   101.3750     3.2620     5.2660     4.2650     2.1460 
   59.2500    59.2430    -0.4710     0.2440   -10.0600    96.5910     3.6880     5.9970     5.3260     2.1530 
   59.3750    59.3680    -0.4730     0.2500   -12.2690    90.9460     4.2410     6.9070     6.4020     2.1140 
   59.5000    59.4930    -0.4750     0.2550   -14.3830    85.3440     4.8300     7.7710     6.8170     2.0680 
   59.6250    59.6180    -0.4770     0.2600   -16.0480    81.2130     5.1960     8.2540     6.9920     2.0400 
   59.7500    59.7430    -0.4780     0.2650   -17.1700    77.5910     5.3350     8.3380     7.2940     2.0230 
   59.8750    59.8680    -0.4800     0.2710   -17.9290    75.0170     5.2460     8.1080     7.4610     2.0120 
   60.0000    59.9930    -0.4820     0.2760   -18.3800    73.7350     5.1180     7.8600     7.4560     2.0130 
   60.1250    60.1170    -0.4840     0.2820   -18.4660    74.3860     5.1130     7.8080     7.4790     2.0250 
   60.2500    60.2420    -0.4850     0.2880   -18.2910    76.2840     5.1380     7.8630     7.5750     2.0400 
   60.3750    60.3670    -0.4870     0.2930   -17.9590    77.6500     5.1790     7.9910     7.6500     2.0530 
   60.5000    60.4920    -0.4890     0.2990   -17.4360    79.4050     5.2510     8.2020     7.5770     2.0630 
   60.6250    60.6170    -0.4910     0.3050   -16.6220    82.1000     5.3120     8.3440     7.3880     2.0720 
   60.7500    60.7420    -0.4930     0.3110   -15.6660    84.0740     5.2090     8.2430     7.2830     2.0780 
   60.8750    60.8660    -0.4940     0.3170   -14.5400    85.4950     4.9380     7.8440     7.1840     2.0790 
   61.0000    60.9910    -0.4960     0.3230   -13.2510    88.1320     4.5120     7.2040     6.1960     2.0750 
   61.1250    61.1160    -0.4980     0.3290   -11.9270    93.4330     4.0410     6.4890     4.5730     2.0720 
   61.2500    61.2410    -0.5000     0.3360   -10.9350    99.3640     3.6320     5.8890     4.1850     2.0830 
   61.3750    61.3660    -0.5010     0.3420   -10.5020   103.0730     3.3540     5.4900     4.5730     2.1100 
   61.5000    61.4910    -0.5030     0.3490   -10.3510   104.5210     3.1830     5.2680     4.4310     2.1370 
   61.6250    61.6150    -0.5050     0.3550   -10.3560   103.7730     3.1140     5.1940     4.4610     2.1440 
   61.7500    61.7400    -0.5060     0.3620   -10.6730   102.8060     3.1320     5.2120     4.6820     2.1410 
   61.8750    61.8650    -0.5080     0.3690   -11.4810   101.9120     3.2050     5.3210     4.4730     2.1380 
   62.0000    61.9900    -0.5100     0.3750   -12.6350   100.1730     3.3660     5.5870     4.4370     2.1320 
   62.1250    62.1150    -0.5110     0.3820   -14.2190    96.3050     3.6520     6.0520     3.9150     2.1180 
   62.2500    62.2390    -0.5130     0.3890   -15.9480    90.8250     3.9940     6.6250     4.5530     2.0960 
   62.3750    62.3640    -0.5140     0.3960   -17.4210    85.3110     4.3130     7.1110     5.4310     2.0750 
   62.5000    62.4890    -0.5160     0.4040   -18.4400    80.3330     4.5320     7.3960     5.9710     2.0620 
   62.6250    62.6140    -0.5170     0.4110   -18.9720    77.2890     4.5430     7.3690     6.0760     2.0600 
   62.7500    62.7390    -0.5190     0.4190   -19.0120    75.5150     4.3850     7.0880     5.9500     2.0660 
   62.8750    62.8630    -0.5200     0.4260   -18.7420    75.5970     4.1600     6.7480     5.6170     2.0700 
   63.0000    62.9880    -0.5220     0.4340   -18.4520    77.6310     3.9520     6.4590     5.3670     2.0740 
   63.1250    63.1130    -0.5230     0.4420   -18.2260    80.5890     3.8580     6.3340     5.4100     2.0750 
   63.2500    63.2380    -0.5250     0.4500   -18.2310    82.0890     3.8410     6.3660     6.7600     2.0700 
   63.3750    63.3620    -0.5260     0.4580   -18.5170    80.6740     3.9050     6.5140     9.8480     2.0610 
   63.5000    63.4870    -0.5280     0.4660   -19.0550    79.5920     3.9860     6.6970    10.5750     2.0530 
   63.6250    63.6120    -0.5290     0.4750   -19.7380    79.0330     4.0800     6.8630     7.7750     2.0490 
   63.7500    63.7360    -0.5310     0.4830   -20.4380    79.2570     4.1330     6.9880     6.0380     2.0520 
   63.8750    63.8610    -0.5320     0.4920   -20.9800    77.1620     4.1570     7.0680     6.0440     2.0550 
   64.0000    63.9860    -0.5340     0.5010   -21.4200    75.4160     4.1700     7.0770     6.1620     2.0550 
   64.1250    64.1100    -0.5350     0.5100   -21.8490    71.8750     4.1950     7.0130     6.3540     2.0520 
   64.2500    64.2350    -0.5360     0.5190   -22.2540    68.2780     4.2420     6.8690     6.6550     2.0480 
   64.3750    64.3600    -0.5380     0.5280   -22.5910    64.9910     4.2780     6.6510     6.8880     2.0460 
   64.5000    64.4840    -0.5390     0.5370   -22.6710    64.4610     4.2980     6.4220     6.7850     2.0460 
   64.6250    64.6090    -0.5400     0.5470   -22.6570    66.9750     4.2960     6.1890     6.4450     2.0470 
   64.7500    64.7340    -0.5420     0.5560   -22.5820    70.1550     4.2710     5.9640     6.1850     2.0510 
   64.8750    64.8580    -0.5430     0.5660   -22.4940    72.2100     4.2220     5.7740     6.1970     2.0570 
   65.0000    64.9830    -0.5440     0.5760   -22.4020    73.0220     4.1730     5.6010     6.2480     2.0600 
   65.1250    65.1070    -0.5450     0.5860   -22.3490    72.6210     4.1260     5.4650     6.1480     2.0580 
   65.2500    65.2320    -0.5470     0.5960   -22.2660    71.3680     4.0840     5.3610     6.1350     2.0560 
   65.3750    65.3570    -0.5480     0.6060   -22.1760    69.7350     4.0310     5.2500     6.2650     2.0560 
   65.5000    65.4810    -0.5490     0.6160   -22.0720    69.2130     3.9630     5.1210     6.2150     2.0560 
   65.6250    65.6060    -0.5500     0.6270   -21.9280    69.8410     3.8960     4.9890     5.9640     2.0530 
   65.7500    65.7300    -0.5510     0.6370   -21.8370    70.4540     3.8390     4.8650     5.8550     2.0490 
   65.8750    65.8550    -0.5520     0.6480   -21.8780    69.7400     3.7900     4.7650     5.9240     2.0480 
   66.0000    65.9790    -0.5530     0.6590   -22.1520    69.0210     3.7460     4.6990     5.9910     2.0480 
   66.1250    66.1040    -0.5540     0.6700   -22.5610    67.0780     3.7170     4.6410     5.9380     2.0500 
   66.2500    66.2280    -0.5550     0.6810   -22.9690    67.2460     3.6860     4.5780     5.8240     2.0490 
   66.3750    66.3530    -0.5570     0.6920   -23.2810    68.0070     3.6590     4.5260     5.7240     2.0480 
