~V
VERS. 2.00: Ver 2.00
~W
STRT.M 33.0000:
STOP.M 287.0000:
STEP.M 0.1250:
NULL. -999.2500:
UWI. FD10889:
~C
DEPT.M :
TVD. :
DX. :
DY. :
SP.MV :
GR.API :
RI. :
RML.OHMM :
RXO.OHMM :
DEN.GM/CC :
~A
# ...
  242.8750   216.0600   -56.4480   -63.8690   -18.9910    65.1760    23.4400    27.5570    31.2110     2.1520 
  243.0000   216.1480   -56.4900   -63.9470   -18.7600    63.1180    26.6550    31.3780    27.5510     2.1330 
  243.1250   216.2360   -56.5310   -64.0250   -18.6450    60.8960    29.2010    34.2950    24.9520     2.1270 
  243.2500   216.3250   -56.5720   -64.1030   -18.5260    62.9610    30.4790    35.7040    23.4960     2.1340 
  243.3750   216.4130   -56.6120   -64.1810   -18.3630    66.2710    30.8170    35.9820    24.1230     2.1490 
  243.5000   216.5020   -56.6530   -64.2600   -18.1460    66.8340    30.6100    35.6740    27.9030     2.1610 
  243.6250   216.5900   -56.6940   -64.3380   -17.7330    66.4990    30.3800    35.4710    33.3370     2.1650 
  243.7500   216.6790   -56.7340   -64.4160   -17.3410    68.4490    30.4890    35.7070    38.4460     2.1650 
  243.8750   216.7680   -56.7750   -64.4950   -17.0540    72.7430    30.8920    36.1260    42.8110     2.1680 
  244.0000   216.8560   -56.8160   -64.5730   -16.8120    72.7490    31.5690    36.6120    42.1850     2.1770 
  244.1250   216.9450   -56.8570   -64.6510   -16.6650    70.0420    32.2340    36.9250    38.7160     2.1850 
  244.2500   217.0330   -56.8970   -64.7290   -16.5560    68.0250    33.5310    37.9330    33.1900     2.1830 
  244.3750   217.1220   -56.9380   -64.8080   -16.5290    66.4920    35.9450    40.3500    33.3510     2.1720 
  244.5000   217.2100   -56.9790   -64.8860   -16.5800    63.7620    40.1290    44.3970    37.6940     2.1590 
  244.6250   217.2990   -57.0190   -64.9640   -16.8340    60.7610    45.2810    49.4140    40.4040     2.1530 
  244.7500   217.3870   -57.0600   -65.0430   -17.1510    61.2380    49.9070    53.7070    46.5180     2.1530 
  244.8750   217.4760   -57.1000   -65.1210   -17.4210    62.6340    53.2250    56.6010    58.4830     2.1580 
  245.0000   217.5640   -57.1410   -65.2000   -17.5920    63.8480    54.1610    57.2910    53.8110     2.1620 
  245.1250   217.6530   -57.1810   -65.2780   -17.7190    65.2840    53.3800    56.2490    56.0660     2.1630 
  245.2500   217.7410   -57.2210   -65.3570   -17.9020    66.2870    51.6850    54.4390    61.7120     2.1620 
  245.3750   217.8300   -57.2610   -65.4360   -18.1870    64.3000    50.4920    53.2070    55.0680     2.1590 
  245.5000   217.9180   -57.3010   -65.5140   -18.4460    58.3780    50.6410    53.3720    55.9000     2.1590 
  245.6250   218.0070   -57.3410   -65.5930   -18.5260    53.8100    52.0950    54.9230    54.1660     2.1600 
  245.7500   218.0950   -57.3810   -65.6710   -18.6790    54.2770    54.9560    57.8710    56.8360     2.1620 
  245.8750   218.1840   -57.4220   -65.7500   -18.7360    56.2190    58.7850    61.8990    65.2130     2.1600 
  246.0000   218.2720   -57.4620   -65.8280   -18.9350    56.7920    63.2440    66.4710    74.7050     2.1510 
  246.1250   218.3610   -57.5020   -65.9070   -19.2350    56.1210    67.9630    71.2250    83.0080     2.1380 
  246.2500   218.4490   -57.5420   -65.9860   -19.3600    57.0800    71.7180    74.9420    83.6330     2.1250 
  246.3750   218.5380   -57.5810   -66.0650   -19.3500    57.4410    74.0110    77.1740    77.7100     2.1160 
  246.5000   218.6260   -57.6200   -66.1440   -19.2640    53.3360    75.1590    78.3210    73.2440     2.1120 
  246.6250   218.7140   -57.6600   -66.2240   -19.0620    47.5490    75.5180    78.7910    75.2290     2.1130 
  246.7500   218.8030   -57.6990   -66.3030   -18.6910    44.6220    75.9590    79.3520    85.4010     2.1170 
  246.8750   218.8910   -57.7390   -66.3810   -18.3800    45.9550    76.8630    80.4280    89.2770     2.1210 
  247.0000   218.9800   -57.7790   -66.4600   -18.0970    48.8580    78.3860    82.1670    91.4600     2.1230 
  247.1250   219.0680   -57.8190   -66.5390   -17.8950    51.6120    80.4880    84.5720   100.0760     2.1200 
  247.2500   219.1560   -57.8590   -66.6180   -17.6460    53.2910    83.6180    88.0580    93.8250     2.1140 
  247.3750   219.2450   -57.8990   -66.6970   -17.1830    51.9680    87.4020    92.2240    93.2890     2.1070 
  247.5000   219.3330   -57.9380   -66.7760   -16.8780    50.0130    91.8420    96.9660   105.2350     2.1030 
  247.6250   219.4220   -57.9780   -66.8550   -16.5590    50.4430    95.6550   100.9980   102.4950     2.1030 
  247.7500   219.5100   -58.0180   -66.9340   -16.2730    51.3240    97.7330   103.1400   108.9460     2.1070 
  247.8750   219.5980   -58.0580   -67.0130   -16.0610    50.5320    97.8730   103.0190   111.2190     2.1120 
  248.0000   219.6870   -58.0980   -67.0920   -15.8390    50.5780    94.9870    99.6190   102.8320     2.1170 
  248.1250   219.7750   -58.1370   -67.1710   -15.6680    52.7900    90.5360    94.5620   104.5530     2.1240 
  248.2500   219.8640   -58.1770   -67.2500   -15.5200    54.3050    85.5190    88.9690    99.5620     2.1320 
  248.3750   219.9520   -58.2160   -67.3290   -15.3450    53.7270    80.6810    83.7290    89.7480     2.1380 
  248.5000   220.0400   -58.2560   -67.4080   -15.1250    53.7750    76.2500    78.8840    82.4260     2.1380 
  248.6250   220.1290   -58.2960   -67.4860   -14.8910    53.3210    72.0490    74.3230    77.1090     2.1330 
  248.7500   220.2170   -58.3360   -67.5650   -14.7780    53.3610    67.7390    69.7380    78.9360     2.1290 
  248.8750   220.3060   -58.3760   -67.6440   -14.6670    55.7250    63.5720    65.1340    69.6450     2.1320 
  249.0000   220.3940   -58.4170   -67.7220   -14.4320    58.0950    59.7560    61.1260    62.9620     2.1410 
  249.1250   220.4830   -58.4570   -67.8010   -14.0100    56.8300    56.4220    57.7090    67.3560     2.1500 
  249.2500   220.5710   -58.4970   -67.8790   -13.8030    53.4300    54.2290    55.6270    71.7720     2.1550 
  249.3750   220.6600   -58.5370   -67.9580   -13.8330    53.9250    53.2020    54.8980    63.1750     2.1510 
  249.5000   220.7480   -58.5780   -68.0360   -14.0110    57.4380    53.4530    55.3800    55.3090     2.1390 
  249.6250   220.8370   -58.6180   -68.1150   -14.2500    57.7580    54.2640    56.4690    54.9020     2.1240 
  249.7500   220.9250   -58.6590   -68.1930   -14.4030    54.5160    55.3030    57.7840    61.7870     2.1130 
  249.8750   221.0140   -58.7000   -68.2710   -14.5350    50.6900    56.6700    59.4630    67.0330     2.1110 
  250.0000   221.1020   -58.7410   -68.3490   -14.7420    49.3810    58.3720    61.4710    71.4240     2.1170 
  250.1250   221.1910   -58.7820   -68.4270   -14.8810    51.6460    61.1650    64.7350    74.8950     2.1250 
  250.2500   221.2800   -58.8230   -68.5050   -14.9640    53.7820    65.9280    70.2530    85.0010     2.1310 
  250.3750   221.3680   -58.8640   -68.5830   -15.0060    53.9900    72.0430    77.1710    79.6230     2.1350 
  250.5000   221.4570   -58.9050   -68.6620   -15.0620    54.3050    77.8840    83.5490    85.4210     2.1370 
  250.6250   221.5450   -58.9450   -68.7400   -15.1450    54.0530    81.3430    87.1840    85.8040     2.1380 
  250.7500   221.6340   -58.9850   -68.8190   -15.1730    52.8490    81.4570    87.3050    81.5560     2.1380 
  250.8750   221.7230   -59.0260   -68.8970   -15.2100    51.8520    79.1980    85.0800    85.3180     2.1370 
  251.0000   221.8110   -59.0660   -68.9760   -15.2370    53.6840    75.7120    81.6770    81.9930     2.1340 
  251.1250   221.9000   -59.1060   -69.0540   -15.3590    53.6550    71.9570    78.0280    79.3220     2.1310 
  251.2500   221.9880   -59.1460   -69.1320   -15.4540    51.8980    68.8560    74.9680    75.2710     2.1310 
  251.3750   222.0770   -59.1870   -69.2110   -15.5460    52.5790    66.1070    72.2320    70.2990     2.1360 
  251.5000   222.1660   -59.2270   -69.2890   -15.5610    54.5960    64.1690    70.2370    73.5500     2.1390 
  251.6250   222.2540   -59.2680   -69.3680   -15.4440    55.0630    62.5120    68.4820    76.3680     2.1340 
  251.7500   222.3430   -59.3080   -69.4460   -15.2000    56.3150    61.1500    67.0480    67.5000     2.1190 
  251.8750   222.4310   -59.3490   -69.5240   -15.0710    58.0640    60.1590    66.0560    61.3020     2.1010 
