~V
VERS. 2.00: Ver 2.00
~W
STRT.M 34.0000:
STOP.M 260.0000:
STEP.M 0.1250:
NULL. -999.2500:
UWI. FD10858:
~C
DEPT.M :
TVD. :
DX. :
DY. :
SP.MV :
GR.API :
RI. :
RML.OHMM :
RXO.OHMM :
DEN.GM/CC :
~A
# ...
  134.3750   129.5800   -16.8130   -19.0760   -15.0980    72.7750     6.3720     7.9870     6.0070     2.2040 
  134.5000   129.6890   -16.8570   -19.1180   -15.1950    73.7100     6.1430     7.6820     6.3580     2.2220 
  134.6250   129.7980   -16.9010   -19.1600   -15.2940    74.3300     5.8380     7.3270     5.9570     2.2440 
  134.7500   129.9080   -16.9450   -19.2020   -15.3810    75.5400     5.5200     7.0040     5.5580     2.2620 
  134.8750   130.0170   -16.9890   -19.2440   -15.4540    79.2980     5.3260     6.7980     5.5020     2.2700 
  135.0000   130.1260   -17.0330   -19.2860   -15.5170    83.2410     5.2410     6.7000     5.3140     2.2710 
  135.1250   130.2350   -17.0770   -19.3280   -15.5750    82.9320     5.4170     6.9230     4.9750     2.2710 
  135.2500   130.3440   -17.1210   -19.3700   -15.6320    78.6600     5.9250     7.5830     4.9210     2.2800 
  135.3750   130.4540   -17.1660   -19.4120   -15.6910    73.8510     7.0350     9.0190     5.1210     2.3000 
  135.5000   130.5630   -17.2100   -19.4540   -15.7470    71.0070     8.8980    11.3470     6.4700     2.3200 
  135.6250   130.6720   -17.2540   -19.4960   -15.7830    68.9190    12.5200    15.9450    13.8360     2.3150 
  135.7500   130.7810   -17.2980   -19.5380   -15.7770    63.5110    17.5580    22.2430    24.3550     2.2810 
  135.8750   130.8900   -17.3420   -19.5800   -15.6950    55.8590    22.7500    28.7020    27.2880     2.2280 
  136.0000   130.9990   -17.3870   -19.6220   -15.5300    51.7990    27.1180    34.0850    25.2280     2.1810 
  136.1250   131.1080   -17.4310   -19.6640   -15.2820    53.6970    29.0050    36.0510    25.7020     2.1520 
  136.2500   131.2170   -17.4760   -19.7060   -14.9830    56.3780    29.0320    35.7510    27.2630     2.1390 
  136.3750   131.3260   -17.5200   -19.7490   -14.6660    57.0920    28.1370    34.0680    28.0170     2.1420 
  136.5000   131.4350   -17.5650   -19.7910   -14.3650    57.2590    27.1120    32.2760    28.4850     2.1650 
  136.6250   131.5430   -17.6100   -19.8330   -14.1020    57.4530    26.6600    31.3750    26.6790     2.2220 
  136.7500   131.6520   -17.6540   -19.8750   -13.8880    57.3420    27.0050    31.6240    22.5470     2.3090 
  136.8750   131.7610   -17.6990   -19.9180   -13.7260    57.1260    28.0410    32.9430    21.2130     2.3950 
  137.0000   131.8700   -17.7440   -19.9600   -13.6000    56.5480    29.3550    34.5290    26.7800     2.4340 
  137.1250   131.9780   -17.7890   -20.0030   -13.4960    56.3300    30.6840    36.1580    34.3550     2.3980 
  137.2500   132.0870   -17.8340   -20.0450   -13.3930    56.5810    31.8980    37.6510    33.8950     2.3160 
  137.3750   132.1950   -17.8790   -20.0880   -13.2770    56.8690    32.9710    38.9280    29.0280     2.2370 
  137.5000   132.3040   -17.9240   -20.1300   -13.1410    55.0830    34.2630    40.3330    28.1280     2.1910 
  137.6250   132.4130   -17.9690   -20.1730   -12.9800    50.4950    35.2220    41.0590    30.0460     2.1760 
  137.7500   132.5210   -18.0130   -20.2160   -12.7950    47.4330    35.1790    40.5020    30.7610     2.1710 
  137.8750   132.6300   -18.0580   -20.2580   -12.5940    49.3070    33.9690    38.6560    31.0900     2.1660 
  138.0000   132.7380   -18.1030   -20.3010   -12.4000    54.2830    31.8490    35.9170    33.5300     2.1590 
  138.1250   132.8470   -18.1480   -20.3440   -12.2410    57.3030    29.6760    33.3370    31.7160     2.1540 
  138.2500   132.9550   -18.1930   -20.3870   -12.1340    56.7160    28.0780    31.5090    24.9040     2.1490 
  138.3750   133.0640   -18.2380   -20.4300   -12.0890    54.7550    27.0640    30.4150    21.7260     2.1420 
  138.5000   133.1720   -18.2830   -20.4730   -12.0930    53.4970    26.5210    29.9780    22.2340     2.1350 
  138.6250   133.2810   -18.3280   -20.5160   -12.1370    53.0390    25.9570    29.4260    22.3630     2.1360 
  138.7500   133.3890   -18.3730   -20.5580   -12.2050    53.7010    25.1390    28.4380    22.3570     2.1430 
  138.8750   133.4980   -18.4180   -20.6010   -12.2910    55.4400    24.2150    27.1400    21.5040     2.1510 
  139.0000   133.6060   -18.4630   -20.6440   -12.3830    57.6560    23.4540    25.8790    19.4370     2.1520 
  139.1250   133.7140   -18.5080   -20.6870   -12.4730    57.9650    23.1680    25.3080    18.2340     2.1480 
  139.2500   133.8230   -18.5530   -20.7300   -12.5560    56.8180    23.2160    25.2780    17.6470     2.1430 
  139.3750   133.9310   -18.5990   -20.7720   -12.6230    57.1100    23.5680    25.7050    17.5640     2.1420 
  139.5000   134.0400   -18.6440   -20.8150   -12.6640    59.3890    23.9940    26.1770    18.6690     2.1440 
  139.6250   134.1480   -18.6890   -20.8580   -12.6540    60.5120    24.2610    26.4010    19.5240     2.1440 
  139.7500   134.2560   -18.7340   -20.9010   -12.5750    60.2440    24.3270    26.3780    19.2630     2.1410 
  139.8750   134.3650   -18.7800   -20.9440   -12.4090    60.9560    24.2630    26.2550    18.5450     2.1370 
  140.0000   134.4730   -18.8250   -20.9870   -12.1650    62.3810    24.3670    26.4340    18.9410     2.1330 
  140.1250   134.5810   -18.8700   -21.0300   -11.8590    62.5170    24.9800    27.2490    20.1880     2.1310 
  140.2500   134.6900   -18.9150   -21.0730   -11.5280    61.7370    26.0160    28.5540    20.4910     2.1280 
  140.3750   134.7980   -18.9600   -21.1150   -11.2060    62.0650    27.2740    30.1100    20.9640     2.1250 
  140.5000   134.9070   -19.0060   -21.1580   -10.9200    62.3910    29.0010    32.1310    22.9910     2.1230 
  140.6250   135.0150   -19.0510   -21.2010   -10.6820    61.0390    30.8810    34.1480    25.7580     2.1210 
  140.7500   135.1230   -19.0960   -21.2440   -10.4810    58.9740    32.5760    35.8930    27.1040     2.1170 
  140.8750   135.2320   -19.1410   -21.2870   -10.2950    58.5930    34.1080    37.4420    27.9400     2.1120 
  141.0000   135.3400   -19.1860   -21.3300   -10.1050    59.2600    34.9340    38.1640    33.0260     2.1140 
  141.1250   135.4480   -19.2320   -21.3730    -9.9090    59.1340    35.1470    38.2000    38.3720     2.1220 
  141.2500   135.5570   -19.2770   -21.4150    -9.7230    57.9790    34.9880    37.7870    35.9450     2.1290 
  141.3750   135.6650   -19.3220   -21.4580    -9.5740    56.9750    34.3740    36.8550    30.5670     2.1230 
  141.5000   135.7730   -19.3670   -21.5010    -9.4750    57.2920    33.7460    36.0450    28.7800     2.1050 
  141.6250   135.8820   -19.4120   -21.5440    -9.4380    58.8410    33.4500    35.6790    29.0260     2.0900 
  141.7500   135.9900   -19.4570   -21.5870    -9.4570    59.6210    33.5230    35.7260    28.5770     2.0870 
  141.8750   136.0990   -19.5020   -21.6300    -9.5370    58.1640    34.1420    36.3910    28.5230     2.0930 
  142.0000   136.2070   -19.5470   -21.6740    -9.6750    56.4310    35.2530    37.5820    29.9250     2.0990 
  142.1250   136.3150   -19.5920   -21.7170    -9.8700    54.9870    36.5370    38.9250    30.3950     2.1000 
  142.2500   136.4240   -19.6370   -21.7600   -10.1050    54.2300    38.0410    40.5170    30.2060     2.0970 
  142.3750   136.5320   -19.6820   -21.8030   -10.3620    54.5920    39.7130    42.2590    31.5570     2.0950 
  142.5000   136.6400   -19.7270   -21.8460   -10.6190    56.9490    41.3410    43.8850    34.0460     2.0950 
  142.6250   136.7490   -19.7720   -21.8890   -10.8570    59.0520    42.2890    44.8050    34.7120     2.0960 
  142.7500   136.8570   -19.8170   -21.9320   -11.0730    58.6320    42.8160    45.2860    35.1670     2.0980 
  142.8750   136.9650   -19.8620   -21.9760   -11.2640    57.5490    42.7450    45.1300    38.8000     2.1040 
  143.0000   137.0740   -19.9070   -22.0190   -11.4420    57.3000    42.2030    44.5300    38.3530     2.1160 
  143.1250   137.1820   -19.9520   -22.0620   -11.6220    57.3290    40.8300    43.0140    31.8170     2.1380 
  143.2500   137.2910   -19.9970   -22.1050   -11.8200    56.7510    38.7160    40.7780    31.7170     2.1680 
  143.3750   137.3990   -20.0420   -22.1480   -12.0500    55.2050    36.6560    38.6830    36.8730     2.2010 
