~V
VERS. 2.00: Ver 2.00
~W
STRT.M 43.0000:
STOP.M 257.0000:
STEP.M 0.1250:
NULL. -999.2500:
UWI. FD10872:
~C
DEPT.M :
TVD. :
DX. :
DY. :
SP.MV :
GR.API :
RI. :
RML.OHMM :
RXO.OHMM :
DEN.GM/CC :
~A
# ...
  189.0000   182.1280    32.6330   -22.4650     3.6570    75.6740    16.7630    18.6260    19.3230     2.3660 
  189.1250   182.2420    32.6760   -22.4910     3.4610    73.0570    16.9390    18.7870    21.1200     2.3680 
  189.2500   182.3570    32.7180   -22.5170     3.2980    70.4780    16.9420    18.7950    21.8900     2.3690 
  189.3750   182.4710    32.7610   -22.5430     3.2610    71.7410    16.9150    18.8020    21.6470     2.3690 
  189.5000   182.5860    32.8040   -22.5700     3.3940    73.0950    16.8010    18.7140    20.5690     2.3670 
  189.6250   182.7000    32.8470   -22.5960     3.6950    71.4040    16.6690    18.6200    18.3520     2.3660 
  189.7500   182.8150    32.8900   -22.6220     4.0430    68.7110    16.6270    18.5980    19.4590     2.3660 
  189.8750   182.9290    32.9320   -22.6480     4.2740    69.5660    16.6130    18.5910    23.3730     2.3670 
  190.0000   183.0440    32.9750   -22.6740     4.2790    72.0670    16.6100    18.5640    23.3880     2.3680 
  190.1250   183.1580    33.0180   -22.7000     4.0080    72.3690    16.6040    18.5340    20.9460     2.3670 
  190.2500   183.2730    33.0610   -22.7260     3.5660    70.0760    16.6320    18.5500    20.4310     2.3630 
  190.3750   183.3870    33.1040   -22.7510     3.1000    67.9460    16.8380    18.7920    19.6170     2.3580 
  190.5000   183.5020    33.1470   -22.7770     2.7410    67.2280    17.2020    19.2230    18.1870     2.3520 
  190.6250   183.6160    33.1910   -22.8020     2.5660    68.1660    17.4890    19.5450    19.1500     2.3460 
  190.7500   183.7310    33.2330   -22.8280     2.5340    69.7610    17.5170    19.5670    21.4340     2.3430 
  190.8750   183.8450    33.2760   -22.8530     2.5500    69.5840    17.2520    19.2290    21.3150     2.3420 
  191.0000   183.9600    33.3190   -22.8790     2.5160    67.9290    16.6700    18.5300    20.0730     2.3430 
  191.1250   184.0750    33.3620   -22.9050     2.3760    66.7180    15.9670    17.7290    19.0310     2.3440 
  191.2500   184.1890    33.4040   -22.9310     2.1360    66.4390    15.3590    17.0860    20.1510     2.3440 
  191.3750   184.3040    33.4460   -22.9570     1.8460    65.7570    14.9610    16.7050    22.6050     2.3430 
  191.5000   184.4190    33.4890   -22.9830     1.5790    64.1590    14.8250    16.6090    20.5560     2.3440 
  191.6250   184.5330    33.5310   -23.0090     1.3910    63.7480    14.8600    16.6870    18.2030     2.3480 
  191.7500   184.6480    33.5730   -23.0350     1.2910    65.5610    15.0320    16.9120    18.1450     2.3520 
  191.8750   184.7630    33.6160   -23.0610     1.2650    67.4050    15.3370    17.2840    17.9700     2.3570 
  192.0000   184.8780    33.6580   -23.0870     1.2640    67.9200    15.6560    17.6530    18.4340     2.3600 
  192.1250   184.9920    33.7000   -23.1130     1.2470    67.5830    15.6490    17.6620    18.5210     2.3610 
  192.2500   185.1070    33.7420   -23.1390     1.2000    67.1800    15.3440    17.3220    18.5670     2.3600 
  192.3750   185.2220    33.7840   -23.1650     1.1520    66.7650    14.6790    16.5480    20.3610     2.3560 
  192.5000   185.3370    33.8260   -23.1910     1.1770    66.9100    13.9630    15.7420    21.2700     2.3530 
  192.6250   185.4520    33.8680   -23.2170     1.3760    68.3760    13.6370    15.4020    19.7650     2.3520 
  192.7500   185.5660    33.9110   -23.2430     1.7880    70.0070    13.7100    15.5920    18.6980     2.3530 
  192.8750   185.6810    33.9530   -23.2690     2.3840    70.6390    14.1030    16.1640    18.1280     2.3560 
  193.0000   185.7960    33.9950   -23.2960     3.0250    71.3670    14.6370    16.8890    19.2060     2.3590 
  193.1250   185.9110    34.0360   -23.3220     3.5560    73.2100    15.1080    17.4680    22.0240     2.3630 
  193.2500   186.0250    34.0780   -23.3480     3.8860    73.8700    15.1140    17.4270    22.9660     2.3660 
  193.3750   186.1400    34.1200   -23.3750     4.0050    72.0760    14.5870    16.7640    21.6860     2.3690 
  193.5000   186.2550    34.1630   -23.4010     4.0300    69.0570    13.6160    15.5960    19.8420     2.3710 
  193.6250   186.3700    34.2050   -23.4270     4.0830    68.2640    12.5150    14.3230    18.4010     2.3720 
  193.7500   186.4840    34.2470   -23.4530     4.2390    69.2250    11.6210    13.3180    16.3320     2.3710 
  193.8750   186.5990    34.2890   -23.4790     4.4970    70.5990    10.9440    12.5530    13.6250     2.3700 
  194.0000   186.7140    34.3310   -23.5060     4.7570    71.7180    10.4030    11.9310    11.9730     2.3720 
  194.1250   186.8290    34.3730   -23.5320     4.9030    71.7820    10.0440    11.5220    11.3640     2.3760 
  194.2500   186.9430    34.4150   -23.5580     4.8780    70.6640     9.9600    11.3940    11.3730     2.3830 
  194.3750   187.0580    34.4570   -23.5840     4.6550    68.9970    10.0270    11.3920    11.1910     2.3920 
  194.5000   187.1730    34.5000   -23.6100     4.2770    68.2920    10.1120    11.3990    10.9580     2.4000 
  194.6250   187.2870    34.5420   -23.6370     3.7880    68.7020    10.1350    11.2930    11.8260     2.4050 
  194.7500   187.4020    34.5840   -23.6630     3.2460    69.3370    10.1110    11.1490    12.4660     2.4070 
  194.8750   187.5170    34.6260   -23.6890     2.6910    70.2570    10.1550    11.1030    11.4540     2.4060 
  195.0000   187.6310    34.6690   -23.7150     2.1600    70.9110    10.2090    11.0970    10.8280     2.4040 
  195.1250   187.7460    34.7110   -23.7410     1.6690    69.9160    10.2180    11.0830    11.3630     2.4030 
  195.2500   187.8610    34.7540   -23.7670     1.2100    68.0350    10.0890    10.9340    11.8370     2.4020 
  195.3750   187.9760    34.7960   -23.7930     0.7750    67.1020     9.8280    10.6330    12.9550     2.4010 
  195.5000   188.0900    34.8390   -23.8190     0.3690    66.4600     9.5340    10.2840    13.1050     2.3980 
  195.6250   188.2050    34.8810   -23.8440     0.0290    65.0780     9.3040    10.0280    10.8000     2.3900 
  195.7500   188.3190    34.9240   -23.8700    -0.1860    63.6820     9.2810    10.0530     9.2590     2.3800 
  195.8750   188.4340    34.9660   -23.8960    -0.1970    63.7580     9.5170    10.3720     9.6140     2.3710 
  196.0000   188.5490    35.0090   -23.9220    -0.0130    66.2240     9.8540    10.7830    10.7480     2.3640 
  196.1250   188.6630    35.0510   -23.9480     0.2960    70.5590    10.1260    11.0440    12.5760     2.3620 
  196.2500   188.7780    35.0940   -23.9730     0.5900    73.7880    10.2350    11.0860    13.6550     2.3640 
  196.3750   188.8930    35.1370   -23.9990     0.7260    74.5750    10.3770    11.2120    13.5360     2.3730 
  196.5000   189.0070    35.1790   -24.0250     0.6660    74.4940    10.8220    11.7450    12.8540     2.3870 
  196.6250   189.1220    35.2220   -24.0510     0.4670    73.6740    11.6510    12.7770    11.4450     2.4110 
  196.7500   189.2370    35.2640   -24.0770     0.2690    70.9810    12.6900    14.0350    10.5970     2.4420 
  196.8750   189.3510    35.3070   -24.1020     0.2170    67.3920    13.6540    15.1670    12.5430     2.4810 
  197.0000   189.4660    35.3490   -24.1280     0.3690    64.5950    14.3430    15.8950    17.2180     2.5170 
  197.1250   189.5810    35.3920   -24.1540     0.7310    62.9860    14.7980    16.3610    20.6730     2.5380 
  197.2500   189.6960    35.4350   -24.1790     1.2150    62.5270    15.4440    17.1140    21.7100     2.5360 
  197.3750   189.8100    35.4770   -24.2050     1.7380    61.8750    16.9430    18.8910    21.2170     2.5090 
  197.5000   189.9250    35.5200   -24.2300     2.2250    60.3090    19.8340    22.3110    22.7000     2.4640 
  197.6250   190.0400    35.5620   -24.2560     2.6030    59.9320    23.9960    27.1720    32.6230     2.4110 
  197.7500   190.1540    35.6050   -24.2820     2.8340    62.0220    29.2170    33.2010    43.7610     2.3620 
  197.8750   190.2690    35.6470   -24.3070     2.8810    65.2350    34.3920    39.1110    47.4870     2.3220 
  198.0000   190.3840    35.6900   -24.3330     2.7490    67.5160    38.6310    43.9190    50.3180     2.2930 
