~V
VERS. 2.00: Ver 2.00
~W
STRT.M 25.0000:
STOP.M 295.0000:
STEP.M 0.1250:
NULL. -999.2500:
UWI. FD10906:
~C
DEPT.M :
TVD. :
DX. :
DY. :
SP.MV :
GR.API :
RI. :
RML.OHMM :
RXO.OHMM :
DEN.GM/CC :
~A
# ...
  198.3750   178.6770   -69.4500     4.4660   -16.0010    65.0520     4.8280     6.1150     5.2850     2.3170 
  198.5000   178.7740   -69.5290     4.4720   -15.8920    61.3780     4.8130     6.0980     5.1680     2.3200 
  198.6250   178.8710   -69.6080     4.4780   -15.8400    60.8940     4.8350     6.1230     5.3960     2.3160 
  198.7500   178.9680   -69.6860     4.4840   -15.8390    64.5140     4.8510     6.1420     6.0000     2.3060 
  198.8750   179.0650   -69.7650     4.4900   -15.8630    68.1180     4.8180     6.1040     6.5780     2.2970 
  199.0000   179.1620   -69.8440     4.4960   -15.8840    69.2640     4.7050     5.9760     6.5990     2.2940 
  199.1250   179.2590   -69.9220     4.5020   -15.8740    65.2090     4.5310     5.7770     6.2380     2.2990 
  199.2500   179.3560   -70.0010     4.5080   -15.8020    57.9780     4.3420     5.5610     5.8720     2.3150 
  199.3750   179.4530   -70.0790     4.5140   -15.6830    51.1440     4.1910     5.3900     5.3660     2.3380 
  199.5000   179.5500   -70.1580     4.5200   -15.5590    47.8550     4.1150     5.3030     4.7040     2.3610 
  199.6250   179.6470   -70.2360     4.5260   -15.5000    46.8390     4.1060     5.2930     4.3880     2.3790 
  199.7500   179.7440   -70.3150     4.5310   -15.5680    47.2620     4.1460     5.3380     4.5430     2.3910 
  199.8750   179.8410   -70.3930     4.5370   -15.7490    47.3530     4.2080     5.4090     4.7660     2.3990 
  200.0000   179.9390   -70.4710     4.5430   -16.0000    46.4800     4.2840     5.4960     4.9280     2.4040 
  200.1250   180.0360   -70.5500     4.5490   -16.2600    45.6770     4.3810     5.6060     5.1200     2.4050 
  200.2500   180.1330   -70.6280     4.5550   -16.5030    46.9950     4.5080     5.7510     5.3400     2.3990 
  200.3750   180.2300   -70.7070     4.5600   -16.7390    51.1300     4.6570     5.9210     5.5410     2.3880 
  200.5000   180.3280   -70.7850     4.5660   -16.9820    54.8240     4.8020     6.0860     5.9220     2.3770 
  200.6250   180.4250   -70.8630     4.5720   -17.2430    56.3380     4.9060     6.2050     6.6420     2.3730 
  200.7500   180.5220   -70.9410     4.5770   -17.5160    55.2290     4.9340     6.2360     7.1620     2.3790 
  200.8750   180.6200   -71.0200     4.5830   -17.7740    54.3080     4.8850     6.1800     6.8980     2.3910 
  201.0000   180.7170   -71.0980     4.5880   -17.9730    54.0520     4.7810     6.0620     6.1880     2.4030 
  201.1250   180.8140   -71.1760     4.5930   -18.0840    53.8310     4.6660     5.9300     5.6610     2.4070 
  201.2500   180.9120   -71.2540     4.5990   -18.0960    54.3440     4.5720     5.8240     5.3280     2.4020 
  201.3750   181.0090   -71.3320     4.6040   -18.0490    54.8050     4.5150     5.7590     5.0630     2.3940 
  201.5000   181.1060   -71.4110     4.6100   -17.9840    55.3940     4.4910     5.7320     4.9650     2.3870 
  201.6250   181.2040   -71.4890     4.6150   -17.9290    56.0530     4.4860     5.7260     5.0630     2.3840 
  201.7500   181.3010   -71.5670     4.6210   -17.8830    57.9690     4.4910     5.7320     5.2610     2.3820 
  201.8750   181.3990   -71.6450     4.6260   -17.8300    59.6900     4.4950     5.7360     5.3970     2.3790 
  202.0000   181.4960   -71.7230     4.6320   -17.7620    60.3490     4.4930     5.7340     5.3950     2.3740 
  202.1250   181.5940   -71.8010     4.6370   -17.6930    59.4610     4.4840     5.7230     5.3890     2.3690 
  202.2500   181.6910   -71.8790     4.6420   -17.6500    57.1030     4.4690     5.7070     5.5170     2.3670 
  202.3750   181.7890   -71.9570     4.6480   -17.6500    53.5720     4.4520     5.6870     5.6560     2.3670 
  202.5000   181.8860   -72.0350     4.6530   -17.6900    50.4500     4.4380     5.6710     5.6460     2.3680 
  202.6250   181.9840   -72.1130     4.6580   -17.7480    48.8990     4.4460     5.6800     5.5340     2.3720 
  202.7500   182.0810   -72.1910     4.6630   -17.7990    48.3960     4.5020     5.7440     5.4190     2.3750 
  202.8750   182.1790   -72.2690     4.6680   -17.8280    49.0240     4.6150     5.8720     5.3750     2.3760 
  203.0000   182.2760   -72.3470     4.6740   -17.8370    50.0270     4.7710     6.0510     5.4960     2.3700 
  203.1250   182.3740   -72.4250     4.6790   -17.8270    51.7050     4.9240     6.2240     5.9160     2.3610 
  203.2500   182.4710   -72.5030     4.6840   -17.7710    52.8770     5.0050     6.3170     6.6000     2.3560 
  203.3750   182.5690   -72.5810     4.6890   -17.6340    53.5650     4.9680     6.2720     6.8400     2.3570 
  203.5000   182.6670   -72.6590     4.6940   -17.3910    52.5850     4.7910     6.0470     6.2560     2.3660 
  203.6250   182.7640   -72.7370     4.7000   -17.0700    48.8630     4.5290     5.6900     5.5100     2.3780 
  203.7500   182.8620   -72.8150     4.7050   -16.7190    44.3440     4.2580     5.3130     4.9880     2.3860 
  203.8750   182.9590   -72.8930     4.7100   -16.3810    40.9730     4.0480     5.0350     4.6230     2.3870 
  204.0000   183.0570   -72.9710     4.7150   -16.0780    40.3820     3.9330     4.8960     4.5660     2.3820 
  204.1250   183.1550   -73.0490     4.7200   -15.8160    39.4220     3.8920     4.8490     4.7760     2.3770 
  204.2500   183.2520   -73.1270     4.7250   -15.6120    38.0690     3.9000     4.8580     4.8820     2.3740 
  204.3750   183.3500   -73.2040     4.7310   -15.4620    35.5370     3.9270     4.8890     4.7250     2.3730 
  204.5000   183.4480   -73.2820     4.7360   -15.3600    34.3000     3.9580     4.9240     4.5240     2.3720 
  204.6250   183.5450   -73.3600     4.7410   -15.2880    33.1600     3.9850     4.9550     4.4650     2.3690 
  204.7500   183.6430   -73.4380     4.7460   -15.2430    33.4540     4.0090     4.9830     4.5350     2.3630 
  204.8750   183.7410   -73.5160     4.7510   -15.2270    34.7420     4.0320     5.0080     4.6170     2.3610 
  205.0000   183.8380   -73.5940     4.7560   -15.2460    37.4960     4.0530     5.0330     4.5890     2.3690 
  205.1250   183.9360   -73.6710     4.7610   -15.2930    39.9170     4.0750     5.0580     4.4560     2.3830 
  205.2500   184.0340   -73.7490     4.7660   -15.3530    40.6330     4.0980     5.0830     4.3440     2.3940 
  205.3750   184.1310   -73.8270     4.7710   -15.4050    40.2470     4.1170     5.1050     4.3280     2.3960 
  205.5000   184.2290   -73.9050     4.7760   -15.4340    39.3050     4.1270     5.1160     4.4090     2.3920 
  205.6250   184.3270   -73.9830     4.7810   -15.4370    38.2650     4.1240     5.1130     4.5820     2.3870 
  205.7500   184.4250   -74.0600     4.7850   -15.4160    37.4650     4.1050     5.0920     4.7470     2.3820 
  205.8750   184.5220   -74.1380     4.7900   -15.3750    37.9100     4.0720     5.0540     4.7690     2.3800 
  206.0000   184.6200   -74.2160     4.7950   -15.3200    38.9860     4.0270     5.0030     4.6670     2.3850 
  206.1250   184.7180   -74.2940     4.8000   -15.2650    38.1920     3.9770     4.9450     4.5510     2.3950 
  206.2500   184.8150   -74.3720     4.8050   -15.2280    37.0560     3.9270     4.8890     4.5090     2.4020 
  206.3750   184.9130   -74.4490     4.8100   -15.2170    35.3930     3.8890     4.8450     4.5210     2.4040 
  206.5000   185.0110   -74.5270     4.8140   -15.2390    35.7010     3.8720     4.8260     4.4730     2.4020 
  206.6250   185.1090   -74.6050     4.8190   -15.3050    36.0890     3.8800     4.8350     4.3870     2.4000 
  206.7500   185.2060   -74.6830     4.8240   -15.4420    38.3900     3.9120     4.8710     4.3540     2.3970 
  206.8750   185.3040   -74.7600     4.8280   -15.6600    40.7180     3.9590     4.9260     4.3820     2.3960 
  207.0000   185.4020   -74.8380     4.8330   -15.9350    41.5000     4.0170     4.9920     4.5120     2.3980 
  207.1250   185.5000   -74.9160     4.8370   -16.2000    41.5930     4.0800     5.0640     4.7230     2.4040 
  207.2500   185.5970   -74.9940     4.8420   -16.4010    41.7140     4.1450     5.1370     4.8910     2.4060 
  207.3750   185.6950   -75.0720     4.8470   -16.5570    43.6320     4.2020     5.2020     4.9630     2.4030 
