~V
VERS. 2.00: Ver 2.00
~W
STRT.M 50.0000:
STOP.M 219.0000:
STEP.M 0.1250:
NULL. -999.2500:
UWI. FD10804:
~C
DEPT.M :
TVD. :
DX. :
DY. :
SP.MV :
GR.API :
RI. :
RML.OHMM :
RXO.OHMM :
DEN.GM/CC :
~A
# ...
  214.2500   207.5450   -31.3490   -25.2130   -90.9090    75.9160     8.8280    10.1610    11.7830     2.5330 
  214.3750   207.6600   -31.3890   -25.2440   -90.9090    75.9160     8.8280    10.1610    12.4000     2.5380 
  214.5000   207.7740   -31.4290   -25.2750   -90.9090    75.9160     8.8280    10.1610    13.3250     2.5520 
  214.6250   207.8880   -31.4690   -25.3070   -90.9090    75.9160     8.8280    10.1610    13.7480     2.5660 
  214.7500   208.0020   -31.5090   -25.3380   -90.9090    75.9160     8.8280    10.1610    14.0620     2.5610 
  214.8750   208.1160   -31.5490   -25.3690   -90.9090    75.9160     8.8280    10.1610    13.2250     2.5480 
  215.0000   208.2310   -31.5890   -25.4010   -90.9090    75.9160     8.8280    10.1610    11.4040     2.5360 
  215.1250   208.3450   -31.6300   -25.4320   -90.9090    75.9160     8.8280    10.1610    10.0860     2.5350 
  215.2500   208.4590   -31.6700   -25.4630   -90.9090    75.9160     8.8280    10.1610     8.9030     2.5350 
  215.3750   208.5730   -31.7100   -25.4950   -90.9090    75.9160     8.8280    10.1610     7.9100     2.5300 
  215.5000   208.6870   -31.7500   -25.5260   -90.9090    75.9160     8.8280    10.1610     7.4080     2.5250 
  215.6250   208.8010   -31.7900   -25.5570   -90.9090    75.9160     8.8280    10.1610     7.5010     2.5210 
  215.7500   208.9160   -31.8300   -25.5890   -90.9090    75.9160     8.8280    10.1610     8.4680     2.5150 
  215.8750   209.0300   -31.8700   -25.6200   -90.9090    75.9160     8.8280    10.1610     9.1630     2.4980 
  216.0000   209.1440   -31.9100   -25.6510   -90.9090    75.9160     8.8280    10.1610     9.0170     2.4700 
  216.1250   209.2580   -31.9500   -25.6820   -90.9090    75.9160     8.8280    10.1610     8.4540     2.4370 
  216.2500   209.3720   -31.9900   -25.7140   -90.9090    75.9160     8.8280    10.1610     7.4640     2.4090 
  216.3750   209.4870   -32.0300   -25.7450   -90.9090    75.9160     8.8280    10.1610     6.9830     2.3820 
  216.5000   209.6010   -32.0700   -25.7760   -90.9090    75.9160     8.8280    10.1610     7.2100     2.3160 
  216.6250   209.7150   -32.1100   -25.8080   -90.9090    75.9160     8.8280    10.1610     6.9920     2.2020 
  216.7500   209.8290   -32.1500   -25.8390   -90.9090    75.9160     8.8280    10.1610     6.3010     2.0680 
  216.8750   209.9430   -32.1900   -25.8700   -90.9090    75.9160     8.8280    10.1610     5.3130     1.9820 
  217.0000   210.0580   -32.2300   -25.9020   -90.9090    75.9160     8.8280    10.1610     4.5420     1.9460 
  217.1250   210.1720   -32.2710   -25.9330   -90.9090    75.9160     8.8280    10.1610     4.4920     1.9480 
  217.2500   210.2860   -32.3110   -25.9640   -90.9090    75.9160     8.8280    10.1610     4.5990     1.9520 
  217.3750   210.4000   -32.3510   -25.9960   -90.9090    75.9160     8.8280    10.1610     4.5990     1.9550 
  217.5000   210.5140   -32.3910   -26.0270   -90.9090    75.9160     8.8280    10.1610     4.5990     1.9550 
  217.6250   210.6290   -32.4310   -26.0580   -90.9090    75.9160     8.8280    10.1610     4.5990     1.9570 
  217.7500   210.7430   -32.4710   -26.0890   -90.9090    75.9160     8.8280    10.1610     4.5980     1.9550 
  217.8750   210.8570   -32.5110   -26.1210   -90.9090    75.9160     8.8280    10.1610     4.5980     1.9530 
  218.0000   210.9710   -32.5510   -26.1520   -90.9090    75.9160     8.8280    10.1610     4.5970     1.9500 
  218.1250   211.0850   -32.5910   -26.1830   -90.9090    75.9160     8.8280    10.1610     4.5960     1.9480 
  218.2500   211.2000   -32.6310   -26.2150   -90.9090    75.9160     8.8280    10.1610     4.5950     1.9450 
  218.3750   211.3140   -32.6710   -26.2460   -90.9090    75.9160     8.8280    10.1610     4.5950     1.9410 
  218.5000   211.4280   -32.7110   -26.2770   -90.9090    75.9160     8.8280    10.1610     4.5940     1.9400 
  218.6250   211.5420   -32.7510   -26.3090   -90.9090    75.9160     8.8280    10.1610     4.5930     1.9420 
  218.7500   211.6560   -32.7910   -26.3400   -90.9090    75.9160     8.8280    10.1610     4.5920     1.9460 
  218.8750   211.7700   -32.8310   -26.3710   -90.9090    75.9160     8.8280    10.1610     4.5910     1.9490 
  219.0000   211.8850   -32.8710   -26.4030   -90.9090    75.9160     8.8280    10.1610     4.5910     1.9520 
