~V
VERS. 2.00: Ver 2.00
~W
STRT.M 15.0000:
STOP.M 282.0000:
STEP.M 0.1250:
NULL. -999.2500:
UWI. FD10218:
~C
DEPT.M :
TVD. :
DX. :
DY. :
DEN.GM/CC :
GR.API :
RML.OHMM :
RI. :
RXO.OHMM :
CALI.CM :
SP.MV :
~A
# ...
  130.5000   130.1310     3.6170     3.5160     2.6060    63.8750    17.7070    17.5570    14.5320    20.6600     1.6420 
  130.6250   130.2530     3.6360     3.5320     2.5920    66.5190    17.4260    17.3400    14.0800    20.6570     1.4700 
  130.7500   130.3760     3.6540     3.5470     2.5710    64.8690    17.0650    16.9960    13.7980    20.6590     1.3040 
  130.8750   130.4990     3.6730     3.5630     2.5480    61.4330    16.7140    16.6270    13.5450    20.6660     1.0930 
  131.0000   130.6210     3.6910     3.5780     2.5280    58.2290    16.4310    16.2950    12.8760    20.6760     0.8690 
  131.1250   130.7440     3.7090     3.5940     2.5230    55.4400    16.2720    16.0810    12.4710    20.6990     0.6500 
  131.2500   130.8670     3.7280     3.6100     2.5360    53.7160    16.2150    16.0020    11.9730    20.7580     0.4180 
  131.3750   130.9890     3.7460     3.6250     2.5660    54.4610    16.2090    16.0110    11.7100    20.9540     0.2420 
  131.5000   131.1120     3.7650     3.6410     2.6000    56.2780    16.1850    16.0100    11.5540    21.3790     0.1080 
  131.6250   131.2340     3.7830     3.6570     2.6170    56.0310    16.0910    15.9060    11.9760    21.9670    -0.0800 
  131.7500   131.3570     3.8010     3.6720     2.6060    54.8740    15.9770    15.7460    12.0420    22.6390    -0.2260 
  131.8750   131.4800     3.8200     3.6880     2.5740    55.8980    15.9340    15.6230    11.6870    23.4770    -0.3400 
  132.0000   131.6020     3.8380     3.7040     2.5390    57.6120    16.0440    15.6410    11.2450    24.4550    -0.4940 
  132.1250   131.7250     3.8560     3.7190     2.5230    56.7210    16.3600    15.8930    11.5670    24.5930    -0.5880 
  132.2500   131.8480     3.8750     3.7350     2.5290    55.8230    16.7880    16.3200    12.1980    23.8840    -0.6790 
  132.3750   131.9700     3.8930     3.7500     2.5480    56.5390    17.2270    16.8280    12.0170    23.1070    -0.8290 
  132.5000   132.0930     3.9120     3.7660     2.5680    56.7340    17.5860    17.3050    11.3150    22.7860    -0.9550 
  132.6250   132.2160     3.9300     3.7820     2.5820    55.1910    17.7940    17.6330    11.2510    22.7580    -0.9930 
  132.7500   132.3380     3.9480     3.7970     2.5860    55.9700    17.8670    17.7990    12.0670    22.6540    -1.0700 
  132.8750   132.4610     3.9670     3.8130     2.5820    59.9640    17.7980    17.8090    13.1350    22.4860    -1.1240 
  133.0000   132.5840     3.9850     3.8290     2.5700    61.3490    17.5670    17.6560    13.7780    22.3710    -1.1180 
  133.1250   132.7060     4.0030     3.8440     2.5500    57.0010    17.1280    17.2850    14.1890    22.4890    -1.1440 
  133.2500   132.8280     4.0230     3.8620     2.5260    54.4720    16.5660    16.7370    13.7680    22.7130    -1.1220 
  133.3750   132.9500     4.0440     3.8800     2.5030    57.7860    16.0080    16.1170    13.5190    22.9620    -1.0320 
  133.5000   133.0720     4.0650     3.8980     2.4860    62.1660    15.6260    15.6020    13.2300    23.1500    -0.9260 
  133.6250   133.1940     4.0850     3.9170     2.4830    60.8760    15.6380    15.4360    12.7600    23.4470    -0.8350 
  133.7500   133.3160     4.1060     3.9350     2.4940    56.1070    16.0410    15.6990    13.4780    23.7470    -0.7570 
  133.8750   133.4380     4.1270     3.9530     2.5190    51.8560    16.7340    16.3970    15.3780    23.7720    -0.7200 
  134.0000   133.5600     4.1470     3.9720     2.5500    49.4640    17.4980    17.3810    16.5740    23.4110    -0.6860 
  134.1250   133.6820     4.1680     3.9900     2.5790    49.1060    18.0020    18.3040    18.1220    23.1090    -0.7030 
  134.2500   133.8040     4.1890     4.0080     2.5950    50.1360    18.0800    18.8660    18.3710    22.9310    -0.8490 
  134.3750   133.9260     4.2090     4.0270     2.5970    52.6740    17.7050    18.9400    17.1960    22.7930    -1.0500 
  134.5000   134.0470     4.2300     4.0450     2.5850    55.9580    16.9780    18.5140    14.5120    22.7080    -1.3240 
  134.6250   134.1690     4.2510     4.0630     2.5590    57.6720    16.0510    17.6860    12.9580    22.7460    -1.6530 
  134.7500   134.2910     4.2710     4.0820     2.5240    58.2410    15.0930    16.7580    13.7380    22.9180    -1.8900 
  134.8750   134.4130     4.2920     4.1000     2.4890    59.9760    14.1160    15.8090    15.0200    23.0620    -2.0960 
  135.0000   134.5350     4.3130     4.1180     2.4640    64.8410    13.0510    14.7580    14.1080    23.0620    -2.3040 
  135.1250   134.6570     4.3330     4.1370     2.4600    70.8590    11.7830    13.4400    12.5470    22.7710    -2.3660 
  135.2500   134.7790     4.3540     4.1550     2.4660    73.7180    10.3610    11.8690    13.7280    22.1770    -2.3340 
  135.3750   134.9010     4.3750     4.1730     2.4610    74.9230     8.9310    10.1830    13.5330    21.5640    -2.3100 
  135.5000   135.0230     4.3950     4.1920     2.4300    81.0850     7.7120     8.6400    10.1440    21.3130    -2.2530 
  135.6250   135.1450     4.4160     4.2100     2.3690    91.2710     7.0300     7.5960     7.8710    21.4750    -2.1610 
  135.7500   135.2660     4.4370     4.2280     2.3080    94.1240     6.9960     7.1420     7.3300    21.7720    -2.1480 
  135.8750   135.3880     4.4570     4.2470     2.2760    87.7090     7.7210     7.3840     7.6660    22.2090    -2.1400 
  136.0000   135.5100     4.4780     4.2650     2.2870    79.8500     9.2580     8.4450     9.0550    22.7170    -2.1100 
  136.1250   135.6320     4.4990     4.2830     2.3450    73.8540    11.5900    10.5720    12.6730    23.0310    -2.1810 
  136.2500   135.7540     4.5190     4.3020     2.4190    65.9120    14.1440    13.4050    17.6400    23.0090    -2.2280 
  136.3750   135.8760     4.5400     4.3200     2.4880    59.0540    16.2770    16.2590    19.6950    22.7390    -2.2200 
  136.5000   135.9980     4.5610     4.3380     2.5330    57.7910    17.4200    18.1610    18.0860    22.5440    -2.2060 
  136.6250   136.1200     4.5810     4.3570     2.5420    60.9900    17.2490    18.3190    16.4720    22.5780    -2.1210 
  136.7500   136.2420     4.6020     4.3750     2.5250    62.0770    16.3930    17.4470    15.6060    22.8640    -2.0030 
  136.8750   136.3640     4.6230     4.3930     2.4900    60.5820    15.4400    16.3060    14.9250    23.0270    -1.9080 
  137.0000   136.4860     4.6430     4.4120     2.4530    59.8120    14.8260    15.4220    14.8560    23.0240    -1.8190 
  137.1250   136.6070     4.6640     4.4300     2.4310    62.9470    14.7970    15.0700    15.4510    22.9050    -1.7360 
  137.2500   136.7290     4.6850     4.4480     2.4320    66.9510    15.1790    15.1370    15.4520    22.5710    -1.7350 
  137.3750   136.8510     4.7050     4.4670     2.4560    68.9080    15.7880    15.5120    15.1760    21.9810    -1.7390 
  137.5000   136.9730     4.7260     4.4850     2.4940    68.7050    16.4150    16.0490    15.0580    21.4360    -1.7430 
  137.6250   137.0950     4.7470     4.5030     2.5310    68.7060    16.8320    16.5440    14.8560    21.0970    -1.8650 
  137.7500   137.2170     4.7670     4.5220     2.5580    67.7650    16.9800    16.8500    14.8230    20.9310    -1.9430 
  137.8750   137.3390     4.7880     4.5400     2.5680    63.6640    16.8940    16.9310    14.7200    20.9200    -1.9810 
  138.0000   137.4610     4.8090     4.5580     2.5630    57.9560    16.6740    16.8320    14.6850    21.1190    -2.0700 
  138.1250   137.5830     4.8290     4.5770     2.5440    56.0930    16.4230    16.6300    14.9320    21.4210    -2.1090 
  138.2500   137.7050     4.8500     4.5950     2.5210    58.3150    16.1930    16.4060    15.3050    21.6500    -2.0970 
  138.3750   137.8260     4.8710     4.6130     2.5010    60.3420    15.9750    16.1730    15.5770    21.6620    -2.1300 
  138.5000   137.9480     4.8910     4.6320     2.4900    57.4760    15.7500    15.9210    15.1990    21.4930    -2.1230 
  138.6250   138.0700     4.9120     4.6500     2.4910    50.2800    15.5140    15.6500    14.2110    21.2960    -2.0140 
