~V
VERS. 2.00: Ver 2.00
~W
STRT.M 27.0000:
STOP.M 267.0000:
STEP.M 0.1250:
NULL. -999.2500:
UWI. FD10204:
~C
DEPT.M :
TVD. :
DX. :
DY. :
GR.API :
RML.OHMM :
RI. :
RXO.OHMM :
CALI.CM :
SP.MV :
DEN.GM/CC :
~A
# ...
  258.0000   247.7040   -21.5920   -55.2570    66.0010    24.7530    23.5900    21.1990    23.0550   -32.3580     2.5890 
  258.1250   247.8190   -21.6100   -55.3010    66.0010    24.8860    23.7070    17.5870    23.7060   -32.5310     2.5950 
  258.2500   247.9350   -21.6280   -55.3460    66.0010    24.9020    23.7200    12.9380    25.0880   -32.6290     2.6100 
  258.3750   248.0510   -21.6460   -55.3900    66.0010    24.9060    23.7190     9.0140    26.7650   -32.6710     2.6080 
  258.5000   248.1660   -21.6630   -55.4340    66.0010    24.9170    23.7200     8.0670    28.1020   -32.7410     2.5680 
  258.6250   248.2820   -21.6810   -55.4780    66.0010    24.9310    23.7190     9.2670    28.7670   -32.8000     2.4930 
  258.7500   248.3970   -21.6990   -55.5230    66.0010    24.9420    23.7150    11.6230    29.0900   -32.7890     2.4100 
  258.8750   248.5130   -21.7170   -55.5670    66.0010    24.9430    23.7110    13.6320    29.0610   -32.7420     2.3420 
  259.0000   248.6280   -21.7350   -55.6110    66.0010    24.9300    23.7070    15.4970    28.5430   -32.7090     2.2990 
  259.1250   248.7440   -21.7530   -55.6550    66.0010    24.8510    23.6450    15.7600    27.7740   -32.7300     2.2820 
  259.2500   248.8590   -21.7710   -55.7000    66.0010    24.6480    23.4500    13.0380    27.3300   -32.8030     2.2790 
  259.3750   248.9750   -21.7890   -55.7440    66.0010    24.5420    23.3450     9.6690    27.3240   -32.8580     2.2860 
  259.5000   249.0900   -21.8070   -55.7880    66.0010    24.5420    23.3450     8.6590    27.5150   -32.8240     2.3030 
  259.6250   249.2060   -21.8250   -55.8320    66.0010    24.5420    23.3450     8.8890    27.8230   -32.7460     2.3270 
  259.7500   249.3210   -21.8430   -55.8770    66.0010    24.5420    23.3450     9.2870    28.1770   -32.6920     2.3500 
  259.8750   249.4370   -21.8600   -55.9210    66.0010    24.5420    23.3450    10.3540    27.7460   -32.6660     2.3650 
  260.0000   249.5520   -21.8790   -55.9660    66.0010    24.5420    23.3450    12.3600    25.8250   -32.6460     2.3670 
  260.1250   249.6670   -21.8970   -56.0100    66.0010    24.5420    23.3450    15.4670    23.2570   -32.6120     2.3620 
  260.2500   249.7830   -21.9150   -56.0550    66.0010    24.5420    23.3450    16.0070    21.9840   -32.5510     2.3600 
  260.3750   249.8980   -21.9330   -56.1000    66.0010    24.5420    23.3450    14.4800    22.4130   -32.5080     2.3660 
  260.5000   250.0130   -21.9510   -56.1450    66.0010    24.5420    23.3450    11.5950    23.5660   -32.4860     2.3780 
  260.6250   250.1290   -21.9700   -56.1890    66.0010    24.5420    23.3450    10.6040    24.3850   -32.4420     2.3870 
  260.7500   250.2440   -21.9880   -56.2340    66.0010    24.5420    23.3450    11.4610    24.8080   -32.3970     2.3890 
  260.8750   250.3590   -22.0060   -56.2790    66.0010    24.5420    23.3450    12.0420    25.0740   -32.3710     2.3840 
  261.0000   250.4740   -22.0240   -56.3240    66.0010    24.5420    23.3450    11.8010    25.3860   -32.3320     2.3800 
  261.1250   250.5900   -22.0420   -56.3680    66.0010    24.5420    23.3450    11.2560    25.8480   -32.2500     2.3860 
  261.2500   250.7050   -22.0610   -56.4130    66.0010    24.5420    23.3450    11.0200    26.4630   -32.1550     2.3980 
  261.3750   250.8200   -22.0790   -56.4580    66.0010    24.5420    23.3450    11.0030    27.2030   -32.0320     2.4080 
  261.5000   250.9360   -22.0970   -56.5030    66.0010    24.5420    23.3450    11.0620    27.9610   -31.9040     2.4060 
  261.6250   251.0510   -22.1150   -56.5470    66.0010    24.5420    23.3450    11.1690    28.4340   -31.8410     2.3900 
  261.7500   251.1660   -22.1330   -56.5920    66.0010    24.5420    23.3450    10.8600    28.5410   -31.7690     2.3690 
  261.8750   251.2820   -22.1510   -56.6370    66.0010    24.5420    23.3450    10.0550    28.4570   -31.6650     2.3510 
  262.0000   251.3970   -22.1700   -56.6820    66.0010    24.5420    23.3450     9.8530    28.4670   -31.6040     2.3310 
  262.1250   251.5120   -22.1880   -56.7260    66.0010    24.5420    23.3450    10.1620    28.2120   -31.6380     2.2990 
  262.2500   251.6270   -22.2060   -56.7710    66.0010    24.5420    23.3450     9.6390    26.7140   -31.7190     2.2510 
  262.3750   251.7430   -22.2240   -56.8160    66.0010    24.5420    23.3450     8.2620    23.4890   -31.8090     2.1950 
  262.5000   251.8580   -22.2420   -56.8610    66.0010    24.5420    23.3450     7.4500    19.4000   -31.8950     2.1430 
  262.6250   251.9730   -22.2610   -56.9050    66.0010    24.5420    23.3450     7.6760    16.4950   -31.9590     2.1100 
  262.7500   252.0890   -22.2790   -56.9500    66.0010    24.5420    23.3450     7.8500    15.3490   -32.0470     2.0990 
  262.8750   252.2040   -22.2970   -56.9950    66.0010    24.5420    23.3450     7.9100    15.2290   -32.1860     2.1090 
  263.0000   252.3190   -22.3150   -57.0390    66.0010    24.5420    23.3450     7.9110    15.3050   -32.3340     2.1330 
  263.1250   252.4440   -22.3150   -57.0390    66.0010    24.5420    23.3450     7.9110    15.2900   -32.3980     2.1610 
  263.2500   252.5690   -22.3150   -57.0390    66.0010    24.5420    23.3450     7.9120    15.2910   -32.4130     2.1850 
  263.3750   252.6940   -22.3150   -57.0390    66.0010    24.5420    23.3450     7.9120    15.2900   -32.4000     2.2010 
  263.5000   252.8190   -22.3150   -57.0390    66.0010    24.5420    23.3450     7.9110    15.2920   -32.4000     2.2080 
  263.6250   252.9440   -22.3150   -57.0390    66.0010    24.5420    23.3450     7.9100    15.2940   -32.3870     2.2080 
  263.7500   253.0690   -22.3150   -57.0390    66.0010    24.5420    23.3450     7.9100    15.2940   -32.3560     2.2060 
  263.8750   253.1940   -22.3150   -57.0390    66.0010    24.5420    23.3450     7.9100    15.2930   -32.2800     2.2060 
  264.0000   253.3190   -22.3150   -57.0390    66.0010    24.5420    23.3450     7.9110    15.2910   -32.1420     2.2060 
  264.1250   253.4440   -22.3150   -57.0390    66.0010    24.5420    23.3450     7.9120    15.2890   -32.0180     2.2050 
  264.2500   253.5690   -22.3150   -57.0390  -999.2500  -999.2500  -999.2500  -999.2500  -999.2500   -31.9430     2.2010 
  264.3750   253.6940   -22.3150   -57.0390  -999.2500  -999.2500  -999.2500  -999.2500  -999.2500   -31.9230     2.1940 
  264.5000   253.8190   -22.3150   -57.0390  -999.2500  -999.2500  -999.2500  -999.2500  -999.2500   -31.9030     2.1880 
  264.6250   253.9440   -22.3150   -57.0390  -999.2500  -999.2500  -999.2500  -999.2500  -999.2500  -999.2500     2.1820 
  264.7500   254.0690   -22.3150   -57.0390  -999.2500  -999.2500  -999.2500  -999.2500  -999.2500  -999.2500     2.1780 
  264.8750   254.1940   -22.3150   -57.0390  -999.2500  -999.2500  -999.2500  -999.2500  -999.2500  -999.2500     2.1760 
  265.0000   254.3190   -22.3150   -57.0390  -999.2500  -999.2500  -999.2500  -999.2500  -999.2500  -999.2500     2.1750 
  265.1250   254.4440   -22.3150   -57.0390  -999.2500  -999.2500  -999.2500  -999.2500  -999.2500  -999.2500  -999.2500 
  265.2500   254.5690   -22.3150   -57.0390  -999.2500  -999.2500  -999.2500  -999.2500  -999.2500  -999.2500  -999.2500 
  265.3750   254.6940   -22.3150   -57.0390  -999.2500  -999.2500  -999.2500  -999.2500  -999.2500  -999.2500  -999.2500 
  265.5000   254.8190   -22.3150   -57.0390  -999.2500  -999.2500  -999.2500  -999.2500  -999.2500  -999.2500  -999.2500 
  265.6250   254.9440   -22.3150   -57.0390  -999.2500  -999.2500  -999.2500  -999.2500  -999.2500  -999.2500  -999.2500 
  265.7500   255.0690   -22.3150   -57.0390  -999.2500  -999.2500  -999.2500  -999.2500  -999.2500  -999.2500  -999.2500 
  265.8750   255.1940   -22.3150   -57.0390  -999.2500  -999.2500  -999.2500  -999.2500  -999.2500  -999.2500  -999.2500 
  266.0000   255.3190   -22.3150   -57.0390  -999.2500  -999.2500  -999.2500  -999.2500  -999.2500  -999.2500  -999.2500 
  266.1250   255.4440   -22.3150   -57.0390  -999.2500  -999.2500  -999.2500  -999.2500  -999.2500  -999.2500  -999.2500 
