~V
VERS. 2.00: Ver 2.00
~W
STRT.M 25.0000:
STOP.M 295.0000:
STEP.M 0.1250:
NULL. -999.2500:
UWI. FD10906:
~C
DEPT.M :
TVD. :
DX. :
DY. :
SP.MV :
GR.API :
RI. :
RML.OHMM :
RXO.OHMM :
DEN.GM/CC :
~A
# ...
  289.6250   250.9710  -125.0560     6.9170   -16.7980    56.4520     2.4370     2.9040     3.0940     2.3130 
  289.7500   251.0710  -125.1310     6.9210   -16.7980    56.4520     2.4370     2.9040     3.0600     2.3120 
  289.8750   251.1700  -125.2070     6.9260   -16.7980    56.4520     2.4370     2.9040     2.9890     2.3050 
  290.0000   251.2700  -125.2830     6.9300   -16.7980    56.4520     2.4370     2.9040     2.8880     2.2880 
  290.1250   251.3690  -125.3580     6.9340   -16.7980    56.4520     2.4370     2.9040     2.7840     2.2670 
  290.2500   251.4690  -125.4340     6.9390   -16.7980    56.4520     2.4370     2.9040     2.7070     2.2480 
  290.3750   251.5680  -125.5100     6.9430   -16.7980    56.4520     2.4370     2.9040     2.6710     2.2380 
  290.5000   251.6670  -125.5850     6.9470   -16.7980    56.4520     2.4370     2.9040     2.6750     2.2310 
  290.6250   251.7670  -125.6610     6.9520   -16.7980    56.4520     2.4370     2.9040     2.6990     2.2230 
  290.7500   251.8660  -125.7360     6.9560   -16.7980    56.4520     2.4370     2.9040     2.7240     2.2100 
  290.8750   251.9660  -125.8120     6.9610   -16.7980    56.4520     2.4370     2.9040     2.7630     2.1920 
  291.0000   252.0650  -125.8880     6.9650   -16.7980    56.4520     2.4370     2.9040     2.8660     2.1620 
  291.1250   252.1640  -125.9630     6.9690   -16.7980    56.4520     2.4370     2.9040     3.0760     2.1280 
  291.2500   252.2640  -126.0390     6.9740   -16.7980    56.4520     2.4370     2.9040     3.3910     2.1020 
  291.3750   252.3630  -126.1150     6.9780   -16.7980    56.4520     2.4370     2.9040     3.7240     2.0890 
  291.5000   252.4630  -126.1900     6.9820   -16.7980    56.4520     2.4370     2.9040     3.9730     2.0910 
  291.6250   252.5620  -126.2660     6.9870   -16.7980    56.4520     2.4370     2.9040     4.1100     2.1040 
  291.7500   252.6620  -126.3420     6.9910   -16.7980    56.4520     2.4370     2.9040     4.1540     2.1260 
  291.8750   252.7610  -126.4170     6.9960   -16.7980    56.4520     2.4370     2.9040     4.1610     2.1480 
  292.0000   252.8600  -126.4930     7.0000   -16.7980    56.4520     2.4370     2.9040     4.1610     2.1600 
  292.1250   252.9600  -126.5680     7.0040   -16.7980    56.4520     2.4370     2.9040     4.1610     2.1630 
  292.2500   253.0590  -126.6440     7.0090   -16.7980    56.4520     2.4370     2.9040     4.1610     2.1620 
  292.3750   253.1590  -126.7200     7.0130   -16.7980    56.4520     2.4370     2.9040     4.1610     2.1620 
  292.5000   253.2580  -126.7950     7.0170   -16.7980    56.4520     2.4370     2.9040     4.1610     2.1620 
  292.6250   253.3580  -126.8710     7.0220   -16.7980    56.4520     2.4370     2.9040     4.1610     2.1610 
  292.7500   253.4570  -126.9470     7.0260   -16.7980    56.4520     2.4370     2.9040     4.1610     2.1610 
  292.8750   253.5560  -127.0220     7.0300   -16.7980    56.4520     2.4370     2.9040     4.1610     2.1610 
  293.0000   253.6560  -127.0980     7.0350   -16.7980    56.4520     2.4370     2.9040     4.1610     2.1600 
  293.1250   253.7550  -127.1740     7.0390   -16.7980    56.4520     2.4370     2.9040     4.1610     2.1580 
  293.2500   253.8550  -127.2490     7.0440   -16.7980    56.4520     2.4370     2.9040     4.1610     2.1560 
  293.3750   253.9540  -127.3250     7.0480   -16.7980    56.4520     2.4370     2.9040     4.1610     2.1530 
  293.5000   254.0530  -127.4010     7.0520   -16.7980    56.4520     2.4370     2.9040     4.1610     2.1530 
  293.6250   254.1530  -127.4760     7.0570   -16.7980    56.4520     2.4370     2.9040     4.1610     2.1540 
  293.7500   254.2520  -127.5520     7.0610   -16.7980    56.4520     2.4370     2.9040     4.1610     2.1580 
  293.8750   254.3520  -127.6270     7.0650   -16.7980    56.4520     2.4370     2.9040     4.1610     2.1620 
  294.0000   254.4510  -127.7030     7.0700   -16.7980    56.4520     2.4370     2.9040     4.1610     2.1630 
  294.1250   254.5510  -127.7790     7.0740   -16.7980    56.4520     2.4370     2.9040     4.1610     2.1610 
  294.2500   254.6500  -127.8540     7.0790   -16.7980    56.4520     2.4370     2.9040     4.1610     2.1560 
  294.3750   254.7490  -127.9300     7.0830   -16.7980    56.4520     2.4370     2.9040     4.1610     2.1520 
  294.5000   254.8490  -128.0060     7.0870   -16.7980    56.4520     2.4370     2.9040     4.1610     2.1540 
  294.6250   254.9480  -128.0810     7.0920   -16.7980    56.4520     2.4370     2.9030     4.1610     2.1570 
  294.7500   255.0480  -128.1570     7.0960   -16.7980    56.4520     2.4370     2.9000     4.1610     2.1450 
  294.8750   255.1470  -128.2330     7.1000   -16.7980    56.4520     2.4380     2.8980     4.1610     2.1040 
  295.0000   255.2470  -128.3080     7.1050   -16.2780    56.4520     2.4420     2.8970     4.1610     2.0370 
