~V
VERS. 2.00: Ver 2.00
~W
STRT.M 15.0000:
STOP.M 282.0000:
STEP.M 0.1250:
NULL. -999.2500:
UWI. FD10218:
~C
DEPT.M :
TVD. :
DX. :
DY. :
DEN.GM/CC :
GR.API :
RML.OHMM :
RI. :
RXO.OHMM :
CALI.CM :
SP.MV :
~A
# ...
  188.2500   185.6510    15.1620    14.2160     2.2190    67.2680   154.7840   139.4210    24.3300    19.3790   -29.8030 
  188.3750   185.7700    15.1900    14.2430     2.2120    67.6660   153.2070   137.8140    23.8970    19.3810   -29.7700 
  188.5000   185.8880    15.2190    14.2700     2.2070    72.0790   154.3230   138.3960    24.0910    19.3790   -29.7440 
  188.6250   186.0070    15.2480    14.2970     2.2050    76.2860   159.5110   142.6910    23.3460    19.3810   -29.6640 
  188.7500   186.1250    15.2760    14.3240     2.2030    76.0190   168.0520   150.5210    22.8830    19.3860   -29.5870 
  188.8750   186.2440    15.3050    14.3520     2.2020    72.6740   178.2610   160.8720    23.5690    19.3870   -29.4690 
  189.0000   186.3630    15.3330    14.3790     2.1990    68.3580   186.7250   170.8920    24.2410    19.3870   -29.3510 
  189.1250   186.4810    15.3620    14.4060     2.1990    64.1680   187.7100   174.6370    23.8520    19.3850   -29.2580 
  189.2500   186.6000    15.3910    14.4330     2.2020    61.7700   180.0510   169.2760    23.1430    19.3850   -29.2390 
  189.3750   186.7180    15.4190    14.4600     2.2090    62.8740   165.9860   156.0420    22.1610    19.3850   -29.2390 
  189.5000   186.8370    15.4480    14.4870     2.2170    65.5370   150.6310   140.0150    21.1320    19.3830   -29.2810 
  189.6250   186.9560    15.4760    14.5150     2.2210    66.8290   140.7380   128.1590    20.4510    19.3810   -29.2930 
  189.7500   187.0740    15.5050    14.5420     2.2170    68.6750   139.2290   123.9780    19.8280    19.3810   -29.2770 
  189.8750   187.1920    15.5340    14.5700     2.2090    71.3220   147.3050   129.1910    19.9150    19.3770   -29.2660 
  190.0000   187.3110    15.5630    14.5990     2.2000    71.2480   164.6900   144.2870    20.6420    19.3730   -29.2540 
  190.1250   187.4290    15.5920    14.6280     2.1940    66.8720   188.3460   168.6250    21.3990    19.3740   -29.2610 
  190.2500   187.5470    15.6210    14.6560     2.1920    64.4660   207.4750   193.3650    22.0060    19.3770   -29.1920 
  190.3750   187.6650    15.6500    14.6850     2.1950    66.1030   210.8220   205.9550    22.1040    19.3800   -29.1910 
  190.5000   187.7830    15.6790    14.7130     2.2020    67.5790   192.5080   195.5040    21.6990    19.3820   -29.1600 
  190.6250   187.9020    15.7070    14.7420     2.2180    66.9610   157.4330   162.5390    22.4940    19.3850   -29.2130 
  190.7500   188.0200    15.7360    14.7710     2.2400    67.3700   123.2930   126.2460    22.9930    19.3880   -29.2380 
  190.8750   188.1380    15.7650    14.7990     2.2650    69.0070    98.6270    97.2530    22.3000    19.3930   -29.2730 
  191.0000   188.2560    15.7940    14.8280     2.2830    71.3570    83.9800    78.7510    20.8780    19.4130   -29.2430 
  191.1250   188.3740    15.8230    14.8560     2.2880    74.5110    77.2130    70.5870    20.0320    19.4750   -29.1630 
  191.2500   188.4930    15.8520    14.8850     2.2820    76.8170    74.9940    68.2380    19.6880    19.5430   -29.1200 
  191.3750   188.6110    15.8810    14.9140     2.2730    78.3060    75.9260    69.3640    19.9920    19.5820   -29.0080 
  191.5000   188.7290    15.9100    14.9420     2.2660    77.4750    78.1170    72.0930    20.4760    19.6000   -28.9110 
  191.6250   188.8470    15.9390    14.9710     2.2640    74.6250    80.3760    74.9310    19.5690    19.6220   -28.7250 
  191.7500   188.9650    15.9680    15.0000     2.2630    72.8890    82.6340    77.4420    18.5070    19.6540   -28.5440 
  191.8750   189.0840    15.9970    15.0280     2.2580    73.9080    85.5000    80.2190    18.0160    19.6810   -28.3540 
  192.0000   189.2020    16.0260    15.0570     2.2510    76.6360    89.6830    84.0530    18.0080    19.7140   -28.2380 
  192.1250   189.3200    16.0550    15.0850     2.2470    76.8740    96.0260    89.7070    17.3550    19.7320   -28.1520 
  192.2500   189.4380    16.0840    15.1140     2.2460    75.5840   104.5560    97.1190    16.7880    19.7390   -28.0530 
  192.3750   189.5560    16.1120    15.1430     2.2470    74.5830   115.3040   106.6340    16.7200    19.7390   -27.9510 
  192.5000   189.6740    16.1410    15.1710     2.2440    73.1060   126.9560   118.7730    16.7820    19.7330   -27.8930 
  192.6250   189.7930    16.1700    15.2000     2.2350    70.5720   133.5230   130.3400    16.7890    19.7250   -27.9010 
  192.7500   189.9110    16.1990    15.2290     2.2270    68.2390   128.5980   131.9530    16.8560    19.7240   -27.9110 
  192.8750   190.0290    16.2280    15.2570     2.2300    68.0360   110.3010   116.8490    16.8600    19.7320   -27.9120 
  193.0000   190.1470    16.2570    15.2860     2.2460    70.9120    84.1080    89.7340    16.8290    19.7330   -27.9340 
  193.1250   190.2650    16.2860    15.3140     2.2670    75.3660    60.9880    64.2680    16.5320    19.7210   -27.9840 
  193.2500   190.3840    16.3150    15.3430     2.2790    81.0120    47.0270    47.8590    15.7790    19.6890   -28.0700 
  193.3750   190.5020    16.3440    15.3720     2.2760    85.2600    42.1580    41.0000    14.7410    19.6520   -28.2660 
  193.5000   190.6200    16.3730    15.4000     2.2610    83.7330    43.5540    41.6670    15.2900    19.6580   -28.4380 
  193.6250   190.7380    16.4020    15.4290     2.2500    76.9410    47.5940    46.9370    17.1830    19.7070   -28.6680 
  193.7500   190.8560    16.4310    15.4570     2.2560    72.9820    50.1960    52.0730    18.0410    19.7340   -28.9650 
  193.8750   190.9750    16.4600    15.4860     2.2780    74.9640    49.3350    53.5000    17.6970    19.7530   -29.3670 
  194.0000   191.0930    16.4890    15.5150     2.3070    78.7050    45.0100    49.6690    16.6570    19.7920   -29.7240 
  194.1250   191.2110    16.5180    15.5430     2.3290    80.3460    39.2860    42.8360    16.1750    19.8550   -30.0560 
  194.2500   191.3290    16.5460    15.5720     2.3370    81.8520    34.9570    37.3360    15.9100    19.8860   -30.3420 
  194.3750   191.4470    16.5750    15.6010     2.3300    84.0320    33.0950    34.6300    15.8440    19.9000   -30.5270 
  194.5000   191.5650    16.6040    15.6290     2.3140    84.6690    33.6280    34.5190    15.5950    19.9230   -30.7220 
  194.6250   191.6840    16.6330    15.6580     2.2980    80.0880    36.2260    36.5950    15.0640    19.9400   -30.8830 
  194.7500   191.8020    16.6620    15.6860     2.2870    73.9080    40.1210    39.9330    15.0040    19.9430   -30.9960 
  194.8750   191.9200    16.6910    15.7150     2.2800    70.4800    45.2720    44.1770    15.2980    19.9410   -30.9980 
  195.0000   192.0380    16.7200    15.7440     2.2710    72.0790    52.0450    49.3950    14.9980    19.9360   -31.0070 
  195.1250   192.1560    16.7490    15.7720     2.2550    76.1420    61.6990    56.8460    14.4290    19.9360   -31.0270 
  195.2500   192.2750    16.7780    15.8010     2.2310    77.0590    74.6290    67.6770    14.8530    19.9540   -31.0760 
  195.3750   192.3930    16.8070    15.8300     2.2040    73.5050    90.7070    82.5960    16.2020    20.0370   -31.1240 
  195.5000   192.5110    16.8360    15.8580     2.1800    69.2760   108.1950   100.4680    17.9460    20.1910   -31.1630 
  195.6250   192.6290    16.8650    15.8870     2.1680    68.5940   122.4120   116.4320    18.6750    20.2550   -31.1500 
  195.7500   192.7470    16.8940    15.9150     2.1680    70.7720   129.3940   124.7570    17.9430    20.0780   -31.1370 
  195.8750   192.8660    16.9230    15.9440     2.1770    73.7610   127.9270   123.2330    16.6360    19.8110   -31.1660 
  196.0000   192.9840    16.9510    15.9730     2.1920    76.0570   120.2550   114.5130    15.6890    19.5310   -31.2520 
  196.1250   193.1020    16.9800    16.0010     2.2050    77.9050   110.7870   103.9870    15.5410    19.4150   -31.3550 
  196.2500   193.2200    17.0090    16.0300     2.2130    79.0220   103.2860    95.7070    15.5380    19.3850   -31.4370 
  196.3750   193.3380    17.0380    16.0580     2.2170    78.0730    98.6960    90.5000    15.4540    19.3820   -31.5510 
