~V
VERS. 2.00: Ver 2.00
~W
STRT.M 30.0000:
STOP.M 223.0000:
STEP.M 0.1250:
NULL. -999.2500:
UWI. FD10814:
~C
DEPT.M :
TVD. :
DX. :
DY. :
SP.MV :
GR.API :
RI. :
RML.OHMM :
RXO.OHMM :
DEN.GM/CC :
~A
# ...
  112.1250   109.9590    -0.6030    13.4880   -13.2270   110.8880     4.2650     4.5910     4.1210     2.2510 
  112.2500   110.0720    -0.6030    13.5430   -13.5970   108.8140     4.2930     4.6680     4.2470     2.2560 
  112.3750   110.1840    -0.6040    13.5970   -13.9290   106.2930     4.2740     4.7040     4.2980     2.2590 
  112.5000   110.2970    -0.6060    13.6520   -14.1660   105.8180     4.2020     4.6910     4.2500     2.2600 
  112.6250   110.4090    -0.6070    13.7060   -14.2830   105.7710     4.1050     4.6530     4.2070     2.2560 
  112.7500   110.5220    -0.6080    13.7610   -14.3760   106.3330     4.0080     4.6090     4.1980     2.2540 
  112.8750   110.6340    -0.6090    13.8160   -14.4600   105.9030     3.9220     4.5600     4.1110     2.2520 
  113.0000   110.7460    -0.6100    13.8710   -14.6060   106.1770     3.8680     4.5280     4.1840     2.2520 
  113.1250   110.8590    -0.6110    13.9260   -14.7680   105.7890     3.8770     4.5910     4.5480     2.2560 
  113.2500   110.9710    -0.6120    13.9810   -14.9680   104.2710     4.1300     4.9200     4.6460     2.2730 
  113.3750   111.0830    -0.6130    14.0360   -15.1610    99.3030     4.7660     5.7630     4.6500     2.3110 
  113.5000   111.1950    -0.6150    14.0910   -15.4390    90.9270     5.9390     7.2400     5.2230     2.3680 
  113.6250   111.3070    -0.6160    14.1460   -15.8200    82.7540     7.6760     9.3450     7.2960     2.4300 
  113.7500   111.4200    -0.6170    14.2010   -16.3230    77.6770     9.6510    11.7130    11.7390     2.4540 
  113.8750   111.5320    -0.6180    14.2560   -16.9730    76.8570    11.4830    13.7430    16.0300     2.3990 
  114.0000   111.6440    -0.6200    14.3120   -17.7060    77.7440    12.5690    14.9500    16.3030     2.2820 
  114.1250   111.7560    -0.6210    14.3670   -18.3620    78.7660    12.9960    15.3920    14.1130     2.1700 
  114.2500   111.8680    -0.6220    14.4230   -18.8960    80.3400    13.1320    15.5610    13.7770     2.1060 
  114.3750   111.9800    -0.6230    14.4780   -19.3330    81.2370    13.4260    15.9400    15.1330     2.0860 
  114.5000   112.0920    -0.6240    14.5340   -19.6620    81.9180    14.0130    16.6230    15.8840     2.0780 
  114.6250   112.2040    -0.6260    14.5890   -19.9130    82.5040    14.6530    17.3060    15.9520     2.0740 
  114.7500   112.3160    -0.6270    14.6450   -20.0110    82.1340    15.0850    17.7550    16.4290     2.0740 
  114.8750   112.4270    -0.6280    14.7010   -20.0070    80.8910    15.3380    17.9870    17.3310     2.0760 
  115.0000   112.5390    -0.6300    14.7570   -19.9190    77.8520    15.5640    18.1830    15.9470     2.0790 
  115.1250   112.6510    -0.6310    14.8120   -19.8490    75.2420    15.8980    18.5220    12.4370     2.0840 
  115.2500   112.7630    -0.6320    14.8680   -19.7450    73.1000    16.4290    19.0880    12.0830     2.0890 
  115.3750   112.8750    -0.6330    14.9240   -19.6230    72.6120    17.2140    19.9150    14.3230     2.0910 
  115.5000   112.9870    -0.6340    14.9800   -19.4940    73.4990    18.0590    20.8680    15.1010     2.0880 
  115.6250   113.0990    -0.6360    15.0360   -19.3120    73.3200    18.8660    21.8150    16.2230     2.0820 
  115.7500   113.2100    -0.6370    15.0910   -19.0730    71.0970    19.4740    22.3760    18.1250     2.0820 
  115.8750   113.3220    -0.6380    15.1470   -18.7030    67.8350    18.9270    21.5780    18.4860     2.0960 
  116.0000   113.4340    -0.6390    15.2030   -18.2720    66.7700    17.0460    19.2890    18.2220     2.1320 
  116.1250   113.5460    -0.6410    15.2590   -17.7160    68.3690    14.3970    16.0880    18.1820     2.1840 
  116.2500   113.6580    -0.6420    15.3150   -17.0950    70.4250    11.7830    13.0800    17.2020     2.2350 
  116.3750   113.7700    -0.6430    15.3700   -16.4760    72.5700    10.3550    11.4230    13.2570     2.2840 
  116.5000   113.8810    -0.6440    15.4260   -15.9080    73.8280    10.1340    11.2580     8.8080     2.3450 
  116.6250   113.9930    -0.6460    15.4820   -15.3780    73.0940    11.2980    12.7250    10.1440     2.4260 
  116.7500   114.1050    -0.6470    15.5380   -14.9340    69.2280    13.6940    15.4910    15.0480     2.4930 
  116.8750   114.2170    -0.6480    15.5940   -14.6540    62.9360    16.7030    18.7680    17.3880     2.5220 
  117.0000   114.3290    -0.6490    15.6500   -14.4490    57.9080    19.2990    21.4670    17.3190     2.5170 
  117.1250   114.4410    -0.6510    15.7060   -14.2810    54.9440    20.3140    22.2150    17.4970     2.5040 
  117.2500   114.5520    -0.6520    15.7610   -14.1400    54.4380    19.0510    20.6690    18.2070     2.4870 
  117.3750   114.6640    -0.6530    15.8170   -14.1770    55.8650    16.3720    17.6020    17.5880     2.4550 
  117.5000   114.7760    -0.6540    15.8730   -14.2310    59.3050    13.3210    14.2930    15.7910     2.4030 
  117.6250   114.8880    -0.6560    15.9290   -14.3660    63.0630    11.1580    12.0260    12.6900     2.3570 
  117.7500   115.0000    -0.6570    15.9850   -14.5220    64.9130    10.4180    11.3500     8.7640     2.3470 
  117.8750   115.1110    -0.6580    16.0410   -14.5550    62.8200    11.1770    12.4920     8.5460     2.3910 
  118.0000   115.2230    -0.6600    16.0970   -14.4570    59.5330    13.3600    15.3450    13.4510     2.4600 
  118.1250   115.3350    -0.6610    16.1520   -14.3120    57.4110    17.0740    19.6330    18.6000     2.5130 
  118.2500   115.4470    -0.6620    16.2080   -14.2190    56.3770    21.0270    24.0000    20.7080     2.5370 
  118.3750   115.5590    -0.6640    16.2640   -14.1120    54.8520    23.8670    26.9760    21.0770     2.5440 
  118.5000   115.6710    -0.6650    16.3200   -14.0960    53.0240    25.0740    28.0300    22.1850     2.5440 
  118.6250   115.7820    -0.6660    16.3760   -14.1880    52.0520    24.5500    27.3110    23.4010     2.5320 
  118.7500   115.8940    -0.6680    16.4310   -14.3770    52.6270    23.4450    25.9180    20.7330     2.5030 
  118.8750   116.0060    -0.6690    16.4870   -14.4910    53.5110    22.3090    24.6280    17.2940     2.4790 
  119.0000   116.1180    -0.6700    16.5430   -14.6010    54.3840    21.5580    23.8550    17.3430     2.4740 
  119.1250   116.2300    -0.6720    16.5990   -14.6650    54.2120    21.3120    23.7570    17.9060     2.4870 
  119.2500   116.3420    -0.6730    16.6540   -14.6980    52.8710    21.5050    24.1020    17.9170     2.4980 
  119.3750   116.4540    -0.6740    16.7100   -14.7780    50.9840    21.7600    24.4930    19.3660     2.4970 
  119.5000   116.5660    -0.6760    16.7660   -14.8610    48.9650    21.7740    24.5880    20.5370     2.4900 
  119.6250   116.6770    -0.6770    16.8210   -14.8860    47.6850    21.4190    24.2430    19.7360     2.4760 
  119.7500   116.7890    -0.6790    16.8770   -14.8030    46.4040    20.8560    23.6060    18.7780     2.4640 
  119.8750   116.9010    -0.6800    16.9330   -14.7190    45.4520    20.1730    22.8790    17.9290     2.4590 
  120.0000   117.0130    -0.6810    16.9890   -14.6360    45.3390    19.7290    22.3990    16.7590     2.4720 
  120.1250   117.1250    -0.6830    17.0450   -14.5610    45.9580    19.6720    22.4080    16.1610     2.4920 
  120.2500   117.2370    -0.6840    17.1010   -14.4760    46.9720    20.0050    22.8700    17.0820     2.5100 
  120.3750   117.3480    -0.6860    17.1570   -14.4170    47.8360    20.5910    23.5970    19.0530     2.5220 
  120.5000   117.4600    -0.6870    17.2130   -14.3200    49.0760    21.0770    24.0980    21.2530     2.5250 
  120.6250   117.5720    -0.6890    17.2690   -14.2570    50.9050    20.8910    23.8040    22.1750     2.5220 
  120.7500   117.6840    -0.6900    17.3250   -14.2820    51.6770    20.0130    22.6880    20.0940     2.5110 
  120.8750   117.7950    -0.6920    17.3810   -14.3380    52.1590    18.5820    21.0120    16.3180     2.5050 
  121.0000   117.9070    -0.6930    17.4370   -14.3970    52.1730    17.1480    19.3630    13.9740     2.5000 
  121.1250   118.0190    -0.6950    17.4930   -14.3640    52.5710    16.0160    18.1300    13.7640     2.4990 
