~V
VERS. 2.00: Ver 2.00
~W
STRT.M 27.0000:
STOP.M 267.0000:
STEP.M 0.1250:
NULL. -999.2500:
UWI. FD10204:
~C
DEPT.M :
TVD. :
DX. :
DY. :
GR.API :
RML.OHMM :
RI. :
RXO.OHMM :
CALI.CM :
SP.MV :
DEN.GM/CC :
~A
# ...
  117.7500   116.8300    -3.6670    -8.2550    66.6810     8.9820     7.2390     7.7780    21.1450   -31.6340     2.1870 
  117.8750   116.9500    -3.6790    -8.2890    68.4640     8.9230     7.2010     7.6670    21.1110   -31.3740     2.1850 
  118.0000   117.0700    -3.6900    -8.3220    72.8810     8.8080     7.1270     7.4840    21.0830   -31.1970     2.1890 
  118.1250   117.1900    -3.7020    -8.3550    75.4000     8.6910     7.0510     7.2160    21.0800   -31.1250     2.1950 
  118.2500   117.3100    -3.7140    -8.3890    75.0990     8.5970     6.9930     7.1900    21.0850   -31.1410     2.1990 
  118.3750   117.4290    -3.7260    -8.4220    74.2870     8.5120     6.9500     7.3440    21.0860   -31.2360     2.1980 
  118.5000   117.5480    -3.7380    -8.4590    74.3330     8.4150     6.9060     7.5410    21.0870   -31.3970     2.1920 
  118.6250   117.6660    -3.7500    -8.4990    73.5080     8.2900     6.8460     7.5420    21.0870   -31.5480     2.1830 
  118.7500   117.7840    -3.7620    -8.5380    71.6870     8.1600     6.7730     7.3330    21.0840   -31.6740     2.1780 
  118.8750   117.9020    -3.7750    -8.5770    71.8380     8.0510     6.7010     7.0970    21.0800   -31.7960     2.1790 
  119.0000   118.0200    -3.7870    -8.6160    75.4320     7.9790     6.6440     6.9140    21.0820   -31.9390     2.1880 
  119.1250   118.1380    -3.7990    -8.6550    79.2410     7.9270     6.6030     6.8030    21.0850   -32.1490     2.2000 
  119.2500   118.2560    -3.8110    -8.6950    82.8030     7.8340     6.5460     6.7020    21.0830   -32.4670     2.2110 
  119.3750   118.3740    -3.8240    -8.7340    85.8600     7.6550     6.4360     6.6260    21.0790   -32.8610     2.2190 
  119.5000   118.4920    -3.8360    -8.7730    87.7060     7.3760     6.2550     6.5150    21.1020   -33.2870     2.2250 
  119.6250   118.6100    -3.8480    -8.8120    89.0310     7.0360     6.0090     6.1400    21.1850   -33.8270     2.2340 
  119.7500   118.7280    -3.8600    -8.8520    88.9330     6.7200     5.7580     5.4730    21.2890   -34.4520     2.2450 
  119.8750   118.8460    -3.8720    -8.8910    87.0490     6.4900     5.5510     4.9520    21.3590   -35.0680     2.2570 
  120.0000   118.9650    -3.8850    -8.9300    84.4350     6.3670     5.4170     4.7550    21.3790   -35.6290     2.2680 
  120.1250   119.0830    -3.8970    -8.9690    82.8960     6.3240     5.3690     4.9210    21.3710   -36.1360     2.2760 
  120.2500   119.2010    -3.9090    -9.0080    84.5640     6.2750     5.3640     4.9920    21.3660   -36.5260     2.2800 
  120.3750   119.3190    -3.9210    -9.0480    86.9920     6.1860     5.3680     5.0390    21.3650   -36.7470     2.2840 
  120.5000   119.4370    -3.9330    -9.0870    88.0290     6.0680     5.3620     4.9480    21.3680   -36.7940     2.2870 
  120.6250   119.5550    -3.9460    -9.1260    85.8740     5.9900     5.3570     4.7330    21.3720   -36.6050     2.2900 
  120.7500   119.6730    -3.9580    -9.1650    84.0500     5.9950     5.3770     4.6860    21.3740   -36.2350     2.2930 
  120.8750   119.7910    -3.9700    -9.2040    84.2350     6.0820     5.4270     4.9130    21.3740   -35.7240     2.2940 
  121.0000   119.9090    -3.9820    -9.2440    83.8700     6.2340     5.5120     5.6040    21.3710   -35.1200     2.2910 
  121.1250   120.0270    -3.9940    -9.2830    80.5330     6.4700     5.6610     6.3670    21.3660   -34.5140     2.2790 
  121.2500   120.1450    -4.0070    -9.3220    76.5280     6.7780     5.8630     6.5310    21.3600   -33.9660     2.2600 
  121.3750   120.2630    -4.0190    -9.3610    73.5610     7.0720     6.0560     5.8930    21.3500   -33.4780     2.2390 
  121.5000   120.3810    -4.0310    -9.4000    73.3240     7.1870     6.1240     5.7790    21.3400   -33.0690     2.2340 
  121.6250   120.4990    -4.0430    -9.4400    75.8590     6.9260     5.9250     7.0310    21.3470   -32.8150     2.2710 
  121.7500   120.6170    -4.0550    -9.4790    78.3480     6.4280     5.5470     8.0460    21.3950   -32.6470     2.3460 
  121.8750   120.7350    -4.0680    -9.5180    79.3180     5.9520     5.1660     6.7510    21.4910   -32.5020     2.4260 
  122.0000   120.8530    -4.0800    -9.5570    77.7360     5.7720     4.9850     4.9830    21.5980   -32.3350     2.4680 
  122.1250   120.9710    -4.0920    -9.5960    72.7070     6.1250     5.2050     4.4450    21.6550   -32.0710     2.4460 
  122.2500   121.0890    -4.1040    -9.6360    67.4920     6.9160     5.7940     4.6680    21.6630   -31.6570     2.3890 
  122.3750   121.2070    -4.1160    -9.6750    65.7860     8.0000     6.6730     5.4430    21.6500   -31.1100     2.3260 
  122.5000   121.3260    -4.1290    -9.7140    66.8950     9.1360     7.6760     6.5680    21.6570   -30.5330     2.2780 
  122.6250   121.4440    -4.1410    -9.7530    65.4990     9.9370     8.4990     7.9370    21.7740   -29.9330     2.2560 
  122.7500   121.5620    -4.1530    -9.7920    62.2390    10.2000     8.9250     9.4340    21.9910   -29.2970     2.2570 
  122.8750   121.6800    -4.1650    -9.8320    61.9600     9.9210     8.8950    10.5880    22.1250   -28.6600     2.2780 
  123.0000   121.7980    -4.1770    -9.8710    64.7490     9.3020     8.5230    10.8880    21.9920   -28.0720     2.3060 
  123.1250   121.9160    -4.1900    -9.9100    66.1920     8.6650     8.0270     9.9160    21.6570   -27.5650     2.3210 
  123.2500   122.0340    -4.2020    -9.9490    66.5180     8.2500     7.6300     8.6330    21.4220   -27.1230     2.3150 
  123.3750   122.1520    -4.2140    -9.9880    66.4910     8.1330     7.4330     7.8100    21.3590   -26.7810     2.2940 
  123.5000   122.2700    -4.2260   -10.0280    66.4050     8.2830     7.4600     7.3840    21.3760   -26.5210     2.2760 
  123.6250   122.3880    -4.2380   -10.0670    65.3790     8.6030     7.6810     7.1880    21.3520   -26.2670     2.2750 
  123.7500   122.5060    -4.2510   -10.1060    63.2340     8.9060     7.9490     7.2410    21.2850   -26.0560     2.2810 
  123.8750   122.6240    -4.2630   -10.1450    60.9290     9.0610     8.1420     7.6150    21.2080   -25.9690     2.2820 
  124.0000   122.7420    -4.2750   -10.1850    60.4400     8.9960     8.1720     8.2370    21.1580   -26.0130     2.2700 
  124.1250   122.8600    -4.2870   -10.2240    63.2050     8.7050     7.9950     8.9090    21.1470   -26.1040     2.2500 
  124.2500   122.9780    -4.2990   -10.2630    64.4820     8.3350     7.7090     9.0140    21.1500   -26.2320     2.2320 
  124.3750   123.0960    -4.3120   -10.3020    62.4910     8.0030     7.4060     8.5070    21.1490   -26.3920     2.2210 
  124.5000   123.2140    -4.3240   -10.3410    60.9530     7.7860     7.1590     7.7490    21.1400   -26.5490     2.2170 
  124.6250   123.3320    -4.3360   -10.3810    62.6290     7.7190     7.0160     7.3040    21.1340   -26.7290     2.2170 
  124.7500   123.4500    -4.3480   -10.4200    65.7870     7.7340     6.9500     7.1880    21.1410   -26.9020     2.2180 
  124.8750   123.5680    -4.3600   -10.4590    67.4490     7.7710     6.9290     7.2540    21.1520   -27.0300     2.2170 
  125.0000   123.6870    -4.3730   -10.4980    65.3370     7.7910     6.9230     7.3270    21.1560   -27.1460     2.2140 
  125.1250   123.8050    -4.3850   -10.5370    61.3690     7.8350     6.9460     7.4030    21.1580   -27.2910     2.2140 
  125.2500   123.9230    -4.3970   -10.5770    59.7700     8.0250     7.0680     7.5420    21.1600   -27.4290     2.2190 
  125.3750   124.0410    -4.4090   -10.6160    62.2360     8.5020     7.3940     7.8060    21.1570   -27.6230     2.2240 
  125.5000   124.1590    -4.4210   -10.6550    64.7890     9.4060     8.0320     8.1540    21.1520   -27.9080     2.2240 
  125.6250   124.2770    -4.4340   -10.6940    62.3520    10.9580     9.1690     8.3380    21.1500   -28.2870     2.2150 
  125.7500   124.3950    -4.4460   -10.7330    57.0520    13.1030    10.8000     8.7140    21.1490   -28.7920     2.2070 
  125.8750   124.5130    -4.4580   -10.7730    51.0950    15.6410    12.8400    10.0040    21.1500   -29.4530     2.2120 
