~V
VERS. 2.00: Ver 2.00
~W
STRT.M 24.0000:
STOP.M 269.0000:
STEP.M 0.1250:
NULL. -999.2500:
UWI. FD10666:
~C
DEPT.M :
TVD. :
DX. :
DY. :
GR.API :
RML.OHMM :
RI. :
RXO.OHMM :
CALI.CM :
DEN.GM/CC :
SP.MV :
~A
# ...
  263.2500   245.5870    73.4150    35.3480    25.7460     5.2600     5.0330     5.7870    20.6560     2.2160   -17.7990 
  263.3750   245.6950    73.4730    35.3740    25.7460     5.2600     5.0290     5.9780    20.6560     2.2080   -18.3970 
  263.5000   245.8030    73.5310    35.3990    25.7460     5.2600     5.0290     6.0340    20.6560     2.2040   -18.9550 
  263.6250   245.9100    73.5890    35.4250    25.7460     5.2600     5.0290     6.0000    20.6560     2.2010   -19.4170 
  263.7500   246.0180    73.6470    35.4510    25.7460     5.2600     5.0280     6.0240    20.6560     2.1960   -19.7680 
  263.8750   246.1260    73.7050    35.4770    25.7460     5.2600     5.0260     6.1640    20.6560     2.1920   -20.0090 
  264.0000   246.2330    73.7630    35.5020    25.7460     5.2600     5.0240     6.1350    20.6560     2.1900   -20.1460 
  264.1250   246.3410    73.8210    35.5280    25.7460     5.2600     5.0230     6.1350    20.6560     2.1910   -20.1930 
  264.2500   246.4490    73.8790    35.5540    25.7460     5.2600     5.0230     6.1770    20.6560     2.1940   -20.2110 
  264.3750   246.5570    73.9370    35.5800    25.7460     5.2600     5.0240     6.4630    20.6550     2.1930   -20.2150 
  264.5000   246.6640    73.9940    35.6050    25.7460     5.2600     5.0250     6.9550    20.6540     2.1900   -20.2160 
  264.6250   246.7720    74.0520    35.6310    25.7460     5.2600     5.0250     7.7520    20.6550     2.1840   -20.2290 
  264.7500   246.8800    74.1100    35.6570    25.7460     5.2600     5.0250     8.2050    20.6600     2.1760   -20.2450 
  264.8750   246.9870    74.1680    35.6830    25.7460     5.2600     5.0250     8.3480    20.6710     2.1650   -20.2670 
  265.0000   247.0950    74.2260    35.7080    25.7460     5.2600     5.0250     7.7770    20.6880     2.1520   -20.2860 
  265.1250   247.2030    74.2840    35.7340    25.7460     5.2600     5.0250     7.2520    20.7080     2.1380   -20.3150 
  265.2500   247.3100    74.3420    35.7600    25.7460     5.2600     5.0250     7.1920    20.7240     2.1260   -20.3490 
  265.3750   247.4180    74.4000    35.7860    25.7460     5.2600     5.0250     7.4610    20.7370     2.1200   -20.3990 
  265.5000   247.5260    74.4580    35.8110    25.7460     5.2600     5.0250     7.4100    20.7490     2.1190   -20.4670 
  265.6250   247.6340    74.5160    35.8370    25.7460     5.2600     5.0250     7.1310    20.7660     2.1220   -20.5130 
  265.7500   247.7410    74.5740    35.8630    25.7460     5.2600     5.0250     6.5870    20.7980     2.1220   -20.5370 
  265.8750   247.8490    74.6320    35.8890    25.7460     5.2600     5.0250     6.2060    20.8460     2.1150   -20.5370 
  266.0000   247.9570    74.6900    35.9150    25.7460     5.2600     5.0250     6.1540    20.8860     2.0980   -20.5370 
  266.1250   248.0640    74.7480    35.9400    25.7460     5.2600     5.0250     6.2610    20.8780     2.0700  -999.2500 
  266.2500   248.1720    74.8060    35.9660    25.7460     5.2600     5.0250     6.3680    20.7950     2.0400  -999.2500 
  266.3750   248.2800    74.8640    35.9920    25.7460     5.2600     5.0250     6.3220    20.6950     2.0170  -999.2500 
  266.5000   248.3870    74.9220    36.0180    25.7460     5.2590     5.0250     6.0910    20.5610     2.0070  -999.2500 
  266.6250   248.4950    74.9800    36.0430    25.7460     5.2490     5.0250     5.7950    20.5260     2.0100  -999.2500 
  266.7500   248.6030    75.0380    36.0690    25.7460     5.2350     5.0250     5.6920    20.4490     2.0140  -999.2500 
  266.8750   248.7110    75.0960    36.0950    25.7460     5.2150     5.0250     5.6180    20.2980     2.0080  -999.2500 
  267.0000   248.8180    75.1540    36.1210    25.7460     5.1860     5.0250     5.4130    20.1330     1.9840  -999.2500 
  267.1250   248.9260    75.2120    36.1460    25.7460     5.1820     5.0250     4.9970    19.9670     1.9420  -999.2500 
  267.2500   249.0340    75.2700    36.1720    25.7460     5.1800     5.0250     4.5070    19.8030     1.8930  -999.2500 
  267.3750   249.1410    75.3280    36.1980    25.7460     5.1800     5.0250     4.1310    19.6510     1.8500  -999.2500 
  267.5000   249.2490    75.3860    36.2240    25.7460     5.1800     5.0250     3.9710    19.5790     1.8180  -999.2500 
  267.6250   249.3570    75.4440    36.2490    25.7460     5.1800     5.0250     3.9450    19.4400     1.8020  -999.2500 
  267.7500   249.4650    75.5020    36.2750    25.7460     5.1810     5.0250     3.9450    19.3510     1.7970  -999.2500 
  267.8750   249.5720    75.5600    36.3010    25.7460     5.1820     5.0250     3.9460    19.3350     1.7960  -999.2500 
  268.0000   249.6800    75.6180    36.3270    25.7460     5.1890     5.0250     3.9460    19.3330     1.7960  -999.2500 
  268.1250   249.8050    75.6180    36.3270    25.7460     5.2020     5.0250     3.9460    19.3330     1.7950  -999.2500 
  268.2500   249.9300    75.6180    36.3270    25.7460     5.2220     5.0250     3.9460    19.3330     1.7940  -999.2500 
  268.3750   250.0550    75.6180    36.3270    25.7460     5.2480     5.0250     3.9450    19.3330     1.7940  -999.2500 
  268.5000   250.1800    75.6180    36.3270    25.7460     5.2590     5.0250     3.9450    19.3330     1.7950  -999.2500 
  268.6250   250.3050    75.6180    36.3270    25.7460     5.2600     5.0250     3.9440    19.3330     1.7960  -999.2500 
  268.7500   250.4300    75.6180    36.3270    25.7460     5.2600     5.0250     3.9440    19.3330  -999.2500  -999.2500 
  268.8750   250.5550    75.6180    36.3270    25.7460     5.2600     5.0250     3.9440    19.3330  -999.2500  -999.2500 
  269.0000   250.6800    75.6180    36.3270    25.7460     5.2600     5.0250     3.9440    19.3300  -999.2500  -999.2500 
