~V
VERS. 2.00: Ver 2.00
~W
STRT.M 33.0000:
STOP.M 287.0000:
STEP.M 0.1250:
NULL. -999.2500:
UWI. FD10889:
~C
DEPT.M :
TVD. :
DX. :
DY. :
SP.MV :
GR.API :
RI. :
RML.OHMM :
RXO.OHMM :
DEN.GM/CC :
~A
   33.0000    33.0000     0.0000     0.0000    86.1240    32.1240     0.0900     0.0610    10.4950     2.0510 
   33.1250    33.1250    -0.0020     0.0000    91.4290    33.7660     0.0880     0.0590     8.3340     1.9950 
   33.2500    33.2500    -0.0030     0.0000    96.1500    34.8080     0.0850     0.0560     2.9230     1.9580 
   33.3750    33.3750    -0.0050     0.0000    99.2650    34.9380     0.0840     0.0570     0.8950     1.9390 
   33.5000    33.5000    -0.0070     0.0000   101.7930    33.9780     0.0750     0.0600     0.7930     1.9380 
   33.6250    33.6250    -0.0090     0.0000   104.4800    33.4460     0.0700     0.0620     0.7460     1.9510 
   33.7500    33.7500    -0.0110     0.0000   106.4280    33.8820     0.0560     0.0610     0.7050     1.9770 
   33.8750    33.8750    -0.0130     0.0000   105.9010    33.8560     0.0370     0.0500     0.7020     2.0160 
   34.0000    34.0000    -0.0150     0.0000   102.4590    32.0140     0.0190     0.0340     0.7030     2.0740 
   34.1250    34.1250    -0.0160     0.0010    96.8640    29.6100     0.0070     0.0220     0.7390     2.1460 
   34.2500    34.2500    -0.0180     0.0010    88.3240    28.5150     0.0190     0.0340     1.1110     2.2120 
   34.3750    34.3750    -0.0200     0.0010    76.0890    30.1540     0.0860     0.0990     2.4720     2.2350 
   34.5000    34.5000    -0.0220     0.0020    59.6360    35.3630     0.3850     0.3670     4.2150     2.1970 
   34.6250    34.6250    -0.0240     0.0030    42.6040    40.1890     1.4040     2.1290     4.9460     2.1270 
   34.7500    34.7500    -0.0270     0.0030    30.6110    42.8360     3.8100    10.0570     5.3700     2.0730 
   34.8750    34.8750    -0.0290     0.0040    24.4490    45.3710     5.2410    12.0710     6.0930     2.0590 
   35.0000    35.0000    -0.0310     0.0050    20.4920    50.1820     6.3060    13.2150     6.5870     2.0810 
   35.1250    35.1250    -0.0330     0.0050    17.1460    54.5480     5.9720     8.4610     6.9650     2.1140 
   35.2500    35.2500    -0.0350     0.0060    14.4430    55.6870     5.6430     5.6600     7.2910     2.1360 
   35.3750    35.3750    -0.0370     0.0070    12.2970    56.1750     5.7580     5.3280     7.1570     2.1390 
   35.5000    35.5000    -0.0390     0.0080    10.5300    58.6370     5.8160     5.2690     6.4390     2.1260 
   35.6250    35.6250    -0.0420     0.0080     8.9160    61.1600     5.7330     5.2080     5.8250     2.1080 
   35.7500    35.7500    -0.0440     0.0090     7.6430    60.9410     5.6090     5.1910     5.7740     2.0960 
   35.8750    35.8750    -0.0460     0.0100     6.5830    58.9240     5.5420     5.1520     6.0540     2.0880 
   36.0000    36.0000    -0.0480     0.0100     5.6590    57.9740     5.5970     5.2070     6.2810     2.0780 
   36.1250    36.1250    -0.0510     0.0110     4.9790    58.0930     5.7770     5.3890     6.2880     2.0640 
   36.2500    36.2500    -0.0530     0.0120     4.4880    56.4140     5.9580     5.5790     6.2340     2.0540 
   36.3750    36.3750    -0.0560     0.0120     4.0980    53.5640     6.0790     5.7220     6.2060     2.0530 
   36.5000    36.4990    -0.0580     0.0130     3.8090    52.1800     6.1140     5.7710     6.1830     2.0670 
   36.6250    36.6240    -0.0600     0.0130     3.6770    53.1040     6.0980     5.7700     6.1740     2.0870 
   36.7500    36.7490    -0.0630     0.0140     3.6870    54.2140     6.0580     5.7350     6.2600     2.0960 
   36.8750    36.8740    -0.0650     0.0150     3.6970    54.3670     6.0330     5.7290     6.4460     2.0880 
   37.0000    36.9990    -0.0680     0.0150     3.7090    55.1390     6.0430     5.7780     6.4390     2.0660 
   37.1250    37.1240    -0.0700     0.0160     3.7310    57.2670     6.0940     5.8640     6.2430     2.0470 
   37.2500    37.2490    -0.0730     0.0170     3.7640    58.7120     6.1040     5.9470     6.1560     2.0450 
   37.3750    37.3740    -0.0760     0.0170     3.7690    58.9550     6.0160     5.9210     6.1470     2.0620 
   37.5000    37.4990    -0.0780     0.0180     3.7450    59.6690     5.7910     5.7100     5.9230     2.0950 
   37.6250    37.6240    -0.0810     0.0190     3.7480    63.0680     5.5330     5.4460     5.3970     2.1300 
   37.7500    37.7490    -0.0840     0.0190     3.6690    66.6950     5.3210     5.1490     5.1500     2.1540 
   37.8750    37.8740    -0.0870     0.0200     3.3350    66.6070     5.2350     5.0030     5.5270     2.1540 
   38.0000    37.9990    -0.0900     0.0200     2.7890    62.3100     5.3190     5.0320     5.9400     2.1310 
   38.1250    38.1240    -0.0920     0.0210     2.2670    57.4620     5.6020     5.3040     6.0400     2.1080 
   38.2500    38.2490    -0.0950     0.0220     1.9950    54.7690     6.0410     5.7490     6.1760     2.1040 
   38.3750    38.3740    -0.0980     0.0220     1.8730    52.7990     6.4490     6.1810     6.4900     2.1170 
   38.5000    38.4990    -0.1010     0.0230     1.8780    51.0950     6.7250     6.4930     6.5990     2.1300 
   38.6250    38.6240    -0.1040     0.0240     1.8770    51.4920     6.8160     6.6190     6.4240     2.1270 
   38.7500    38.7490    -0.1080     0.0240     1.8070    53.2110     6.7210     6.5760     6.3700     2.1090 
   38.8750    38.8740    -0.1110     0.0250     1.7820    54.1240     6.4770     6.3220     6.5250     2.0930 
   39.0000    38.9990    -0.1140     0.0250     1.8510    55.0150     6.1320     5.9390     6.5230     2.0900 
   39.1250    39.1240    -0.1170     0.0260     2.0560    57.8190     5.8540     5.5970     6.1640     2.0970 
   39.2500    39.2490    -0.1210     0.0260     2.2160    60.9300     5.7110     5.4370     5.8670     2.1060 
   39.3750    39.3740    -0.1240     0.0270     2.1720    62.2880     5.7560     5.4670     5.9700     2.1130 
   39.5000    39.4990    -0.1270     0.0270     1.9850    61.1250     5.9260     5.6330     6.1680     2.1170 
   39.6250    39.6240    -0.1310     0.0280     1.8770    57.8740     6.2240     5.9420     6.3550     2.1210 
   39.7500    39.7490    -0.1340     0.0280     1.9380    54.1630     6.4970     6.3320     6.6730     2.1250 
   39.8750    39.8730    -0.1380     0.0290     2.0530    52.0800     6.5970     6.5240     6.8150     2.1280 
   40.0000    39.9980    -0.1410     0.0290     2.2830    52.1430     6.3630     6.3490     6.4520     2.1320 
   40.1250    40.1230    -0.1450     0.0290     2.6360    56.3240     5.8660     5.8460     5.6340     2.1400 
   40.2500    40.2480    -0.1490     0.0300     3.2430    65.8370     5.2470     5.3790     4.7410     2.1570 
   40.3750    40.3730    -0.1530     0.0300     3.8230    75.8580     4.7330     5.1160     4.2440     2.1810 
   40.5000    40.4980    -0.1570     0.0310     4.1590    81.4900     4.4470     5.1710     4.2470     2.2050 
   40.6250    40.6230    -0.1610     0.0310     4.3150    83.3820     4.3630     5.4530     4.8000     2.2200 
   40.7500    40.7480    -0.1650     0.0310     4.3010    82.7230     4.4970     5.8210     5.4850     2.2200 
   40.8750    40.8730    -0.1690     0.0320     4.2540    80.3130     4.7060     6.2520     5.4960     2.2080 
   41.0000    40.9980    -0.1730     0.0320     4.1770    78.1980     4.8640     6.5050     5.1720     2.1930 
   41.1250    41.1230    -0.1770     0.0320     4.1080    77.3730     4.8180     6.3750     5.0890     2.1840 
   41.2500    41.2480    -0.1820     0.0330     4.0770    77.3540     4.6490     6.0950     4.8660     2.1860 
   41.3750    41.3730    -0.1860     0.0330     4.0870    78.6910     4.3960     5.7110     4.3900     2.1950 
   41.5000    41.4980    -0.1900     0.0330     4.1450    81.9620     4.2010     5.4870     4.1360     2.2080 
   41.6250    41.6230    -0.1950     0.0340     4.2260    84.4390     4.0900     5.4100     4.2210     2.2180 
   41.7500    41.7470    -0.1990     0.0340     4.2280    83.4830     4.0100     5.3460     4.3580     2.2220 
   41.8750    41.8720    -0.2040     0.0340     4.2100    81.5950     3.9250     5.2730     4.3100     2.2190 
   42.0000    41.9970    -0.2090     0.0340     4.1430    81.2070     3.8580     5.2210     4.1130     2.2140 
