~V
VERS. 2.00: Ver 2.00
~W
STRT.M 30.0000:
STOP.M 210.0000:
STEP.M 0.1250:
NULL. -999.2500:
UWI. FD10800:
~C
DEPT.M :
TVD. :
DX. :
DY. :
SP.MV :
GR.API :
RI. :
RML.OHMM :
RXO.OHMM :
DEN.GM/CC :
~A
# ...
   57.3750    57.3700    -0.4410    -0.1970   -39.3250    67.3070     3.6170     3.1440     4.3280     2.1190 
   57.5000    57.4950    -0.4430    -0.1990   -39.1080    68.6030     3.7110     3.2940     4.3400     2.1280 
   57.6250    57.6200    -0.4460    -0.2000   -38.9910    67.4280     4.1410     3.7770     4.9780     2.1610 
   57.7500    57.7450    -0.4480    -0.2020   -39.0470    66.2620     4.8900     4.7290     8.7750     2.2410 
   57.8750    57.8700    -0.4510    -0.2030   -39.3970    65.5530     5.6960     5.6880    16.0660     2.3550 
   58.0000    57.9950    -0.4530    -0.2040   -39.8920    64.6380     6.2010     6.2900    18.4460     2.4130 
   58.1250    58.1200    -0.4560    -0.2060   -40.5430    62.1510     6.0290     6.2340    12.4980     2.3500 
   58.2500    58.2450    -0.4580    -0.2070   -41.2110    58.8380     5.4130     5.5580     6.4280     2.2100 
   58.3750    58.3700    -0.4610    -0.2080   -41.7190    56.5550     4.6090     4.7880     4.4600     2.0910 
   58.5000    58.4950    -0.4630    -0.2100   -42.0690    54.7690     3.9970     4.1990     4.2420     2.0500 
   58.6250    58.6190    -0.4660    -0.2110   -42.3160    54.1310     3.7840     4.0740     4.2200     2.0690 
   58.7500    58.7440    -0.4690    -0.2120   -42.5090    55.4730     3.7870     4.2370     4.3430     2.0930 
   58.8750    58.8690    -0.4710    -0.2130   -42.6670    58.4990     3.8860     4.4320     4.6390     2.0890 
   59.0000    58.9940    -0.4740    -0.2140   -42.8450    62.2710     3.9570     4.5950     4.6840     2.0610 
   59.1250    59.1190    -0.4760    -0.2160   -42.9820    63.7740     4.0120     4.6700     4.6100     2.0350 
   59.2500    59.2440    -0.4790    -0.2170   -43.1430    64.2820     4.0960     4.8840     4.8900     2.0410 
   59.3750    59.3690    -0.4810    -0.2180   -43.2400    62.6000     4.2330     5.1270     5.2350     2.0810 
   59.5000    59.4940    -0.4840    -0.2190   -43.2820    61.2170     4.3910     5.4820     5.2030     2.1270 
   59.6250    59.6190    -0.4860    -0.2200   -43.3100    59.1920     4.4960     5.7350     4.8010     2.1410 
   59.7500    59.7440    -0.4890    -0.2200   -43.3060    59.6880     4.5120     5.8030     5.4640     2.1250 
   59.8750    59.8690    -0.4910    -0.2210   -43.3790    61.3950     4.4150     5.7060     7.1760     2.1010 
   60.0000    59.9940    -0.4940    -0.2220   -43.4660    62.8590     4.2480     5.5250     7.1530     2.0770 
   60.1250    60.1190    -0.4960    -0.2230   -43.5810    61.5230     4.0690     5.3250     5.6950     2.0530 
   60.2500    60.2440    -0.4990    -0.2240   -43.6890    58.1290     3.9120     5.1910     4.9780     2.0300 
   60.3750    60.3690    -0.5010    -0.2250   -43.8540    55.7630     3.8230     5.2120     4.8150     2.0220 
   60.5000    60.4940    -0.5040    -0.2250   -43.9780    55.1870     3.7660     5.2370     4.6440     2.0270 
   60.6250    60.6190    -0.5060    -0.2260   -44.0470    57.1000     3.7570     5.3020     4.6890     2.0340 
   60.7500    60.7440    -0.5090    -0.2270   -43.9710    58.3460     3.7480     5.4340     4.8790     2.0360 
   60.8750    60.8690    -0.5110    -0.2270   -43.7220    60.4180     3.7380     5.5000     4.9610     2.0340 
   61.0000    60.9940    -0.5140    -0.2280   -43.4380    62.0940     3.7150     5.5570     5.0000     2.0330 
   61.1250    61.1190    -0.5160    -0.2280   -43.2010    64.2770     3.6850     5.6470     5.0090     2.0330 
   61.2500    61.2440    -0.5180    -0.2290   -42.9870    65.8470     3.6410     5.6750     4.9600     2.0320 
   61.3750    61.3690    -0.5210    -0.2290   -42.7820    67.7630     3.5980     5.7240     4.8880     2.0300 
   61.5000    61.4940    -0.5230    -0.2300   -42.6380    70.0770     3.5490     5.7450     4.7210     2.0250 
   61.6250    61.6190    -0.5260    -0.2300   -42.4330    71.1460     3.5130     5.7770     4.5690     2.0220 
   61.7500    61.7440    -0.5280    -0.2300   -42.1160    69.7460     3.4840     5.7510     4.6810     2.0290 
   61.8750    61.8690    -0.5300    -0.2310   -41.6600    66.9720     3.4620     5.7660     4.9140     2.0500 
   62.0000    61.9940    -0.5330    -0.2310   -41.1730    65.7790     3.4310     5.7880     5.0180     2.0730 
   62.1250    62.1190    -0.5350    -0.2310   -40.6950    67.1350     3.3990     5.7440     4.9360     2.0890 
   62.2500    62.2440    -0.5380    -0.2320   -40.3190    70.0710     3.3630     5.7030     4.7840     2.0990 
   62.3750    62.3690    -0.5400    -0.2320   -40.0900    72.1170     3.3360     5.6740     4.6570     2.1020 
   62.5000    62.4940    -0.5430    -0.2320   -39.8980    73.8010     3.3240     5.6650     4.5650     2.0980 
   62.6250    62.6190    -0.5450    -0.2320   -39.6880    74.4750     3.3390     5.7340     4.5320     2.0890 
   62.7500    62.7440    -0.5470    -0.2320   -39.4070    75.6390     3.3700     5.8580     4.5010     2.0890 
   62.8750    62.8690    -0.5500    -0.2320   -39.1070    76.4320     3.4000     5.9470     4.5810     2.0950 
   63.0000    62.9940    -0.5520    -0.2320   -38.7420    76.0390     3.4210     5.9770     4.7850     2.1040 
   63.1250    63.1190    -0.5550    -0.2320   -38.3790    75.1530     3.4070     5.9270     4.7610     2.1080 
   63.2500    63.2440    -0.5570    -0.2320   -38.0030    74.5350     3.3600     5.8070     4.5320     2.1070 
   63.3750    63.3680    -0.5600    -0.2320   -37.7050    74.9340     3.3010     5.7010     4.4050     2.1040 
   63.5000    63.4930    -0.5620    -0.2320   -37.4330    77.0330     3.2420     5.6000     4.3180     2.1000 
   63.6250    63.6180    -0.5650    -0.2320   -37.1690    80.0960     3.1930     5.5260     4.2360     2.1020 
   63.7500    63.7430    -0.5670    -0.2320   -37.0160    82.9370     3.1690     5.5100     4.2480     2.1060 
   63.8750    63.8680    -0.5700    -0.2320   -36.8820    83.1110     3.1730     5.5140     4.2700     2.1110 
   64.0000    63.9930    -0.5720    -0.2320   -36.7280    81.9910     3.1940     5.5560     4.2510     2.1130 
   64.1250    64.1180    -0.5750    -0.2310   -36.6060    80.9340     3.2200     5.6240     4.2890     2.1150 
   64.2500    64.2430    -0.5770    -0.2310   -36.5040    80.9200     3.2420     5.6770     4.3550     2.1160 
   64.3750    64.3680    -0.5800    -0.2310   -36.3820    80.9630     3.2490     5.7360     4.2940     2.1120 
   64.5000    64.4930    -0.5830    -0.2300   -36.3240    80.9670     3.2420     5.7370     4.1640     2.1070 
   64.6250    64.6180    -0.5850    -0.2300   -36.3090    80.5390     3.2300     5.6750     4.1890     2.1080 
   64.7500    64.7430    -0.5880    -0.2300   -36.3480    80.6590     3.2070     5.6050     4.2600     2.1160 
   64.8750    64.8680    -0.5910    -0.2290   -36.4690    80.2670     3.1870     5.5480     4.2380     2.1240 
   65.0000    64.9930    -0.5930    -0.2290   -36.5650    79.3710     3.1850     5.5420     4.3280     2.1200 
   65.1250    65.1180    -0.5960    -0.2280   -36.7140    77.8760     3.2020     5.5980     4.4370     2.1070 
   65.2500    65.2430    -0.5990    -0.2270   -36.9180    76.7940     3.2430     5.6810     4.4340     2.0890 
   65.3750    65.3680    -0.6010    -0.2270   -37.2040    76.4080     3.2960     5.7650     4.5420     2.0790 
   65.5000    65.4930    -0.6040    -0.2260   -37.4770    76.3630     3.3570     5.8450     4.6600     2.0790 
   65.6250    65.6180    -0.6070    -0.2250   -37.6910    77.0360     3.3950     5.9500     4.6180     2.0870 
   65.7500    65.7430    -0.6100    -0.2250   -37.7860    78.9220     3.4120     5.9850     4.5380     2.1030 
   65.8750    65.8680    -0.6130    -0.2240   -37.7490    80.0860     3.4190     5.9740     4.6780     2.1210 
   66.0000    65.9930    -0.6150    -0.2230   -37.6030    80.9340     3.4210     5.9580     4.9550     2.1400 
   66.1250    66.1180    -0.6180    -0.2220   -37.4670    79.8850     3.4310     5.9210     4.8780     2.1470 
   66.2500    66.2430    -0.6210    -0.2210   -37.4060    79.0370     3.4400     5.9400     4.6260     2.1440 
   66.3750    66.3680    -0.6240    -0.2200   -37.2760    77.3750     3.4080     5.9030     4.5530     2.1280 
