~V
VERS. 2.00: Ver 2.00
~W
STRT.M 20.0000:
STOP.M 206.0000:
STEP.M 0.1250:
NULL. -999.2500:
UWI. FD10809:
~C
DEPT.M :
TVD. :
DX. :
DY. :
SP.MV :
GR.API :
RI. :
RML.OHMM :
DEN.GM/CC :
RXO.OHMM :
~A
# ...
  193.3750   170.7450     2.5470    75.3050   -16.6300    88.0680     6.2630     7.9330     2.2630     5.2480 
  193.5000   170.8440     2.5440    75.3820   -16.6300    89.5430     6.5790     8.3380     2.2880     5.2900 
  193.6250   170.9420     2.5410    75.4590   -16.6300    90.9640     6.7770     8.5100     2.3030     5.2930 
  193.7500   171.0400     2.5380    75.5370   -16.6300    91.3120     6.6510     8.3420     2.3030     5.0760 
  193.8750   171.1380     2.5360    75.6140   -16.6300    90.8390     6.3470     7.9360     2.2900     5.2460 
  194.0000   171.2360     2.5330    75.6910   -16.6300    89.3490     5.9570     7.4530     2.2820     5.7970 
  194.1250   171.3350     2.5300    75.7690   -16.6300    87.5760     5.6090     7.0520     2.2800     6.3540 
  194.2500   171.4330     2.5270    75.8460   -16.6300    86.2740     5.4140     6.8290     2.2820     6.8280 
  194.3750   171.5310     2.5250    75.9230   -16.6300    86.3950     5.3400     6.7490     2.2790     7.0650 
  194.5000   171.6290     2.5220    76.0010   -16.6300    86.7000     5.3360     6.7120     2.2760     7.8780 
  194.6250   171.7270     2.5190    76.0780   -16.6300    86.1170     5.2590     6.6210     2.2750     8.5220 
  194.7500   171.8250     2.5160    76.1550   -16.6300    84.9730     5.1690     6.4920     2.2750     7.4920 
  194.8750   171.9240     2.5130    76.2330   -16.6300    84.1840     5.0930     6.3790     2.2730     5.8510 
  195.0000   172.0220     2.5110    76.3100   -16.6300    83.7940     5.0670     6.3200     2.2690     5.2980 
  195.1250   172.1200     2.5080    76.3870   -16.6300    83.7780     5.1020     6.3410     2.2670     5.6650 
  195.2500   172.2180     2.5050    76.4650   -16.6300    83.7950     5.1950     6.4410     2.2610     5.8390 
  195.3750   172.3160     2.5020    76.5420   -16.6300    83.7230     5.3170     6.5850     2.2550     5.8470 
  195.5000   172.4140     2.5000    76.6190   -16.6300    83.8080     5.4580     6.7410     2.2480     5.8720 
  195.6250   172.5120     2.4970    76.6970   -16.6300    84.2670     5.5750     6.8630     2.2470     5.7730 
  195.7500   172.6110     2.4940    76.7740   -16.6300    84.2490     5.6720     6.9570     2.2520     5.6030 
  195.8750   172.7090     2.4910    76.8520   -16.6300    83.9120     5.7780     7.0590     2.2600     5.9990 
  196.0000   172.8070     2.4890    76.9290   -16.6300    83.7260     5.8980     7.1750     2.2600     6.8090 
  196.1250   172.9050     2.4860    77.0060   -16.6300    84.2400     6.0100     7.2780     2.2540     7.1660 
  196.2500   173.0030     2.4830    77.0840   -16.6300    83.3520     6.0680     7.3180     2.2430     8.2650 
  196.3750   173.1010     2.4810    77.1610   -16.6300    81.6740     6.0430     7.2680     2.2380     9.9930 
  196.5000   173.1990     2.4780    77.2380   -16.6300    80.0700     5.9360     7.1230     2.2370     9.6660 
  196.6250   173.2980     2.4750    77.3160   -16.6300    80.2220     5.7850     6.9270     2.2370     7.2490 
  196.7500   173.3960     2.4730    77.3930   -16.6300    81.3650     5.6220     6.7430     2.2380     5.3070 
  196.8750   173.4940     2.4700    77.4700   -16.6300    82.6880     5.5360     6.6210     2.2380     5.3350 
  197.0000   173.5920     2.4670    77.5480   -16.6300    83.1070     5.4610     6.5470     2.2390     6.1520 
  197.1250   173.6900     2.4650    77.6250   -16.6300    82.4090     5.3970     6.4750     2.2410     7.3660 
  197.2500   173.7880     2.4620    77.7020   -16.6300    81.3660     5.3000     6.3680     2.2410    12.7230 
  197.3750   173.8860     2.4600    77.7800   -16.6300    80.6870     5.1990     6.2370     2.2350    15.4330 
  197.5000   173.9850     2.4570    77.8570   -16.6300    81.4370     5.1150     6.1110     2.2240     8.8580 
  197.6250   174.0830     2.4540    77.9350   -16.6300    81.6300     5.0520     6.0010     2.2170     4.5920 
  197.7500   174.1810     2.4520    78.0120   -16.6300    82.1210     5.0070     5.9130     2.2150     5.5730 
  197.8750   174.2790     2.4490    78.0890   -16.6300    82.1170     4.9460     5.8460     2.2130     5.5030 
  198.0000   174.3770     2.4460    78.1670   -16.6300    82.5580     4.9310     5.8150     2.2080     6.2280 
  198.1250   174.4750     2.4440    78.2440   -16.6300    82.5830     4.9310     5.8130     2.2030     8.6190 
  198.2500   174.5740     2.4410    78.3210   -16.6300    82.5720     4.9360     5.8160     2.2060     9.1930 
  198.3750   174.6720     2.4390    78.3990   -16.6300    82.5720     4.9400     5.8180     2.2210     7.3760 
  198.5000   174.7700     2.4360    78.4760   -16.6300    82.5720     4.9400     5.8200     2.2480     5.7110 
  198.6250   174.8680     2.4330    78.5530   -16.6300    82.5720     4.9400     5.8260     2.2660     5.7180 
  198.7500   174.9660     2.4310    78.6310   -16.6300    82.5720     4.9400     5.8410     2.2620     6.6650 
  198.8750   175.0640     2.4280    78.7080   -16.6300    82.5720     4.9400     5.8640     2.2430     6.6590 
  199.0000   175.1620     2.4250    78.7860   -16.6300    82.5720     4.9410     5.8950     2.2280     5.6240 
  199.1250   175.2610     2.4230    78.8630   -16.6300    82.5720     4.9410     5.9280     2.2200     5.0860 
  199.2500   175.3590     2.4200    78.9400   -16.6300    82.5720     4.9410     5.9610     2.2140     5.2720 
  199.3750   175.4570     2.4180    79.0180   -16.6300    82.5720     4.9420     5.9910     2.2180     5.3290 
  199.5000   175.5550     2.4150    79.0950   -16.6300    82.5720     4.9420     6.0120     2.2330     4.9550 
  199.6250   175.6530     2.4120    79.1720   -16.6300    82.5720     4.9420     6.0240     2.2490     4.3780 
  199.7500   175.7510     2.4100    79.2500   -16.6300    82.5720     4.9430     6.0290     2.2560     4.5880 
  199.8750   175.8490     2.4070    79.3270   -16.6300    82.5720     4.9430     6.0290     2.2540     5.5640 
  200.0000   175.9480     2.4040    79.4040   -16.6300    82.5720     4.9430     6.0260     2.2440     5.9810 
  200.1250   176.0460     2.4020    79.4820   -16.6300    82.5720     4.9430     6.0270     2.2260     6.6570 
  200.2500   176.1440     2.3990    79.5590   -16.6300    82.5720     4.9430     6.0300     2.2100    14.6930 
  200.3750   176.2420     2.3970    79.6370   -16.6300    82.5720     4.9440     6.0350     2.2020    29.8860 
  200.5000   176.3400     2.3940    79.7140   -16.6300    82.5720     4.9440     6.0400     2.2100    32.4480 
  200.6250   176.4380     2.3910    79.7910   -16.6300    82.5720     4.9440     6.0410     2.2210    19.0930 
  200.7500   176.5360     2.3890    79.8690   -16.6300    82.5720     4.9440     6.0410     2.2310     9.2950 
  200.8750   176.6350     2.3860    79.9460   -16.6300    82.5720     4.9440     6.0410     2.2340     6.9230 
  201.0000   176.7330     2.3830    80.0230   -16.6300    82.5720     4.9440     6.0410     2.2310     7.4630 
  201.1250   176.8310     2.3810    80.1010   -16.6300    82.5720     4.9440     6.0410     2.2230     9.2880 
  201.2500   176.9290     2.3780    80.1780   -16.6300    82.5720     4.9440     6.0410     2.2150     8.9980 
  201.3750   177.0270     2.3750    80.2550   -16.6300    82.5720     4.9440     6.0410     2.2100     7.4420 
  201.5000   177.1250     2.3730    80.3330   -16.6300    82.5720     4.9440     6.0410     2.2090     6.6180 
  201.6250   177.2240     2.3700    80.4100   -16.6300    82.5720     4.9440     6.0410     2.2070     6.1050 
  201.7500   177.3220     2.3680    80.4880   -16.6300    82.5720     4.9440     6.0410     2.2040     5.7590 
  201.8750   177.4200     2.3650    80.5650   -16.6300    82.5720     4.9440     6.0410     2.1940     5.6820 
  202.0000   177.5180     2.3620    80.6420   -16.6300    82.5720     4.9440     6.0410     2.1760     5.6550 
  202.1250   177.6160     2.3600    80.7200   -16.6300    82.5720     4.9440     6.0410     2.1600     5.6570 
  202.2500   177.7140     2.3570    80.7970   -16.6300    82.5720     4.9440     6.0410     2.1600     5.6810 
  202.3750   177.8120     2.3540    80.8740   -16.6300    82.5720     4.9440     6.0410     2.1720     5.5390 
