~V
VERS. 2.00: Ver 2.00
~W
STRT.M 24.0000:
STOP.M 269.0000:
STEP.M 0.1250:
NULL. -999.2500:
UWI. FD10666:
~C
DEPT.M :
TVD. :
DX. :
DY. :
GR.API :
RML.OHMM :
RI. :
RXO.OHMM :
CALI.CM :
DEN.GM/CC :
SP.MV :
~A
# ...
   57.0000    56.9340     1.4180     1.1600    48.8610     7.8760     6.5710     7.0990    24.1120     1.9120   -16.8370 
   57.1250    57.0580     1.4240     1.1650    49.1660     7.9470     6.6370     7.5780    24.0700     1.9460   -16.9010 
   57.2500    57.1830     1.4300     1.1690    49.0770     8.0070     6.6820     8.0640    24.0170     2.0110   -16.9670 
   57.3750    57.3080     1.4360     1.1740    48.6800     8.0470     6.6990     8.5000    23.9740     2.0840   -17.0260 
   57.5000    57.4330     1.4420     1.1790    51.0890     8.0690     6.6900     8.6890    23.9490     2.1460   -17.0760 
   57.6250    57.5570     1.4480     1.1840    55.8160     8.0840     6.6580     8.6760    23.9460     2.1790   -17.1200 
   57.7500    57.6820     1.4540     1.1890    57.0290     8.1080     6.6230     8.6090    23.9730     2.1850   -17.1740 
   57.8750    57.8070     1.4600     1.1930    54.7650     8.1430     6.5960     8.5510    24.0220     2.1680   -17.2350 
   58.0000    57.9310     1.4670     1.1980    52.4810     8.1760     6.5810     8.5570    24.0140     2.1390   -17.2870 
   58.1250    58.0560     1.4730     1.2030    51.4220     8.1820     6.5740     8.7090    23.9120     2.1150   -17.3150 
   58.2500    58.1810     1.4790     1.2080    50.7360     8.1530     6.5680     9.0110    23.7720     2.1060   -17.3240 
   58.3750    58.3050     1.4850     1.2130    50.5270     8.0970     6.5580     9.2440    23.6710     2.1150   -17.3240 
   58.5000    58.4300     1.4910     1.2170    51.7410     8.0430     6.5500     9.2240    23.6320     2.1350   -17.3240 
   58.6250    58.5550     1.4970     1.2220    53.4960     8.0440     6.5650     9.0280    23.6350     2.1550   -17.3270 
   58.7500    58.6800     1.5030     1.2270    56.1110     8.1240     6.6150     8.9010    23.6540     2.1680   -17.3390 
   58.8750    58.8040     1.5090     1.2320    57.4790     8.2780     6.7030     8.8890    23.6760     2.1760   -17.3660 
   59.0000    58.9290     1.5150     1.2370    55.9140     8.4680     6.8120     8.9560    23.6860     2.1840   -17.4100 
   59.1250    59.0540     1.5210     1.2410    52.2710     8.6220     6.9080     9.1880    23.6510     2.1980   -17.4740 
   59.2500    59.1780     1.5270     1.2460    48.6850     8.6860     6.9580     9.4430    23.5690     2.2140   -17.5390 
   59.3750    59.3030     1.5330     1.2510    46.1590     8.6490     6.9470     9.5690    23.4460     2.2250   -17.5770 
   59.5000    59.4280     1.5400     1.2560    44.7400     8.5370     6.8760     9.3270    23.3050     2.2230   -17.5620 
   59.6250    59.5520     1.5460     1.2610    45.6500     8.3860     6.7600     8.6130    23.1930     2.2040   -17.4790 
   59.7500    59.6770     1.5520     1.2660    48.5680     8.2250     6.6240     8.0490    23.1160     2.1800   -17.3380 
   59.8750    59.8020     1.5580     1.2700    50.8580     8.0490     6.4750     7.8420    23.0770     2.1600   -17.1420 
   60.0000    59.9260     1.5640     1.2750    51.3090     7.8500     6.3160     7.9360    23.0630     2.1480   -16.9120 
   60.1250    60.0490     1.5850     1.2870    53.0850     7.6430     6.1550     7.9720    23.0550     2.1440   -16.6820 
   60.2500    60.1710     1.6070     1.2980    56.4740     7.4810     6.0150     7.7520    23.0400     2.1420   -16.5020 
   60.3750    60.2940     1.6280     1.3100    57.9050     7.4160     5.9290     7.4960    23.0230     2.1450   -16.4180 
   60.5000    60.4160     1.6490     1.3210    57.3140     7.4810     5.9240     7.4860    23.0170     2.1520   -16.4580 
   60.6250    60.5390     1.6700     1.3330    58.9350     7.6730     6.0200     7.6460    23.0510     2.1630   -16.6300 
   60.7500    60.6610     1.6920     1.3440    61.1260     7.9030     6.1760     7.9630    23.1290     2.1730   -16.8830 
   60.8750    60.7840     1.7130     1.3550    60.1980     8.0940     6.3430     8.4050    23.2290     2.1760   -17.1790 
   61.0000    60.9060     1.7340     1.3670    56.1880     8.1790     6.4640     8.9680    23.3070     2.1700   -17.4610 
   61.1250    61.0290     1.7560     1.3780    51.5510     8.1060     6.4800     9.1750    23.2980     2.1550   -17.6680 
   61.2500    61.1510     1.7770     1.3900    49.8070     7.9220     6.3950     9.0980    23.2150     2.1380   -17.7980 
   61.3750    61.2740     1.7980     1.4010    52.5610     7.6830     6.2400     8.8990    23.0690     2.1220   -17.8560 
   61.5000    61.3960     1.8200     1.4130    58.1020     7.4500     6.0630     8.5670    22.8910     2.1120   -17.8650 
   61.6250    61.5190     1.8410     1.4240    60.9820     7.2880     5.9270     8.2680    22.7400     2.1120   -17.8680 
   61.7500    61.6410     1.8620     1.4360    60.2410     7.2130     5.8580     7.8780    22.6580     2.1230   -17.9040 
   61.8750    61.7640     1.8840     1.4470    58.9350     7.2260     5.8590     7.5930    22.6690     2.1390   -18.0000 
   62.0000    61.8860     1.9050     1.4590    58.6080     7.3090     5.9160     7.6480    22.7680     2.1540   -18.1700 
   62.1250    62.0090     1.9260     1.4700    57.5900     7.4340     6.0060     7.9140    22.9140     2.1570   -18.4230 
   62.2500    62.1310     1.9480     1.4820    54.3550     7.5540     6.0990     8.2700    23.0360     2.1500   -18.7290 
   62.3750    62.2540     1.9690     1.4930    50.5220     7.6500     6.1770     8.4950    23.1050     2.1370   -19.0660 
   62.5000    62.3760     1.9900     1.5050    48.4690     7.7200     6.2350     8.6670    23.1280     2.1270   -19.4020 
   62.6250    62.4990     2.0120     1.5160    48.9320     7.7800     6.2740     8.7020    23.1310     2.1230   -19.6890 
   62.7500    62.6210     2.0330     1.5280    49.2720     7.8440     6.3060     8.6580    23.1320     2.1260   -19.9160 
   62.8750    62.7440     2.0540     1.5390    49.5480     7.9090     6.3400     8.6460    23.1320     2.1320   -20.0830 
   63.0000    62.8660     2.0750     1.5510    50.9700     7.9590     6.3730     8.6470    23.1300     2.1380   -20.2050 
   63.1250    62.9890     2.0970     1.5620    51.5570     7.9710     6.3980     8.6760    23.1190     2.1390   -20.3030 
   63.2500    63.1110     2.1180     1.5740    50.9670     7.9500     6.4090     8.7310    23.0930     2.1320   -20.3800 
   63.3750    63.2340     2.1390     1.5850    50.9600     7.9050     6.4040     8.7770    23.0430     2.1170   -20.4240 
   63.5000    63.3560     2.1610     1.5960    52.2730     7.8480     6.3830     8.8300    22.9590     2.0990   -20.4280 
   63.6250    63.4790     2.1820     1.6080    52.6680     7.7860     6.3480     8.8660    22.8320     2.0880   -20.3820 
   63.7500    63.6010     2.2030     1.6190    52.0980     7.7220     6.3040     8.8070    22.6600     2.0880   -20.2940 
   63.8750    63.7240     2.2250     1.6310    52.3000     7.6580     6.2530     8.5990    22.4760     2.1010   -20.1730 
   64.0000    63.8460     2.2460     1.6420    53.2920     7.6000     6.1980     8.3260    22.3290     2.1190   -20.0310 
   64.1250    63.9690     2.2670     1.6540    54.8300     7.5600     6.1440     8.0940    22.2430     2.1370   -19.8710 
   64.2500    64.0910     2.2890     1.6650    56.9000     7.5370     6.0980     7.9570    22.1770     2.1510   -19.7060 
   64.3750    64.2140     2.3100     1.6770    58.6340     7.5300     6.0660     7.9850    22.1210     2.1630   -19.5450 
   64.5000    64.3370     2.3310     1.6880    58.1200     7.5310     6.0490     8.0710    22.0820     2.1710   -19.3910 
   64.6250    64.4590     2.3530     1.7000    55.6610     7.5430     6.0510     8.1390    22.0500     2.1690   -19.2450 
   64.7500    64.5820     2.3740     1.7110    53.0460     7.5700     6.0720     8.1640    22.0050     2.1570   -19.1010 
   64.8750    64.7040     2.3950     1.7230    52.6090     7.6160     6.1080     8.1170    21.9370     2.1400   -18.9480 
   65.0000    64.8270     2.4170     1.7340    54.6220     7.6750     6.1590     8.0940    21.8940     2.1280   -18.7850 
   65.1250    64.9490     2.4380     1.7460    56.5700     7.7260     6.2140     8.2070    21.9120     2.1310   -18.6080 
