~V
VERS. 2.00: Ver 2.00
~W
STRT.M 34.0000:
STOP.M 260.0000:
STEP.M 0.1250:
NULL. -999.2500:
UWI. FD10858:
~C
DEPT.M :
TVD. :
DX. :
DY. :
SP.MV :
GR.API :
RI. :
RML.OHMM :
RXO.OHMM :
DEN.GM/CC :
~A
# ...
   61.3750    61.3410    -0.6680    -0.8880   -13.9100    62.6970    11.3080    12.7450     9.1240     2.0900 
   61.5000    61.4650    -0.6760    -0.8980   -13.8650    61.0930    11.0330    12.3860     8.8030     2.0900 
   61.6250    61.5890    -0.6850    -0.9080   -13.8260    60.0960    10.3870    11.6140     8.6460     2.0950 
   61.7500    61.7130    -0.6930    -0.9190   -13.7920    60.6380     9.3270    10.3780     8.6270     2.1080 
   61.8750    61.8380    -0.7020    -0.9290   -13.7560    62.7320     8.1270     9.0010     7.8620     2.1330 
   62.0000    61.9620    -0.7100    -0.9400   -13.7110    67.1030     6.9980     7.7420     6.2150     2.1640 
   62.1250    62.0860    -0.7190    -0.9510   -13.6610    73.8380     6.1720     6.8270     5.1590     2.1940 
   62.2500    62.2100    -0.7280    -0.9620   -13.6110    79.9300     5.8380     6.4760     5.0440     2.2120 
   62.3750    62.3350    -0.7370    -0.9730   -13.5700    82.8600     6.0640     6.8290     5.1360     2.2140 
   62.5000    62.4590    -0.7460    -0.9840   -13.5440    83.3980     6.8370     7.8550     5.2890     2.2070 
   62.6250    62.5830    -0.7550    -0.9950   -13.5410    83.7970     8.2960     9.7020     6.4920     2.1990 
   62.7500    62.7070    -0.7640    -1.0060   -13.5630    84.3100    10.5890    12.5500     8.8660     2.1980 
   62.8750    62.8310    -0.7740    -1.0180   -13.6030    84.5720    13.2970    15.7700    11.6470     2.2030 
   63.0000    62.9550    -0.7830    -1.0290   -13.6370    83.0210    15.9400    18.8270    18.1940     2.2070 
   63.1250    63.0790    -0.7930    -1.0410   -13.6300    79.6270    18.0160    21.0510    28.2300     2.2070 
   63.2500    63.2040    -0.8020    -1.0520   -13.5600    77.2730    18.9710    21.8360    32.3550     2.2020 
   63.3750    63.3280    -0.8120    -1.0640   -13.4190    78.6340    18.7580    21.1860    32.5350     2.1920 
   63.5000    63.4520    -0.8220    -1.0760   -13.2330    81.3780    17.5810    19.3630    30.5670     2.1760 
   63.6250    63.5760    -0.8320    -1.0880   -13.0390    79.0400    15.3020    16.4070    20.7240     2.1600 
   63.7500    63.7000    -0.8410    -1.1000   -12.8780    72.6460    12.7420    13.2700    12.8820     2.1500 
   63.8750    63.8240    -0.8510    -1.1130   -12.7940    69.4470    10.4250    10.6140    10.7820     2.1550 
   64.0000    63.9480    -0.8610    -1.1250   -12.8000    73.1790     8.5880     8.6450     8.0260     2.1720 
   64.1250    64.0720    -0.8710    -1.1380   -12.8990    79.7150     7.4880     7.5580     5.9180     2.1890 
   64.2500    64.1960    -0.8810    -1.1500   -13.0480    83.4840     6.8100     6.9410     5.5740     2.2010 
   64.3750    64.3200    -0.8920    -1.1630   -13.1930    84.8960     6.4980     6.6780     5.6580     2.2060 
   64.5000    64.4430    -0.9020    -1.1760   -13.2800    85.7270     6.3750     6.5640     5.4540     2.2090 
   64.6250    64.5670    -0.9120    -1.1880   -13.2720    86.6070     6.2990     6.4970     5.2460     2.2130 
   64.7500    64.6910    -0.9220    -1.2010   -13.1780    87.4100     6.1540     6.3440     5.1240     2.2190 
   64.8750    64.8150    -0.9330    -1.2140   -13.0200    88.9640     5.8960     6.0720     4.9740     2.2260 
   65.0000    64.9390    -0.9430    -1.2270   -12.8330    90.6040     5.6030     5.7630     4.8470     2.2330 
   65.1250    65.0630    -0.9540    -1.2410   -12.6450    91.2250     5.4110     5.5500     4.6710     2.2400 
   65.2500    65.1870    -0.9650    -1.2540   -12.4760    92.2510     5.5800     5.7570     4.4820     2.2510 
   65.3750    65.3110    -0.9750    -1.2670   -12.3330    94.1600     6.4370     6.7770     4.6330     2.2780 
   65.5000    65.4340    -0.9860    -1.2800   -12.2060    93.0310     8.2110     8.8990    12.5250     2.3250 
   65.6250    65.5580    -0.9970    -1.2940   -12.0770    85.4240    11.2910    12.6160    34.9490     2.3800 
   65.7500    65.6820    -1.0080    -1.3070   -11.9240    74.6700    15.6270    18.0410    52.2960     2.4080 
   65.8750    65.8060    -1.0190    -1.3210   -11.7320    66.3930    19.2090    22.3350    44.5480     2.3760 
   66.0000    65.9300    -1.0300    -1.3340   -11.5060    61.5640    20.4520    23.6880    26.6460     2.2940 
   66.1250    66.0530    -1.0400    -1.3480   -11.2650    58.4510    19.1450    21.9570    17.4880     2.2020 
   66.2500    66.1770    -1.0510    -1.3610   -11.0360    58.3290    16.1340    18.1450    16.0820     2.1380 
   66.3750    66.3010    -1.0620    -1.3750   -10.8450    61.9330    14.0370    15.7480    14.7870     2.1140 
   66.5000    66.4250    -1.0730    -1.3890   -10.7000    64.9740    13.0850    14.8170    11.6840     2.1130 
   66.6250    66.5480    -1.0840    -1.4020   -10.5920    64.2720    13.1750    15.1730    10.1230     2.1180 
   66.7500    66.6720    -1.0950    -1.4160   -10.4900    62.5010    13.9530    16.3260    10.8220     2.1180 
   66.8750    66.7960    -1.1060    -1.4300   -10.3570    62.4160    15.2210    18.0840    12.7130     2.1150 
   67.0000    66.9200    -1.1180    -1.4440   -10.1790    62.6520    16.5010    19.7350    15.0150     2.1110 
   67.1250    67.0430    -1.1290    -1.4570    -9.9680    60.4620    17.3720    20.7280    16.6960     2.1080 
   67.2500    67.1670    -1.1400    -1.4710    -9.7700    56.7560    17.5100    20.7420    16.7990     2.1010 
   67.3750    67.2910    -1.1510    -1.4850    -9.6440    54.2920    17.0640    20.0070    15.1880     2.0910 
   67.5000    67.4150    -1.1620    -1.4990    -9.6200    55.2720    16.3550    19.0360    13.8430     2.0810 
   67.6250    67.5380    -1.1740    -1.5130    -9.7180    58.6290    15.7720    18.3410    13.3440     2.0770 
   67.7500    67.6620    -1.1850    -1.5270    -9.9210    60.6340    15.4050    17.9610    13.0170     2.0790 
   67.8750    67.7860    -1.1960    -1.5410   -10.2240    58.7450    14.9240    17.4650    13.0780     2.0850 
   68.0000    67.9090    -1.2080    -1.5550   -10.6130    55.9300    14.0870    16.4980    13.1400     2.0910 
   68.1250    68.0330    -1.2190    -1.5690   -11.0890    54.9330    12.6680    14.8010    12.5290     2.1000 
   68.2500    68.1570    -1.2310    -1.5840   -11.6370    57.1600    10.9670    12.7800    11.4430     2.1120 
   68.3750    68.2800    -1.2420    -1.5980   -12.2420    62.7930     9.3610    10.8870     9.5720     2.1290 
   68.5000    68.4040    -1.2540    -1.6120   -12.8720    69.8720     8.0790     9.4160     7.2620     2.1460 
   68.6250    68.5270    -1.2660    -1.6270   -13.4940    74.4050     7.2330     8.4900     6.1820     2.1560 
   68.7500    68.6510    -1.2770    -1.6410   -14.0790    76.6020     6.6700     7.9150     6.1290     2.1620 
   68.8750    68.7750    -1.2890    -1.6560   -14.6020    79.6800     6.3690     7.5990     6.1780     2.1710 
   69.0000    68.8980    -1.3010    -1.6700   -15.0630    82.9140     6.2730     7.4660     5.8310     2.1860 
   69.1250    69.0220    -1.3130    -1.6850   -15.4640    83.1060     6.3660     7.5420     5.3060     2.2100 
   69.2500    69.1450    -1.3250    -1.7000   -15.8240    81.0660     6.5750     7.8270     5.4220     2.2420 
   69.3750    69.2690    -1.3370    -1.7150   -16.1460    80.8460     6.8250     8.2130     6.1480     2.2820 
   69.5000    69.3920    -1.3490    -1.7300   -16.4260    81.0720     6.9570     8.4240     7.5240     2.3180 
   69.6250    69.5160    -1.3610    -1.7450   -16.6440    79.7480     6.8980     8.3210     8.0280     2.3280 
   69.7500    69.6390    -1.3730    -1.7600   -16.7860    76.7910     6.6250     7.8900     6.6340     2.3040 
   69.8750    69.7630    -1.3850    -1.7760   -16.8410    74.0320     6.2310     7.3350     5.4410     2.2630 
   70.0000    69.8860    -1.3980    -1.7910   -16.8230    72.5630     5.8740     6.9010     5.1180     2.2310 
   70.1250    70.0100    -1.4100    -1.8070   -16.7440    72.9250     5.5860     6.5830     5.0550     2.2220 
   70.2500    70.1330    -1.4220    -1.8220   -16.6310    74.1530     5.4110     6.4190     5.2760     2.2260 
   70.3750    70.2560    -1.4350    -1.8380   -16.5120    75.5920     5.3550     6.3370     5.3180     2.2330 
