~V
VERS. 2.00: Ver 2.00
~W
STRT.M 1.0000:
STOP.M 198.0000:
STEP.M 0.1250:
NULL. -999.2500:
UWI. FD10802:
~C
DEPT.M :
TVD. :
DX. :
DY. :
SP.MV :
GR.API :
RI. :
RML.OHMM :
RXO.OHMM :
DEN.GM/CC :
~A
# ...
  101.3750   100.6480    -3.6290     5.4760    -7.5560    93.7180     3.8670     4.2620     5.5440     2.1900 
  101.5000   100.7670    -3.6540     5.5040    -7.0740    95.0590     3.6590     4.0540     5.1280     2.1790 
  101.6250   100.8860    -3.6780     5.5320    -6.6360    95.4570     3.5010     3.8700     4.8850     2.1820 
  101.7500   101.0060    -3.7030     5.5600    -6.1690    96.0930     3.3560     3.6580     4.6650     2.1960 
  101.8750   101.1250    -3.7280     5.5880    -5.8720    98.1190     3.2590     3.4830     4.4810     2.2100 
  102.0000   101.2440    -3.7530     5.6170    -5.8190    99.4190     3.3750     3.5620     4.2670     2.2210 
  102.1250   101.3630    -3.7780     5.6450    -5.9940    99.1180     3.8840     4.1190     4.2660     2.2440 
  102.2500   101.4820    -3.8020     5.6730    -6.2640    95.9380     5.0630     5.4840     4.8300     2.3030 
  102.3750   101.6020    -3.8270     5.7010    -6.4540    90.6200     6.5490     7.1750     7.7880     2.3940 
  102.5000   101.7210    -3.8520     5.7300    -6.5720    86.3050     7.6920     8.4160    15.0360     2.4730 
  102.6250   101.8400    -3.8760     5.7580    -6.6910    84.6810     7.9870     8.6160    19.8220     2.4830 
  102.7500   101.9590    -3.9010     5.7870    -6.8260    87.2470     7.0980     7.4770    14.8850     2.4080 
  102.8750   102.0780    -3.9260     5.8150    -6.9950    91.9350     5.7230     5.8710     7.2730     2.2980 
  103.0000   102.1980    -3.9510     5.8440    -7.2200    96.1530     4.4320     4.4840     4.6150     2.2180 
  103.1250   102.3170    -3.9760     5.8720    -7.5270   100.4260     3.6970     3.8070     4.5850     2.1920 
  103.2500   102.4360    -4.0010     5.9010    -7.9990   101.6880     3.5770     3.8080     4.5090     2.2100 
  103.3750   102.5550    -4.0250     5.9290    -8.6210    99.6760     3.7810     4.1390     4.7100     2.2380 
  103.5000   102.6740    -4.0500     5.9580    -9.5110    93.3930     4.1140     4.5550     5.6920     2.2400 
  103.6250   102.7930    -4.0750     5.9860   -10.6310    88.0150     4.4730     4.9610     6.4710     2.2070 
  103.7500   102.9120    -4.1000     6.0150   -11.9360    84.4970     4.8540     5.3960     6.0070     2.1590 
  103.8750   103.0310    -4.1250     6.0430   -13.4410    83.8180     5.2440     5.8160     5.2280     2.1290 
  104.0000   103.1510    -4.1500     6.0720   -15.1200    82.9510     5.6810     6.2930     4.8370     2.1240 
  104.1250   103.2700    -4.1760     6.1000   -16.8180    82.3690     6.1490     6.7830     4.6340     2.1310 
  104.2500   103.3890    -4.2010     6.1290   -18.3030    80.3480     6.6290     7.2510     4.7110     2.1330 
  104.3750   103.5080    -4.2260     6.1570   -19.5130    78.4030     6.9720     7.5500     5.0660     2.1310 
  104.5000   103.6270    -4.2510     6.1860   -20.3080    75.8460     7.0630     7.5760     5.4070     2.1300 
  104.6250   103.7460    -4.2760     6.2140   -20.8550    73.6170     6.9290     7.3740     5.5030     2.1270 
  104.7500   103.8650    -4.3010     6.2430   -21.2990    71.9980     6.6330     7.0430     5.2990     2.1230 
  104.8750   103.9840    -4.3260     6.2710   -21.7160    72.2340     6.2990     6.6840     4.8840     2.1140 
  105.0000   104.1030    -4.3520     6.3000   -22.0440    73.4280     5.9990     6.3740     4.5840     2.1050 
  105.1250   104.2220    -4.3770     6.3280   -22.2100    74.5160     5.7500     6.1160     4.5460     2.0970 
  105.2500   104.3410    -4.4020     6.3570   -22.2600    74.3250     5.6030     5.9660     4.5390     2.0930 
  105.3750   104.4600    -4.4270     6.3860   -22.1410    74.1290     5.5360     5.9190     4.4460     2.0870 
  105.5000   104.5790    -4.4520     6.4140   -21.9560    74.0390     5.5700     5.9830     4.4870     2.0830 
  105.6250   104.6980    -4.4780     6.4430   -21.8150    75.2770     5.6510     6.0970     4.8210     2.0760 
  105.7500   104.8170    -4.5030     6.4720   -21.8400    77.1410     5.7410     6.2020     5.1670     2.0740 
  105.8750   104.9360    -4.5280     6.5000   -21.9630    77.6640     5.8130     6.2550     5.2350     2.0730 
  106.0000   105.0550    -4.5540     6.5290   -22.0870    76.4530     5.8290     6.2350     5.1080     2.0710 
  106.1250   105.1740    -4.5790     6.5570   -22.1460    72.8600     5.8340     6.2220     4.9660     2.0710 
  106.2500   105.2930    -4.6040     6.5860   -22.1640    71.5710     5.8190     6.2110     5.0620     2.0750 
  106.3750   105.4120    -4.6300     6.6150   -22.1960    71.4050     5.8240     6.2450     5.3980     2.0880 
  106.5000   105.5310    -4.6550     6.6430   -22.1850    73.4680     5.8330     6.3020     5.5400     2.0990 
  106.6250   105.6500    -4.6810     6.6720   -22.1440    74.3910     5.8330     6.3440     5.4040     2.1080 
  106.7500   105.7700    -4.7060     6.7000   -21.9740    73.7020     5.7900     6.3270     5.4630     2.1060 
  106.8750   105.8890    -4.7310     6.7290   -21.8050    71.7080     5.7150     6.2630     5.7640     2.0990 
  107.0000   106.0080    -4.7570     6.7570   -21.6790    69.7660     5.6130     6.1580     5.9170     2.0890 
  107.1250   106.1270    -4.7820     6.7850   -21.6580    69.4300     5.5240     6.0670     5.9420     2.0770 
  107.2500   106.2460    -4.8080     6.8140   -21.6540    69.8140     5.4400     5.9750     6.0280     2.0730 
  107.3750   106.3650    -4.8330     6.8420   -21.7050    70.5900     5.4050     5.9440     6.1740     2.0710 
  107.5000   106.4840    -4.8590     6.8710   -21.8030    70.4340     5.4630     6.0440     6.2950     2.0740 
  107.6250   106.6030    -4.8840     6.8990   -22.0300    69.4090     5.6070     6.2360     6.4470     2.0830 
  107.7500   106.7220    -4.9100     6.9270   -22.2920    67.5250     5.7530     6.3950     6.8760     2.1060 
  107.8750   106.8410    -4.9350     6.9560   -22.3920    66.7020     5.8440     6.4810     7.6830     2.1310 
  108.0000   106.9600    -4.9610     6.9840   -22.2840    66.5250     5.8340     6.4170     8.1120     2.1400 
  108.1250   107.0790    -4.9860     7.0120   -21.9360    68.5410     5.7360     6.2840     7.4690     2.1290 
  108.2500   107.1980    -5.0120     7.0400   -21.5040    70.5220     5.6100     6.1480     6.6540     2.1100 
  108.3750   107.3170    -5.0380     7.0690   -21.0100    73.8410     5.4950     6.0410     6.5650     2.1020 
  108.5000   107.4360    -5.0630     7.0970   -20.3940    76.4550     5.3640     5.9290     6.9290     2.1020 
  108.6250   107.5550    -5.0890     7.1250   -19.6700    80.0600     5.2110     5.7800     7.2360     2.1060 
  108.7500   107.6740    -5.1150     7.1530   -18.7850    83.1830     4.9850     5.5060     7.1030     2.1150 
  108.8750   107.7930    -5.1400     7.1810   -17.6690    86.6250     4.6690     5.1280     6.4160     2.1310 
  109.0000   107.9120    -5.1660     7.2090   -16.3050    90.1470     4.3620     4.7750     5.5820     2.1520 
  109.1250   108.0310    -5.1920     7.2370   -14.7280    93.4640     4.0900     4.4770     5.0350     2.1770 
  109.2500   108.1500    -5.2170     7.2650   -12.9900    96.2470     3.9070     4.2940     5.0890     2.2070 
  109.3750   108.2700    -5.2430     7.2930   -11.3840    99.0560     3.7960     4.1900     5.7880     2.2380 
  109.5000   108.3890    -5.2690     7.3220   -10.0880   100.9800     3.7500     4.1560     5.7700     2.2560 
  109.6250   108.5080    -5.2940     7.3500    -9.0600   101.1430     3.7030     4.1120     4.8000     2.2520 
  109.7500   108.6270    -5.3200     7.3780    -8.2870   100.2100     3.6720     4.1020     4.4360     2.2340 
  109.8750   108.7460    -5.3460     7.4060    -7.7780    99.9030     3.6330     4.0690     4.5990     2.2200 
  110.0000   108.8650    -5.3710     7.4340    -7.4280   100.0190     3.5560     3.9750     4.6020     2.2230 
  110.1250   108.9840    -5.3970     7.4620    -7.1910    99.9530     3.4660     3.8440     4.4810     2.2400 
  110.2500   109.1030    -5.4230     7.4900    -7.1830   101.3220     3.3420     3.6590     4.2410     2.2610 
  110.3750   109.2220    -5.4490     7.5180    -7.4370   102.1340     3.2650     3.5440     3.9570     2.2720 
