~V
VERS. 2.00: Ver 2.00
~W
STRT.M 15.0000:
STOP.M 236.0000:
STEP.M 0.1250:
NULL. -999.2500:
UWI. FD10614:
~C
DEPT.M :
TVD. :
DX. :
DY. :
DEN.GM/CC :
GR.API :
RML.OHMM :
RI. :
RXO.OHMM :
CALI.CM :
SP.MV :
~A
# ...
  147.0000   141.9880    24.0770    11.2980     2.5400    54.6920    19.4420    18.1980    15.4500    21.2040    -9.6840 
  147.1250   142.0990    24.1260    11.3250     2.5400    55.2930    19.2060    17.9960    15.3950    21.4100    -9.6440 
  147.2500   142.2110    24.1740    11.3520     2.5320    55.0560    18.9840    17.7720    16.0120    21.7450    -9.5720 
  147.3750   142.3230    24.2230    11.3780     2.5230    54.3660    18.8590    17.6200    16.1590    22.0010    -9.4410 
  147.5000   142.4350    24.2720    11.4050     2.5190    54.1680    18.8640    17.5850    15.6090    22.0050    -9.2540 
  147.6250   142.5470    24.3200    11.4320     2.5260    53.7490    19.0280    17.7000    14.0780    21.7590    -9.1220 
  147.7500   142.6590    24.3690    11.4580     2.5380    53.1490    19.3060    17.9350    13.4840    21.4170    -9.0320 
  147.8750   142.7710    24.4180    11.4850     2.5480    52.5770    19.6550    18.2560    13.9580    21.1410    -8.9850 
  148.0000   142.8830    24.4660    11.5120     2.5490    51.3980    20.0060    18.6010    15.1850    21.1080    -9.0360 
  148.1250   142.9940    24.5150    11.5390     2.5370    49.6910    20.2820    18.8900    16.2060    21.2930    -9.1340 
  148.2500   143.1060    24.5640    11.5650     2.5200    49.6960    20.4800    19.1070    16.8770    21.4680    -9.2050 
  148.3750   143.2180    24.6130    11.5920     2.5080    52.3070    20.6550    19.2890    16.9970    21.4010    -9.3180 
  148.5000   143.3300    24.6610    11.6190     2.5110    54.9230    20.8970    19.5210    16.0700    21.1790    -9.4870 
  148.6250   143.4420    24.7100    11.6450     2.5290    55.3790    21.2930    19.9150    15.4080    20.9600    -9.6470 
  148.7500   143.5540    24.7590    11.6720     2.5530    54.5710    21.7840    20.4360    16.3630    20.7620    -9.7970 
  148.8750   143.6660    24.8070    11.6990     2.5730    53.3450    22.2460    20.9660    18.2250    20.4980    -9.9790 
  149.0000   143.7780    24.8560    11.7260     2.5810    52.7360    22.5260    21.3450    19.8250    20.2360   -10.0790 
  149.1250   143.8890    24.9050    11.7520     2.5730    53.1410    22.4560    21.3800    20.7730    20.1270   -10.2010 
  149.2500   144.0010    24.9530    11.7790     2.5590    54.0730    22.0920    21.0920    19.9270    20.3100   -10.3430 
  149.3750   144.1130    25.0020    11.8060     2.5440    54.4340    21.5390    20.5790    16.8190    20.5210   -10.4700 
  149.5000   144.2250    25.0510    11.8320     2.5350    54.1540    20.9490    19.9990    14.1560    20.5740   -10.5020 
  149.6250   144.3370    25.0990    11.8590     2.5310    54.7620    20.4940    19.5240    12.9490    20.5460   -10.5160 
  149.7500   144.4490    25.1480    11.8860     2.5320    56.1820    20.2510    19.2450    13.0880    20.4960   -10.5090 
  149.8750   144.5610    25.1970    11.9130     2.5330    57.4290    20.2480    19.2080    13.7990    20.4350   -10.4650 
  150.0000   144.6730    25.2450    11.9390     2.5340    57.9910    20.4690    19.4080    14.2790    20.3770   -10.4950 
  150.1250   144.7800    25.3030    11.9690     2.5340    58.3500    20.8550    19.8020    14.9870    20.3450   -10.5430 
  150.2500   144.8870    25.3610    11.9980     2.5340    58.8710    21.2430    20.2380    15.4830    20.3210   -10.6180 
  150.3750   144.9940    25.4180    12.0270     2.5360    59.2500    21.4810    20.5680    14.7850    20.3320   -10.6570 
  150.5000   145.1000    25.4760    12.0570     2.5440    59.6650    21.4480    20.6510    13.0320    20.4170   -10.7420 
  150.6250   145.2070    25.5330    12.0860     2.5580    60.2840    21.0620    20.3820    12.1690    20.5340   -10.8370 
  150.7500   145.3140    25.5910    12.1160     2.5710    60.3120    20.4740    19.8850    12.5950    20.5900   -10.9670 
  150.8750   145.4210    25.6480    12.1450     2.5760    59.4430    19.8460    19.3090    13.4510    20.6090   -11.0820 
  151.0000   145.5280    25.7060    12.1740     2.5700    57.9510    19.3380    18.8110    13.5810    20.6130   -11.1370 
  151.1250   145.6350    25.7640    12.2040     2.5530    56.9550    19.0900    18.5360    13.2860    20.6110   -11.1140 
  151.2500   145.7420    25.8210    12.2330     2.5360    56.5910    19.0610    18.4650    12.6360    20.6130   -11.0910 
  151.3750   145.8490    25.8790    12.2630     2.5240    57.3680    19.1690    18.5410    11.8810    20.6230   -11.0840 
  151.5000   145.9560    25.9360    12.2920     2.5210    58.7390    19.2950    18.6730    11.7060    20.6460   -11.0240 
  151.6250   146.0630    25.9940    12.3210     2.5240    60.4540    19.3030    18.7200    11.9350    20.6520   -10.9180 
  151.7500   146.1700    26.0510    12.3510     2.5230    60.5790    19.1540    18.6060    12.0640    20.6100   -10.7590 
  151.8750   146.2770    26.1090    12.3800     2.5140    57.4210    18.8790    18.3400    11.9420    20.5220   -10.5690 
  152.0000   146.3840    26.1670    12.4100     2.4930    52.8670    18.5630    17.9930    11.4660    20.4480   -10.4320 
  152.1250   146.4910    26.2240    12.4390     2.4660    51.8470    18.3300    17.6900    10.7670    20.4290   -10.3290 
  152.2500   146.5980    26.2820    12.4680     2.4470    53.7450    18.2390    17.5160    10.0160    20.4660   -10.2060 
  152.3750   146.7050    26.3390    12.4980     2.4460    54.7120    18.2900    17.4890     9.6810    20.5500   -10.0720 
  152.5000   146.8120    26.3970    12.5270     2.4630    53.7580    18.4400    17.5710    10.0440    20.6020   -10.0090 
  152.6250   146.9190    26.4540    12.5570     2.4920    54.2900    18.6290    17.7000    11.3420    20.5730   -10.0280 
  152.7500   147.0260    26.5120    12.5860     2.5170    57.4030    18.8170    17.8290    12.2810    20.5560   -10.0930 
  152.8750   147.1330    26.5700    12.6150     2.5300    58.9700    19.0190    17.9580    12.5700    20.5640   -10.1950 
  153.0000   147.2400    26.6270    12.6450     2.5290    56.9060    19.2780    18.1160    12.4480    20.5940   -10.2480 
  153.1250   147.3470    26.6850    12.6740     2.5200    55.5580    19.6610    18.3610    12.8740    20.6100   -10.3170 
  153.2500   147.4540    26.7420    12.7040     2.5130    57.6560    20.1560    18.7000    13.4780    20.6270   -10.3500 
  153.3750   147.5610    26.8000    12.7330     2.5170    59.8200    20.7090    19.1020    14.1000    20.6130   -10.4160 
  153.5000   147.6680    26.8570    12.7620     2.5320    58.0510    21.2310    19.4940    14.6090    20.4680   -10.4320 
  153.6250   147.7750    26.9150    12.7920     2.5530    54.7000    21.5980    19.7690    14.8500    20.3400   -10.3450 
  153.7500   147.8820    26.9730    12.8210     2.5690    55.3250    21.7630    19.8830    15.2620    20.5900   -10.1950 
  153.8750   147.9890    27.0300    12.8510     2.5720    58.4200    21.7100    19.8130    15.5070    21.1780   -10.0670 
  154.0000   148.0960    27.0880    12.8800     2.5590    59.7550    21.4510    19.5640    15.0490    21.7460    -9.9310 
  154.1250   148.2030    27.1450    12.9090     2.5330    57.6510    21.0080    19.1500    14.6480    22.0130    -9.7830 
  154.2500   148.3100    27.2030    12.9390     2.5070    55.9860    20.4830    18.6570    14.1540    21.9120    -9.6810 
  154.3750   148.4170    27.2600    12.9680     2.4910    56.6480    19.9550    18.1470    13.1540    21.5660    -9.5840 
  154.5000   148.5240    27.3180    12.9980     2.4930    57.5730    19.4950    17.6880    12.3040    21.2080    -9.5500 
  154.6250   148.6310    27.3760    13.0270     2.5100    56.5700    19.1660    17.3410    12.1390    20.9650    -9.6190 
  154.7500   148.7380    27.4330    13.0560     2.5300    55.1820    18.9160    17.0700    12.1820    20.7940    -9.7620 
  154.8750   148.8450    27.4910    13.0860     2.5410    53.7370    18.6590    16.8010    11.9200    20.6270    -9.9200 
  155.0000   148.9520    27.5480    13.1150     2.5390    53.4100    18.2860    16.4390    11.6970    20.4030   -10.1210 
  155.1250   149.0590    27.6060    13.1440     2.5250    54.1370    17.6870    15.8770    11.5710    20.2490   -10.3540 
