~V
VERS. 2.00: Ver 2.00
~W
STRT.M 53.0000:
STOP.M 258.0000:
STEP.M 0.1250:
NULL. -999.2500:
UWI. FD10870:
~C
DEPT.M :
TVD. :
DX. :
DY. :
SP.MV :
GR.API :
RI. :
RML.OHMM :
RXO.OHMM :
DEN.GM/CC :
~A
# ...
  189.8750   183.4460   -30.9400     2.2300    -3.4860    96.7210     4.7410     6.0660     5.7140     2.4170 
  190.0000   183.5570   -30.9910     2.2590    -3.2310    98.0180     4.8140     6.1740     5.6800     2.4150 
  190.1250   183.6680   -31.0410     2.2880    -3.4890   100.7760     4.9240     6.3770     5.4070     2.4120 
  190.2500   183.7780   -31.0910     2.3170    -3.8140   102.0920     5.0270     6.5850     5.4320     2.4190 
  190.3750   183.8890   -31.1420     2.3460    -3.7920    98.9150     5.0690     6.7070     6.0450     2.4340 
  190.5000   184.0000   -31.1920     2.3750    -3.9160    94.7750     4.9970     6.6480     7.0970     2.4440 
  190.6250   184.1100   -31.2420     2.4050    -4.2470    91.9110     4.8330     6.3930     7.2280     2.4410 
  190.7500   184.2210   -31.2920     2.4350    -4.2280    90.0480     4.6160     6.0290     6.0710     2.4310 
  190.8750   184.3320   -31.3420     2.4640    -4.1520    89.8890     4.4130     5.7050     5.2690     2.4280 
  191.0000   184.4420   -31.3920     2.4940    -4.2380    89.8530     4.2960     5.5250     5.1320     2.4310 
  191.1250   184.5530   -31.4410     2.5240    -4.3470    91.3640     4.2810     5.4950     5.1890     2.4450 
  191.2500   184.6640   -31.4910     2.5550    -4.4210    92.7120     4.3320     5.5430     5.2010     2.4630 
  191.3750   184.7740   -31.5410     2.5850    -4.5570    94.4410     4.3860     5.5760     5.1840     2.4790 
  191.5000   184.8850   -31.5900     2.6150    -4.7880    94.6360     4.4180     5.5730     5.2290     2.4840 
  191.6250   184.9960   -31.6400     2.6460    -4.9520    94.7010     4.4260     5.5520     4.6660     2.4720 
  191.7500   185.1060   -31.6890     2.6760    -4.9940    95.7580     4.4130     5.5200     4.1150     2.4560 
  191.8750   185.2170   -31.7380     2.7070    -5.0280    97.4710     4.3900     5.4840     4.5440     2.4460 
  192.0000   185.3280   -31.7880     2.7380    -5.0720    99.4030     4.3680     5.4540     5.1550     2.4450 
  192.1250   185.4380   -31.8370     2.7680    -5.0080    98.8240     4.3520     5.4340     5.4370     2.4490 
  192.2500   185.5490   -31.8860     2.7990    -4.9910    97.4410     4.3280     5.4130     5.5270     2.4530 
  192.3750   185.6600   -31.9350     2.8310    -5.0440    94.4040     4.2950     5.3860     5.1850     2.4570 
  192.5000   185.7700   -31.9840     2.8620    -5.0450    92.1620     4.2420     5.3440     4.6100     2.4580 
  192.6250   185.8810   -32.0330     2.8930    -4.9740    93.6120     4.1740     5.2830     4.4220     2.4600 
  192.7500   185.9920   -32.0820     2.9250    -4.8830    96.7640     4.0840     5.1840     4.6830     2.4580 
  192.8750   186.1020   -32.1310     2.9570    -4.7990   100.0330     4.0000     5.0740     4.9750     2.4540 
  193.0000   186.2130   -32.1790     2.9880    -4.7200   100.4800     3.9530     5.0000     5.1330     2.4470 
  193.1250   186.3240   -32.2280     3.0200    -4.6130    99.6890     3.9960     5.0410     5.1480     2.4350 
  193.2500   186.4340   -32.2760     3.0530    -4.4620    96.4270     4.1630     5.2540     5.1400     2.4260 
  193.3750   186.5450   -32.3250     3.0850    -4.3200    92.2080     4.4870     5.6950     5.7860     2.4390 
  193.5000   186.6560   -32.3730     3.1170    -4.1330    88.9160     4.8870     6.2340     6.8180     2.4810 
  193.6250   186.7660   -32.4210     3.1500    -4.0400    87.5900     5.2550     6.7110     7.3170     2.5300 
  193.7500   186.8770   -32.4700     3.1820    -3.9230    86.6000     5.4800     6.9650     7.8380     2.5550 
  193.8750   186.9870   -32.5180     3.2150    -3.8700    84.4910     5.4900     6.9230     8.3510     2.5450 
  194.0000   187.0980   -32.5660     3.2470    -3.7870    82.9180     5.3210     6.6390     8.0070     2.5200 
  194.1250   187.2090   -32.6140     3.2800    -3.6700    84.3870     5.0070     6.1910     7.1710     2.4960 
  194.2500   187.3190   -32.6630     3.3130    -3.5910    88.1900     4.6610     5.7270     6.1640     2.4720 
  194.3750   187.4300   -32.7110     3.3460    -3.4020    90.3870     4.3820     5.3550     5.2940     2.4490 
  194.5000   187.5400   -32.7590     3.3790    -3.0890    88.9370     4.2160     5.1370     5.0500     2.4370 
  194.6250   187.6510   -32.8070     3.4120    -2.7620    85.0610     4.1960     5.1170     4.9610     2.4400 
  194.7500   187.7610   -32.8560     3.4450    -2.4780    84.1060     4.2650     5.2060     4.9050     2.4470 
  194.8750   187.8720   -32.9040     3.4780    -2.3160    85.7170     4.3720     5.3390     5.1700     2.4510 
  195.0000   187.9820   -32.9520     3.5110    -2.3050    89.4420     4.4840     5.4720     5.5270     2.4470 
  195.1250   188.0920   -33.0010     3.5450    -2.3220    91.5240     4.5500     5.5280     5.7910     2.4450 
  195.2500   188.2020   -33.0490     3.5780    -2.3600    92.6070     4.5480     5.4980     5.6840     2.4400 
  195.3750   188.3130   -33.0980     3.6110    -2.2900    91.5260     4.4860     5.4130     5.3430     2.4370 
  195.5000   188.4230   -33.1470     3.6450    -2.1120    90.9960     4.3750     5.2730     5.1720     2.4360 
  195.6250   188.5330   -33.1950     3.6790    -1.9190    90.9590     4.2340     5.0880     5.0400     2.4430 
  195.7500   188.6430   -33.2440     3.7130    -1.6780    90.8820     4.1020     4.9150     4.8830     2.4530 
  195.8750   188.7530   -33.2930     3.7470    -1.3390    90.3130     4.0740     4.8740     4.9090     2.4520 
  196.0000   188.8630   -33.3420     3.7810    -1.0470    89.0880     4.2900     5.1640     5.0130     2.4310 
  196.1250   188.9720   -33.3910     3.8150    -0.8530    88.3260     4.6950     5.6890     5.0820     2.3950 
  196.2500   189.0820   -33.4400     3.8490    -0.7590    87.3390     5.2190     6.3440     6.2000     2.3710 
  196.3750   189.1920   -33.4890     3.8840    -0.6830    86.4830     5.9300     7.1950     9.9980     2.3690 
  196.5000   189.3010   -33.5380     3.9180    -0.4100    86.4570     6.7010     8.0520    13.0010     2.3730 
  196.6250   189.4110   -33.5870     3.9530    -0.1050    84.0650     7.5060     8.9150    11.0300     2.3740 
  196.7500   189.5200   -33.6370     3.9880     0.1260    79.4860     8.3650     9.8540     9.4080     2.3660 
  196.8750   189.6300   -33.6860     4.0240     0.2510    73.8570     9.2280    10.8020    11.7440     2.3490 
  197.0000   189.7390   -33.7350     4.0600     0.3560    70.3050    10.1810    11.8440    14.0680     2.3120 
  197.1250   189.8480   -33.7840     4.0950     0.4730    69.8140    11.0050    12.6870    15.4080     2.2700 
  197.2500   189.9570   -33.8330     4.1310     0.5970    70.1460    11.5070    13.1040    15.8610     2.2550 
  197.3750   190.0660   -33.8820     4.1670     0.7210    70.4340    11.4990    12.9620    14.5180     2.2990 
  197.5000   190.1750   -33.9310     4.2040     0.9090    69.8170    11.1110    12.4340    13.3990     2.3790 
  197.6250   190.2850   -33.9810     4.2400     1.0180    69.7300    10.3710    11.5360    14.5140     2.4440 
  197.7500   190.3940   -34.0300     4.2760     1.2350    71.6710     9.3680    10.3440    14.9660     2.4570 
  197.8750   190.5020   -34.0790     4.3120     1.4690    73.9790     8.2890     9.0860    11.9820     2.4210 
  198.0000   190.6110   -34.1290     4.3490     1.6180    74.8210     7.4140     8.1020     8.7490     2.3760 
  198.1250   190.7200   -34.1780     4.3850     1.7180    73.6880     6.8550     7.5130     7.8090     2.3340 
  198.2500   190.8290   -34.2280     4.4220     1.7940    73.2000     6.6280     7.3260     8.2810     2.3100 
  198.3750   190.9380   -34.2770     4.4590     1.8190    73.6590     6.5770     7.3030     8.6880     2.2900 
  198.5000   191.0470   -34.3270     4.4950     1.7500    74.3350     6.5430     7.2680     8.2390     2.2900 
  198.6250   191.1550   -34.3760     4.5320     1.5520    75.8270     6.4320     7.1060     7.6220     2.3070 
  198.7500   191.2640   -34.4260     4.5690     1.2920    78.5380     6.2170     6.8130     7.2340     2.3340 
  198.8750   191.3720   -34.4750     4.6060     0.9770    80.5290     6.0710     6.6240     6.7640     2.3520 
