~V
VERS. 2.00: Ver 2.00
~W
STRT.M 30.0000:
STOP.M 262.0000:
STEP.M 0.1250:
NULL. -999.2500:
UWI. FD10852:
~C
DEPT.M :
TVD. :
DX. :
DY. :
SP.MV :
GR.API :
RI. :
RML.OHMM :
RXO.OHMM :
DEN.GM/CC :
~A
# ...
  249.0000   222.7160   -94.3000    -4.5890     0.0990    43.8190     3.0800     3.7180     4.1710     2.2610 
  249.1250   222.8190   -94.3710    -4.5930     0.0990    41.1720     2.9700     3.5590     4.0320     2.2620 
  249.2500   222.9220   -94.4410    -4.5960     0.0990    36.3990     2.8420     3.3830     3.8140     2.2690 
  249.3750   223.0250   -94.5120    -4.6000     0.0990    32.4900     2.7180     3.2260     3.6470     2.2680 
  249.5000   223.1280   -94.5830    -4.6030     0.0990    30.5330     2.6280     3.1080     3.5630     2.2640 
  249.6250   223.2310   -94.6540    -4.6070     0.0990    30.0270     2.5750     3.0490     3.5800     2.2670 
  249.7500   223.3340   -94.7240    -4.6100     0.0990    29.8680     2.5510     3.0230     3.6390     2.2700 
  249.8750   223.4370   -94.7950    -4.6140     0.0990    29.7210     2.5400     3.0160     3.6670     2.2670 
  250.0000   223.5400   -94.8660    -4.6180     0.0990    29.6750     2.5400     3.0330     3.6730     2.2790 
  250.1250   223.6430   -94.9370    -4.6220     0.0990    29.6900     2.5490     3.0300     3.6700     2.3040 
  250.2500   223.7450   -95.0070    -4.6250     0.0990    30.3580     2.5460     3.0060     3.6710     2.3140 
  250.3750   223.8480   -95.0780    -4.6290     0.0990    30.4020     2.5330     2.9820     3.6910     2.3040 
  250.5000   223.9510   -95.1490    -4.6330     0.0990    29.5090     2.5150     2.9550     3.7050     2.2890 
  250.6250   224.0540   -95.2200    -4.6370     0.0990    28.4620     2.4940     2.9420     3.7080     2.2820 
  250.7500   224.1570   -95.2900    -4.6410     0.0990    28.4190     2.4790     2.9230     3.7100     2.2780 
  250.8750   224.2600   -95.3610    -4.6440     0.0990    29.1630     2.4650     2.8940     3.7030     2.2800 
  251.0000   224.3630   -95.4320    -4.6480     0.0990    29.9160     2.4610     2.8670     3.6940     2.2850 
  251.1250   224.4660   -95.5030    -4.6520     0.0990    30.5260     2.4620     2.8650     3.6930     2.2860 
  251.2500   224.5690   -95.5730    -4.6560     0.0990    30.7740     2.4660     2.8830     3.7030     2.2850 
  251.3750   224.6720   -95.6440    -4.6590     0.0990    31.1060     2.4750     2.9030     3.7220     2.2800 
  251.5000   224.7750   -95.7150    -4.6630     0.0990    31.5720     2.4740     2.9220     3.7170     2.2770 
  251.6250   224.8780   -95.7860    -4.6670     0.0990    31.5820     2.4620     2.9040     3.6780     2.2750 
  251.7500   224.9810   -95.8570    -4.6710     0.0990    31.4490     2.4430     2.8730     3.6520     2.2780 
  251.8750   225.0840   -95.9270    -4.6750     0.0990    31.9900     2.4220     2.8470     3.6580     2.2800 
  252.0000   225.1870   -95.9980    -4.6780     0.0990    32.8190     2.4080     2.8310     3.6770     2.2810 
  252.1250   225.2900   -96.0690    -4.6820     0.0990    32.5380     2.3940     2.8280     3.6850     2.2860 
  252.2500   225.3930   -96.1400    -4.6860     0.0990    31.3570     2.3810     2.8200     3.6770     2.2870 
  252.3750   225.4960   -96.2110    -4.6900     0.0990    30.8990     2.3730     2.8080     3.6640     2.2800 
  252.5000   225.5990   -96.2810    -4.6930     0.0990    31.7660     2.3770     2.8130     3.6510     2.2690 
  252.6250   225.7020   -96.3520    -4.6970     0.0990    32.1920     2.3900     2.8380     3.6480     2.2630 
  252.7500   225.8050   -96.4230    -4.7010     0.0990    30.8990     2.4120     2.8710     3.6780     2.2610 
  252.8750   225.9080   -96.4940    -4.7050     0.0990    29.6110     2.4390     2.9140     3.7240     2.2610 
  253.0000   226.0110   -96.5650    -4.7090     0.0990    29.9520     2.4690     2.9390     3.7470     2.2730 
  253.1250   226.1140   -96.6350    -4.7120     0.0990    30.8910     2.5210     2.9930     3.7510     2.2960 
  253.2500   226.2160   -96.7060    -4.7160     0.0990    30.7560     2.5900     3.0690     3.7850     2.3130 
  253.3750   226.3190   -96.7770    -4.7200     0.0990    30.0890     2.6760     3.1650     3.8610     2.3050 
  253.5000   226.4220   -96.8480    -4.7240     0.0990    30.0380     2.7830     3.2940     3.9250     2.2750 
  253.6250   226.5250   -96.9180    -4.7270     0.0990    30.2440     2.9020     3.4360     4.0040     2.2540 
  253.7500   226.6280   -96.9890    -4.7310     0.0990    30.2970     3.0350     3.5920     4.1530     2.2610 
  253.8750   226.7310   -97.0600    -4.7350     0.0990    30.2860     3.1630     3.7450     4.2210     2.2730 
  254.0000   226.8340   -97.1310    -4.7390     0.0990    30.2820     3.2700     3.8580     4.1410     2.2750 
  254.1250   226.9370   -97.2020    -4.7430     0.0990    30.2820     3.3540     3.9390     4.1030     2.2800 
  254.2500   227.0400   -97.2720    -4.7460     0.0990    30.2820     3.4030     3.9850     4.2080     2.2940 
  254.3750   227.1430   -97.3430    -4.7500     0.0990    30.2820     3.4290     4.0000     4.3170     2.3000 
  254.5000   227.2460   -97.4140    -4.7540     0.0990    30.2820     3.4340     4.0010     4.3050     2.2950 
  254.6250   227.3490   -97.4850    -4.7580     0.0990    30.2820     3.4340     4.0000     4.2650     2.2980 
  254.7500   227.4520   -97.5560    -4.7610     0.0990    30.2820     3.4340     4.0020     4.2900     2.3040 
  254.8750   227.5550   -97.6260    -4.7650     0.0990    30.2820     3.4340     4.0030     4.2850     2.3040 
  255.0000   227.6580   -97.6970    -4.7690     0.0990    30.2820     3.4340     4.0040     4.1320     2.2930 
  255.1250   227.7610   -97.7680    -4.7730     0.0990    30.2820     3.4340     4.0040     3.9450     2.2760 
  255.2500   227.8640   -97.8390    -4.7770     0.0990    30.2820     3.4330     4.0040     3.8540     2.2580 
  255.3750   227.9670   -97.9100    -4.7800     0.0990    30.2820     3.4330     4.0040     3.8320     2.2550 
  255.5000   228.0700   -97.9800    -4.7840     0.0990    30.2820     3.4340     4.0040     3.8420     2.2700 
  255.6250   228.1730   -98.0510    -4.7880     0.0990    30.2820     3.4340     4.0040     3.8440     2.2830 
  255.7500   228.2760   -98.1220    -4.7920     0.0990    30.2820     3.4330     4.0040     3.8280     2.2860 
  255.8750   228.3780   -98.1930    -4.7950     0.0990    30.2820     3.4330     4.0060     3.8240     2.2900 
  256.0000   228.4810   -98.2640    -4.7990     0.0990    30.2820     3.4330     4.0090     3.8540     2.2950 
  256.1250   228.5840   -98.3340    -4.8030     0.0990    30.2820     3.4330     4.0110     3.9010     2.2940 
  256.2500   228.6870   -98.4050    -4.8070     0.0990    30.2820     3.4320     4.0120     3.9180     2.2870 
  256.3750   228.7900   -98.4760    -4.8100     0.0990    30.2820     3.4320     4.0120     3.9100     2.2800 
  256.5000   228.8930   -98.5470    -4.8140     0.0990    30.2820     3.4320     4.0120     3.8930     2.2770 
  256.6250   228.9960   -98.6180    -4.8180     0.0990    30.2820     3.4320     4.0120     3.8720     2.2710 
  256.7500   229.0990   -98.6880    -4.8220     0.0990    30.2820     3.4320     4.0120     3.8800     2.2630 
  256.8750   229.2020   -98.7590    -4.8260     0.0990    30.2820     3.4320     4.0120     3.9180     2.2580 
  257.0000   229.3050   -98.8300    -4.8290     0.0990    30.2820     3.4320     4.0120     3.9790     2.2610 
  257.1250   229.4080   -98.9010    -4.8330     0.0990    30.2820     3.4320     4.0120     4.0410     2.2700 
  257.2500   229.5110   -98.9720    -4.8370     0.0990    30.2820     3.4320     4.0120     4.0510     2.2800 
  257.3750   229.6140   -99.0420    -4.8410     0.0990    30.2820     3.4320     4.0120     4.0230     2.2860 
  257.5000   229.7170   -99.1130    -4.8440     0.0990    30.2820     3.4320     4.0120     4.0190     2.2780 
  257.6250   229.8200   -99.1840    -4.8480     0.0990    30.2820     3.4320     4.0120     4.0470     2.2590 
  257.7500   229.9230   -99.2550    -4.8520     0.0990    30.2820     3.4320     4.0120     4.0770     2.2540 
  257.8750   230.0260   -99.3250    -4.8560     0.0990    30.2820     3.4320     4.0120     4.0940     2.2680 
  258.0000   230.1290   -99.3960    -4.8600     0.0990    30.2820     3.4320     4.0120     4.0860     2.2830 
