~V
VERS. 2.00: Ver 2.00
~W
STRT.M 53.0000:
STOP.M 258.0000:
STEP.M 0.1250:
NULL. -999.2500:
UWI. FD10870:
~C
DEPT.M :
TVD. :
DX. :
DY. :
SP.MV :
GR.API :
RI. :
RML.OHMM :
RXO.OHMM :
DEN.GM/CC :
~A
# ...
  144.2500   142.2610   -13.3760    -6.1550    13.4040    74.0660    23.6020    25.8480    17.7170     2.2130 
  144.3750   142.3790   -13.4160    -6.1440    12.9990    74.6470    23.1180    25.3660    18.1540     2.2370 
  144.5000   142.4970   -13.4550    -6.1330    12.6140    73.7180    23.1510    25.4570    17.8740     2.2610 
  144.6250   142.6150   -13.4950    -6.1210    12.4060    73.8140    23.6990    26.1520    17.7410     2.2670 
  144.7500   142.7330   -13.5350    -6.1100    12.3500    73.2900    24.9490    27.6340    17.9910     2.2480 
  144.8750   142.8510   -13.5750    -6.0980    12.4290    72.6380    27.0660    30.0140    17.9200     2.2220 
  145.0000   142.9690   -13.6150    -6.0860    12.5670    72.8320    30.2030    33.6160    17.6520     2.2000 
  145.1250   143.0870   -13.6550    -6.0740    12.7970    72.9950    34.4530    38.4870    18.5510     2.1960 
  145.2500   143.2040   -13.6950    -6.0620    13.1260    73.3310    38.7840    43.3620    22.3560     2.1920 
  145.3750   143.3220   -13.7350    -6.0500    13.3690    74.6370    41.3330    45.9390    28.5690     2.1900 
  145.5000   143.4400   -13.7750    -6.0380    13.4350    75.8410    41.0960    45.1230    33.3420     2.1860 
  145.6250   143.5580   -13.8150    -6.0250    13.3860    75.8200    37.8590    40.8470    32.8950     2.1860 
  145.7500   143.6750   -13.8550    -6.0130    13.2720    73.8030    33.1850    35.2370    28.0590     2.1940 
  145.8750   143.7930   -13.8950    -6.0000    13.1840    72.0000    29.0930    30.6930    22.6530     2.2040 
  146.0000   143.9110   -13.9350    -5.9870    13.1800    70.9320    26.1030    27.5670    19.4510     2.2140 
  146.1250   144.0280   -13.9760    -5.9740    13.1480    70.5930    24.2780    25.7800    17.7020     2.2130 
  146.2500   144.1460   -14.0160    -5.9610    12.9360    72.8130    23.1410    24.6150    17.5360     2.2080 
  146.3750   144.2640   -14.0560    -5.9480    12.7720    76.7490    22.1440    23.5160    19.6920     2.2060 
  146.5000   144.3810   -14.0970    -5.9350    12.7770    79.9010    21.5440    22.8590    20.2080     2.2130 
  146.6250   144.4990   -14.1370    -5.9220    12.9870    80.9240    21.3950    22.7550    15.4360     2.2250 
  146.7500   144.6160   -14.1780    -5.9090    13.5160    79.9820    21.6760    23.1860    11.9510     2.2320 
  146.8750   144.7340   -14.2190    -5.8950    14.0420    78.9080    22.3250    24.0460    18.2800     2.2260 
  147.0000   144.8510   -14.2590    -5.8820    14.3980    78.3310    23.0820    24.8790    25.5520     2.2160 
  147.1250   144.9680   -14.3000    -5.8680    14.9710    77.7210    23.7690    25.5300    23.4160     2.2160 
  147.2500   145.0860   -14.3410    -5.8550    15.7680    77.7400    24.5960    26.2980    17.7300     2.2290 
  147.3750   145.2030   -14.3820    -5.8410    16.7560    78.6040    25.9200    27.7160    16.4060     2.2460 
  147.5000   145.3200   -14.4230    -5.8270    17.8190    81.3500    28.1270    30.3160    19.6460     2.2490 
  147.6250   145.4380   -14.4640    -5.8130    18.8110    83.5470    31.4350    34.2390    25.7950     2.2360 
  147.7500   145.5550   -14.5050    -5.7990    19.6710    83.0920    35.6100    39.0230    32.4580     2.2180 
  147.8750   145.6720   -14.5460    -5.7850    20.4420    80.2930    39.3210    43.0470    33.5690     2.2080 
  148.0000   145.7890   -14.5870    -5.7710    21.1220    76.8160    41.7050    45.4440    28.9350     2.2020 
  148.1250   145.9060   -14.6280    -5.7560    21.7800    74.1220    42.6850    46.3710    26.9540     2.1920 
  148.2500   146.0240   -14.6690    -5.7420    22.1970    71.7010    43.2150    46.9910    29.3200     2.1800 
  148.3750   146.1410   -14.7100    -5.7270    22.3270    69.4860    43.6350    47.6070    30.6770     2.1770 
  148.5000   146.2580   -14.7510    -5.7130    22.5050    66.5190    43.6120    47.6030    31.5080     2.1770 
  148.6250   146.3750   -14.7930    -5.6980    22.6040    64.4640    42.0570    45.6890    33.4540     2.1830 
  148.7500   146.4920   -14.8340    -5.6840    22.5560    64.2930    39.0670    42.2190    34.1160     2.1800 
  148.8750   146.6090   -14.8750    -5.6690    22.4290    67.6950    35.9630    38.7710    31.0630     2.1730 
  149.0000   146.7260   -14.9170    -5.6540    22.3970    69.8850    33.6800    36.3940    25.8850     2.1570 
  149.1250   146.8430   -14.9580    -5.6390    22.3660    69.0890    33.0330    35.9060    23.9410     2.1450 
  149.2500   146.9600   -15.0000    -5.6240    22.3660    66.6910    33.8520    37.0400    25.9130     2.1460 
  149.3750   147.0770   -15.0410    -5.6090    22.3150    67.0650    35.7370    39.2650    28.0380     2.1570 
  149.5000   147.1940   -15.0830    -5.5940    22.0510    69.6680    38.1750    42.0210    29.4240     2.1730 
  149.6250   147.3110   -15.1240    -5.5790    21.5560    71.1210    40.1750    44.1920    29.7930     2.1840 
  149.7500   147.4280   -15.1660    -5.5630    20.9830    69.2480    41.3490    45.4350    28.8710     2.1910 
  149.8750   147.5440   -15.2070    -5.5480    20.6340    67.0380    41.1380    45.1330    26.7350     2.1930 
  150.0000   147.6610   -15.2490    -5.5320    20.1660    67.5440    39.7490    43.5610    24.5100     2.2070 
  150.1250   147.7780   -15.2910    -5.5160    19.6640    71.6150    37.8290    41.4900    25.4840     2.2410 
  150.2500   147.8950   -15.3330    -5.5010    19.2260    74.6630    36.0180    39.6480    29.5800     2.2910 
  150.3750   148.0110   -15.3750    -5.4850    18.9910    74.8280    34.8790    38.6450    32.4170     2.3140 
  150.5000   148.1280   -15.4170    -5.4690    18.8910    72.3180    34.3350    38.2780    29.9620     2.3030 
  150.6250   148.2450   -15.4590    -5.4530    18.8820    70.2470    34.3470    38.4630    24.3620     2.2630 
  150.7500   148.3610   -15.5010    -5.4360    19.1480    68.0020    34.7180    38.9280    21.3140     2.2310 
  150.8750   148.4780   -15.5430    -5.4200    19.4540    67.3470    35.1130    39.2890    20.6280     2.2080 
  151.0000   148.5940   -15.5850    -5.4040    19.5450    67.9410    35.1670    39.1380    19.5650     2.1960 
  151.1250   148.7110   -15.6270    -5.3870    19.4810    70.3190    34.6770    38.2700    20.0460     2.1920 
  151.2500   148.8270   -15.6690    -5.3710    19.3760    71.3400    33.6990    36.7450    23.4310     2.1950 
  151.3750   148.9440   -15.7120    -5.3540    19.1350    70.9630    32.2030    34.5820    26.2180     2.1930 
  151.5000   149.0600   -15.7540    -5.3370    18.8770    69.7860    30.4470    32.1760    25.9530     2.1870 
  151.6250   149.1770   -15.7960    -5.3200    18.4910    71.1260    28.7820    30.0210    24.1100     2.1830 
  151.7500   149.2930   -15.8390    -5.3030    17.9720    72.1290    27.5580    28.5380    22.2870     2.1880 
  151.8750   149.4090   -15.8810    -5.2860    17.5870    70.5340    26.8680    27.7260    20.7130     2.1920 
  152.0000   149.5260   -15.9230    -5.2680    17.2360    66.7960    26.4920    27.2710    18.6610     2.1930 
  152.1250   149.6420   -15.9650    -5.2500    16.4260    65.8260    26.1500    26.8650    17.3120     2.1820 
  152.2500   149.7580   -16.0080    -5.2330    15.3370    68.5140    25.6990    26.3830    18.7840     2.1720 
  152.3750   149.8750   -16.0500    -5.2150    14.3960    70.8130    24.9380    25.6100    21.0920     2.1740 
  152.5000   149.9910   -16.0920    -5.1970    13.2960    70.7370    23.8830    24.5380    21.5700     2.1830 
  152.6250   150.1070   -16.1350    -5.1790    12.1380    69.8430    22.4850    23.1130    20.3930     2.1890 
  152.7500   150.2230   -16.1770    -5.1610    11.0480    71.0200    21.0390    21.6830    18.7450     2.1880 
  152.8750   150.3390   -16.2190    -5.1430    10.1880    72.8110    20.3360    21.1260    17.0100     2.1980 
  153.0000   150.4560   -16.2620    -5.1260     9.3860    74.0560    20.4860    21.5100    15.5280     2.2430 
  153.1250   150.5720   -16.3050    -5.1080     8.4540    71.6850    22.0700    23.4190    15.2710     2.3380 
  153.2500   150.6880   -16.3470    -5.0900     7.8090    67.7860    25.4900    27.5210    21.0010     2.4630 
