~V
VERS. 2.00: Ver 2.00
~W
STRT.M 20.0000:
STOP.M 282.0000:
STEP.M 0.1250:
NULL. -999.2500:
UWI. FD10228:
~C
DEPT.M :
TVD. :
DX. :
DY. :
GR.API :
RML.OHMM :
RI. :
RXO.OHMM :
CALI.CM :
SP.MV :
DEN.GM/CC :
~A
# ...
  209.7500   207.8210    15.2780     3.6970    76.0360    19.2940    13.7730    14.5280    18.3490   -12.3960     2.4790 
  209.8750   207.9400    15.3150     3.7020    77.7450    20.3750    14.9980    15.4110    18.3180   -11.9030     2.5170 
  210.0000   208.0590    15.3520     3.7070    75.2450    20.0920    15.3020    16.7570    18.3060   -11.3710     2.5580 
  210.1250   208.1790    15.3880     3.7120    72.5940    17.8360    14.0720    17.3440    18.3020   -10.8580     2.5870 
  210.2500   208.2980    15.4250     3.7180    74.3160    14.4910    11.8700    16.0400    18.2840   -10.3400     2.5770 
  210.3750   208.4170    15.4620     3.7230    75.8650    11.1350     9.4610    12.5120    18.2250    -9.7890     2.5310 
  210.5000   208.5370    15.4990     3.7280    73.2900     8.6120     7.4680     9.0720    18.1920    -9.2540     2.4680 
  210.6250   208.6560    15.5360     3.7330    67.0000     7.3410     6.2460     7.6070    18.1940    -8.7980     2.4100 
  210.7500   208.7750    15.5740     3.7390    61.2180     6.9200     5.6270     7.3590    18.1950    -8.4030     2.3740 
  210.8750   208.8940    15.6120     3.7440    59.0500     7.0410     5.4740     7.3260    18.1940    -8.0490     2.3580 
  211.0000   209.0130    15.6490     3.7500    61.4590     7.4090     5.6340     7.3340    18.1870    -7.7590     2.3550 
  211.1250   209.1320    15.6870     3.7550    65.8670     7.7510     5.9470     7.3810    18.1910    -7.5230     2.3580 
  211.2500   209.2510    15.7250     3.7600    67.6850     7.9410     6.2360     7.4480    18.1860    -7.3110     2.3650 
  211.3750   209.3700    15.7630     3.7660    69.1730     8.0090     6.4410     7.4930    18.1910    -7.1730     2.3730 
  211.5000   209.4890    15.8010     3.7710    76.0830     8.0300     6.5650     7.5850    18.1870    -7.1260     2.3800 
  211.6250   209.6080    15.8390     3.7760    85.2240     8.0440     6.6320     7.7880    18.1940    -7.0530     2.3850 
  211.7500   209.7270    15.8770     3.7820    87.5180     8.0280     6.6660     8.0760    18.1950    -6.9550     2.3870 
  211.8750   209.8460    15.9140     3.7870    84.8240     7.9520     6.6620     8.3550    18.1950    -6.9080     2.3890 
  212.0000   209.9650    15.9520     3.7930    83.1920     7.8120     6.6040     8.4630    18.1970    -6.8820     2.3930 
  212.1250   210.0840    15.9900     3.7980    84.5630     7.6220     6.4670     8.3750    18.2090    -6.8370     2.3970 
  212.2500   210.2030    16.0280     3.8030    83.9520     7.4150     6.2660     8.2330    18.2470    -6.8160     2.3980 
  212.3750   210.3220    16.0660     3.8090    80.5840     7.2060     6.0230     8.1220    18.2700    -6.8080     2.3910 
  212.5000   210.4410    16.1040     3.8140    78.6960     7.0050     5.7720     7.9760    18.2810    -6.7800     2.3740 
  212.6250   210.5600    16.1420     3.8200    79.7820     6.8370     5.5540     7.6730    18.2740    -6.7160     2.3500 
  212.7500   210.6790    16.1800     3.8250    78.6300     6.7190     5.3880     7.3390    18.2430    -6.6090     2.3220 
  212.8750   210.7980    16.2170     3.8300    74.1230     6.6640     5.2790     7.1470    18.2560    -6.4710     2.2990 
  213.0000   210.9170    16.2550     3.8360    70.7490     6.6580     5.2120     7.1570    18.2480    -6.3230     2.2840 
  213.1250   211.0360    16.2930     3.8410    72.6530     6.6700     5.1650     7.2240    18.3220    -6.1830     2.2780 
  213.2500   211.1550    16.3310     3.8470    76.4990     6.6690     5.1140     7.3130    18.3680    -6.0550     2.2800 
  213.3750   211.2740    16.3690     3.8520    78.7420     6.6580     5.0660     7.2830    18.3590    -5.9590     2.2830 
  213.5000   211.3930    16.4070     3.8570    77.7130     6.6940     5.0510     7.1670    18.3150    -5.8660     2.2850 
  213.6250   211.5120    16.4450     3.8630    73.4370     6.9000     5.1440     7.1610    18.3050    -5.8360     2.2830 
  213.7500   211.6310    16.4820     3.8680    69.0080     7.3430     5.3880     7.4750    18.2810    -5.8970     2.2760 
  213.8750   211.7500    16.5200     3.8740    66.9040     8.0550     5.8090     8.0900    18.2790    -5.9860     2.2690 
  214.0000   211.8690    16.5580     3.8790    67.2340     8.9990     6.4010     9.1090    18.2740    -6.0740     2.2630 
  214.1250   211.9880    16.5960     3.8840    68.0570    10.0750     7.1330    10.0830    18.2800    -6.2130     2.2600 
  214.2500   212.1070    16.6340     3.8900    69.1780    11.1190     7.9050    10.9480    18.2930    -6.3520     2.2610 
  214.3750   212.2260    16.6720     3.8950    71.4540    12.0580     8.6540    11.5970    18.3010    -6.4600     2.2640 
  214.5000   212.3450    16.7100     3.9000    74.0940    12.8800     9.3390    11.9970    18.3040    -6.6000     2.2680 
  214.6250   212.4640    16.7470     3.9060    72.8050    13.5860     9.9330    12.4840    18.3030    -6.7420     2.2750 
  214.7500   212.5830    16.7850     3.9110    68.3400    14.1840    10.4390    13.1330    18.2960    -6.8480     2.2810 
  214.8750   212.7020    16.8230     3.9170    65.0650    14.6440    10.8420    13.6400    18.2990    -6.9580     2.2840 
  215.0000   212.8210    16.8610     3.9220    66.1480    14.9760    11.1500    13.8560    18.3040    -7.1020     2.2820 
  215.1250   212.9400    16.8990     3.9270    69.6520    15.2790    11.4120    13.7880    18.3030    -7.2130     2.2740 
  215.2500   213.0590    16.9370     3.9330    71.6290    15.7110    11.7290    13.6240    18.2930    -7.3060     2.2610 
  215.3750   213.1780    16.9750     3.9380    72.2500    16.3660    12.1800    13.5710    18.2790    -7.4320     2.2490 
  215.5000   213.2970    17.0120     3.9440    74.1770    17.2520    12.8130    13.7600    18.2790    -7.5540     2.2440 
  215.6250   213.4160    17.0500     3.9490    75.0250    18.2450    13.6190    14.6480    18.2600    -7.6540     2.2470 
  215.7500   213.5350    17.0880     3.9540    72.2950    19.0760    14.4270    15.5870    18.2120    -7.7800     2.2570 
  215.8750   213.6540    17.1260     3.9600    68.8780    19.5310    15.0560    15.9410    18.2370    -7.9390     2.2680 
  216.0000   213.7730    17.1640     3.9650    69.6600    19.5000    15.3640    15.7300    18.2630    -8.0980     2.2770 
  216.1250   213.8920    17.2020     3.9710    73.6570    19.0220    15.2940    15.3030    18.2510    -8.2630     2.2820 
  216.2500   214.0110    17.2400     3.9760    74.4020    18.4560    15.0590    14.9260    18.2000    -8.4650     2.2830 
  216.3750   214.1300    17.2770     3.9810    71.8210    18.1100    14.8660    14.6580    18.1940    -8.6710     2.2830 
  216.5000   214.2490    17.3150     3.9870    69.7820    18.2000    14.8870    14.6720    18.1940    -8.8740     2.2790 
  216.6250   214.3680    17.3530     3.9920    71.4530    18.8630    15.2720    14.9540    18.1930    -9.1050     2.2720 
  216.7500   214.4870    17.3910     3.9980    73.9090    19.9060    15.9630    15.3580    18.1910    -9.3510     2.2630 
  216.8750   214.6060    17.4290     4.0030    72.8370    21.1260    16.8700    15.9530    18.1940    -9.5740     2.2550 
  217.0000   214.7250    17.4670     4.0080    69.6640    22.2640    17.8420    16.5350    18.1940    -9.7850     2.2490 
  217.1250   214.8440    17.5050     4.0140    67.0700    23.0190    18.6490    16.9100    18.1890   -10.0520     2.2460 
  217.2500   214.9630    17.5430     4.0190    65.2100    23.3600    19.1670    17.3520    18.1940   -10.3190     2.2450 
  217.3750   215.0820    17.5800     4.0250    63.2880    23.3960    19.3930    17.8940    18.1950   -10.5500     2.2440 
  217.5000   215.2010    17.6180     4.0300    62.9810    23.3620    19.4460    18.0780    18.1940   -10.7740     2.2440 
  217.6250   215.3200    17.6560     4.0350    66.6910    23.6340    19.5820    17.4730    18.1860   -11.0190     2.2440 
  217.7500   215.4390    17.6940     4.0410    70.6720    24.4600    20.0590    16.6440    18.1850   -11.2330     2.2420 
  217.8750   215.5580    17.7320     4.0460    71.6120    25.9720    21.0590    16.2170    18.1850   -11.4420     2.2380 
