~V
VERS. 2.00: Ver 2.00
~W
STRT.M 34.0000:
STOP.M 260.0000:
STEP.M 0.1250:
NULL. -999.2500:
UWI. FD10858:
~C
DEPT.M :
TVD. :
DX. :
DY. :
SP.MV :
GR.API :
RI. :
RML.OHMM :
RXO.OHMM :
DEN.GM/CC :
~A
# ...
  161.7500   153.3080   -26.5700   -28.6210    -7.8170    50.7480    11.1170    14.1550     8.2200     2.4570 
  161.8750   153.4170   -26.6140   -28.6630    -7.6970    52.1780    11.5030    14.7680     8.6350     2.4680 
  162.0000   153.5270   -26.6570   -28.7060    -7.6010    54.7600    11.6990    15.0900    11.8790     2.4730 
  162.1250   153.6360   -26.7000   -28.7480    -7.5240    55.3800    11.4090    14.6640    14.5320     2.4680 
  162.2500   153.7460   -26.7430   -28.7900    -7.4710    54.3470    10.7530    13.7090    14.0290     2.4600 
  162.3750   153.8550   -26.7870   -28.8320    -7.4630    53.5650     9.9660    12.5930    11.7090     2.4580 
  162.5000   153.9640   -26.8300   -28.8740    -7.5080    52.4670     9.3720    11.7750     9.4830     2.4610 
  162.6250   154.0740   -26.8730   -28.9160    -7.6110    49.3750     9.2320    11.5850     8.3070     2.4670 
  162.7500   154.1830   -26.9160   -28.9580    -7.7530    46.7940     9.3780    11.7490     8.2720     2.4680 
  162.8750   154.2930   -26.9600   -29.0000    -7.9060    47.2750     9.6070    11.9550     8.9810     2.4610 
  163.0000   154.4020   -27.0030   -29.0420    -8.0380    48.9470     9.6990    11.9520     9.7020     2.4480 
  163.1250   154.5120   -27.0450   -29.0850    -8.1230    49.3200     9.6120    11.7150     9.9110     2.4340 
  163.2500   154.6220   -27.0880   -29.1270    -8.1570    49.3230     9.4690    11.4150     9.2120     2.4220 
  163.3750   154.7310   -27.1300   -29.1700    -8.1490    50.7500     9.1910    10.9700     7.5850     2.4130 
  163.5000   154.8410   -27.1730   -29.2130    -8.1230    54.3470     8.7400    10.3130     6.3130     2.4030 
  163.6250   154.9500   -27.2150   -29.2550    -8.0950    58.6010     8.1560     9.4820     6.3720     2.3920 
  163.7500   155.0600   -27.2570   -29.2980    -8.0750    60.6290     7.3850     8.4340     7.1410     2.3800 
  163.8750   155.1700   -27.3000   -29.3400    -8.0700    58.6340     6.4400     7.2310     7.0880     2.3730 
  164.0000   155.2790   -27.3420   -29.3830    -8.0790    55.1640     5.5860     6.1870     5.6370     2.3710 
  164.1250   155.3890   -27.3840   -29.4250    -8.1020    52.3620     4.9000     5.3740     4.1100     2.3740 
  164.2500   155.4990   -27.4270   -29.4680    -8.1290    49.1160     4.5690     4.9920     3.6130     2.3800 
  164.3750   155.6080   -27.4690   -29.5100    -8.1490    45.2990     4.5670     4.9930     3.6000     2.3850 
  164.5000   155.7180   -27.5110   -29.5530    -8.1630    43.1320     4.6980     5.1350     3.5310     2.3900 
  164.6250   155.8280   -27.5540   -29.5950    -8.1840    42.6200     4.8900     5.3500     3.5770     2.3950 
  164.7500   155.9370   -27.5960   -29.6380    -8.2330    43.2750     5.1170     5.6000     3.7160     2.4010 
  164.8750   156.0470   -27.6380   -29.6800    -8.3390    47.6650     5.3580     5.8590     3.8370     2.4060 
  165.0000   156.1570   -27.6810   -29.7230    -8.5220    55.9400     5.5820     6.1180     4.0020     2.4110 
  165.1250   156.2660   -27.7220   -29.7660    -8.8150    65.2840     5.7640     6.3360     4.2660     2.4140 
  165.2500   156.3760   -27.7640   -29.8090    -9.2210    73.0390     5.9530     6.5720     4.5860     2.4120 
  165.3750   156.4860   -27.8060   -29.8520    -9.7370    77.7040     6.2220     6.9120     4.9690     2.3970 
  165.5000   156.5950   -27.8470   -29.8950   -10.3110    80.2750     6.6200     7.4170     5.3070     2.3750 
  165.6250   156.7050   -27.8890   -29.9380   -10.8680    81.7300     7.2810     8.2760     5.3850     2.3530 
  165.7500   156.8150   -27.9310   -29.9810   -11.3210    82.1050     8.4530     9.7810     6.1570     2.3440 
  165.8750   156.9250   -27.9720   -30.0250   -11.5800    80.5340    10.0810    11.8740     8.4560     2.3520 
  166.0000   157.0340   -28.0130   -30.0680   -11.6180    76.7570    12.1270    14.4140    10.6550     2.3700 
  166.1250   157.1440   -28.0540   -30.1120   -11.4190    72.7610    14.1440    16.8350    14.3230     2.3880 
  166.2500   157.2540   -28.0950   -30.1560   -11.0430    68.1830    16.3380    19.3190    22.0180     2.3950 
  166.3750   157.3630   -28.1370   -30.1990   -10.5600    64.2720    18.7630    21.9680    28.7430     2.3860 
  166.5000   157.4730   -28.1780   -30.2430   -10.0700    61.9920    21.2710    24.6800    27.6270     2.3690 
  166.6250   157.5830   -28.2190   -30.2860    -9.6610    60.9460    24.1670    27.8700    25.1780     2.3500 
  166.7500   157.6920   -28.2610   -30.3290    -9.3770    60.5380    27.3130    31.4000    33.2040     2.3300 
  166.8750   157.8020   -28.3020   -30.3730    -9.2340    60.6020    31.0260    35.4190    43.4220     2.3100 
  167.0000   157.9120   -28.3430   -30.4160    -9.1930    60.7430    34.3370    38.8980    43.6610     2.2920 
  167.1250   158.0210   -28.3840   -30.4600    -9.2180    61.6760    36.8790    41.5590    39.6400     2.2830 
  167.2500   158.1310   -28.4250   -30.5040    -9.2660    63.3870    38.3190    43.0900    38.7250     2.2850 
  167.3750   158.2410   -28.4650   -30.5480    -9.3150    64.0390    39.2040    44.1370    39.9890     2.2900 
  167.5000   158.3510   -28.5060   -30.5920    -9.3570    62.2120    40.2150    45.3090    39.4560     2.2900 
  167.6250   158.4600   -28.5470   -30.6360    -9.3910    59.4800    41.4660    46.5450    38.8950     2.2850 
  167.7500   158.5700   -28.5880   -30.6800    -9.4200    58.4250    42.5030    47.3930    47.7420     2.2770 
  167.8750   158.6800   -28.6290   -30.7240    -9.4490    58.5460    42.8360    47.4230    62.3710     2.2690 
  168.0000   158.7890   -28.6690   -30.7680    -9.4800    59.4560    42.0710    46.0450    67.8250     2.2620 
  168.1250   158.8990   -28.7100   -30.8110    -9.5090    62.5430    40.1130    43.4260    57.6550     2.2590 
  168.2500   159.0090   -28.7510   -30.8550    -9.5380    65.5260    37.8580    40.7140    39.1240     2.2620 
  168.3750   159.1180   -28.7920   -30.8990    -9.5760    65.9880    36.2120    38.9900    29.0730     2.2720 
  168.5000   159.2280   -28.8340   -30.9420    -9.6430    65.8060    35.9260    39.2820    29.2110     2.2850 
  168.6250   159.3380   -28.8750   -30.9860    -9.7660    66.4270    37.6380    42.4810    29.7990     2.2940 
  168.7500   159.4480   -28.9160   -31.0290    -9.9580    65.8070    37.9260    43.0750    32.9250     2.2990 
  168.8750   159.5570   -28.9570   -31.0730   -10.2160    63.8970    31.7180    36.1040    39.1710     2.3040 
  169.0000   159.6670   -28.9970   -31.1170   -10.5140    64.6500    22.7860    25.7170    41.9140     2.3150 
  169.1250   159.7770   -29.0380   -31.1610   -10.8250    67.6670    12.5260    13.5070    45.7110     2.3320 
  169.2500   159.8860   -29.0780   -31.2050   -11.1250    69.0110     6.2150     6.7070    43.4440     2.3470 
  169.3750   159.9960   -29.1190   -31.2500   -11.3990    67.9240     4.4020     4.7500    23.0570     2.3540 
  169.5000   160.1060   -29.1590   -31.2940   -11.6470    64.3470     3.4860     3.7980     6.2210     2.3540 
  169.6250   160.2160   -29.2000   -31.3380   -11.8720    57.5770     3.1150     3.5300     3.5410     2.3530 
  169.7500   160.3250   -29.2400   -31.3820   -12.0840    50.1240     3.1680     3.6920     3.5080     2.3540 
  169.8750   160.4350   -29.2800   -31.4260   -12.2890    45.6280     3.3560     3.9400     3.3680     2.3540 
  170.0000   160.5450   -29.3210   -31.4710   -12.4820    44.0460     3.5480     4.1120     3.3050     2.3470 
  170.1250   160.6540   -29.3610   -31.5150   -12.6400    42.8530     3.6710     4.1680     3.4040     2.3360 
  170.2500   160.7640   -29.4010   -31.5590   -12.7370    41.8830     3.7170     4.1540     3.5920     2.3250 
  170.3750   160.8740   -29.4420   -31.6040   -12.7450    41.2180     3.6920     4.0770     3.6730     2.3200 
  170.5000   160.9840   -29.4820   -31.6480   -12.6560    41.7350     3.6070     3.9720     3.5410     2.3180 
  170.6250   161.0930   -29.5220   -31.6920   -12.4630    42.5120     3.5150     3.8740     3.3340     2.3160 
  170.7500   161.2030   -29.5630   -31.7360   -12.1760    41.6070     3.4130     3.7770     3.2050     2.3110 
