~V
VERS. 2.00: Ver 2.00
~W
STRT.M 34.0000:
STOP.M 260.0000:
STEP.M 0.1250:
NULL. -999.2500:
UWI. FD10858:
~C
DEPT.M :
TVD. :
DX. :
DY. :
SP.MV :
GR.API :
RI. :
RML.OHMM :
RXO.OHMM :
DEN.GM/CC :
~A
# ...
   79.6250    79.3220    -2.5650    -3.2740   -10.1710    55.7330    15.5690    18.8990    11.1680     2.1120 
   79.7500    79.4430    -2.5830    -3.2960   -10.4120    53.8240    14.5830    17.7560    10.5160     2.0970 
   79.8750    79.5650    -2.6010    -3.3190   -10.6580    52.9290    13.8930    16.8110    10.1200     2.0870 
   80.0000    79.6860    -2.6200    -3.3420   -10.8870    55.9020    13.3280    15.8970     9.9020     2.0820 
   80.1250    79.8080    -2.6380    -3.3650   -11.0780    59.1140    12.9360    15.0960     9.8940     2.0830 
   80.2500    79.9290    -2.6570    -3.3880   -11.2330    60.2880    12.7360    14.5470     9.8270     2.0890 
   80.3750    80.0510    -2.6750    -3.4120   -11.3670    59.7010    12.7460    14.3060     9.4490     2.0990 
   80.5000    80.1720    -2.6940    -3.4350   -11.5020    58.0950    13.1300    14.6540     9.0980     2.1070 
   80.6250    80.2930    -2.7120    -3.4580   -11.6630    56.4340    13.8390    15.4330     9.0960     2.1100 
   80.7500    80.4150    -2.7310    -3.4820   -11.8640    55.9960    14.2120    15.7350     9.8070     2.1090 
   80.8750    80.5360    -2.7500    -3.5050   -12.1240    56.4610    13.3900    14.6010    11.5530     2.1080 
   81.0000    80.6570    -2.7690    -3.5290   -12.4520    56.5150    11.6850    12.4530    13.2710     2.1150 
   81.1250    80.7780    -2.7880    -3.5530   -12.8590    58.7560     9.4470     9.7950    12.6340     2.1360 
   81.2500    80.9000    -2.8070    -3.5770   -13.3310    65.3330     7.4600     7.6010     9.0330     2.1700 
   81.3750    81.0210    -2.8270    -3.6010   -13.8410    71.9360     6.3140     6.4510     5.5950     2.2040 
   81.5000    81.1420    -2.8460    -3.6250   -14.3410    74.0150     5.6160     5.8350     4.9500     2.2260 
   81.6250    81.2630    -2.8660    -3.6490   -14.7750    73.4780     5.4300     5.8230     5.3870     2.2300 
   81.7500    81.3840    -2.8850    -3.6730   -15.1140    72.5230     5.4930     6.0610     5.1610     2.2240 
   81.8750    81.5050    -2.9050    -3.6980   -15.3450    69.4800     5.5490     6.2740     5.0890     2.2130 
   82.0000    81.6260    -2.9250    -3.7220   -15.5000    64.7820     5.4970     6.3160     5.2640     2.2050 
   82.1250    81.7470    -2.9450    -3.7470   -15.6230    62.7170     5.4100     6.2530     5.1810     2.2040 
   82.2500    81.8680    -2.9650    -3.7720   -15.7550    65.3690     5.4180     6.2160     5.2570     2.2060 
   82.3750    81.9890    -2.9850    -3.7960   -15.9150    70.1440     5.6730     6.2890     5.2490     2.2070 
   82.5000    82.1090    -3.0050    -3.8210   -16.0870    73.5950     6.2260     6.5790     5.2020     2.2030 
   82.6250    82.2300    -3.0260    -3.8460   -16.2380    73.0520     6.9730     7.0850     5.7510     2.1930 
   82.7500    82.3510    -3.0460    -3.8710   -16.3350    70.0660     7.7040     7.7040     6.3360     2.1820 
   82.8750    82.4720    -3.0670    -3.8960   -16.3510    68.1570     8.2310     8.3820     6.5000     2.1710 
   83.0000    82.5920    -3.0870    -3.9220   -16.2850    69.0150     8.3320     8.8670     6.4680     2.1630 
   83.1250    82.7130    -3.1080    -3.9470   -16.1400    69.6130     7.9110     8.7570     6.5290     2.1620 
   83.2500    82.8340    -3.1290    -3.9720   -15.9390    68.1500     7.1250     8.0000     6.8980     2.1700 
   83.3750    82.9540    -3.1500    -3.9980   -15.7000    66.3470     6.1470     6.7500     7.0790     2.1900 
   83.5000    83.0750    -3.1710    -4.0240   -15.4490    67.6120     5.2580     5.4870     6.1000     2.2140 
   83.6250    83.1950    -3.1920    -4.0490   -15.1990    71.8490     4.6230     4.7620     4.3750     2.2310 
   83.7500    83.3160    -3.2140    -4.0750   -14.9480    75.8310     4.3570     4.6930     3.4920     2.2340 
   83.8750    83.4360    -3.2350    -4.1010   -14.6700    76.5400     4.9210     5.5970     4.0180     2.2190 
   84.0000    83.5560    -3.2570    -4.1270   -14.3340    73.5960     6.3040     7.3270     6.2150     2.1950 
   84.1250    83.6770    -3.2780    -4.1530   -13.9110    67.3260     8.3200     9.7380     9.4490     2.1750 
   84.2500    83.7970    -3.3000    -4.1790   -13.4060    60.6900    10.4680    12.3100    11.0800     2.1700 
   84.3750    83.9170    -3.3210    -4.2050   -12.8400    57.2950    12.1910    14.2800    10.5300     2.1860 
   84.5000    84.0380    -3.3430    -4.2310   -12.2490    59.0320    13.6480    15.8490     9.7710     2.2150 
   84.6250    84.1580    -3.3650    -4.2570   -11.6620    62.1370    14.9520    17.2790    10.5030     2.2400 
   84.7500    84.2780    -3.3870    -4.2830   -11.0900    62.6140    16.2870    18.8740    13.2470     2.2430 
   84.8750    84.3980    -3.4090    -4.3100   -10.5360    60.6170    17.6220    20.4520    16.0630     2.2130 
   85.0000    84.5190    -3.4310    -4.3360    -9.9990    58.5320    18.5440    21.5090    17.0630     2.1660 
   85.1250    84.6390    -3.4530    -4.3620    -9.4930    57.1530    18.9100    21.8600    17.0910     2.1260 
   85.2500    84.7590    -3.4750    -4.3890    -9.0380    56.9160    18.9420    21.7890    16.8430     2.1060 
   85.3750    84.8790    -3.4980    -4.4150    -8.6720    56.7660    18.7200    21.6560    16.0520     2.1020 
   85.5000    84.9990    -3.5200    -4.4410    -8.4170    55.3290    18.5750    21.6160    15.7090     2.0970 
   85.6250    85.1190    -3.5420    -4.4680    -8.3090    53.2480    18.6300    21.6320    16.7350     2.0790 
   85.7500    85.2390    -3.5650    -4.4950    -8.3500    52.5680    18.4720    21.4430    17.8770     2.0500 
   85.8750    85.3590    -3.5870    -4.5210    -8.5630    54.3100    18.0050    20.8180    17.6660     2.0230 
   86.0000    85.4790    -3.6100    -4.5480    -8.9390    56.1550    17.3930    19.8860    16.7340     2.0120 
   86.1250    85.5990    -3.6320    -4.5750    -9.4790    56.9080    16.2280    18.4970    15.3810     2.0250 
   86.2500    85.7190    -3.6550    -4.6020   -10.1410    56.7100    14.9160    16.7690    12.9300     2.0560 
   86.3750    85.8390    -3.6770    -4.6290   -10.8750    57.4100    13.2480    14.6380    10.9360     2.0920 
   86.5000    85.9590    -3.7000    -4.6560   -11.6080    59.7680    11.4040    12.4530    10.6780     2.1220 
   86.6250    86.0790    -3.7230    -4.6830   -12.2770    62.2460     9.8580    10.6320     9.9160     2.1450 
   86.7500    86.1990    -3.7460    -4.7100   -12.8520    64.2200     8.7760     9.5310     7.8400     2.1610 
   86.8750    86.3190    -3.7690    -4.7370   -13.3200    66.2950     8.2690     9.0380     6.3700     2.1680 
   87.0000    86.4380    -3.7930    -4.7650   -13.7050    67.7380     8.0600     8.8580     6.1530     2.1710 
   87.1250    86.5580    -3.8160    -4.7920   -14.0240    68.9880     7.9680     8.7560     6.5710     2.1750 
   87.2500    86.6780    -3.8400    -4.8190   -14.3020    70.4740     7.8370     8.5560     7.0690     2.1830 
   87.3750    86.7970    -3.8630    -4.8470   -14.5530    71.0570     7.6690     8.2900     8.1130     2.1930 
   87.5000    86.9170    -3.8870    -4.8750   -14.7850    69.5220     7.5410     8.0790     8.5240     2.1960 
   87.6250    87.0360    -3.9110    -4.9020   -14.9810    67.4330     7.5690     8.1250     6.9280     2.1890 
   87.7500    87.1560    -3.9340    -4.9300   -15.1180    66.4160     7.9280     8.5530     5.8460     2.1730 
   87.8750    87.2750    -3.9580    -4.9580   -15.1570    67.2200     8.7400     9.5620     6.4200     2.1530 
   88.0000    87.3950    -3.9820    -4.9860   -15.0880    68.1670    10.0580    11.1190     7.1460     2.1350 
   88.1250    87.5140    -4.0060    -5.0140   -14.9060    68.0410    11.6500    13.0600     9.1580     2.1220 
   88.2500    87.6340    -4.0300    -5.0420   -14.6470    65.3880    13.2010    14.8870    14.4510     2.1130 
   88.3750    87.7530    -4.0550    -5.0710   -14.3470    60.4680    14.1600    15.9700    19.3900     2.1110 
   88.5000    87.8720    -4.0790    -5.0990   -14.0440    56.8850    14.3280    16.0410    18.5040     2.1170 
   88.6250    87.9910    -4.1030    -5.1280   -13.7690    56.0520    13.8740    15.4120    13.6030     2.1280 
