~V
VERS. 2.00: Ver 2.00
~W
STRT.M 33.0000:
STOP.M 287.0000:
STEP.M 0.1250:
NULL. -999.2500:
UWI. FD10889:
~C
DEPT.M :
TVD. :
DX. :
DY. :
SP.MV :
GR.API :
RI. :
RML.OHMM :
RXO.OHMM :
DEN.GM/CC :
~A
# ...
  115.1250   113.5750   -11.8880    -6.2450   -16.2920    61.4970    13.3070    15.0010    38.8340     2.1630 
  115.2500   113.6920   -11.9220    -6.2690   -15.8800    61.3310    12.6720    14.0930    19.4360     2.1220 
  115.3750   113.8100   -11.9570    -6.2940   -15.6300    60.4380    11.7280    12.9720    12.5920     2.0970 
  115.5000   113.9270   -11.9920    -6.3190   -15.6390    60.7360    10.9910    12.2890    11.0180     2.0850 
  115.6250   114.0450   -12.0270    -6.3430   -15.7150    60.7690    10.7210    12.1260    11.1970     2.0850 
  115.7500   114.1620   -12.0620    -6.3680   -15.7540    61.8620    10.5730    12.0440    12.0770     2.0960 
  115.8750   114.2800   -12.0970    -6.3930   -15.7420    63.0790    10.4260    11.8940    11.6170     2.1100 
  116.0000   114.3970   -12.1320    -6.4180   -15.6640    64.7300    10.3070    11.6890     9.9170     2.1200 
  116.1250   114.5140   -12.1670    -6.4430   -15.3790    66.3180    10.4740    11.7340     8.8130     2.1220 
  116.2500   114.6320   -12.2020    -6.4680   -14.8490    67.2880    11.0200    12.3610     9.2080     2.1210 
  116.3750   114.7490   -12.2370    -6.4930   -13.9820    66.1510    12.1620    13.7180    10.3280     2.1210 
  116.5000   114.8660   -12.2720    -6.5180   -12.8940    63.7390    13.6230    15.4660    11.7060     2.1220 
  116.6250   114.9830   -12.3070    -6.5430   -11.9070    62.3450    15.1340    17.2410    13.4730     2.1170 
  116.7500   115.1010   -12.3430    -6.5680   -11.1980    61.2170    16.4820    18.6890    15.1740     2.1040 
  116.8750   115.2180   -12.3790    -6.5930   -10.6420    58.8100    17.0460    19.2170    15.8730     2.0890 
  117.0000   115.3350   -12.4140    -6.6190   -10.3460    56.7790    17.0340    19.1300    16.3890     2.0810 
  117.1250   115.4520   -12.4500    -6.6440   -10.2080    55.2830    16.6230    18.6380    18.1130     2.0830 
  117.2500   115.5690   -12.4860    -6.6690   -10.0570    55.0940    16.2010    18.1860    20.1600     2.0890 
  117.3750   115.6860   -12.5210    -6.6940    -9.8220    57.2180    16.1180    18.1420    19.8930     2.0880 
  117.5000   115.8030   -12.5570    -6.7200    -9.3690    59.7570    16.5330    18.7030    17.7600     2.0790 
  117.6250   115.9200   -12.5930    -6.7450    -8.9030    58.1740    17.2630    19.6310    17.2300     2.0700 
  117.7500   116.0370   -12.6290    -6.7700    -8.4890    53.9810    18.1960    20.7770    18.3540     2.0690 
  117.8750   116.1540   -12.6650    -6.7960    -8.2040    51.0640    19.0520    21.7810    19.9400     2.0750 
  118.0000   116.2710   -12.7010    -6.8220    -8.1130    53.1450    19.4950    22.2360    21.2520     2.0830 
  118.1250   116.3880   -12.7370    -6.8470    -8.1230    58.1170    19.6330    22.3370    21.2300     2.0890 
  118.2500   116.5050   -12.7730    -6.8730    -8.1350    61.3350    19.5370    22.1840    20.6260     2.0900 
  118.3750   116.6220   -12.8100    -6.8990    -7.9910    59.4990    19.3610    21.9730    20.1640     2.0910 
  118.5000   116.7390   -12.8460    -6.9250    -7.7250    54.9650    19.2280    21.8500    19.5610     2.0930 
  118.6250   116.8550   -12.8820    -6.9510    -7.4010    52.5880    19.2210    21.8820    19.4070     2.0910 
  118.7500   116.9720   -12.9180    -6.9770    -7.3140    54.5730    19.3000    21.9840    20.0650     2.0810 
  118.8750   117.0890   -12.9550    -7.0030    -7.2960    55.5590    19.4270    22.1000    20.3290     2.0630 
  119.0000   117.2050   -12.9910    -7.0290    -7.0260    52.3310    19.5660    22.2020    19.8780     2.0440 
  119.1250   117.3220   -13.0270    -7.0560    -6.7970    48.1820    19.7440    22.3020    19.4570     2.0310 
  119.2500   117.4390   -13.0640    -7.0820    -6.6950    49.0050    20.0420    22.4990    19.8480     2.0320 
  119.3750   117.5550   -13.1000    -7.1090    -6.8070    52.0380    20.5160    22.8520    21.7840     2.0440 
  119.5000   117.6720   -13.1360    -7.1350    -7.1500    52.2930    21.0700    23.2720    23.6320     2.0600 
  119.6250   117.7880   -13.1730    -7.1620    -7.4210    50.7150    21.6060    23.6820    24.0540     2.0740 
  119.7500   117.9050   -13.2090    -7.1890    -7.6400    50.4920    22.0120    23.9720    24.2220     2.0780 
  119.8750   118.0210   -13.2460    -7.2160    -7.9570    51.8160    22.2470    24.0740    24.2520     2.0750 
  120.0000   118.1380   -13.2830    -7.2420    -8.3430    51.3890    22.0120    23.6240    23.9300     2.0700 
  120.1250   118.2540   -13.3190    -7.2690    -8.8150    49.5690    21.0450    22.3640    23.6160     2.0690 
  120.2500   118.3710   -13.3560    -7.2960    -9.3880    50.2780    19.2330    20.2560    23.0610     2.0760 
  120.3750   118.4870   -13.3930    -7.3240   -10.0020    54.6620    17.1230    17.9200    22.4240     2.0900 
  120.5000   118.6030   -13.4300    -7.3510   -10.7310    60.6600    15.2910    16.0030    20.1030     2.1040 
  120.6250   118.7200   -13.4660    -7.3780   -11.3750    64.7510    14.0650    14.8340    15.3460     2.1110 
  120.7500   118.8360   -13.5030    -7.4050   -11.7920    65.8190    13.6680    14.5890    12.1800     2.1090 
  120.8750   118.9520   -13.5400    -7.4320   -11.8660    62.2270    14.0380    15.2020    12.3210     2.1020 
  121.0000   119.0690   -13.5780    -7.4590   -11.7430    56.2070    15.0690    16.4570    13.6210     2.0970 
  121.1250   119.1850   -13.6150    -7.4860   -11.8220    52.2530    16.4690    18.0150    14.7920     2.1010 
  121.2500   119.3010   -13.6520    -7.5140   -12.0050    50.9610    17.5720    19.1280    15.9080     2.1240 
  121.3750   119.4170   -13.6890    -7.5410   -12.2700    48.8980    18.3130    19.7930    18.0750     2.1740 
  121.5000   119.5330   -13.7270    -7.5680   -12.7380    47.4170    19.2860    20.7140    20.2900     2.2590 
  121.6250   119.6490   -13.7640    -7.5950   -13.3450    51.1490    20.9090    22.4280    20.1380     2.3710 
  121.7500   119.7650   -13.8020    -7.6230   -14.1150    55.8120    24.2610    26.1970    29.7850     2.4890 
  121.8750   119.8810   -13.8390    -7.6500   -15.0570    54.7730    30.8770    33.5930    67.1360     2.5840 
  122.0000   119.9970   -13.8770    -7.6780   -15.6780    50.1120    41.2290    46.8970   119.3570     2.6340 
  122.1250   120.1130   -13.9140    -7.7050   -16.0980    47.9370    47.8350    54.0840   150.9080     2.6430 
  122.2500   120.2290   -13.9520    -7.7330   -16.5000    47.5810    45.3820    50.4640   161.5060     2.6100 
  122.3750   120.3450   -13.9900    -7.7610   -16.6580    47.5800    35.7030    38.7720   158.9900     2.5420 
  122.5000   120.4610   -14.0270    -7.7880   -16.8390    48.5610    20.8400    21.5180   117.9570     2.4430 
  122.6250   120.5770   -14.0650    -7.8160   -17.0000    50.3180    11.9290    12.2470    55.0040     2.3400 
  122.7500   120.6930   -14.1030    -7.8440   -16.9780    53.2160     7.6010     8.4430    16.5490     2.2630 
  122.8750   120.8090   -14.1400    -7.8720   -16.9530    60.0980     5.9370     6.6000     6.7050     2.2230 
  123.0000   120.9250   -14.1780    -7.9000   -16.9410    67.5300     5.3080     6.0710     6.4530     2.2140 
  123.1250   121.0400   -14.2160    -7.9280   -17.0480    71.5430     5.0310     5.8570     6.3790     2.2200 
  123.2500   121.1560   -14.2540    -7.9560   -17.1610    73.9360     4.8100     5.5890     6.1850     2.2340 
  123.3750   121.2720   -14.2920    -7.9840   -17.3830    77.2100     4.5610     5.2440     5.5410     2.2500 
  123.5000   121.3870   -14.3310    -8.0120   -17.5210    80.3170     4.3990     5.0220     4.6550     2.2650 
  123.6250   121.5030   -14.3690    -8.0400   -17.5560    81.1750     4.3870     4.9540     4.2050     2.2770 
  123.7500   121.6190   -14.4070    -8.0680   -17.4190    81.4130     4.6120     5.1990     4.3260     2.2840 
  123.8750   121.7340   -14.4460    -8.0960   -17.2310    80.3340     4.9790     5.6720     4.9210     2.2850 
  124.0000   121.8500   -14.4840    -8.1240   -17.1730    74.8010     5.3670     6.1720     5.9160     2.2790 
  124.1250   121.9660   -14.5230    -8.1520   -17.2990    69.2230     5.6240     6.5210     6.5530     2.2670 
