~V
VERS. 2.00: Ver 2.00
~W
STRT.M 30.0000:
STOP.M 223.0000:
STEP.M 0.1250:
NULL. -999.2500:
UWI. FD10814:
~C
DEPT.M :
TVD. :
DX. :
DY. :
SP.MV :
GR.API :
RI. :
RML.OHMM :
RXO.OHMM :
DEN.GM/CC :
~A
# ...
  185.1250   174.2710    -1.6550    47.9750    -9.3800    70.9520     4.5820     6.5900     4.8360     2.2510 
  185.2500   174.3790    -1.6570    48.0370    -9.3950    70.7740     4.7310     6.7280     4.9430     2.2650 
  185.3750   174.4880    -1.6600    48.0990    -9.2960    69.5580     4.8170     6.7750     4.6540     2.2780 
  185.5000   174.5970    -1.6620    48.1610    -9.1300    68.8860     4.8280     6.7290     4.4980     2.2870 
  185.6250   174.7050    -1.6650    48.2220    -8.9130    67.9340     4.7780     6.6040     4.5950     2.2870 
  185.7500   174.8140    -1.6670    48.2840    -8.6050    67.3880     4.6740     6.4400     4.5010     2.2830 
  185.8750   174.9230    -1.6700    48.3460    -8.2690    66.8670     4.5660     6.2780     4.2540     2.2740 
  186.0000   175.0310    -1.6720    48.4080    -7.9600    67.9410     4.4690     6.1470     4.0250     2.2660 
  186.1250   175.1400    -1.6750    48.4700    -7.7570    67.3930     4.4140     6.0750     4.0390     2.2620 
  186.2500   175.2480    -1.6770    48.5320    -7.7300    65.1330     4.3950     6.0660     4.4090     2.2660 
  186.3750   175.3570    -1.6800    48.5930    -7.7980    61.9430     4.4240     6.1170     4.5500     2.2670 
  186.5000   175.4660    -1.6830    48.6550    -7.9230    61.9050     4.4750     6.1860     4.3980     2.2630 
  186.6250   175.5740    -1.6850    48.7170    -7.9540    62.3120     4.5390     6.2600     4.3410     2.2540 
  186.7500   175.6830    -1.6880    48.7790    -7.8890    62.7870     4.6230     6.3490     4.2620     2.2500 
  186.8750   175.7910    -1.6910    48.8410    -7.6400    62.9430     4.7200     6.4670     4.1980     2.2520 
  187.0000   175.9000    -1.6940    48.9030    -7.1700    64.2650     4.8320     6.6030     4.3440     2.2630 
  187.1250   176.0080    -1.6960    48.9650    -6.6530    64.2410     4.8880     6.6880     4.7700     2.2790 
  187.2500   176.1170    -1.6990    49.0270    -6.3600    63.2630     4.8800     6.6640     5.0540     2.2900 
  187.3750   176.2250    -1.7020    49.0890    -6.3130    62.7280     4.7740     6.5060     4.6750     2.2820 
  187.5000   176.3340    -1.7050    49.1510    -6.3230    62.9110     4.6200     6.2790     4.1250     2.2580 
  187.6250   176.4420    -1.7070    49.2130    -6.3670    64.1030     4.4760     6.0620     3.9780     2.2320 
  187.7500   176.5510    -1.7100    49.2750    -6.3630    64.6980     4.3940     5.9430     4.0340     2.2170 
  187.8750   176.6590    -1.7130    49.3370    -6.3180    66.1540     4.4370     5.9850     4.1050     2.2170 
  188.0000   176.7670    -1.7150    49.4000    -6.1700    66.7360     4.5640     6.1460     4.1830     2.2280 
  188.1250   176.8760    -1.7180    49.4620    -6.0480    67.5790     4.7390     6.3730     4.0880     2.2490 
  188.2500   176.9840    -1.7210    49.5240    -5.9770    68.6670     4.9040     6.5620     4.0570     2.2750 
  188.3750   177.0930    -1.7230    49.5860    -5.8890    69.6040     4.9750     6.6500     4.4220     2.2970 
  188.5000   177.2010    -1.7260    49.6490    -5.7330    68.6030     5.0040     6.6530     4.6300     2.3070 
  188.6250   177.3090    -1.7290    49.7110    -5.5650    66.5110     4.9440     6.5680     4.5820     2.3020 
  188.7500   177.4180    -1.7320    49.7730    -5.3940    65.8100     4.8720     6.4620     4.5710     2.2790 
  188.8750   177.5260    -1.7340    49.8360    -5.2680    66.8660     4.8090     6.3710     4.5060     2.2540 
  189.0000   177.6340    -1.7370    49.8980    -5.3660    68.0630     4.7860     6.3250     4.5960     2.2430 
  189.1250   177.7420    -1.7400    49.9600    -5.6450    66.9520     4.7900     6.3200     4.6160     2.2530 
  189.2500   177.8510    -1.7420    50.0230    -6.0720    65.8830     4.8030     6.3400     4.3480     2.2640 
  189.3750   177.9590    -1.7450    50.0850    -6.5570    64.6220     4.8390     6.3840     4.4000     2.2670 
  189.5000   178.0670    -1.7480    50.1480    -6.8080    64.4240     4.8520     6.4220     4.6860     2.2660 
  189.6250   178.1750    -1.7510    50.2100    -6.8160    64.9400     4.8720     6.4460     4.5560     2.2690 
  189.7500   178.2840    -1.7530    50.2730    -6.9740    65.8300     4.8650     6.4320     4.4000     2.2760 
  189.8750   178.3920    -1.7560    50.3350    -7.1250    66.3720     4.8220     6.3700     4.5630     2.2820 
  190.0000   178.5000    -1.7590    50.3980    -7.2520    65.3750     4.7720     6.2870     4.6830     2.2850 
  190.1250   178.6080    -1.7620    50.4600    -7.3890    64.2260     4.7150     6.2150     4.8190     2.2860 
  190.2500   178.7160    -1.7650    50.5230    -7.5910    64.1490     4.6910     6.1940     4.9060     2.2860 
  190.3750   178.8250    -1.7680    50.5860    -7.8040    66.8950     4.7220     6.2570     5.0510     2.2810 
  190.5000   178.9330    -1.7700    50.6480    -7.9810    69.4760     4.8020     6.3790     5.5440     2.2690 
  190.6250   179.0410    -1.7730    50.7110    -8.0790    70.4950     4.8950     6.5120     5.5680     2.2560 
  190.7500   179.1490    -1.7760    50.7730    -8.1570    69.4950     4.9820     6.6200     4.8330     2.2530 
  190.8750   179.2570    -1.7790    50.8360    -8.2910    69.4700     5.0240     6.6630     4.3140     2.2520 
  191.0000   179.3660    -1.7820    50.8980    -8.3230    69.8320     5.0390     6.6610     4.3900     2.2530 
  191.1250   179.4740    -1.7850    50.9610    -8.2860    71.0040     5.0310     6.6310     4.7010     2.2490 
  191.2500   179.5820    -1.7880    51.0230    -8.1640    71.5540     5.0270     6.5970     4.8870     2.2530 
  191.3750   179.6900    -1.7910    51.0860    -8.0770    73.3040     5.0410     6.6050     4.8870     2.2620 
  191.5000   179.7980    -1.7940    51.1480    -8.0450    75.2750     5.0920     6.6500     4.7960     2.2760 
  191.6250   179.9070    -1.7970    51.2110    -8.0910    77.6240     5.1230     6.6820     4.8240     2.2850 
  191.7500   180.0150    -1.8000    51.2730    -8.0080    78.1700     5.1040     6.6640     4.9740     2.2920 
  191.8750   180.1230    -1.8030    51.3350    -7.7910    78.0400     5.0310     6.5750     4.9650     2.3010 
  192.0000   180.2310    -1.8060    51.3980    -7.4450    76.2680     4.8960     6.4210     4.8590     2.3070 
  192.1250   180.3400    -1.8100    51.4600    -7.3060    73.5740     4.7370     6.2350     5.0270     2.2950 
  192.2500   180.4480    -1.8130    51.5230    -7.3300    71.0630     4.5910     6.0660     5.5400     2.2600 
  192.3750   180.5560    -1.8160    51.5850    -7.3790    69.4360     4.5070     5.9560     5.6160     2.2170 
  192.5000   180.6650    -1.8190    51.6470    -7.5130    68.9050     4.4700     5.9130     5.1420     2.1880 
  192.6250   180.7730    -1.8220    51.7100    -7.6740    68.1170     4.4900     5.9410     4.9260     2.1810 
  192.7500   180.8810    -1.8260    51.7720    -7.9770    67.1200     4.5360     6.0020     4.9320     2.1910 
  192.8750   180.9890    -1.8290    51.8340    -8.1280    67.1080     4.5890     6.0710     4.9110     2.2090 
  193.0000   181.0980    -1.8320    51.8970    -8.2150    67.4560     4.6740     6.1500     4.9790     2.2270 
  193.1250   181.2060    -1.8360    51.9590    -8.2660    68.5520     4.7640     6.2340     5.0910     2.2380 
  193.2500   181.3140    -1.8390    52.0210    -8.3100    69.3430     4.8530     6.3010     5.1570     2.2390 
  193.3750   181.4230    -1.8420    52.0830    -8.3010    70.9270     4.9430     6.3480     4.9460     2.2370 
  193.5000   181.5310    -1.8460    52.1460    -8.3230    71.9110     5.0700     6.4340     4.7990     2.2440 
  193.6250   181.6390    -1.8490    52.2080    -8.4180    72.7360     5.2080     6.5640     5.5820     2.2650 
  193.7500   181.7480    -1.8520    52.2700    -8.4320    72.4370     5.3370     6.7170     6.6550     2.2900 
  193.8750   181.8560    -1.8560    52.3320    -8.3590    72.8000     5.4210     6.8690     7.0680     2.3040 
  194.0000   181.9640    -1.8590    52.3950    -8.2420    72.1910     5.4600     6.9400     8.2870     2.2960 
  194.1250   182.0730    -1.8620    52.4570    -8.2930    70.8950     5.4070     6.9030    11.5700     2.2730 
