~V
VERS. 2.00: Ver 2.00
~W
STRT.M 65.0000:
STOP.M 248.0000:
STEP.M 0.1250:
NULL. -999.2500:
UWI. FD10900:
~C
DEPT.M :
TVD. :
DX. :
DY. :
SP.MV :
GR.API :
RI. :
RML.OHMM :
RXO.OHMM :
DEN.GM/CC :
~A
# ...
  229.2500   226.0740   -23.3160    16.8550   -10.6900    33.5030     0.9920     1.3420     2.1040     2.3180 
  229.3750   226.1940   -23.3430    16.8760   -11.0090    32.4080     0.9840     1.3260     2.1880     2.3020 
  229.5000   226.3140   -23.3700    16.8970   -11.0220    34.0030     1.0040     1.3490     2.2980     2.2810 
  229.6250   226.4350   -23.3960    16.9170   -10.9990    37.2520     1.0580     1.4210     2.3400     2.2670 
  229.7500   226.5550   -23.4230    16.9380   -11.0540    40.9530     1.1450     1.5420     2.3440     2.2680 
  229.8750   226.6750   -23.4500    16.9590   -11.0600    44.0700     1.2470     1.6850     2.4920     2.2790 
  230.0000   226.7960   -23.4770    16.9800   -11.0270    47.3270     1.3330     1.8020     2.8580     2.2940 
  230.1250   226.9160   -23.5040    17.0000   -10.9750    50.8060     1.3750     1.8500     3.1320     2.3050 
  230.2500   227.0360   -23.5310    17.0210   -10.9310    52.7400     1.3510     1.8020     2.9880     2.3070 
  230.3750   227.1570   -23.5580    17.0420   -10.9410    51.4590     1.2800     1.6880     2.5980     2.3040 
  230.5000   227.2770   -23.5850    17.0620   -10.9780    48.1720     1.1920     1.5560     2.2820     2.3030 
  230.6250   227.3970   -23.6110    17.0830   -10.9990    43.9270     1.1240     1.4580     2.1620     2.3060 
  230.7500   227.5180   -23.6380    17.1040   -10.9760    41.6760     1.1060     1.4360     2.2170     2.3090 
  230.8750   227.6380   -23.6650    17.1240   -10.9410    40.4640     1.1430     1.4930     2.3350     2.3070 
  231.0000   227.7580   -23.6920    17.1450   -10.9460    41.7530     1.2240     1.6120     2.4150     2.2990 
  231.1250   227.8790   -23.7190    17.1650   -10.9480    44.3040     1.3190     1.7470     2.4730     2.2930 
  231.2500   227.9990   -23.7450    17.1860   -10.9700    49.5060     1.3920     1.8420     2.6260     2.2860 
  231.3750   228.1190   -23.7720    17.2060   -10.9580    54.2420     1.4150     1.8570     2.7550     2.2740 
  231.5000   228.2400   -23.7990    17.2270   -10.9800    55.9990     1.3780     1.7830     2.5630     2.2570 
  231.6250   228.3600   -23.8260    17.2470   -10.9680    51.9780     1.3050     1.6640     2.2220     2.2470 
  231.7500   228.4800   -23.8530    17.2680   -10.9540    45.1470     1.2290     1.5490     2.0730     2.2530 
  231.8750   228.6010   -23.8800    17.2880   -10.9990    38.1000     1.1780     1.4750     2.0680     2.2710 
  232.0000   228.7210   -23.9060    17.3080   -11.0020    34.1010     1.1660     1.4530     2.0620     2.2910 
  232.1250   228.8420   -23.9330    17.3290   -11.1140    32.9600     1.1800     1.4630     2.0890     2.3050 
  232.2500   228.9620   -23.9600    17.3490   -10.9990    33.9820     1.2100     1.4900     2.1810     2.3100 
  232.3750   229.0820   -23.9870    17.3700    -9.5130    35.8300     1.2390     1.5160     2.2370     2.3050 
  232.5000   229.2030   -24.0130    17.3900    -8.7100    36.4050     1.2600     1.5270     2.2110     2.2940 
  232.6250   229.3230   -24.0400    17.4110    -8.7100    35.1950     1.2660     1.5180     2.1890     2.2830 
  232.7500   229.4430   -24.0670    17.4320    -8.7100    32.8510     1.2550     1.4910     2.1990     2.2760 
  232.8750   229.5640   -24.0930    17.4520    -8.7100    30.9440     1.2340     1.4570     2.1900     2.2700 
  233.0000   229.6840   -24.1200    17.4730    -8.7100    29.6500     1.2120     1.4250     2.1560     2.2640 
  233.1250   229.8050   -24.1460    17.4940    -8.7100    29.3300     1.1990     1.4060     2.1340     2.2610 
  233.2500   229.9250   -24.1730    17.5140    -8.7100    28.1700     1.2160     1.4210     2.1580     2.2650 
  233.3750   230.0450   -24.1990    17.5350    -8.7100    28.6110     1.2770     1.4890     2.2500     2.2790 
  233.5000   230.1660   -24.2260    17.5560    -8.7100    29.8070     1.3910     1.6240     2.4510     2.3090 
  233.6250   230.2860   -24.2530    17.5770    -8.7100    32.0480     1.5390     1.7980     2.7900     2.3540 
  233.7500   230.4060   -24.2790    17.5970    -8.7100    33.0760     1.6900     1.9630     3.2760     2.4030 
  233.8750   230.5270   -24.3060    17.6180    -8.7100    33.9260     1.8170     2.0780     3.6530     2.4360 
  234.0000   230.6470   -24.3320    17.6390    -8.7100    34.6500     1.9200     2.1410     3.5850     2.4440 
  234.1250   230.7670   -24.3590    17.6590    -8.7100    35.5140     2.0310     2.2100     3.4230     2.4410 
  234.2500   230.8880   -24.3860    17.6800    -8.7100    36.2260     2.1780     2.3380     3.8200     2.4450 
  234.3750   231.0080   -24.4120    17.7010    -8.7100    36.0250     2.3550     2.5260     4.7250     2.4590 
  234.5000   231.1290   -24.4390    17.7220    -8.7100    34.7720     2.5170     2.7160     5.6560     2.4710 
  234.6250   231.2490   -24.4660    17.7420    -8.7100    33.9900     2.6040     2.8130     6.0490     2.4640 
  234.7500   231.3690   -24.4920    17.7630    -8.7100    34.8280     2.5740     2.7610     5.5780     2.4370 
  234.8750   231.4900   -24.5190    17.7840    -8.7100    37.7570     2.4620     2.6100     4.8130     2.4010 
  235.0000   231.6100   -24.5460    17.8050    -8.7100    41.5180     2.3320     2.4520     4.3980     2.3730 
  235.1250   231.7300   -24.5720    17.8260    -8.7100    46.9780     2.2640     2.3810     4.3760     2.3620 
  235.2500   231.8510   -24.5990    17.8470    -8.7100    52.6640     2.3040     2.4440     4.6060     2.3670 
  235.3750   231.9710   -24.6250    17.8670    -8.7100    56.8180     2.4260     2.5990     4.9400     2.3780 
  235.5000   232.0910   -24.6520    17.8880    -8.7100    57.6630     2.5820     2.7830     5.3010     2.3820 
  235.6250   232.2120   -24.6780    17.9090    -8.7100    57.2690     2.7230     2.9400     5.5890     2.3730 
  235.7500   232.3320   -24.7050    17.9300    -8.7100    56.8570     2.8350     3.0550     5.6720     2.3530 
  235.8750   232.4520   -24.7320    17.9510    -8.7100    56.7200     2.9370     3.1570     5.5630     2.3340 
  236.0000   232.5730   -24.7580    17.9720    -8.7100    56.1910     3.0440     3.2680     5.4150     2.3330 
  236.1250   232.6930   -24.7850    17.9930    -8.7100    56.1120     3.1300     3.3650     5.6280     2.3480 
  236.2500   232.8130   -24.8110    18.0140    -8.7100    57.2560     3.1500     3.3890     6.2080     2.3630 
  236.3750   232.9340   -24.8380    18.0350    -8.7100    58.1770     3.0770     3.3060     6.1990     2.3620 
  236.5000   233.0540   -24.8640    18.0560    -8.7100    58.9210     2.9080     3.1160     5.1550     2.3410 
  236.6250   233.1740   -24.8910    18.0760    -8.7100    59.3600     2.6930     2.8790     4.0870     2.3110 
  236.7500   233.2950   -24.9180    18.0970    -8.7100    59.6300     2.4690     2.6440     3.7990     2.2840 
  236.8750   233.4150   -24.9440    18.1180    -8.7100    58.9000     2.2680     2.4410     4.0560     2.2670 
  237.0000   233.5350   -24.9710    18.1390    -8.7100    57.1330     2.1100     2.2880     4.1890     2.2600 
  237.1250   233.6560   -24.9970    18.1600    -8.7100    55.5950     1.9960     2.1740     3.7880     2.2650 
  237.2500   233.7760   -25.0240    18.1810    -8.7100    55.1510     1.9200     2.0950     3.2270     2.2770 
  237.3750   233.8960   -25.0500    18.2020    -8.7100    56.6620     1.8780     2.0530     3.0300     2.2870 
  237.5000   234.0170   -25.0770    18.2230    -8.7100    58.3380     1.8740     2.0540     3.1320     2.2850 
  237.6250   234.1370   -25.1040    18.2430    -8.7100    59.9340     1.8960     2.0870     3.2350     2.2760 
  237.7500   234.2570   -25.1300    18.2640    -8.7100    60.1860     1.9310     2.1320     3.2170     2.2680 
  237.8750   234.3780   -25.1570    18.2850    -8.7100    60.9180     1.9540     2.1550     3.1270     2.2660 
  238.0000   234.4980   -25.1830    18.3060    -8.7100    60.6670     1.9440     2.1340     3.0600     2.2700 
  238.1250   234.6190   -25.2090    18.3270    -8.7100    60.0230     1.9140     2.0890     3.0070     2.2740 
  238.2500   234.7390   -25.2360    18.3480    -8.7100    58.8110     1.8840     2.0470     2.9060     2.2760 
