~V
VERS. 2.00: Ver 2.00
~W
STRT.M 1.0000:
STOP.M 198.0000:
STEP.M 0.1250:
NULL. -999.2500:
UWI. FD10802:
~C
DEPT.M :
TVD. :
DX. :
DY. :
SP.MV :
GR.API :
RI. :
RML.OHMM :
RXO.OHMM :
DEN.GM/CC :
~A
# ...
   37.5000    37.5000     0.0400    -0.1390    76.5890    44.4860     0.1740     0.2230     4.5470     2.2580 
   37.6250    37.6250     0.0400    -0.1390    76.6590    46.1190     0.1740     0.2290     4.3370     2.2580 
   37.7500    37.7500     0.0400    -0.1400    77.0760    48.6840     0.1750     0.2460     5.5070     2.2580 
   37.8750    37.8750     0.0410    -0.1400    77.6220    49.2830     0.1760     0.2670    11.6780     2.2580 
   38.0000    38.0000     0.0410    -0.1400    77.9820    49.2090     0.1780     0.2890    17.3140     2.2580 
   38.1250    38.1250     0.0410    -0.1410    78.0160    48.2920     0.1790     0.2800    15.8480     2.2580 
   38.2500    38.2500     0.0410    -0.1410    77.7660    48.2150     0.1800     0.2640    18.6580     2.2580 
   38.3750    38.3750     0.0420    -0.1420    77.5120    47.9640     0.1800     0.2460    18.7790     2.2580 
   38.5000    38.5000     0.0420    -0.1420    77.0800    48.5920     0.1800     0.2390     7.4840     2.2580 
   38.6250    38.6250     0.0420    -0.1420    76.5500    49.6040     0.1800     0.2520     0.5900     2.2580 
   38.7500    38.7500     0.0420    -0.1430    75.8460    50.0530     0.1800     0.2580     0.4170     2.2580 
   38.8750    38.8750     0.0430    -0.1430    75.0720    48.2450     0.1790     0.2570     0.3340     2.2580 
   39.0000    39.0000     0.0430    -0.1430    74.1520    46.3080     0.1800     0.2440     0.2180     2.2580 
   39.1250    39.1250     0.0430    -0.1440    73.0990    45.4980     0.1800     0.2420     0.1310     2.2580 
   39.2500    39.2500     0.0430    -0.1440    72.1160    46.5530     0.1800     0.2410     0.1130     2.2580 
   39.3750    39.3750     0.0440    -0.1440    71.4320    47.0640     0.1800     0.2410     0.0990     2.2580 
   39.5000    39.5000     0.0440    -0.1450    71.0760    48.3160     0.1800     0.2320     0.0570     2.2580 
   39.6250    39.6250     0.0440    -0.1450    70.7580    49.6570     0.1800     0.2300     0.0410     2.2580 
   39.7500    39.7500     0.0450    -0.1450    70.4320    51.1920     0.1800     0.2300     0.0160     2.2580 
   39.8750    39.8750     0.0450    -0.1460    70.0090    51.3710     0.1800     0.2300    -0.0290     2.2580 
   40.0000    40.0000     0.0450    -0.1460    69.5840    50.0200     0.1810     0.2330     0.0130     2.2580 
   40.1250    40.1250     0.0460    -0.1460    69.2810    47.6200     0.1810     0.2290     0.0800     2.2580 
   40.2500    40.2500     0.0460    -0.1470    69.1180    45.4030     0.1800     0.2280     0.0800     2.2580 
   40.3750    40.3750     0.0460    -0.1470    68.9860    42.4580     0.1800     0.2270     0.0610     2.2580 
   40.5000    40.5000     0.0470    -0.1470    68.7460    39.9970     0.1790     0.2270     0.0620     2.2580 
   40.6250    40.6250     0.0470    -0.1470    68.2510    38.3420     0.1790     0.2320     0.0710     2.2580 
   40.7500    40.7500     0.0470    -0.1480    67.6070    38.9820     0.1790     0.2280     0.0760     2.2580 
   40.8750    40.8750     0.0480    -0.1480    67.2310    40.1200     0.1780     0.2230     0.0570     2.2580 
   41.0000    41.0000     0.0480    -0.1480    66.8400    40.6520     0.1780     0.2270     0.0270     2.2580 
   41.1250    41.1250     0.0480    -0.1480    66.4900    40.6330     0.1770     0.2210     0.0130     2.2580 
   41.2500    41.2500     0.0490    -0.1490    66.0860    40.1620     0.1770     0.2260     0.0030     2.2580 
   41.3750    41.3750     0.0490    -0.1490    65.7380    39.5710     0.1760     0.2190     0.0070     2.2580 
   41.5000    41.5000     0.0500    -0.1490    65.2780    38.8540     0.1750     0.2190     0.0320     2.2580 
   41.6250    41.6250     0.0500    -0.1490    64.6020    39.2480     0.1750     0.2170     0.0350     2.2580 
   41.7500    41.7500     0.0500    -0.1490    63.7860    39.4140     0.1740     0.2100     0.0150     2.2580 
   41.8750    41.8750     0.0510    -0.1500    62.8430    39.8780     0.1730     0.2090    -0.0010     2.2580 
   42.0000    42.0000     0.0510    -0.1500    61.9280    39.3590     0.1720     0.2080    -0.0050     2.2580 
   42.1250    42.1250     0.0510    -0.1500    61.1150    39.1660     0.1710     0.2070     0.0260     2.2580 
   42.2500    42.2500     0.0520    -0.1500    60.4960    38.4950     0.1700     0.2060     0.0660     2.2580 
   42.3750    42.3750     0.0520    -0.1500    59.9450    39.1220     0.1690     0.2050     0.0520     2.2580 
   42.5000    42.5000     0.0530    -0.1500    59.4780    38.9570     0.1680     0.2030     0.0260     2.2580 
   42.6250    42.6250     0.0530    -0.1500    58.9660    38.5800     0.1680     0.2020     0.0240     2.2580 
   42.7500    42.7500     0.0530    -0.1510    58.4970    37.4480     0.1670     0.2020     0.0210     2.2580 
   42.8750    42.8750     0.0540    -0.1510    57.9870    37.3290     0.1660     0.2010     0.0210     2.2580 
   43.0000    43.0000     0.0540    -0.1510    57.2620    37.8930     0.1650     0.2000     0.0100     2.2580 
   43.1250    43.1250     0.0550    -0.1510    56.4550    38.6250     0.1640     0.1990    -0.0120     2.2580 
   43.2500    43.2500     0.0550    -0.1510    55.8840    38.4480     0.1630     0.1970    -0.0120     2.2580 
   43.3750    43.3750     0.0560    -0.1510    55.6860    37.6400     0.1620     0.1960     0.0010     2.2580 
   43.5000    43.5000     0.0560    -0.1510    55.7980    36.7810     0.1610     0.1950     0.0070     2.2580 
   43.6250    43.6250     0.0560    -0.1510    56.2020    36.6620     0.1600     0.1940     0.0160     2.2580 
   43.7500    43.7500     0.0570    -0.1510    56.9520    37.4970     0.1580     0.1940     0.0490     2.2580 
   43.8750    43.8750     0.0570    -0.1510    57.9800    38.5890     0.1560     0.1930     0.0700     2.2580 
   44.0000    44.0000     0.0580    -0.1510    59.1540    38.9430     0.1550     0.1910     0.0400     2.2580 
   44.1250    44.1250     0.0580    -0.1510    60.4830    38.9090     0.1550     0.1910     0.0160     2.2580 
   44.2500    44.2500     0.0590    -0.1510    61.8790    38.3210     0.1560     0.1900     0.0120  -256.4470 
   44.3750    44.3750     0.0590    -0.1510    63.2000    37.7210     0.1560     0.1910     0.1750     2.2580 
   44.5000    44.5000     0.0590    -0.1510    64.1770    36.0210     0.1570     0.1930     0.3980     2.2580 
   44.6250    44.6250     0.0600    -0.1510    64.2350    35.1290     0.1570     0.1930     0.2830     2.2580 
   44.7500    44.7500     0.0600    -0.1510    62.5450    35.2510     0.1560     0.1910     0.0740     2.2580 
   44.8750    44.8750     0.0610    -0.1510    60.0550    36.5080     0.1540     0.1890     0.0280     2.2580 
   45.0000    45.0000     0.0610    -0.1510    58.2490    37.5410     0.1530     0.1870     0.0230     2.2580 
   45.1250    45.1250     0.0610    -0.1510    57.1190    38.0910     0.1510     0.1860     0.0240     2.2580 
   45.2500    45.2500     0.0620    -0.1510    56.4720    38.7930     0.1510     0.1860     0.0260     2.2580 
   45.3750    45.3750     0.0620    -0.1510    56.1600    40.1700     0.1510     0.1870     0.0270     2.2580 
   45.5000    45.5000     0.0630    -0.1510    56.2270    41.5000     0.1510     0.1870     0.0280     2.2580 
   45.6250    45.6250     0.0630    -0.1510    56.4290    41.9290     0.1510     0.1860     0.0290     2.2580 
   45.7500    45.7500     0.0640    -0.1510    56.6330    41.5160     0.1510     0.1860     0.0300     2.2580 
   45.8750    45.8750     0.0640    -0.1510    56.8160    42.1170     0.1520     0.1850     0.0310     2.2580 
   46.0000    46.0000     0.0640    -0.1510    56.9300    43.3050     0.1520     0.1850     0.0300     2.2580 
   46.1250    46.1250     0.0650    -0.1510    57.1420    44.9340     0.1520     0.1860     0.0270     2.2580 
   46.2500    46.2500     0.0650    -0.1510    57.4160    44.9090     0.1520     0.1860     0.0120     2.2580 
   46.3750    46.3750     0.0650    -0.1510    57.7530    44.0970     0.1520     0.1850    -0.0540     2.2580 
   46.5000    46.5000     0.0660    -0.1510    57.8490    42.7140     0.1520     0.1850    -0.0920     2.2580 
