~V
VERS. 2.00: Ver 2.00
~W
STRT.M 62.0000:
STOP.M 282.0000:
STEP.M 0.1250:
NULL. -999.2500:
UWI. FD10887:
~C
DEPT.M :
TVD. :
DX. :
DY. :
SP.MV :
GR.API :
RI. :
RML.OHMM :
RXO.OHMM :
DEN.GM/CC :
~A
# ...
  271.8750   255.1180    -1.2280    73.3770     0.5240    84.3680     5.3750     6.0560     6.9420     2.2280 
  272.0000   255.2260    -1.2310    73.4400     0.5240    84.4220     5.3780     6.0600     6.6400     2.2270 
  272.1250   255.3340    -1.2350    73.5030     0.5240    84.5630     5.3770     6.0660     6.1430     2.2190 
  272.2500   255.4420    -1.2390    73.5660     0.5240    84.5430     5.3730     6.0730     5.9320     2.2090 
  272.3750   255.5500    -1.2430    73.6290     0.5240    83.3600     5.3740     6.0830     5.9520     2.1990 
  272.5000   255.6580    -1.2460    73.6920     0.5240    81.7970     5.3750     6.0850     5.9240     2.1950 
  272.6250   255.7660    -1.2500    73.7550     0.5240    81.7650     5.3880     6.0880     5.9040     2.2030 
  272.7500   255.8740    -1.2540    73.8180     0.5240    83.2180     5.3830     6.0880     5.9590     2.2200 
  272.8750   255.9820    -1.2570    73.8810     0.5240    83.9100     5.3760     6.0880     6.1650     2.2420 
  273.0000   256.0890    -1.2610    73.9440     0.5240    83.9780     5.3660     6.0870     6.5760     2.2630 
  273.1250   256.1970    -1.2650    74.0070     0.5240    84.3720     5.3610     6.0890     7.3940     2.2820 
  273.2500   256.3050    -1.2680    74.0700     0.5240    84.2950     5.3720     6.0880     8.7740     2.2940 
  273.3750   256.4130    -1.2720    74.1330     0.5240    83.7140     5.3790     6.0900    10.0740     2.2920 
  273.5000   256.5210    -1.2760    74.1960     0.5240    84.0350     5.3860     6.0900    10.0180     2.2780 
  273.6250   256.6290    -1.2790    74.2590     0.5240    83.8360     5.3920     6.0880     8.5720     2.2580 
  273.7500   256.7370    -1.2830    74.3210     0.5240    82.5250     5.3950     6.0860     7.3860     2.2410 
  273.8750   256.8450    -1.2870    74.3840     0.5240    82.0460     5.3920     6.0850     6.9260     2.2310 
  274.0000   256.9530    -1.2900    74.4470     0.5240    83.8050     5.3840     6.0880     6.5520     2.2260 
  274.1250   257.0610    -1.2940    74.5100     0.5240    84.3900     5.3810     6.0910     5.9910     2.2240 
  274.2500   257.1690    -1.2980    74.5730     0.5240    82.0840     5.3750     6.0940     5.5900     2.2240 
  274.3750   257.2770    -1.3020    74.6360     0.5240    79.0420     5.3820     6.0920     5.6090     2.2260 
  274.5000   257.3850    -1.3050    74.6990     0.5240    77.5410     5.3840     6.0880     5.4550     2.2290 
  274.6250   257.4920    -1.3090    74.7620     0.5240    77.4140     5.3890     6.0860     5.2580     2.2350 
  274.7500   257.6000    -1.3130    74.8250     0.5240    77.5040     5.3870     6.0880     5.3380     2.2410 
  274.8750   257.7080    -1.3160    74.8880     0.5240    77.5000     5.3870     6.0900     5.2480     2.2480 
  275.0000   257.8160    -1.3200    74.9510     0.5240    77.5000     5.3780     6.0930     5.0140     2.2540 
  275.1250   257.9240    -1.3240    75.0140     0.5240    77.5000     5.3780     6.0940     4.9800     2.2600 
  275.2500   258.0320    -1.3270    75.0770     0.5240    77.5000     5.3750     6.0930     5.1180     2.2620 
  275.3750   258.1400    -1.3310    75.1400     0.5240    77.5000     5.3790     6.0970     5.2910     2.2600 
  275.5000   258.2480    -1.3350    75.2030     0.5240    77.5000     5.3790     6.0940     5.1920     2.2540 
  275.6250   258.3560    -1.3380    75.2660     0.5240    77.5000     5.3720     6.0960     4.6230     2.2440 
  275.7500   258.4640    -1.3420    75.3290     0.5240    77.5000     5.3730     6.0930     3.9560     2.2300 
  275.8750   258.5720    -1.3460    75.3920     0.5240    77.5000     5.3700     6.0910     3.4170     2.2130 
  276.0000   258.6800    -1.3490    75.4550     0.5240    77.5000     5.3730     6.0920     3.0000     2.1950 
  276.1250   258.7880    -1.3530    75.5180     0.5240    77.5000     5.3690     6.0880     2.7220     2.1790 
  276.2500   258.8960    -1.3570    75.5810     0.5240    77.5000     5.3680     6.0920     2.6010     2.1640 
  276.3750   259.0030    -1.3610    75.6440     0.5240    77.5000     5.3620     6.0960     2.6540     2.1520 
  276.5000   259.1110    -1.3640    75.7070     0.5240    77.5000     5.3620     6.0990     2.6550     2.1430 
  276.6250   259.2190    -1.3680    75.7690     0.5240    77.5000     5.3610     6.1010     2.5350     2.1360 
  276.7500   259.3270    -1.3720    75.8320     0.5240    77.5000     5.3600     6.1040     2.4690     2.1330 
  276.8750   259.4350    -1.3750    75.8950     0.5240    77.5000     5.3580     6.1050     2.4690     2.1370 
  277.0000   259.5430    -1.3790    75.9580     0.5240    77.5000     5.3570     6.1090     2.4680     2.1430 
  277.1250   259.6510    -1.3830    76.0210     0.5240    77.5000     5.3570     6.1100     2.4680     2.1450 
  277.2500   259.7590    -1.3860    76.0840     0.5240    77.5000     5.3570     6.1100     2.4680     2.1380 
  277.3750   259.8670    -1.3900    76.1470     0.5240    77.5000     5.3570     6.1100     2.4670     2.1260 
  277.5000   259.9750    -1.3940    76.2100     0.5240    77.5000     5.3570     6.1100     2.4660     2.1160 
  277.6250   260.0830    -1.3970    76.2730     0.5240    77.5000     5.3570     6.1100     2.4660     2.1160 
  277.7500   260.1910    -1.4010    76.3360     0.5240    77.5000     5.3570     6.1100     2.4660     2.1220 
  277.8750   260.2990    -1.4050    76.3990     0.5240    77.5000     5.3570     6.1100     2.4660     2.1280 
  278.0000   260.4060    -1.4080    76.4620     0.5240    77.5000     5.3570     6.1100     2.4660     2.1320 
  278.1250   260.5140    -1.4120    76.5250     0.5240    77.5000     5.3570     6.1100     2.4660     2.1340 
  278.2500   260.6220    -1.4160    76.5880     0.5240    77.5000     5.3570     6.1100     2.4650     2.1350 
  278.3750   260.7300    -1.4190    76.6510     0.5240    77.5000     5.3570     6.1100     2.4650     2.1340 
  278.5000   260.8380    -1.4230    76.7140     0.5240    77.5000     5.3570     6.1100     2.4640     2.1320 
  278.6250   260.9460    -1.4270    76.7770     0.5240    77.5000     5.3570     6.1100     2.4640     2.1300 
  278.7500   261.0540    -1.4310    76.8400     0.5240    77.5000     5.3570     6.1100     2.4630     2.1290 
  278.8750   261.1620    -1.4340    76.9030     0.5240    77.5000     5.3570     6.1100     2.4630     2.1290 
  279.0000   261.2700    -1.4380    76.9660     0.5240    77.5000     5.3570     6.1100     2.4630     2.1280 
  279.1250   261.3780    -1.4420    77.0290     0.5240    77.5000     5.3570     6.1100     2.4630     2.1240 
  279.2500   261.4860    -1.4450    77.0920     0.5240    77.5000     5.3570     6.1100     2.4630     2.1220 
  279.3750   261.5940    -1.4490    77.1550     0.5240    77.5000     5.3570     6.1100     2.4620     2.1220 
  279.5000   261.7020    -1.4530    77.2170     0.5240    77.5000     5.3570     6.1100     2.4620     2.1220 
  279.6250   261.8100    -1.4560    77.2800     0.5240    77.5000     5.3570     6.1100     2.4620     2.1180 
  279.7500   261.9170    -1.4600    77.3430     0.5240    77.5000     5.3570     6.1100     2.4620     2.1140 
  279.8750   262.0250    -1.4640    77.4060     0.5240    77.5000     5.3570     6.1100     2.4620     2.1150 
  280.0000   262.1330    -1.4670    77.4690     0.5240    77.5000     5.3570     6.1100     2.4620     2.1230 
  280.1250   262.2410    -1.4710    77.5320     0.5240    77.5000     5.3570     6.1100     2.4620     2.1350 
  280.2500   262.3490    -1.4750    77.5950     0.5240    77.5000     5.3570     6.1100     2.4610     2.1460 
  280.3750   262.4570    -1.4780    77.6580     0.5240    77.5000     5.3570     6.1100     2.4610     2.1490 
  280.5000   262.5650    -1.4820    77.7210     0.5240    77.5000     5.3570     6.1100     2.4610     2.1450 
  280.6250   262.6730    -1.4860    77.7840     0.5240    77.5000     5.3570     6.1100     2.4610     2.1370 
  280.7500   262.7810    -1.4900    77.8470     0.5240    77.5000     5.3570     6.1100     2.4600     2.1290 
  280.8750   262.8890    -1.4930    77.9100     0.5240    77.5000     5.3570     6.1100     2.4600     2.1240 
