~V
VERS. 2.00: Ver 2.00
~W
STRT.M 30.0000:
STOP.M 262.0000:
STEP.M 0.1250:
NULL. -999.2500:
UWI. FD10852:
~C
DEPT.M :
TVD. :
DX. :
DY. :
SP.MV :
GR.API :
RI. :
RML.OHMM :
RXO.OHMM :
DEN.GM/CC :
~A
# ...
  148.6250   140.8380   -36.2850    -2.5890    -3.9390    58.6020   113.3540   127.1110    92.5890     2.0810 
  148.7500   140.9400   -36.3580    -2.5910    -3.1090    56.9810   108.2480   121.5750    77.6350     2.0980 
  148.8750   141.0410   -36.4310    -2.5930    -2.7980    58.3970    99.0900   111.1710    65.8520     2.1190 
  149.0000   141.1430   -36.5040    -2.5940    -2.9360    60.7220    84.6810    94.6430    63.0800     2.1420 
  149.1250   141.2450   -36.5760    -2.5960    -3.3550    61.7300    70.2870    78.1670    59.2660     2.1860 
  149.2500   141.3460   -36.6490    -2.5980    -3.9560    61.0780    58.9510    65.0200    51.8680     2.2690 
  149.3750   141.4480   -36.7220    -2.6000    -4.4830    60.3090    51.8660    56.9950    42.0220     2.3780 
  149.5000   141.5500   -36.7950    -2.6020    -4.7390    59.4920    48.5340    53.3060    31.4300     2.4850 
  149.6250   141.6510   -36.8670    -2.6040    -4.7700    59.1900    46.6290    51.2050    33.3720     2.5680 
  149.7500   141.7530   -36.9400    -2.6060    -4.7360    57.7480    46.6030    51.3130    65.7750     2.5910 
  149.8750   141.8550   -37.0130    -2.6080    -4.8160    56.7920    47.0360    51.3790    88.8160     2.5640 
  150.0000   141.9560   -37.0850    -2.6100    -5.0970    57.7170    44.3800    48.1600    65.0120     2.5310 
  150.1250   142.0580   -37.1580    -2.6120    -5.5070    60.0980    38.4930    41.5150    42.8560     2.5190 
  150.2500   142.1600   -37.2310    -2.6140    -5.9250    62.9420    29.7450    31.8010    45.8200     2.5010 
  150.3750   142.2610   -37.3030    -2.6160    -6.3580    65.3620    22.0120    23.6720    44.9960     2.4520 
  150.5000   142.3630   -37.3760    -2.6180    -6.8480    69.4710    16.5340    17.5590    30.8560     2.3920 
  150.6250   142.4640   -37.4490    -2.6200    -7.3080    74.8640    12.8030    13.6080    16.4740     2.3500 
  150.7500   142.5660   -37.5220    -2.6220    -7.7540    79.4290    11.1650    12.1890    11.9680     2.3380 
  150.8750   142.6670   -37.5950    -2.6240    -8.2470    80.5740    10.8960    12.2530    11.7260     2.3540 
  151.0000   142.7690   -37.6680    -2.6250    -8.7290    78.6500    11.3160    12.9870    10.2590     2.4000 
  151.1250   142.8700   -37.7410    -2.6270    -9.2040    77.0340    11.8530    13.6260    10.7060     2.4540 
  151.2500   142.9720   -37.8140    -2.6280    -9.6710    77.0690    11.9920    13.6210    14.2080     2.4680 
  151.3750   143.0730   -37.8870    -2.6300    -9.9590    78.1460    12.2570    13.7190    14.6430     2.4120 
  151.5000   143.1750   -37.9600    -2.6310    -9.7880    79.2430    12.5800    13.8740    11.4060     2.3020 
  151.6250   143.2760   -38.0330    -2.6330    -9.1840    78.4050    12.9750    14.1810    10.3870     2.1970 
  151.7500   143.3770   -38.1060    -2.6340    -8.4020    76.1710    13.3230    14.4880    12.6780     2.1370 
  151.8750   143.4790   -38.1800    -2.6350    -7.7730    74.3710    13.7820    14.9260    15.0920     2.1200 
  152.0000   143.5800   -38.2530    -2.6360    -7.6710    74.6790    14.2890    15.4400    14.3780     2.1300 
  152.1250   143.6810   -38.3260    -2.6370    -8.0890    75.0640    14.9290    16.2890    10.6920     2.1390 
  152.2500   143.7820   -38.3990    -2.6380    -8.7970    74.2440    15.9190    17.7310     9.2360     2.1340 
  152.3750   143.8840   -38.4730    -2.6390    -9.5000    72.1000    16.1500    18.2810    12.8660     2.1170 
  152.5000   143.9850   -38.5460    -2.6400    -9.9040    71.6080    15.1420    17.2930    18.7130     2.1090 
  152.6250   144.0860   -38.6190    -2.6410    -9.8530    75.2480    12.9720    14.8200    21.8440     2.1190 
  152.7500   144.1870   -38.6930    -2.6420    -9.5030    80.1910    10.0340    11.3570    20.3120     2.1500 
  152.8750   144.2890   -38.7660    -2.6440    -9.1420    83.5280     7.5120     8.4790    15.3530     2.1940 
  153.0000   144.3900   -38.8390    -2.6450    -8.8070    86.7520     6.0500     6.8690     9.2930     2.2310 
  153.1250   144.4910   -38.9130    -2.6460    -8.4830    91.4280     5.5650     6.4240     6.1780     2.2500 
  153.2500   144.5920   -38.9860    -2.6480    -8.3090    92.4990     6.1090     7.2060     5.7890     2.2520 
  153.3750   144.6940   -39.0590    -2.6490    -8.2920    87.4210     7.6990     9.2800     5.6210     2.2450 
  153.5000   144.7950   -39.1320    -2.6510    -8.3640    78.9040    10.6370    13.0820     7.0290     2.2330 
  153.6250   144.8960   -39.2060    -2.6520    -8.4590    72.2400    14.4280    17.8150    11.1750     2.2390 
  153.7500   144.9970   -39.2790    -2.6530    -8.5340    67.5950    18.1650    22.3870    15.3040     2.2840 
  153.8750   145.0990   -39.3520    -2.6540    -8.6440    64.1520    20.8550    25.4410    16.8040     2.3400 
  154.0000   145.2000   -39.4250    -2.6550    -8.8820    61.8640    22.3340    26.9250    17.1150     2.3690 
  154.1250   145.3010   -39.4980    -2.6560    -9.1450    60.8000    23.1400    27.6150    17.3590     2.3820 
  154.2500   145.4030   -39.5720    -2.6580    -9.2630    60.5540    23.9070    28.4520    16.7870     2.4020 
  154.3750   145.5040   -39.6450    -2.6590    -9.3910    60.5740    24.8720    29.8300    16.3420     2.4230 
  154.5000   145.6050   -39.7180    -2.6600    -9.5200    61.4730    25.7310    31.2960    22.0390     2.4230 
  154.6250   145.7070   -39.7910    -2.6620    -9.3430    63.0470    26.0690    32.2010    31.0200     2.4050 
  154.7500   145.8080   -39.8640    -2.6630    -8.7320    64.4370    25.8940    32.3740    29.8750     2.3880 
  154.8750   145.9090   -39.9370    -2.6650    -7.8820    64.1630    25.4260    32.0400    22.6460     2.3880 
  155.0000   146.0110   -40.0100    -2.6670    -7.0440    61.8350    25.2110    31.9300    20.1760     2.4150 
  155.1250   146.1120   -40.0840    -2.6690    -6.5900    59.2460    25.9590    32.9940    20.2280     2.4710 
  155.2500   146.2140   -40.1570    -2.6710    -6.6750    57.5060    27.9910    35.6480    19.8130     2.5370 
  155.3750   146.3150   -40.2300    -2.6730    -7.0010    56.3410    30.7030    39.0780    20.5340     2.5740 
  155.5000   146.4160   -40.3030    -2.6740    -7.3730    56.1910    33.4170    42.2920    24.5320     2.5770 
  155.6250   146.5180   -40.3760    -2.6760    -7.5800    57.9000    34.9230    43.6450    29.6940     2.5820 
  155.7500   146.6190   -40.4490    -2.6780    -7.3450    60.7080    34.5000    42.5150    31.7290     2.5970 
  155.8750   146.7200   -40.5220    -2.6800    -6.6310    59.5740    31.1800    37.7830    32.2080     2.5980 
  156.0000   146.8220   -40.5950    -2.6820    -6.2500    57.1590    28.1680    34.1910    31.6050     2.5900 
  156.1250   146.9230   -40.6680    -2.6840    -5.9340    56.6440    25.7260    31.5650    25.8920     2.5980 
  156.2500   147.0250   -40.7420    -2.6860    -5.6980    56.5720    23.4930    29.1310    21.0780     2.6260 
  156.3750   147.1260   -40.8150    -2.6880    -5.5890    56.0500    21.0160    26.0280    20.7880     2.6550 
  156.5000   147.2270   -40.8880    -2.6890    -5.6320    57.5600    17.5000    21.4560    21.9110     2.6570 
  156.6250   147.3280   -40.9610    -2.6910    -5.8180    62.7630    13.5890    16.2810    23.4310     2.6090 
  156.7500   147.4300   -41.0340    -2.6930    -6.1000    71.2070    10.0890    11.8770    20.9120     2.5030 
  156.8750   147.5310   -41.1080    -2.6940    -6.3410    78.3370     7.6830     8.9510    13.4150     2.3740 
  157.0000   147.6320   -41.1810    -2.6960    -6.5230    82.5290     6.3460     7.3920     7.6870     2.2810 
  157.1250   147.7340   -41.2540    -2.6980    -6.7270    84.1430     5.9160     6.9430     6.1570     2.2460 
  157.2500   147.8350   -41.3270    -2.7000    -6.9720    83.6510     6.5420     7.7220     5.9400     2.2580 
  157.3750   147.9360   -41.4000    -2.7020    -7.2510    78.9050     7.9370     9.3870     5.5090     2.2810 
  157.5000   148.0380   -41.4740    -2.7040    -7.4640    71.1430    10.4740    12.4610     5.9780     2.3190 
  157.6250   148.1390   -41.5470    -2.7060    -7.4300    64.1580    13.6460    16.2410     9.8160     2.3830 
