~V
VERS. 2.00: Ver 2.00
~W
STRT.M 40.0000:
STOP.M 276.0000:
STEP.M 0.1250:
NULL. -999.2500:
UWI. FD10882:
~C
DEPT.M :
TVD. :
DX. :
DY. :
SP.MV :
GR.API :
RI. :
RML.OHMM :
RXO.OHMM :
DEN.GM/CC :
~A
# ...
   67.3750    67.3670    -0.5510    -0.0590    -9.4610    71.1880     5.9450     6.7390     6.0130     2.2110 
   67.5000    67.4910    -0.5580    -0.0610    -9.4790    75.0920     5.3580     5.9800     5.5560     2.2300 
   67.6250    67.6160    -0.5640    -0.0640    -9.3640    80.0880     5.0140     5.5630     5.0290     2.2440 
   67.7500    67.7410    -0.5700    -0.0670    -9.1440    81.7830     4.9180     5.4860     4.8510     2.2390 
   67.8750    67.8660    -0.5770    -0.0690    -8.9010    79.1340     5.0800     5.7630     5.2310     2.2200 
   68.0000    67.9910    -0.5830    -0.0720    -8.5990    73.2120     5.5260     6.4290     5.8610     2.2000 
   68.1250    68.1150    -0.5890    -0.0750    -8.4360    68.9070     6.0200     7.1110     6.4200     2.1950 
   68.2500    68.2400    -0.5960    -0.0780    -8.4240    66.8490     6.2780     7.4490     6.7540     2.2120 
   68.3750    68.3650    -0.6020    -0.0810    -8.3830    70.3100     6.2120     7.3320     6.6850     2.2560 
   68.5000    68.4900    -0.6090    -0.0840    -8.2560    76.4650     5.8200     6.7680     6.1960     2.3020 
   68.6250    68.6150    -0.6160    -0.0870    -8.0960    84.6720     5.3640     6.1830     5.5640     2.3150 
   68.7500    68.7390    -0.6230    -0.0900    -7.9050    89.7040     4.9800     5.7320     5.1440     2.2920 
   68.8750    68.8640    -0.6290    -0.0930    -7.7290    92.0410     4.7180     5.4680     4.9370     2.2560 
   69.0000    68.9890    -0.6360    -0.0960    -7.5940    91.8040     4.6400     5.4300     4.7720     2.2360 
   69.1250    69.1140    -0.6430    -0.0990    -7.5880    92.1680     4.6840     5.4840     4.7450     2.2330 
   69.2500    69.2380    -0.6500    -0.1020    -7.6430    91.2120     4.7580     5.5360     4.9580     2.2280 
   69.3750    69.3630    -0.6580    -0.1050    -7.7350    89.4260     4.8110     5.5400     5.1970     2.2150 
   69.5000    69.4880    -0.6650    -0.1090    -7.8640    87.0800     4.9110     5.6200     5.1840     2.2160 
   69.6250    69.6130    -0.6720    -0.1120    -8.0820    86.3230     5.0770     5.8000     5.0010     2.2320 
   69.7500    69.7370    -0.6790    -0.1160    -8.2930    86.3740     5.2450     5.9920     4.9570     2.2400 
   69.8750    69.8620    -0.6870    -0.1190    -8.3830    83.9820     5.4010     6.1760     5.0880     2.2200 
   70.0000    69.9870    -0.6940    -0.1230    -8.4130    80.4770     5.5150     6.3020     5.1300     2.2020 
   70.1250    70.1120    -0.7020    -0.1260    -8.4170    79.0370     5.5030     6.2820     4.9710     2.2130 
   70.2500    70.2360    -0.7100    -0.1300    -8.4480    81.0130     5.3490     6.1100     4.7940     2.2400 
   70.3750    70.3610    -0.7170    -0.1340    -8.6250    84.0630     5.0080     5.7610     4.7220     2.2580 
   70.5000    70.4860    -0.7250    -0.1370    -8.8150    86.5970     4.5940     5.3370     4.6360     2.2570 
   70.6250    70.6100    -0.7330    -0.1410    -8.8410    89.0030     4.1540     4.8590     4.4020     2.2590 
   70.7500    70.7350    -0.7410    -0.1450    -8.8370    91.4540     3.7470     4.3910     4.0780     2.2660 
   70.8750    70.8600    -0.7490    -0.1490    -8.7970    93.7360     3.4630     4.0600     3.7880     2.2800 
   71.0000    70.9840    -0.7570    -0.1530    -8.6480    95.5180     3.3820     3.9930     3.6190     2.2840 
   71.1250    71.1090    -0.7650    -0.1580    -8.4670    95.4320     3.5790     4.2820     3.7230     2.2840 
   71.2500    71.2340    -0.7730    -0.1620    -8.3710    92.6260     4.1120     4.9910     4.2010     2.2750 
   71.3750    71.3580    -0.7810    -0.1660    -8.2840    86.7760     4.9080     6.0260     4.9790     2.2570 
   71.5000    71.4830    -0.7890    -0.1700    -8.1520    80.2380     5.8920     7.2670     5.7080     2.2260 
   71.6250    71.6080    -0.7970    -0.1750    -7.9560    73.2290     6.8070     8.3560     6.0850     2.1920 
   71.7500    71.7320    -0.8060    -0.1790    -7.6920    68.4870     7.4190     9.0190     6.1530     2.1650 
   71.8750    71.8570    -0.8140    -0.1840    -7.4650    67.1750     7.5990     9.1140     6.1340     2.1480 
   72.0000    71.9820    -0.8230    -0.1880    -7.3130    69.5900     7.4760     8.8730     6.2020     2.1450 
   72.1250    72.1060    -0.8310    -0.1930    -7.3530    73.0850     7.1950     8.4790     6.3480     2.1530 
   72.2500    72.2310    -0.8400    -0.1970    -7.5050    76.3220     6.8730     8.0800     6.6110     2.1680 
   72.3750    72.3550    -0.8480    -0.2020    -7.7260    79.0130     6.5310     7.6810     7.3220     2.1910 
   72.5000    72.4800    -0.8570    -0.2070    -7.9360    80.2660     6.1570     7.2310     8.3270     2.2300 
   72.6250    72.6050    -0.8660    -0.2110    -8.0740    83.2890     5.7790     6.7650     8.5990     2.2750 
   72.7500    72.7290    -0.8750    -0.2160    -8.1550    87.0040     5.4230     6.3190     7.5780     2.3050 
   72.8750    72.8540    -0.8830    -0.2210    -8.2600    91.2150     5.1200     5.9400     5.9590     2.2960 
   73.0000    72.9780    -0.8920    -0.2260    -8.3460    94.2470     4.9350     5.7350     4.9040     2.2730 
   73.1250    73.1030    -0.9010    -0.2310    -8.3990    96.0560     4.8800     5.7040     4.6500     2.2550 
   73.2500    73.2280    -0.9100    -0.2360    -8.4660    96.2120     4.9260     5.7830     4.7210     2.2450 
   73.3750    73.3520    -0.9200    -0.2410    -8.6440    96.0790     5.0540     5.9530     4.8970     2.2350 
   73.5000    73.4770    -0.9290    -0.2460    -8.7820    96.8240     5.2260     6.1740     5.0880     2.2240 
   73.6250    73.6010    -0.9380    -0.2510    -8.7850    97.8240     5.4060     6.3970     5.2260     2.2160 
   73.7500    73.7260    -0.9470    -0.2570    -8.7560    99.0630     5.5440     6.5650     5.2940     2.2120 
   73.8750    73.8500    -0.9560    -0.2620    -8.7010    98.7740     5.5920     6.5990     5.3220     2.2070 
   74.0000    73.9750    -0.9660    -0.2670    -8.6660    97.9650     5.5330     6.4860     5.3360     2.2030 
   74.1250    74.0990    -0.9750    -0.2730    -8.6290    96.4940     5.3890     6.2500     5.3270     2.1980 
   74.2500    74.2240    -0.9850    -0.2780    -8.6330    94.6710     5.3340     6.1440     5.3770     2.1960 
   74.3750    74.3480    -0.9940    -0.2840    -8.6640    94.2230     5.6970     6.6030     6.1490     2.2070 
   74.5000    74.4730    -1.0040    -0.2890    -8.7260    92.5340     6.8160     8.1030     8.9080     2.2500 
   74.6250    74.5980    -1.0130    -0.2950    -8.8000    91.0380     8.5010    10.3740    14.4650     2.3390 
   74.7500    74.7220    -1.0230    -0.3010    -8.9100    88.3280    10.1280    12.5330    20.4030     2.4460 
   74.8750    74.8460    -1.0330    -0.3060    -8.9230    88.1110    10.9280    13.4380    22.1850     2.5130 
   75.0000    74.9710    -1.0430    -0.3120    -8.9120    87.8150    10.4420    12.5700    18.4540     2.4870 
   75.1250    75.0950    -1.0520    -0.3180    -8.9270    87.5290     8.9600    10.4800    12.1580     2.3790 
   75.2500    75.2200    -1.0620    -0.3240    -8.9600    85.6730     7.2660     8.2820     7.5560     2.2530 
   75.3750    75.3440    -1.0720    -0.3300    -8.9440    85.5450     6.0330     6.8760     5.8210     2.1840 
   75.5000    75.4690    -1.0830    -0.3360    -8.8940    88.8010     5.3870     6.2180     5.3890     2.1740 
   75.6250    75.5930    -1.0930    -0.3420    -8.8760    94.7590     5.2530     6.1000     5.2310     2.1930 
   75.7500    75.7180    -1.1030    -0.3480    -8.8950    98.9680     5.2810     6.1370     5.1350     2.2100 
   75.8750    75.8420    -1.1130    -0.3550    -8.8850   100.0460     5.3700     6.2140     5.1260     2.2150 
   76.0000    75.9660    -1.1240    -0.3610    -8.8520    99.7550     5.5540     6.4130     5.1890     2.2130 
   76.1250    76.0910    -1.1340    -0.3670    -8.8510    99.3380     5.7890     6.6700     5.2800     2.2090 
   76.2500    76.2150    -1.1450    -0.3740    -8.7920    97.6310     5.9560     6.8380     5.3510     2.2100 
   76.3750    76.3400    -1.1550    -0.3800    -8.7060    94.2080     5.9670     6.8260     5.3960     2.2050 
