~V
VERS. 2.00: Ver 2.00
~W
STRT.M 24.0000:
STOP.M 269.0000:
STEP.M 0.1250:
NULL. -999.2500:
UWI. FD10666:
~C
DEPT.M :
TVD. :
DX. :
DY. :
GR.API :
RML.OHMM :
RI. :
RXO.OHMM :
CALI.CM :
DEN.GM/CC :
SP.MV :
~A
   24.0000    24.0000     0.0820     0.0970    39.5400    32.9480     2.6640     0.3420    26.0120     1.9410    24.3860 
   24.1250    24.1250     0.0830     0.0970    41.6130    31.8630     2.5660     0.3350    26.0330     1.9600    25.2700 
   24.2500    24.2500     0.0830     0.0980    44.1250    29.3190     2.4120     0.3280    26.0550     1.9810    25.9190 
   24.3750    24.3750     0.0840     0.0980    45.9470    24.5700     2.1710     0.3260    26.0780     2.0080    26.2080 
   24.5000    24.5000     0.0840     0.0990    46.4800    17.7670     1.8360     0.3210    26.1030     2.0530    25.9780 
   24.6250    24.6250     0.0840     0.0990    45.7540    11.2070     1.4680     0.3230    26.1390     2.1410    24.8670 
   24.7500    24.7500     0.0850     0.1000    45.2160     7.0800     1.1910     0.3690    26.2000     2.2710    22.7530 
   24.8750    24.8750     0.0850     0.1000    46.4670     5.6470     1.0920     0.4890    26.3200     2.4170    19.5380 
   25.0000    25.0000     0.0860     0.1010    50.3200     6.5650     1.2240     0.8080    26.5110     2.5240    15.2990 
   25.1250    25.1250     0.0860     0.1020    54.6640     9.8510     1.6770     1.5850    26.7620     2.5100    10.2990 
   25.2500    25.2500     0.0870     0.1020    57.2270    14.6490     2.4270     2.6970    26.9640     2.4060     5.2400 
   25.3750    25.3750     0.0870     0.1030    59.1390    19.9500     3.4260     3.9650    27.0110     2.2730     0.5590 
   25.5000    25.5000     0.0870     0.1030    64.5230    24.2760     4.5360     4.7250    26.8810     2.1610    -3.5070 
   25.6250    25.6250     0.0880     0.1040    74.5170    25.5640     5.4670     4.8970    26.7000     2.1030    -6.6990 
   25.7500    25.7500     0.0880     0.1040    83.5380    23.9630     5.9530     4.5860    26.6790     2.0960    -9.0370 
   25.8750    25.8750     0.0890     0.1050    89.0030    20.9290     5.9130     4.4580    26.7750     2.1230   -10.4370 
   26.0000    26.0000     0.0890     0.1050    90.7560    18.2990     5.5150     4.4600    26.9120     2.1600   -10.9440 
   26.1250    26.1250     0.0900     0.1060    91.3070    17.1920     5.0270     4.4860    27.0250     2.1810   -10.6950 
   26.2500    26.2500     0.0900     0.1060    92.6370    17.2080     4.6420     4.4450    27.0740     2.1830   -10.2530 
   26.3750    26.3750     0.0900     0.1070    93.7810    17.9390     4.4130     4.3190    27.0430     2.1750    -9.9530 
   26.5000    26.5000     0.0910     0.1070    93.9010    19.1540     4.3410     4.2550    26.9410     2.1660    -9.8980 
   26.6250    26.6250     0.0910     0.1080    92.4260    21.0120     4.4000     4.2560    26.8180     2.1620   -10.0480 
   26.7500    26.7500     0.0920     0.1080    91.8930    23.6980     4.5180     4.3380    26.7500     2.1690   -10.2670 
   26.8750    26.8750     0.0920     0.1090    91.3760    27.2150     4.6810     4.4820    26.7610     2.1830   -10.5350 
   27.0000    27.0000     0.0930     0.1090    88.9850    31.1000     4.8870     4.7010    26.8320     2.1970   -10.8320 
   27.1250    27.1250     0.0930     0.1100    84.6640    34.3650     5.1610     5.0270    26.9230     2.2020   -11.1480 
   27.2500    27.2500     0.0930     0.1100    79.9410    36.3550     5.5210     5.3840    26.9730     2.1960   -11.5040 
   27.3750    27.3750     0.0940     0.1110    76.9390    37.0250     5.9750     5.7820    26.9560     2.1920   -11.9110 
   27.5000    27.5000     0.0940     0.1110    75.9850    36.8300     6.4870     6.4960    26.8880     2.2040   -12.3800 
   27.6250    27.6250     0.0950     0.1120    74.3850    36.1660     6.9410     8.3300    26.8410     2.2450   -12.9090 
   27.7500    27.7500     0.0950     0.1120    71.1480    34.9790     7.2020    11.3150    26.8960     2.2960   -13.4400 
   27.8750    27.8750     0.0960     0.1130    67.4170    32.7820     7.1740    12.9140    27.0920     2.3320   -13.9230 
   28.0000    28.0000     0.0960     0.1130    66.3810    29.4090     6.8510    10.1820    27.3870     2.3310   -14.3450 
   28.1250    28.1250     0.0960     0.1140    68.2100    25.2590     6.3210     7.1210    27.6490     2.2800   -14.7210 
   28.2500    28.2500     0.0970     0.1140    70.0610    21.1690     5.7910     5.9920    27.7730     2.2070   -15.0520 
   28.3750    28.3750     0.0970     0.1150    71.0260    17.6500     5.4130     5.6680    27.7200     2.1340   -15.3070 
   28.5000    28.5000     0.0980     0.1150    72.1410    15.1150     5.3310     5.7600    27.5050     2.0780   -15.4600 
   28.6250    28.6250     0.0980     0.1160    75.2010    14.3140     5.8030     6.3810    27.1680     2.0590   -15.5290 
   28.7500    28.7500     0.0980     0.1160    77.0090    15.7400     6.9700     7.8980    26.8230     2.0820   -15.6080 
   28.8750    28.8750     0.0990     0.1170    74.1100    20.1040     8.9960    11.1160    26.5550     2.1500   -15.7510 
   29.0000    29.0000     0.0990     0.1170    67.2520    27.4970    11.8330    16.8890    26.4290     2.2490   -15.9980 
   29.1250    29.1250     0.1000     0.1180    61.5840    36.4930    14.9470    26.4020    26.5060     2.3430   -16.3930 
   29.2500    29.2500     0.1000     0.1180    59.3290    43.6470    17.2760    33.8960    26.6890     2.3940   -16.9050 
   29.3750    29.3750     0.1010     0.1190    57.7490    45.5430    17.8580    38.4400    26.9030     2.3950   -17.5310 
   29.5000    29.5000     0.1010     0.1190    55.7650    40.2510    16.2960    39.8900    27.1320     2.3640   -18.2650 
   29.6250    29.6250     0.1010     0.1200    55.2240    30.2410    13.2930    33.9210    27.4930     2.3220   -19.0780 
   29.7500    29.7500     0.1020     0.1200    55.4540    21.2220    10.4600    21.1330    28.0140     2.2790   -19.9020 
   29.8750    29.8750     0.1020     0.1210    55.2070    14.7950     8.3960    11.4240    28.5730     2.2340   -20.6970 
   30.0000    30.0000     0.1030     0.1210    54.9480    10.7280     7.1380     7.9660    29.0160     2.1880   -21.4290 
   30.1250    30.1240     0.1090     0.1260    54.5210     8.7470     6.5710     7.2860    29.3210     2.1430   -22.0430 
   30.2500    30.2490     0.1150     0.1310    51.9320     7.9840     6.3700     7.2640    29.5450     2.1060   -22.5500 
   30.3750    30.3740     0.1210     0.1360    48.7720     7.7820     6.3680     7.1560    29.6740     2.0780   -22.9620 
   30.5000    30.4980     0.1270     0.1400    48.5330     7.6930     6.4400     7.0290    29.7100     2.0590   -23.2850 
   30.6250    30.6230     0.1330     0.1450    51.5170     7.6740     6.5070     6.9650    29.7090     2.0490   -23.5050 
   30.7500    30.7480     0.1390     0.1500    53.5840     7.7200     6.5460     6.8880    29.7260     2.0480   -23.6610 
   30.8750    30.8720     0.1450     0.1550    53.6510     7.7810     6.5650     6.9080    29.7590     2.0510   -23.7650 
   31.0000    30.9970     0.1510     0.1600    53.0960     7.8620     6.5790     7.0230    29.8010     2.0550   -23.8330 
   31.1250    31.1220     0.1580     0.1640    54.3050     7.9820     6.6010     7.1170    29.8550     2.0580   -23.8580 
   31.2500    31.2460     0.1640     0.1690    56.0030     8.1190     6.6310     7.2520    29.9110     2.0620   -23.8410 
   31.3750    31.3710     0.1700     0.1740    56.2090     8.2110     6.6560     7.3910    29.9640     2.0660   -23.8010 
   31.5000    31.4960     0.1760     0.1790    54.6420     8.2600     6.6580     7.5510    30.0040     2.0690   -23.7470 
   31.6250    31.6210     0.1820     0.1840    53.0110     8.2930     6.6180     7.6940    30.0140     2.0690   -23.6900 
   31.7500    31.7450     0.1880     0.1890    52.2100     8.3080     6.5440     7.7450    30.0050     2.0670   -23.6390 
   31.8750    31.8700     0.1940     0.1930    51.6070     8.2770     6.4500     7.7690    29.9840     2.0660   -23.6050 
   32.0000    31.9950     0.2000     0.1980    51.4520     8.2150     6.3590     7.7230    29.9610     2.0670   -23.5780 
   32.1250    32.1190     0.2060     0.2030    51.8050     8.1100     6.2870     7.6010    29.9630     2.0750   -23.5460 
