~V
VERS. 2.00: Ver 2.00
~W
STRT.M 24.0000:
STOP.M 269.0000:
STEP.M 0.1250:
NULL. -999.2500:
UWI. FD10666:
~C
DEPT.M :
TVD. :
DX. :
DY. :
GR.API :
RML.OHMM :
RI. :
RXO.OHMM :
CALI.CM :
DEN.GM/CC :
SP.MV :
~A
# ...
  139.5000   135.6720    22.0650    11.8680    51.7570    23.5370    21.6670    14.9580    21.9790     2.1760    -3.5490 
  139.6250   135.7880    22.1090    11.8890    52.3080    24.8170    22.8330    16.0940    22.0930     2.1860    -2.7720 
  139.7500   135.9030    22.1520    11.9100    55.2580    26.2810    24.1550    17.0920    22.2990     2.1960    -1.9910 
  139.8750   136.0190    22.1950    11.9310    55.4940    27.8590    25.5800    16.7220    22.6080     2.1990    -1.2440 
  140.0000   136.1340    22.2380    11.9520    52.2960    29.3970    26.9870    16.2020    22.9680     2.1910    -0.5760 
  140.1250   136.2490    22.2820    11.9730    49.2660    30.6980    28.1920    16.1730    23.2200     2.1710    -0.0380 
  140.2500   136.3650    22.3250    11.9940    47.1860    31.7490    29.1650    15.2520    23.1950     2.1480     0.3680 
  140.3750   136.4800    22.3680    12.0150    45.5960    32.6260    29.9690    13.5420    22.8450     2.1280     0.6230 
  140.5000   136.5950    22.4120    12.0360    43.7890    33.4410    30.7190    11.5570    22.2850     2.1180     0.7310 
  140.6250   136.7110    22.4550    12.0570    41.8010    34.2610    31.5150    10.3720    21.7540     2.1190     0.6870 
  140.7500   136.8260    22.4980    12.0780    40.6130    35.0500    32.3470    10.2890    21.4750     2.1270     0.5290 
  140.8750   136.9410    22.5410    12.0990    42.0070    35.7130    33.1300    10.8110    21.3650     2.1370     0.2700 
  141.0000   137.0570    22.5850    12.1200    44.5570    36.1660    33.7620    11.4430    21.3490     2.1440    -0.0740 
  141.1250   137.1720    22.6280    12.1410    46.7580    36.3530    34.1590    12.1220    21.3870     2.1480    -0.4900 
  141.2500   137.2870    22.6710    12.1620    49.2090    36.3460    34.3770    13.0630    21.4400     2.1500    -0.9490 
  141.3750   137.4030    22.7150    12.1840    50.7800    36.1630    34.4550    13.5270    21.4840     2.1500    -1.4490 
  141.5000   137.5180    22.7580    12.2050    48.7640    35.7760    34.3970    12.8970    21.5140     2.1500    -2.0050 
  141.6250   137.6340    22.8010    12.2260    44.8040    35.1160    34.1440    12.3100    21.5320     2.1500    -2.6520 
  141.7500   137.7490    22.8440    12.2470    43.4020    34.2890    33.7290    12.5430    21.5490     2.1500    -3.4070 
  141.8750   137.8640    22.8880    12.2680    44.6950    33.4750    33.2540    12.6440    21.5530     2.1500    -4.2720 
  142.0000   137.9800    22.9310    12.2890    46.4220    32.8650    32.8640    12.4070    21.5160     2.1480    -5.2220 
  142.1250   138.0950    22.9740    12.3100    46.6390    32.4170    32.5270    11.7450    21.3890     2.1480    -6.2500 
  142.2500   138.2100    23.0180    12.3310    46.3900    31.5420    31.7650    10.5990    21.1750     2.1590    -7.3350 
  142.3750   138.3260    23.0610    12.3520    46.6700    29.5010    29.9010     9.7990    20.9240     2.1930    -8.4570 
  142.5000   138.4410    23.1040    12.3730    50.0740    25.8190    26.4340    10.0540    20.7220     2.2590    -9.5860 
  142.6250   138.5560    23.1470    12.3940    56.7720    20.6220    21.4050    11.3490    20.6340     2.3520   -10.6820 
  142.7500   138.6720    23.1910    12.4150    62.9230    15.3010    16.2100    13.1640    20.6190     2.4380   -11.6820 
  142.8750   138.7870    23.2340    12.4360    68.7670    10.9980    11.9160    13.8410    20.6320     2.4870   -12.5480 
  143.0000   138.9030    23.2770    12.4570    75.2390     8.2030     8.9750    10.4590    20.6510     2.4870   -13.2690 
  143.1250   139.0180    23.3210    12.4780    80.4390     6.9480     7.4410     7.4610    20.6620     2.4520   -13.8190 
  143.2500   139.1330    23.3640    12.4990    82.8940     6.6570     6.7450     6.4500    20.6650     2.4160   -14.2360 
  143.3750   139.2490    23.4070    12.5210    84.4380     6.6210     6.5730     6.2990    20.6670     2.3920   -14.5310 
  143.5000   139.3640    23.4500    12.5420    85.4830     6.6290     6.6500     6.3790    20.6750     2.3810   -14.7200 
  143.6250   139.4790    23.4940    12.5630    84.4180     6.6740     6.7330     6.4820    20.6990     2.3800   -14.7980 
  143.7500   139.5950    23.5370    12.5840    84.7450     6.6070     6.6880     6.6400    20.7360     2.3810   -14.8140 
  143.8750   139.7100    23.5800    12.6050    86.9790     6.4050     6.5350     6.7900    20.7770     2.3820   -14.7810 
  144.0000   139.8250    23.6240    12.6260    86.6990     6.3380     6.3880     6.7480    20.8060     2.3780   -14.7010 
  144.1250   139.9410    23.6670    12.6470    83.0580     6.5180     6.4720     6.7160    20.8160     2.3680   -14.5620 
  144.2500   140.0560    23.7100    12.6680    80.3010     7.1650     6.9690     6.8580    20.8170     2.3550   -14.3600 
  144.3750   140.1710    23.7530    12.6890    77.3200     8.5750     8.0700     7.3260    20.8160     2.3470   -14.0880 
  144.5000   140.2870    23.7970    12.7100    70.9870    10.9580     9.9540     8.2830    20.8160     2.3600   -13.7420 
  144.6250   140.4020    23.8400    12.7310    61.4230    14.3950    12.8550     9.9490    20.8180     2.4080   -13.3030 
  144.7500   140.5180    23.8830    12.7520    52.6690    18.3690    16.4400    12.5570    20.8250     2.4780   -12.7820 
  144.8750   140.6330    23.9270    12.7730    47.1130    22.2380    20.2030    16.2370    20.8400     2.5450   -12.1920 
  145.0000   140.7480    23.9700    12.7940    46.1170    25.2430    23.4030    20.0900    20.8600     2.5760   -11.5480 
  145.1250   140.8640    24.0130    12.8150    49.1670    26.5460    25.0450    22.3610    20.8740     2.5380   -10.8600 
  145.2500   140.9790    24.0560    12.8360    53.2840    26.4420    25.1790    22.4630    20.8700     2.4590   -10.1590 
  145.3750   141.0940    24.1000    12.8580    56.5570    25.5290    24.3370    20.8790    20.8590     2.3730    -9.4600 
  145.5000   141.2100    24.1430    12.8790    59.2300    24.4940    23.2230    18.8630    20.8610     2.3060    -8.7710 
  145.6250   141.3250    24.1860    12.9000    60.3330    23.8100    22.3330    17.6710    20.9290     2.2700    -8.1130 
  145.7500   141.4400    24.2290    12.9210    59.3120    23.4700    21.7320    18.4950    21.0820     2.2530    -7.4890 
  145.8750   141.5560    24.2730    12.9420    56.5580    23.3810    21.3830    19.1250    21.3080     2.2410    -6.9010 
  146.0000   141.6710    24.3160    12.9630    53.5610    23.4980    21.2650    16.7730    21.5320     2.2250    -6.3620 
  146.1250   141.7860    24.3590    12.9840    53.7360    23.9180    21.4730    14.4100    21.6280     2.2050    -5.8910 
  146.2500   141.9020    24.4030    13.0050    55.3150    24.7040    22.0450    13.3490    21.5960     2.1890    -5.4740 
  146.3750   142.0170    24.4460    13.0260    54.6510    25.9120    23.0350    13.4900    21.4570     2.1800    -5.1130 
  146.5000   142.1330    24.4890    13.0470    53.1310    27.5190    24.4390    14.4420    21.2610     2.1770    -4.8130 
  146.6250   142.2480    24.5320    13.0680    52.8040    29.4590    26.2280    16.1960    21.0910     2.1780    -4.5920 
  146.7500   142.3630    24.5760    13.0890    51.8840    31.5360    28.2110    17.9670    20.9980     2.1810    -4.4480 
  146.8750   142.4790    24.6190    13.1100    48.9480    33.5900    30.2320    18.5450    20.9610     2.1870    -4.3820 
  147.0000   142.5940    24.6620    13.1310    46.8390    35.4220    32.0950    17.7280    20.9510     2.1990    -4.3870 
  147.1250   142.7090    24.7060    13.1520    48.0440    36.6910    33.4690    16.2690    20.9490     2.2210    -4.4740 
  147.2500   142.8250    24.7490    13.1740    48.8990    37.2260    34.1760    15.2410    20.9490     2.2470    -4.6290 
  147.3750   142.9400    24.7920    13.1950    48.4060    36.8940    34.0700    14.6800    20.9490     2.2660    -4.8320 
  147.5000   143.0550    24.8350    13.2160    48.5680    35.7270    33.1450    14.6610    20.9490     2.2710    -5.0590 
  147.6250   143.1710    24.8790    13.2370    50.8130    33.9280    31.5460    14.8000    20.9490     2.2580    -5.2810 
