~V
VERS. 2.00: Ver 2.00
~W
STRT.M 62.0000:
STOP.M 282.0000:
STEP.M 0.1250:
NULL. -999.2500:
UWI. FD10887:
~C
DEPT.M :
TVD. :
DX. :
DY. :
SP.MV :
GR.API :
RI. :
RML.OHMM :
RXO.OHMM :
DEN.GM/CC :
~A
# ...
   89.3750    89.3270    -0.5650     1.3500   -22.9690    88.8440     3.9840     4.6780     3.6110     2.2310 
   89.5000    89.4510    -0.5670     1.3620   -23.0260    89.3130     4.0500     4.8190     3.7160     2.2260 
   89.6250    89.5760    -0.5700     1.3740   -23.0510    89.7000     4.0850     4.8350     4.2630     2.2190 
   89.7500    89.7000    -0.5720     1.3870   -23.0380    88.7660     3.9570     4.6790     4.6990     2.2110 
   89.8750    89.8250    -0.5740     1.3990   -22.9760    86.9420     3.7390     4.4070     4.1980     2.2080 
   90.0000    89.9490    -0.5760     1.4110   -22.8680    85.6880     3.5730     4.1720     3.4570     2.2190 
   90.1250    90.0730    -0.5790     1.4240   -22.7220    86.0570     3.5130     4.0780     3.3150     2.2450 
   90.2500    90.1980    -0.5810     1.4360   -22.5560    87.0900     3.6190     4.2190     3.4710     2.2710 
   90.3750    90.3220    -0.5830     1.4490   -22.3630    87.8220     3.9060     4.5800     3.7570     2.2760 
   90.5000    90.4460    -0.5860     1.4620   -22.1210    87.1450     4.2720     5.0750     4.1280     2.2570 
   90.6250    90.5710    -0.5880     1.4750   -21.8010    83.3760     4.6590     5.5350     4.2780     2.2270 
   90.7500    90.6950    -0.5900     1.4870   -21.4100    79.0390     4.9770     5.8690     4.2470     2.1990 
   90.8750    90.8190    -0.5930     1.5000   -20.9770    77.4370     5.2020     6.0400     4.2830     2.1840 
   91.0000    90.9440    -0.5950     1.5140   -20.5500    78.0790     5.3010     6.0990     4.2950     2.1810 
   91.1250    91.0680    -0.5970     1.5270   -20.1610    78.7390     5.3720     6.1180     4.1510     2.1840 
   91.2500    91.1920    -0.6000     1.5400   -19.8120    77.1740     5.4810     6.2100     3.9900     2.1810 
   91.3750    91.3160    -0.6020     1.5530   -19.5040    74.7230     5.6820     6.4000     3.9140     2.1700 
   91.5000    91.4410    -0.6050     1.5660   -19.2440    72.4400     5.9420     6.6210     3.9610     2.1560 
   91.6250    91.5650    -0.6070     1.5800   -19.0580    70.4340     6.1220     6.7790     4.2080     2.1440 
   91.7500    91.6890    -0.6090     1.5930   -18.9540    68.7480     6.2270     6.8540     4.6430     2.1380 
   91.8750    91.8130    -0.6120     1.6070   -18.9410    67.7140     6.1540     6.8020     4.8820     2.1400 
   92.0000    91.9380    -0.6140     1.6200   -19.0090    69.1090     5.9990     6.6300     4.6860     2.1490 
   92.1250    92.0620    -0.6170     1.6340   -19.1580    71.8230     5.7630     6.3340     4.4740     2.1630 
   92.2500    92.1860    -0.6190     1.6480   -19.3670    74.5860     5.4290     5.9560     4.4200     2.1740 
   92.3750    92.3100    -0.6210     1.6620   -19.6100    76.7380     5.0620     5.5280     4.1750     2.1820 
   92.5000    92.4340    -0.6240     1.6760   -19.8560    78.5270     4.5980     4.9950     3.9520     2.1900 
   92.6250    92.5590    -0.6260     1.6900   -20.0900    80.1000     4.1260     4.4940     4.1730     2.2030 
   92.7500    92.6830    -0.6290     1.7040   -20.3050    81.5080     3.8760     4.1850     4.0950     2.2200 
   92.8750    92.8070    -0.6310     1.7180   -20.4630    83.8230     3.9700     4.3070     3.5180     2.2420 
   93.0000    92.9310    -0.6340     1.7330   -20.4930    86.8980     4.7230     5.2610     3.6800     2.2750 
   93.1250    93.0550    -0.6360     1.7470   -20.2730    87.7970     6.2100     7.1380    10.2510     2.3260 
   93.2500    93.1790    -0.6390     1.7620   -19.7290    82.0670     8.5870    10.1430    23.3680     2.3960 
   93.3750    93.3030    -0.6410     1.7760   -18.7860    70.9800    11.9740    14.1490    29.8710     2.4670 
   93.5000    93.4280    -0.6430     1.7910   -17.4990    61.4980    14.4380    16.7510    23.6640     2.5040 
   93.6250    93.5520    -0.6460     1.8060   -15.9370    57.9900    15.1970    17.2330    13.8150     2.4750 
   93.7500    93.6760    -0.6480     1.8210   -14.2420    56.9220    14.3690    15.8560     9.6830     2.3910 
   93.8750    93.8000    -0.6510     1.8360   -12.5460    56.4820    12.7530    13.8050     9.9240     2.2860 
   94.0000    93.9240    -0.6530     1.8510   -10.9720    57.2000    11.7690    12.6950    10.1730     2.1990 
   94.1250    94.0480    -0.6560     1.8660    -9.6400    58.0530    11.4760    12.4530    10.1260     2.1480 
   94.2500    94.1720    -0.6580     1.8810    -8.5890    57.9870    11.3920    12.4420     9.9700     2.1240 
   94.3750    94.2960    -0.6610     1.8970    -7.8430    59.1540    11.3480    12.5140     9.7180     2.1160 
   94.5000    94.4200    -0.6630     1.9120    -7.3300    61.1470    11.3480    12.6350     9.3930     2.1140 
   94.6250    94.5440    -0.6660     1.9270    -6.9940    62.3290    11.3410    12.7060     9.0670     2.1140 
   94.7500    94.6680    -0.6680     1.9430    -6.7660    62.1370    11.3020    12.6770     8.7540     2.1140 
   94.8750    94.7920    -0.6710     1.9580    -6.6180    61.1940    11.1770    12.5680     8.5000     2.1140 
   95.0000    94.9160    -0.6730     1.9740    -6.5230    60.2850    11.0100    12.3930     8.4950     2.1150 
   95.1250    95.0400    -0.6760     1.9900    -6.4650    59.8140    10.8600    12.2470     8.5980     2.1150 
   95.2500    95.1640    -0.6780     2.0050    -6.4310    60.4620    10.7910    12.1680     8.5880     2.1130 
   95.3750    95.2880    -0.6810     2.0210    -6.4240    60.1710    10.8360    12.2090     8.2620     2.1070 
   95.5000    95.4120    -0.6830     2.0370    -6.4500    58.7170    11.0160    12.3930     7.5600     2.1010 
   95.6250    95.5360    -0.6860     2.0530    -6.5160    57.5120    11.3240    12.6920     7.0730     2.0980 
   95.7500    95.6600    -0.6880     2.0690    -6.6160    57.5510    11.6320    13.0030     7.2200     2.0990 
   95.8750    95.7840    -0.6910     2.0850    -6.7470    58.4270    11.7810    13.1770     8.0910     2.1020 
   96.0000    95.9080    -0.6930     2.1010    -6.9180    59.3640    11.7140    13.0870     9.3920     2.1050 
   96.1250    96.0320    -0.6950     2.1170    -7.1640    60.7170    11.3850    12.6770     9.8770     2.1070 
   96.2500    96.1560    -0.6980     2.1330    -7.5110    61.9030    10.9330    12.1150     9.1200     2.1120 
   96.3750    96.2800    -0.7000     2.1490    -7.9840    62.8260    10.4180    11.5070     8.0140     2.1190 
   96.5000    96.4030    -0.7030     2.1660    -8.5640    62.2410     9.9850    11.0210     6.8700     2.1250 
   96.6250    96.5270    -0.7050     2.1820    -9.2360    59.8380     9.7460    10.7540     5.5850     2.1270 
   96.7500    96.6510    -0.7080     2.1980    -9.9660    57.0730     9.5990    10.6190     4.7590     2.1240 
   96.8750    96.7750    -0.7100     2.2140   -10.7210    55.7150     9.5350    10.5560     4.6700     2.1190 
   97.0000    96.8990    -0.7130     2.2310   -11.4570    56.0530     9.4580    10.4550     4.7130     2.1160 
   97.1250    97.0230    -0.7150     2.2470   -12.1250    57.6050     9.2970    10.2340     4.6330     2.1190 
   97.2500    97.1470    -0.7170     2.2640   -12.7070    59.0990     9.1100     9.9680     4.6360     2.1290 
   97.3750    97.2710    -0.7200     2.2800   -13.2010    60.0730     8.8900     9.7080     4.7120     2.1410 
   97.5000    97.3950    -0.7220     2.2970   -13.6270    61.8210     8.7140     9.4990     4.6870     2.1500 
   97.6250    97.5190    -0.7240     2.3130   -13.9890    63.8390     8.5550     9.3480     4.6360     2.1540 
   97.7500    97.6420    -0.7270     2.3300   -14.2930    64.6170     8.4470     9.2490     4.6540     2.1510 
   97.8750    97.7660    -0.7290     2.3470   -14.5410    63.5800     8.3920     9.2030     4.7010     2.1450 
   98.0000    97.8900    -0.7320     2.3630   -14.7510    62.8480     8.3480     9.2050     4.7630     2.1410 
   98.1250    98.0140    -0.7340     2.3800   -14.9300    62.2560     8.3890     9.3030     4.7770     2.1400 
   98.2500    98.1380    -0.7360     2.3970   -15.0540    62.3540     8.5810     9.5980     4.6980     2.1400 
   98.3750    98.2620    -0.7390     2.4140   -15.0640    62.6240     8.9690    10.1320     4.6190     2.1390 
