~V
VERS. 2.00: Ver 2.00
~W
STRT.M 50.0000:
STOP.M 219.0000:
STEP.M 0.1250:
NULL. -999.2500:
UWI. FD10804:
~C
DEPT.M :
TVD. :
DX. :
DY. :
SP.MV :
GR.API :
RI. :
RML.OHMM :
RXO.OHMM :
DEN.GM/CC :
~A
# ...
  150.3750   148.6670   -12.1900    -9.6270  -101.5000    63.8850   172.1670   187.8530   115.6650     2.1150 
  150.5000   148.7850   -12.2200    -9.6520  -102.2260    63.8370   189.3840   207.9890   140.3530     2.1090 
  150.6250   148.9040   -12.2500    -9.6780  -103.1470    64.2810   208.4970   228.8690   123.9510     2.1040 
  150.7500   149.0230   -12.2800    -9.7030  -104.1750    64.3000   221.8280   243.7590   100.2440     2.1050 
  150.8750   149.1410   -12.3100    -9.7290  -105.2740    63.8130   226.0350   245.1130   103.6290     2.1110 
  151.0000   149.2600   -12.3410    -9.7540  -106.4080    63.5700   212.2790   229.0790   115.1680     2.1230 
  151.1250   149.3780   -12.3710    -9.7800  -107.5760    64.0610   183.4450   198.5340   101.7830     2.1360 
  151.2500   149.4970   -12.4010    -9.8060  -108.7640    64.3490   152.1990   163.7860    72.3230     2.1480 
  151.3750   149.6150   -12.4320    -9.8310  -109.9090    64.4820   123.1270   134.2080    45.6790     2.1560 
  151.5000   149.7340   -12.4620    -9.8570  -110.9490    64.5400   107.8080   116.2630    27.3060     2.1640 
  151.6250   149.8520   -12.4920    -9.8830  -111.8210    64.3230   104.6130   112.2680    19.7450     2.1680 
  151.7500   149.9710   -12.5230    -9.9090  -112.5010    63.1470   109.9860   118.3670    19.3420     2.1680 
  151.8750   150.0890   -12.5530    -9.9350  -112.9810    61.2820   121.5180   128.5800    18.8290     2.1590 
  152.0000   150.2080   -12.5830    -9.9600  -113.3200    60.2820   131.0500   136.4940    14.6880     2.1470 
  152.1250   150.3260   -12.6140    -9.9860  -113.5810    60.1610   134.4030   137.0910    32.5260     2.1380 
  152.2500   150.4450   -12.6440   -10.0120  -113.8430    61.8440   126.8770   129.0920    61.6320     2.1370 
  152.3750   150.5630   -12.6750   -10.0380  -114.1580    63.5190   113.3050   116.2660    56.1010     2.1440 
  152.5000   150.6810   -12.7060   -10.0640  -114.5490    64.5120   101.7000   104.4310    35.3010     2.1510 
  152.6250   150.8000   -12.7360   -10.0900  -115.0220    64.7990    92.9790    96.3480    24.1480     2.1510 
  152.7500   150.9180   -12.7670   -10.1160  -115.5420    66.0610    89.2620    92.7050    19.7690     2.1490 
  152.8750   151.0360   -12.7980   -10.1420  -116.0820    68.8110    89.7210    94.2520    26.4520     2.1570 
  153.0000   151.1550   -12.8290   -10.1680  -116.6170    71.2170    95.6330   100.6840    42.1660     2.1760 
  153.1250   151.2730   -12.8590   -10.1940  -117.1000    70.8500   105.3080   111.8170    55.2030     2.1870 
  153.2500   151.3910   -12.8900   -10.2200  -117.5130    67.5090   118.8480   127.1930    54.7820     2.1800 
  153.3750   151.5100   -12.9210   -10.2460  -117.8800    62.7430   136.6350   145.1510    49.6990     2.1590 
  153.5000   151.6280   -12.9520   -10.2720  -118.2330    59.9930   153.6800   161.1580    52.3120     2.1460 
  153.6250   151.7460   -12.9830   -10.2980  -118.5960    58.8050   166.7850   173.4680    58.7200     2.1470 
  153.7500   151.8640   -13.0150   -10.3240  -119.0010    59.3270   174.5100   180.5590    61.6700     2.1520 
  153.8750   151.9820   -13.0460   -10.3500  -119.4630    60.2970   172.9870   179.9980    63.3400     2.1540 
  154.0000   152.1010   -13.0770   -10.3760  -120.0040    62.2940   166.5830   174.9930    65.8580     2.1480 
  154.1250   152.2190   -13.1090   -10.4020  -120.6660    64.5680   160.0880   169.0360    74.0430     2.1430 
  154.2500   152.3370   -13.1400   -10.4280  -121.4170    65.5450   154.0770   164.2590    92.4070     2.1370 
  154.3750   152.4550   -13.1710   -10.4540  -122.2100    65.1850   151.3220   162.3470    99.5170     2.1370 
  154.5000   152.5730   -13.2030   -10.4800  -122.9530    63.4460   152.0460   164.2010    91.7520     2.1350 
  154.6250   152.6910   -13.2340   -10.5060  -123.5390    62.2590   157.9430   171.1620    94.7790     2.1340 
  154.7500   152.8090   -13.2660   -10.5320  -123.9710    61.2360   168.7780   182.4330   105.5370     2.1350 
  154.8750   152.9270   -13.2980   -10.5580  -124.3040    60.6020   182.0050   194.8200   110.6170     2.1390 
  155.0000   153.0460   -13.3300   -10.5850  -124.6060    60.1350   192.0350   202.1650   112.4480     2.1410 
  155.1250   153.1640   -13.3610   -10.6110  -124.9530    59.5960   189.7320   199.6040   118.5330     2.1400 
  155.2500   153.2820   -13.3930   -10.6370  -125.3960    59.1560   181.2710   190.8140   126.9230     2.1400 
  155.3750   153.3990   -13.4250   -10.6630  -125.9160    58.7380   172.9890   181.8160   121.5180     2.1440 
  155.5000   153.5170   -13.4570   -10.6900  -126.4640    59.3190   168.3690   178.0070   109.0380     2.1480 
  155.6250   153.6350   -13.4890   -10.7160  -127.0190    60.9860   173.5940   182.5070   113.1820     2.1450 
  155.7500   153.7530   -13.5210   -10.7430  -127.5470    62.5010   183.9580   187.9300   126.9190     2.1360 
  155.8750   153.8710   -13.5530   -10.7690  -128.0360    62.0120   176.9370   180.6180   124.5520     2.1320 
  156.0000   153.9890   -13.5850   -10.7960  -128.5090    61.1140   156.0650   159.4330   110.9660     2.1400 
  156.1250   154.1070   -13.6170   -10.8230  -128.9640    61.9190   127.1470   130.8720   104.0750     2.1650 
  156.2500   154.2250   -13.6490   -10.8490  -129.3550    63.5790    97.7150   106.3500    87.4040     2.1940 
  156.3750   154.3420   -13.6810   -10.8760  -129.6170    64.2810    88.1280    96.1170    60.5470     2.2140 
  156.5000   154.4600   -13.7140   -10.9030  -129.7160    63.2420    89.4330   100.7590    59.9560     2.2100 
  156.6250   154.5780   -13.7460   -10.9300  -129.6020    62.6410   106.7150   120.6520    88.2820     2.1900 
  156.7500   154.6960   -13.7790   -10.9560  -129.3130    62.7320   134.0970   150.4530   107.1320     2.1660 
  156.8750   154.8130   -13.8110   -10.9830  -128.8850    63.2650   164.9970   183.3810   104.7840     2.1520 
  157.0000   154.9310   -13.8440   -11.0100  -128.3660    62.8510   190.0120   211.0310   110.1030     2.1480 
  157.1250   155.0490   -13.8760   -11.0370  -127.8000    62.4470   202.4740   227.7120   127.6390     2.1490 
  157.2500   155.1660   -13.9090   -11.0640  -127.2610    63.1210   206.7800   234.6340   133.3530     2.1500 
  157.3750   155.2840   -13.9420   -11.0910  -126.8140    65.1330   203.3770   231.0000   130.5730     2.1500 
  157.5000   155.4010   -13.9740   -11.1180  -126.4730    65.8850   189.9130   217.5110   131.1460     2.1540 
  157.6250   155.5190   -14.0070   -11.1450  -126.2310    64.9770   171.0460   197.5350   132.8080     2.1660 
  157.7500   155.6360   -14.0400   -11.1720  -126.0440    62.8770   152.1320   176.8000   126.8350     2.1820 
  157.8750   155.7540   -14.0730   -11.2000  -125.8680    62.6990   135.8280   159.0320   104.1620     2.1960 
  158.0000   155.8710   -14.1060   -11.2270  -125.6630    63.1990   123.4990   144.5680    86.2440     2.2030 
  158.1250   155.9890   -14.1390   -11.2540  -125.4240    64.5790   112.3840   132.1930    91.2950     2.2010 
  158.2500   156.1060   -14.1720   -11.2810  -125.1750    64.7320   102.7160   121.7290    94.4370     2.1960 
  158.3750   156.2240   -14.2060   -11.3080  -124.9080    65.9280    96.1790   115.0270    77.0690     2.2010 
  158.5000   156.3410   -14.2390   -11.3350  -124.6240    67.2360    94.4260   113.5050    60.8010     2.2220 
  158.6250   156.4580   -14.2720   -11.3630  -124.3310    68.2410    98.1320   117.4370    61.4530     2.2450 
  158.7500   156.5750   -14.3060   -11.3900  -124.0040    68.1260   103.5410   123.2910    73.7790     2.2570 
  158.8750   156.6930   -14.3390   -11.4170  -123.6280    68.3460   106.3230   126.2630    96.6420     2.2440 
  159.0000   156.8100   -14.3730   -11.4450  -123.2230    69.5570   103.6130   123.1830   116.9830     2.2300 
  159.1250   156.9270   -14.4060   -11.4720  -122.7770    69.8610    94.7640   113.9230   109.4590     2.2250 
  159.2500   157.0440   -14.4400   -11.5000  -122.3160    70.3690    84.6550   102.9590    79.7480     2.2330 
  159.3750   157.1610   -14.4740   -11.5270  -121.8710    70.0580    77.4310    95.2230    58.0660     2.2390 
