~V
VERS. 2.00: Ver 2.00
~W
STRT.M 30.0000:
STOP.M 210.0000:
STEP.M 0.1250:
NULL. -999.2500:
UWI. FD10800:
~C
DEPT.M :
TVD. :
DX. :
DY. :
SP.MV :
GR.API :
RI. :
RML.OHMM :
RXO.OHMM :
DEN.GM/CC :
~A
# ...
  148.6250   143.3120   -24.9920     7.0010   -28.2130    67.1750    19.7630    21.3180    16.4140     2.1230 
  148.7500   143.4190   -25.0560     7.0040   -28.1820    66.3600    20.9040    22.3000    15.9330     2.1310 
  148.8750   143.5260   -25.1200     7.0080   -28.0670    66.4630    21.0100    22.2410    15.6160     2.1390 
  149.0000   143.6340   -25.1840     7.0120   -27.8830    67.1950    21.0080    22.1370    15.4670     2.1460 
  149.1250   143.7410   -25.2480     7.0150   -27.6450    68.7920    20.3620    21.2820    15.0780     2.1480 
  149.2500   143.8480   -25.3120     7.0180   -27.4020    70.3940    19.1520    19.8400    14.2170     2.1480 
  149.3750   143.9550   -25.3760     7.0220   -27.2270    73.8290    17.5260    17.9300    14.0010     2.1560 
  149.5000   144.0630   -25.4400     7.0250   -27.0900    76.2820    15.6740    15.7660    15.4940     2.1740 
  149.6250   144.1700   -25.5040     7.0280   -26.9370    77.5870    14.4060    14.3520    15.2480     2.1830 
  149.7500   144.2770   -25.5680     7.0310   -26.8630    76.9060    13.8620    13.7580    12.2010     2.1770 
  149.8750   144.3850   -25.6320     7.0340   -26.9630    75.7760    14.2410    14.1310    11.4900     2.1650 
  150.0000   144.4920   -25.6960     7.0370   -27.2110    74.3700    15.3410    15.2380    12.8700     2.1610 
  150.1250   144.5990   -25.7600     7.0400   -27.4560    72.7650    17.2420    17.1150    14.1050     2.1720 
  150.2500   144.7070   -25.8240     7.0430   -27.4720    71.9030    19.5080    19.2790    16.6100     2.1910 
  150.3750   144.8140   -25.8880     7.0460   -27.0770    73.5170    21.5320    21.1740    18.7900     2.2080 
  150.5000   144.9210   -25.9520     7.0490   -26.2710    76.7570    23.4450    22.9960    18.7630     2.2140 
  150.6250   145.0290   -26.0160     7.0530   -25.3400    80.0150    24.9470    24.4710    18.1980     2.2130 
  150.7500   145.1360   -26.0800     7.0560   -24.7360    81.7470    26.3880    25.9990    18.9720     2.2140 
  150.8750   145.2430   -26.1440     7.0590   -24.6440    81.6090    28.0140    27.7290    19.6110     2.2210 
  151.0000   145.3510   -26.2080     7.0620   -24.7950    81.2100    29.6890    29.5200    18.4050     2.2280 
  151.1250   145.4580   -26.2720     7.0650   -25.0330    78.4220    31.5210    31.4500    16.8110     2.2220 
  151.2500   145.5650   -26.3360     7.0680   -25.3500    75.6080    33.4500    33.5220    16.2700     2.2040 
  151.3750   145.6730   -26.4000     7.0700   -25.5880    72.2590    35.8370    36.1410    18.1650     2.1770 
  151.5000   145.7800   -26.4640     7.0730   -25.7510    70.8490    38.7540    39.2870    21.5620     2.1630 
  151.6250   145.8870   -26.5280     7.0760   -25.9110    70.3510    42.0940    42.8350    23.5540     2.1610 
  151.7500   145.9950   -26.5920     7.0780   -26.0580    70.1050    45.4810    46.3520    23.4850     2.1670 
  151.8750   146.1020   -26.6560     7.0810   -26.2450    69.3150    48.6260    49.5860    22.2020     2.1670 
  152.0000   146.2090   -26.7210     7.0830   -26.5290    67.7260    51.1960    52.2270    21.1990     2.1620 
  152.1250   146.3160   -26.7850     7.0860   -26.8060    66.5790    53.3100    54.4380    20.9590     2.1560 
  152.2500   146.4240   -26.8490     7.0890   -26.9470    66.6460    55.1900    56.4600    19.8520     2.1510 
  152.3750   146.5310   -26.9130     7.0910   -27.0770    67.5180    57.0430    58.4700    17.4580     2.1480 
  152.5000   146.6380   -26.9770     7.0940   -27.2910    68.3150    59.0350    60.6620    16.7620     2.1470 
  152.6250   146.7450   -27.0410     7.0970   -27.4380    68.4140    61.4530    63.2590    17.7110     2.1460 
  152.7500   146.8530   -27.1060     7.0990   -27.5230    69.5850    63.8030    65.6940    18.4870     2.1420 
  152.8750   146.9600   -27.1700     7.1020   -27.5580    71.3130    65.3800    67.1270    20.3900     2.1340 
  153.0000   147.0670   -27.2340     7.1050   -27.5630    72.9010    65.9460    67.3890    22.3580     2.1290 
  153.1250   147.1740   -27.2980     7.1080   -27.5750    72.8880    65.3500    66.2510    22.3100     2.1340 
  153.2500   147.2810   -27.3630     7.1110   -27.6050    71.8250    63.4670    63.7490    21.7880     2.1590 
  153.3750   147.3880   -27.4270     7.1140   -27.6910    70.9710    61.0190    60.8180    22.7350     2.1900 
  153.5000   147.4960   -27.4910     7.1170   -27.8450    70.6610    58.5770    58.0230    24.4840     2.2080 
  153.6250   147.6030   -27.5560     7.1200   -27.9660    71.4960    56.5010    55.8220    25.6890     2.2000 
  153.7500   147.7100   -27.6200     7.1230   -28.0370    71.4010    55.2380    54.6030    25.3380     2.1880 
  153.8750   147.8170   -27.6840     7.1260   -28.2140    70.0450    54.5490    54.0330    23.6410     2.1820 
  154.0000   147.9240   -27.7490     7.1290   -28.5830    68.7380    54.0450    53.6670    21.6480     2.1800 
  154.1250   148.0310   -27.8130     7.1320   -28.9580    68.6680    53.4810    53.1820    19.9730     2.1680 
  154.2500   148.1380   -27.8770     7.1350   -29.1570    69.6110    52.7900    52.3960    19.8300     2.1490 
  154.3750   148.2450   -27.9420     7.1380   -29.1430    69.0830    51.7220    51.1620    20.3310     2.1380 
  154.5000   148.3530   -28.0060     7.1410   -28.9350    68.9030    50.5720    49.7940    19.9570     2.1400 
  154.6250   148.4600   -28.0700     7.1440   -28.6220    69.1420    49.8740    48.9780    19.2100     2.1540 
  154.7500   148.5670   -28.1350     7.1470   -28.4390    70.4700    49.6780    48.7710    18.6600     2.1680 
  154.8750   148.6740   -28.1990     7.1510   -28.3900    70.3960    50.0430    49.1750    18.6140     2.1750 
  155.0000   148.7810   -28.2640     7.1540   -28.2690    69.8240    50.7200    49.9580    18.8560     2.1780 
  155.1250   148.8880   -28.3280     7.1560   -27.9260    70.1970    51.4880    50.8790    19.1180     2.1780 
  155.2500   148.9950   -28.3920     7.1590   -27.5050    71.9790    52.0700    51.6190    19.6590     2.1750 
  155.3750   149.1020   -28.4570     7.1620   -27.2860    73.7930    52.1250    51.8640    20.3960     2.1640 
  155.5000   149.2090   -28.5210     7.1650   -27.3450    73.8870    51.8930    51.8670    20.7910     2.1520 
  155.6250   149.3160   -28.5850     7.1670   -27.6810    73.1500    51.7190    51.9490    20.7320     2.1430 
  155.7500   149.4240   -28.6500     7.1690   -28.1580    71.8810    51.9640    52.4890    20.5460     2.1420 
  155.8750   149.5310   -28.7140     7.1720   -28.5500    71.5820    52.9480    53.8370    20.5730     2.1460 
  156.0000   149.6380   -28.7790     7.1740   -28.7100    70.3870    54.9930    56.3750    20.8320     2.1560 
  156.1250   149.7450   -28.8430     7.1760   -28.8890    70.5130    58.1590    60.1390    21.0970     2.1640 
  156.2500   149.8520   -28.9070     7.1790   -29.1620    70.2060    62.0220    64.6680    22.1260     2.1690 
  156.3750   149.9590   -28.9720     7.1810   -29.5470    69.0680    66.1430    69.4210    24.4400     2.1710 
  156.5000   150.0660   -29.0360     7.1830   -29.9380    67.2490    69.4810    73.2650    26.5540     2.1720 
  156.6250   150.1740   -29.1000     7.1850   -30.2020    65.4240    71.4820    75.5290    26.9400     2.1690 
  156.7500   150.2810   -29.1650     7.1870   -30.2990    65.6510    72.0140    76.0920    25.8200     2.1590 
  156.8750   150.3880   -29.2290     7.1890   -30.2330    66.9140    71.2080    75.1440    24.5630     2.1550 
  157.0000   150.4950   -29.2930     7.1910   -30.0330    69.3990    69.6050    73.3020    23.3950     2.1590 
  157.1250   150.6020   -29.3580     7.1930   -29.7580    71.3350    67.6920    71.1460    22.8360     2.1610 
  157.2500   150.7090   -29.4220     7.1950   -29.5770    72.2230    65.6030    68.7650    24.2790     2.1580 
  157.3750   150.8170   -29.4860     7.1970   -29.5060    71.9040    63.4200    66.2150    26.4360     2.1520 
  157.5000   150.9240   -29.5510     7.1990   -29.4350    71.6610    61.2140    63.6100    27.7650     2.1550 
  157.6250   151.0310   -29.6150     7.2000   -29.2550    71.9820    59.0060    61.0040    28.3460     2.1570 
