~V
VERS. 2.00: Ver 2.00
~W
STRT.M 33.0000:
STOP.M 273.0000:
STEP.M 0.1250:
NULL. -999.2500:
UWI. FD10880:
~C
DEPT.M :
TVD. :
DX. :
DY. :
SP.MV :
GR.API :
RI. :
RML.OHMM :
RXO.OHMM :
DEN.GM/CC :
~A
   33.0000    33.0000     0.0000     0.0000    28.6540    34.5160     0.1370     0.0870     0.3490     2.3490 
   33.1250    33.1250     0.0030     0.0000    29.4400    34.8370     0.1370     0.0860     0.3580     2.3780 
   33.2500    33.2500     0.0060     0.0000    30.4120    34.4940     0.1370     0.0840     0.3560     2.4060 
   33.3750    33.3750     0.0080     0.0000    31.4300    34.0640     0.1370     0.0830     0.3780     2.4210 
   33.5000    33.5000     0.0110     0.0000    32.1200    33.9030     0.1350     0.0820     0.4120     2.4180 
   33.6250    33.6250     0.0140     0.0000    32.1060    33.0850     0.1270     0.0780     0.4000     2.4000 
   33.7500    33.7500     0.0170     0.0000    31.4180    31.9170     0.1090     0.0690     0.3850     2.3750 
   33.8750    33.8750     0.0200     0.0000    30.2890    31.9740     0.0810     0.0530     0.4000     2.3500 
   34.0000    34.0000     0.0230     0.0000    29.0100    33.4340     0.0520     0.0340     0.4050     2.3330 
   34.1250    34.1250     0.0260     0.0000    28.1480    33.7060     0.0290     0.0200     0.4300     2.3280 
   34.2500    34.2500     0.0290    -0.0010    27.7630    33.0820     0.0230     0.0140     0.4930     2.3420 
   34.3750    34.3750     0.0320    -0.0010    27.4670    33.2040     0.0450     0.0310     0.5760     2.3760 
   34.5000    34.5000     0.0350    -0.0010    26.8270    34.3990     0.1220     0.1030     2.0270     2.4190 
   34.6250    34.6250     0.0390    -0.0010    25.1780    36.4340     0.3390     0.2980     9.5740     2.4310 
   34.7500    34.7500     0.0420    -0.0020    21.7870    41.0260     0.9180     1.0580    16.5390     2.3760 
   34.8750    34.8740     0.0450    -0.0020    16.6810    47.7830     1.9570     2.7100    12.4570     2.2750 
   35.0000    34.9990     0.0480    -0.0020    10.3260    53.1990     2.9160     3.7210     6.7170     2.1760 
   35.1250    35.1240     0.0520    -0.0020     5.9170    57.2070     3.5500     4.2490     5.9770     2.1130 
   35.2500    35.2490     0.0550    -0.0020     4.3720    60.9380     3.7580     3.8590     6.1470     2.0870 
   35.3750    35.3740     0.0590    -0.0020     3.5280    64.2570     3.6790     3.1540     6.2380     2.0760 
   35.5000    35.4990     0.0620    -0.0020     2.7120    65.6200     3.8190     3.1100     6.2910     2.0690 
   35.6250    35.6240     0.0660    -0.0020     2.1090    66.3150     4.0430     3.3080     6.3550     2.0650 
   35.7500    35.7490     0.0690    -0.0020     1.6730    65.9180     4.2060     3.4480     6.3760     2.0650 
   35.8750    35.8740     0.0730    -0.0020     1.2560    65.3980     4.3120     3.5580     6.3870     2.0710 
   36.0000    35.9990     0.0760    -0.0020     0.8750    65.0980     4.3930     3.6950     6.4150     2.0780 
   36.1250    36.1240     0.0800    -0.0020     0.5190    64.5480     4.4480     3.7930     6.4570     2.0830 
   36.2500    36.2490     0.0840    -0.0020     0.2090    63.6660     4.4790     3.8900    19.2270     2.0860 
   36.3750    36.3740     0.0880    -0.0020    -0.0690    64.7750     4.4860     3.9360    40.5280     2.0880 
   36.5000    36.4990     0.0920    -0.0020    -0.3440    67.2230     4.4740     3.9300    36.2430     2.0890 
   36.6250    36.6240     0.0950    -0.0020    -0.6380    66.6050     4.4570     3.8970    14.7250     2.0860 
   36.7500    36.7490     0.0990    -0.0020    -0.9460    62.2940     4.4380     3.8160     5.9530     2.0830 
   36.8750    36.8740     0.1030    -0.0020    -1.2460    59.3970     4.4060     3.7950     5.8020     2.0820 
   37.0000    36.9990     0.1070    -0.0020    -1.4540    61.2580     4.3310     3.7350     5.9760     2.0840 
   37.1250    37.1230     0.1110    -0.0020    -1.5020    65.7750     4.2360     3.7000     6.0850     2.0880 
   37.2500    37.2480     0.1160    -0.0020    -1.3210    69.7800     4.1340     3.6460     5.5930     2.0900 
   37.3750    37.3730     0.1200    -0.0020    -0.9420    72.9990     4.0650     3.4770     5.1000     2.0920 
   37.5000    37.4980     0.1240    -0.0020    -0.5130    76.8320     4.0790     3.4130     5.1150     2.0940 
   37.6250    37.6230     0.1280    -0.0020    -0.1920    79.3180     4.1480     3.3100     5.3860     2.0950 
   37.7500    37.7480     0.1330    -0.0020    -0.0960    76.7470     4.1990     3.2560     5.4720     2.0900 
   37.8750    37.8730     0.1370    -0.0020    -0.2050    73.1380     4.1560     3.1150     5.3630     2.0820 
   38.0000    37.9980     0.1410    -0.0020    -0.3640    73.7920     3.9530     3.0540     5.2420     2.0830 
   38.1250    38.1230     0.1460    -0.0020    -0.4650    80.8870     3.6770     2.9830     4.8600     2.1020 
   38.2500    38.2480     0.1500    -0.0020    -0.3870    89.9400     3.4240     2.9010     4.2500     2.1400 
   38.3750    38.3730     0.1550    -0.0020    -0.0860    97.3830     3.2840     2.8550     4.0290     2.1820 
   38.5000    38.4980     0.1600    -0.0020     0.8920   102.6010     3.2810     2.6840     4.1390     2.2090 
   38.6250    38.6230     0.1640    -0.0020     1.4650   105.7360     3.3440     2.6500     4.2430     2.2120 
   38.7500    38.7470     0.1690    -0.0010     1.6510   104.4920     3.4620     2.7750     4.4320     2.1980 
   38.8750    38.8720     0.1740    -0.0010     1.6820    98.5850     3.5810     2.9780     4.5290     2.1800 
   39.0000    38.9970     0.1790    -0.0010     1.5510    93.6620     3.7320     3.2590     4.4650     2.1660 
   39.1250    39.1220     0.1840    -0.0010     1.3020    92.5170     3.9420     3.5650     4.5380     2.1590 
   39.2500    39.2470     0.1880    -0.0010     1.0190    90.7460     4.1180     3.8250     4.7220     2.1630 
   39.3750    39.3720     0.1930     0.0000     0.6750    87.6710     4.1900     4.0410     5.0140     2.1840 
   39.5000    39.4970     0.1990     0.0000     0.4420    87.1820     4.0850     4.0560     5.4300     2.2300 
   39.6250    39.6220     0.2040     0.0000     0.3150    92.5330     3.8270     3.8340     5.2760     2.2840 
   39.7500    39.7470     0.2090     0.0000     0.0880   101.6790     3.4380     3.4750     4.5720     2.3190 
   39.8750    39.8720     0.2140     0.0000    -0.3290   107.4610     3.1030     3.1730     4.1910     2.3200 
   40.0000    39.9960     0.2190     0.0010    -0.9510   107.8210     3.0140     3.2300     4.0990     2.2970 
   40.1250    40.1210     0.2250     0.0010    -1.4790   105.9060     3.3650     3.9290     4.0030     2.2770 
   40.2500    40.2460     0.2300     0.0010    -1.8250   104.1080     4.0720     5.1310    18.3630     2.2860 
   40.3750    40.3710     0.2360     0.0010    -1.7530    99.6280     4.9100     6.5560    47.8260     2.3290 
   40.5000    40.4960     0.2410     0.0020    -1.0770    90.9720     5.5770     7.6990    51.7380     2.3900 
   40.6250    40.6210     0.2470     0.0020     0.0570    82.4820     5.7140     7.9570    26.0160     2.4260 
   40.7500    40.7460     0.2530     0.0020     0.6970    76.2800     5.3620     7.4130     8.7780     2.3930 
   40.8750    40.8710     0.2580     0.0020    -0.1430    71.9880     4.8010     6.5440     7.4330     2.3030 
   41.0000    40.9950     0.2640     0.0030    -1.6580    68.9500     4.3700     5.9310    11.5760     2.1980 
   41.1250    41.1200     0.2700     0.0030    -3.0930    66.8930     4.2580     5.8110    13.0720     2.1220 
   41.2500    41.2450     0.2760     0.0030    -4.4590    65.4170     4.3540     5.9880     8.9150     2.0880 
   41.3750    41.3700     0.2820     0.0030    -5.5780    62.9280     4.4640     6.1520     6.1820     2.0750 
   41.5000    41.4950     0.2880     0.0040    -6.1380    59.5480     4.5230     6.2080     6.4080     2.0730 
   41.6250    41.6200     0.2940     0.0040    -6.2840    57.6850     4.5560     6.2430     6.6500     2.0750 
   41.7500    41.7450     0.3010     0.0040    -6.3340    58.3940     4.5790     6.2650     6.9030     2.0790 
   41.8750    41.8690     0.3070     0.0040    -6.4020    58.8350     4.5900     6.2490     7.1200     2.0810 
   42.0000    41.9940     0.3130     0.0050    -6.4140    56.1080     4.5880     6.2420     7.2080     2.0790 
