~V
VERS. 2.00: Ver 2.00
~W
STRT.M 63.0000:
STOP.M 266.0000:
STEP.M 0.1250:
NULL. -999.2500:
UWI. FD10888:
~C
DEPT.M :
TVD. :
DX. :
DY. :
SP.MV :
GR.API :
RI. :
RML.OHMM :
RXO.OHMM :
DEN.GM/CC :
~A
   63.0000    63.0000     0.0000     0.0000    80.3710    37.0250     0.0520     0.0470     0.0840     2.0190 
   63.1250    63.1250    -0.0010    -0.0010    80.8210    38.6000     0.0670     0.0450     0.0830     2.0220 
   63.2500    63.2500    -0.0020    -0.0020    80.9960    41.0240     0.0790     0.0430     0.0980     2.0290 
   63.3750    63.3750    -0.0030    -0.0040    80.9730    42.4960     0.0880     0.0420     0.1190     2.0390 
   63.5000    63.5000    -0.0040    -0.0050    80.6690    43.5370     0.0930     0.0410     0.1170     2.0460 
   63.6250    63.6250    -0.0050    -0.0060    79.9940    44.9940     0.0950     0.0420     0.0830     2.0490 
   63.7500    63.7500    -0.0060    -0.0070    79.0060    46.4110     0.0970     0.0420     0.0550     2.0450 
   63.8750    63.8750    -0.0070    -0.0090    77.8100    47.0290     0.0980     0.0420     0.0490     2.0360 
   64.0000    64.0000    -0.0080    -0.0100    76.5330    45.1640     0.0950     0.0400     0.0490     2.0240 
   64.1250    64.1250    -0.0090    -0.0110    74.8920    41.1010     0.0840     0.0350     0.0500     2.0120 
   64.2500    64.2500    -0.0100    -0.0120    72.0550    38.0000     0.0670     0.0280     0.0540     2.0060 
   64.3750    64.3750    -0.0110    -0.0140    67.4850    38.8560     0.0460     0.0200     0.0630     2.0120 
   64.5000    64.5000    -0.0120    -0.0150    61.7930    40.3580     0.0320     0.0160     0.0960     2.0380 
   64.6250    64.6250    -0.0130    -0.0160    55.1170    39.5790     0.0350     0.0260     0.5050     2.0930 
   64.7500    64.7500    -0.0140    -0.0170    47.0000    39.6800     0.0630     0.0630     1.7280     2.1610 
   64.8750    64.8750    -0.0150    -0.0190    36.7510    41.8710     0.1460     0.1660     3.2720     2.2090 
   65.0000    65.0000    -0.0160    -0.0200    24.1440    44.0180     0.3420     0.4250     4.0580     2.2110 
   65.1250    65.1250    -0.0160    -0.0210     9.8500    46.1340     0.6810     1.3090     4.1520     2.1670 
   65.2500    65.2500    -0.0170    -0.0230    -3.3640    49.1190     1.1180     2.8390     4.2830     2.1010 
   65.3750    65.3750    -0.0180    -0.0240   -12.5640    52.4530     1.5980     3.9650     4.5870     2.0370 
   65.5000    65.5000    -0.0190    -0.0250   -17.7390    52.4030     2.0490     4.6450     4.8670     1.9930 
   65.6250    65.6250    -0.0200    -0.0260   -20.5070    53.9720     2.5170     4.4350     4.9060     1.9880 
   65.7500    65.7500    -0.0210    -0.0280   -22.1250    60.8430     3.0750     4.2180     4.8330     2.0180 
   65.8750    65.8750    -0.0220    -0.0290   -22.9630    70.5080     3.6720     4.3540     5.0910     2.0640 
   66.0000    66.0000    -0.0230    -0.0300   -23.5300    76.2380     4.1800     4.5270     5.5800     2.1020 
   66.1250    66.1250    -0.0240    -0.0320   -24.1640    77.6300     4.4530     4.6430     5.5980     2.1270 
   66.2500    66.2500    -0.0250    -0.0330   -24.8380    78.4120     4.5100     4.6610     4.9770     2.1470 
   66.3750    66.3750    -0.0260    -0.0340   -25.4110    79.1640     4.4710     4.6150     4.3210     2.1670 
   66.5000    66.5000    -0.0270    -0.0350   -25.8970    78.1880     4.4550     4.5970     4.2250     2.1750 
   66.6250    66.6250    -0.0280    -0.0370   -26.3690    73.9860     4.5370     4.6940     4.6500     2.1630 
   66.7500    66.7500    -0.0290    -0.0380   -26.9260    69.8740     4.7230     4.9020     5.1100     2.1390 
   66.8750    66.8750    -0.0310    -0.0390   -27.5460    68.0390     4.9860     5.1880     5.3560     2.1160 
   67.0000    67.0000    -0.0320    -0.0410   -28.0810    67.3960     5.2600     5.4840     5.4920     2.1050 
   67.1250    67.1250    -0.0330    -0.0420   -28.4830    67.0570     5.4690     5.7200     5.7300     2.1020 
   67.2500    67.2500    -0.0340    -0.0430   -28.7770    69.6800     5.5980     5.8760     6.0680     2.1000 
   67.3750    67.3750    -0.0350    -0.0440   -29.1380    74.8670     5.6920     5.9870     6.2820     2.0990 
   67.5000    67.5000    -0.0360    -0.0460   -29.5890    76.3000     5.7770     6.0630     6.3100     2.1000 
   67.6250    67.6250    -0.0370    -0.0470   -30.0780    69.3700     5.8470     6.0920     6.3600     2.1080 
   67.7500    67.7500    -0.0380    -0.0480   -30.4520    60.8240     5.8960     6.0960     6.5950     2.1170 
   67.8750    67.8750    -0.0390    -0.0500   -30.7090    57.3160     5.9510     6.1170     6.8620     2.1230 
   68.0000    68.0000    -0.0400    -0.0510   -31.0370    59.2170     6.0340     6.1910     6.9140     2.1230 
   68.1250    68.1250    -0.0410    -0.0520   -31.3720    62.0340     6.1320     6.3190     6.7920     2.1200 
   68.2500    68.2500    -0.0420    -0.0540   -31.6590    61.6820     6.2150     6.4520     6.7250     2.1150 
   68.3750    68.3750    -0.0430    -0.0550   -31.8620    59.9620     6.2370     6.5170     6.7590     2.1080 
   68.5000    68.5000    -0.0440    -0.0560   -32.0510    60.3940     6.1940     6.4900     6.7390     2.1000 
   68.6250    68.6250    -0.0450    -0.0570   -32.2690    62.0880     6.0930     6.3690     6.5680     2.0930 
   68.7500    68.7500    -0.0460    -0.0590   -32.5370    63.6310     5.9560     6.1990     6.3560     2.0910 
   68.8750    68.8750    -0.0470    -0.0600   -32.7790    62.7920     5.8230     6.0540     6.2400     2.0930 
   69.0000    68.9990    -0.0480    -0.0610   -32.9900    60.1970     5.7110     5.9570     6.2090     2.0960 
   69.1250    69.1240    -0.0490    -0.0630   -33.1080    60.0610     5.6390     5.9130     6.1990     2.0950 
   69.2500    69.2490    -0.0510    -0.0640   -33.1640    62.8110     5.6030     5.8930     6.2240     2.0900 
   69.3750    69.3740    -0.0520    -0.0650   -33.2250    65.1520     5.6100     5.8990     6.3590     2.0850 
   69.5000    69.4990    -0.0530    -0.0670   -33.2270    63.0700     5.6800     5.9630     6.5580     2.0860 
   69.6250    69.6240    -0.0540    -0.0680   -33.2330    61.5000     5.8100     6.0960     6.6930     2.1020 
   69.7500    69.7490    -0.0550    -0.0690   -33.2660    63.7960     5.9700     6.2710     6.7880     2.1310 
   69.8750    69.8740    -0.0560    -0.0710   -33.3700    66.9720     6.1060     6.4250     6.9440     2.1600 
   70.0000    69.9990    -0.0570    -0.0720   -33.5520    65.8070     6.1800     6.5130     7.0230     2.1720 
   70.1250    70.1240    -0.0580    -0.0730   -33.7620    61.6950     6.1680     6.5090     6.8470     2.1550 
   70.2500    70.2490    -0.0590    -0.0750   -33.9270    59.0460     6.0800     6.4220     6.6320     2.1210 
   70.3750    70.3740    -0.0600    -0.0760   -33.9090    60.1730     5.9550     6.2800     6.6490     2.0890 
   70.5000    70.4990    -0.0610    -0.0770   -33.7050    60.0530     5.8190     6.1140     6.7930     2.0710 
   70.6250    70.6240    -0.0630    -0.0790   -33.4970    57.8610     5.7160     5.9760     6.7800     2.0660 
   70.7500    70.7490    -0.0640    -0.0800   -33.3670    57.2650     5.6540     5.8900     6.4860     2.0670 
   70.8750    70.8740    -0.0650    -0.0810   -33.1700    59.8570     5.6370     5.8710     6.0630     2.0690 
   71.0000    70.9990    -0.0660    -0.0830   -32.9320    61.9380     5.6490     5.9120     5.8350     2.0690 
   71.1250    71.1240    -0.0670    -0.0840   -32.6830    62.6390     5.6360     5.9410     5.9120     2.0710 
   71.2500    71.2490    -0.0680    -0.0850   -32.3940    63.3610     5.5250     5.8610     6.0160     2.0800 
   71.3750    71.3740    -0.0690    -0.0860   -31.9760    64.7500     5.3020     5.6460     5.8620     2.1040 
   71.5000    71.4990    -0.0710    -0.0880   -31.4090    65.8500     5.0230     5.3470     5.4410     2.1430 
   71.6250    71.6240    -0.0720    -0.0890   -30.8620    69.5840     4.7620     5.0550     4.9230     2.1870 
   71.7500    71.7490    -0.0730    -0.0900   -30.3020    78.2520     4.5700     4.8360     4.5800     2.2230 
   71.8750    71.8740    -0.0740    -0.0920   -29.8090    86.1950     4.4660     4.7170     4.4690     2.2390 
   72.0000    71.9990    -0.0750    -0.0930   -29.5710    87.2680     4.4630     4.7110     4.3620     2.2420 
