~V
VERS. 2.00: Ver 2.00
~W
STRT.M 24.0000:
STOP.M 309.0000:
STEP.M 0.1250:
NULL. -999.2500:
UWI. FD10911:
~C
DEPT.M :
TVD. :
DX. :
DY. :
SP.MV :
GR.API :
RI. :
RML.OHMM :
RXO.OHMM :
DEN.GM/CC :
~A
# ...
  151.7500   146.8520     8.5900   -26.3960   -24.7660    68.3820    13.8440    15.0540    15.6490     2.1070 
  151.8750   146.9600     8.6190   -26.4520   -24.4840    67.6030    12.8460    13.9400    13.9880     2.1060 
  152.0000   147.0680     8.6480   -26.5070   -24.1530    68.5600    11.9600    12.9570    13.3300     2.1090 
  152.1250   147.1760     8.6770   -26.5630   -23.8700    71.3360    11.4080    12.3640    13.5190     2.1180 
  152.2500   147.2840     8.7060   -26.6180   -23.7010    74.7520    11.3780    12.3870    13.6050     2.1290 
  152.3750   147.3930     8.7360   -26.6740   -23.6830    75.6170    11.8550    13.0050    13.2380     2.1360 
  152.5000   147.5010     8.7650   -26.7290   -23.8140    73.7170    12.7310    14.0660    13.2780     2.1310 
  152.6250   147.6090     8.7940   -26.7850   -24.0380    69.6680    13.7330    15.2140    14.2990     2.1160 
  152.7500   147.7170     8.8230   -26.8410   -24.3050    66.2920    14.5500    16.0650    15.5200     2.1000 
  152.8750   147.8250     8.8530   -26.8960   -24.5760    64.9920    15.0030    16.4460    15.8690     2.0890 
  153.0000   147.9330     8.8820   -26.9520   -24.8190    65.2210    15.0560    16.3830    15.3250     2.0840 
  153.1250   148.0400     8.9120   -27.0080   -25.0280    66.2210    14.8320    16.0610    14.6930     2.0790 
  153.2500   148.1480     8.9410   -27.0640   -25.1770    65.8990    14.4530    15.6250    14.3320     2.0750 
  153.3750   148.2560     8.9710   -27.1200   -25.2530    65.8390    14.0530    15.2090    14.2000     2.0740 
  153.5000   148.3640     9.0010   -27.1750   -25.2370    66.2770    13.7380    14.9190    14.4050     2.0790 
  153.6250   148.4720     9.0300   -27.2310   -25.1270    66.1750    13.5560    14.7970    14.7880     2.0860 
  153.7500   148.5800     9.0600   -27.2870   -24.9260    65.9520    13.4650    14.7790    14.9370     2.0940 
  153.8750   148.6870     9.0900   -27.3430   -24.6630    66.9560    13.3090    14.6690    14.7480     2.1030 
  154.0000   148.7950     9.1200   -27.3990   -24.3590    69.2800    12.9220    14.2710    14.3900     2.1110 
  154.1250   148.9030     9.1500   -27.4550   -24.0320    71.7580    12.2750    13.5510    13.8730     2.1130 
  154.2500   149.0100     9.1800   -27.5110   -23.6830    72.8580    11.4410    12.6100    13.1080     2.1090 
  154.3750   149.1180     9.2100   -27.5670   -23.3130    74.4970    10.6360    11.7160    12.3070     2.1030 
  154.5000   149.2260     9.2410   -27.6230   -22.9370    75.5370    10.0990    11.1590    11.6400     2.1040 
  154.6250   149.3330     9.2710   -27.6790   -22.5960    76.8230     9.9610    11.0900    11.2240     2.1140 
  154.7500   149.4410     9.3010   -27.7350   -22.3600    77.0260    10.3150    11.6030    11.3800     2.1300 
  154.8750   149.5480     9.3310   -27.7910   -22.2880    76.4390    11.0140    12.4960    11.9720     2.1420 
  155.0000   149.6560     9.3620   -27.8470   -22.4310    74.1840    11.8270    13.4820    12.4860     2.1450 
  155.1250   149.7630     9.3920   -27.9030   -22.7570    72.2200    12.5040    14.2700    12.7230     2.1420 
  155.2500   149.8710     9.4220   -27.9590   -23.2090    70.3800    12.8500    14.6550    12.8210     2.1390 
  155.3750   149.9780     9.4530   -28.0160   -23.6840    68.9590    12.9020    14.7050    12.8860     2.1370 
  155.5000   150.0860     9.4830   -28.0720   -24.0980    67.1030    12.7810    14.5630    12.9290     2.1310 
  155.6250   150.1930     9.5140   -28.1280   -24.4060    65.9860    12.6420    14.4050    12.9290     2.1220 
  155.7500   150.3000     9.5450   -28.1840   -24.5920    65.6980    12.6370    14.4140    12.9900     2.1120 
  155.8750   150.4080     9.5760   -28.2400   -24.6870    65.1970    12.8720    14.7180    13.5290     2.1030 
  156.0000   150.5150     9.6060   -28.2970   -24.7300    66.4840    13.3940    15.3660    14.7840     2.0990 
  156.1250   150.6220     9.6370   -28.3530   -24.7540    66.7620    14.0880    16.2050    16.0960     2.0990 
  156.2500   150.7290     9.6680   -28.4090   -24.7610    66.6610    14.7430    16.9630    16.9570     2.1010 
  156.3750   150.8370     9.6990   -28.4660   -24.7300    63.8540    15.0730    17.2950    17.6440     2.1030 
  156.5000   150.9440     9.7290   -28.5220   -24.6140    64.1340    14.8280    16.9310    18.2470     2.1050 
  156.6250   151.0510     9.7600   -28.5780   -24.3880    64.5490    14.0340    15.9330    18.3490     2.1080 
  156.7500   151.1580     9.7910   -28.6350   -24.0190    67.4680    12.7680    14.4230    16.8800     2.1100 
  156.8750   151.2650     9.8220   -28.6910   -23.5010    70.1960    11.2870    12.7150    13.8320     2.1100 
  157.0000   151.3720     9.8530   -28.7480   -22.8160    73.4250     9.8170    11.0580    11.1760     2.1130 
  157.1250   151.4790     9.8840   -28.8040   -22.0020    76.8060     8.5150     9.6100     9.6180     2.1200 
  157.2500   151.5870     9.9150   -28.8610   -21.1030    79.5750     7.4910     8.4870     8.6560     2.1330 
  157.3750   151.6940     9.9460   -28.9180   -20.1930    83.1250     6.7480     7.6890     7.9620     2.1470 
  157.5000   151.8010     9.9770   -28.9740   -19.3370    86.2500     6.2940     7.2240     7.4340     2.1560 
  157.6250   151.9080    10.0080   -29.0310   -18.5790    87.8960     6.0790     7.0360     7.1680     2.1570 
  157.7500   152.0150    10.0390   -29.0880   -17.9680    88.0070     6.0930     7.1110     7.1900     2.1530 
  157.8750   152.1220    10.0700   -29.1440   -17.5210    86.7050     6.2530     7.3450     7.3380     2.1490 
  158.0000   152.2290    10.1010   -29.2010   -17.2490    83.9900     6.4830     7.6430     7.4870     2.1480 
  158.1250   152.3350    10.1320   -29.2580   -17.1110    81.0160     6.7110     7.9270     7.6290     2.1460 
  158.2500   152.4420    10.1630   -29.3150   -17.0640    79.4480     6.8860     8.1420     7.8170     2.1410 
  158.3750   152.5490    10.1950   -29.3720   -17.0550    80.5650     6.9950     8.2760     7.9370     2.1320 
  158.5000   152.6560    10.2260   -29.4280   -17.0570    81.7420     7.0390     8.3340     7.8700     2.1220 
  158.6250   152.7630    10.2570   -29.4850   -17.0650    79.9070     7.0470     8.3470     7.7290     2.1130 
  158.7500   152.8700    10.2890   -29.5420   -17.0960    77.1460     7.0470     8.3530     7.6740     2.1080 
  158.8750   152.9770    10.3200   -29.5990   -17.1680    75.3910     7.0610     8.3850     7.7330     2.1080 
  159.0000   153.0830    10.3520   -29.6560   -17.2860    77.1370     7.1110     8.4680     7.8660     2.1120 
  159.1250   153.1900    10.3830   -29.7120   -17.4310    78.2730     7.2060     8.6070     8.0650     2.1170 
  159.2500   153.2970    10.4150   -29.7690   -17.5760    79.2860     7.3650     8.8210     8.3270     2.1200 
  159.3750   153.4040    10.4470   -29.8260   -17.7060    79.2980     7.5980     9.1220     8.5370     2.1190 
  159.5000   153.5100    10.4790   -29.8820   -17.8180    79.4930     7.8820     9.4970     8.6140     2.1110 
  159.6250   153.6170    10.5110   -29.9390   -17.9190    79.4970     8.1630     9.8750     8.6650     2.1020 
  159.7500   153.7240    10.5420   -29.9960   -18.0050    78.5480     8.3540    10.1490     8.8150     2.1000 
  159.8750   153.8310    10.5740   -30.0530   -18.0660    77.8080     8.3810    10.2070     9.0120     2.1050 
  160.0000   153.9370    10.6060   -30.1090   -18.0840    76.7900     8.1860     9.9710     9.1430     2.1120 
  160.1250   154.0440    10.6380   -30.1660   -18.0480    78.1480     7.7910     9.4720     9.2000     2.1150 
  160.2500   154.1510    10.6700   -30.2230   -17.9550    80.3450     7.2620     8.8020     9.1250     2.1170 
  160.3750   154.2570    10.7030   -30.2800   -17.8210    83.3440     6.7570     8.1780     8.6910     2.1250 
  160.5000   154.3640    10.7350   -30.3370   -17.6680    85.6560     6.4390     7.8160     7.8850     2.1380 
  160.6250   154.4700    10.7670   -30.3930   -17.5300    86.6830     6.4000     7.8290     7.2530     2.1480 
  160.7500   154.5770    10.7990   -30.4500   -17.4520    85.7730     6.6730     8.2340     7.2410     2.1460 
