~V
VERS. 2.00: Ver 2.00
~W
STRT.M 63.0000:
STOP.M 256.0000:
STEP.M 0.1250:
NULL. -999.2500:
UWI. FD10901:
~C
DEPT.M :
TVD. :
DX. :
DY. :
SP.MV :
GR.API :
RI. :
RML.OHMM :
RXO.OHMM :
DEN.GM/CC :
~A
# ...
  108.6250   108.6200    -0.5230     0.1300   -25.2810    62.5950     5.8870     7.3240     6.9450     2.1640 
  108.7500   108.7450    -0.5250     0.1270   -25.2340    63.2720     5.8950     7.3000     7.0340     2.1580 
  108.8750   108.8700    -0.5270     0.1240   -25.1400    64.8720     5.9040     7.2700     7.0100     2.1490 
  109.0000   108.9950    -0.5280     0.1210   -25.0180    67.9440     5.9200     7.2350     6.9370     2.1420 
  109.1250   109.1200    -0.5300     0.1180   -24.7680    72.0670     5.9440     7.2030     6.8100     2.1450 
  109.2500   109.2450    -0.5310     0.1140   -24.1930    75.0000     5.9920     7.2170     6.6880     2.1520 
  109.3750   109.3700    -0.5330     0.1110   -23.3210    74.8780     6.0580     7.2700     6.6690     2.1620 
  109.5000   109.4950    -0.5350     0.1080   -22.2110    72.7310     6.0560     7.2370     6.7190     2.1700 
  109.6250   109.6200    -0.5360     0.1040   -20.7670    71.2960     5.8890     7.0090     6.7370     2.1800 
  109.7500   109.7440    -0.5380     0.1010   -18.9210    72.2030     5.5790     6.6020     6.3530     2.1980 
  109.8750   109.8690    -0.5400     0.0980   -16.5630    74.6580     5.1480     6.0580     5.3450     2.2300 
  110.0000   109.9940    -0.5420     0.0940   -13.6980    77.7590     4.7170     5.5390     4.4380     2.2670 
  110.1250   110.1190    -0.5430     0.0900   -10.5450    80.2090     4.3870     5.1590     4.1120     2.2930 
  110.2500   110.2440    -0.5450     0.0870    -7.7670    83.2690     4.1430     4.9040     3.9910     2.3000 
  110.3750   110.3690    -0.5470     0.0830    -6.0120    85.5740     4.0310     4.7890     3.9250     2.3010 
  110.5000   110.4940    -0.5490     0.0790    -5.2440    86.7360     4.0250     4.7850     3.8990     2.3030 
  110.6250   110.6190    -0.5510     0.0750    -5.1120    86.2850     4.0630     4.8160     3.8960     2.3070 
  110.7500   110.7440    -0.5520     0.0720    -5.4420    85.0340     4.1480     4.8970     4.0100     2.3000 
  110.8750   110.8690    -0.5540     0.0680    -6.2230    82.9820     4.3310     5.1180     4.1290     2.2770 
  111.0000   110.9940    -0.5560     0.0640    -7.4130    81.2430     4.6790     5.5580     4.2910     2.2500 
  111.1250   111.1190    -0.5580     0.0600    -9.1130    79.7760     5.2000     6.2290     4.8560     2.2310 
  111.2500   111.2440    -0.5600     0.0550   -11.3750    78.9410     5.8860     7.1330     5.7210     2.2240 
  111.3750   111.3690    -0.5620     0.0510   -14.0900    77.8840     6.6200     8.1110     6.4000     2.2240 
  111.5000   111.4930    -0.5640     0.0470   -16.9790    78.6480     7.2170     8.8920     6.7150     2.2210 
  111.6250   111.6180    -0.5650     0.0430   -19.6270    79.5820     7.5260     9.2950     6.8460     2.2080 
  111.7500   111.7430    -0.5670     0.0380   -21.6870    80.2220     7.5120     9.2450     6.8160     2.1920 
  111.8750   111.8680    -0.5690     0.0340   -23.1850    78.5370     7.2490     8.8750     6.6160     2.1800 
  112.0000   111.9930    -0.5710     0.0300   -24.3010    75.9480     6.9360     8.4670     6.4950     2.1760 
  112.1250   112.1180    -0.5730     0.0250   -25.0770    73.9700     6.6990     8.1600     6.5270     2.1760 
  112.2500   112.2430    -0.5750     0.0210   -25.6970    73.4020     6.5420     7.9760     6.5940     2.1770 
  112.3750   112.3680    -0.5770     0.0160   -26.3540    73.7800     6.4740     7.9030     6.6170     2.1810 
  112.5000   112.4930    -0.5790     0.0110   -26.8890    73.4910     6.4520     7.9030     6.6060     2.1870 
  112.6250   112.6180    -0.5810     0.0070   -27.2350    71.6030     6.4380     7.9260     6.6250     2.1890 
  112.7500   112.7430    -0.5830     0.0020   -27.3910    69.5680     6.4360     7.9690     6.7240     2.1870 
  112.8750   112.8670    -0.5850    -0.0030   -27.4140    69.1300     6.4130     7.9750     6.8070     2.1870 
  113.0000   112.9920    -0.5870    -0.0080   -27.2440    72.2980     6.3260     7.8640     6.7570     2.1960 
  113.1250   113.1170    -0.5890    -0.0130   -26.7910    75.9550     6.1900     7.6610     6.6220     2.2120 
  113.2500   113.2420    -0.5910    -0.0180   -26.1920    78.4450     6.0280     7.4130     6.3570     2.2140 
  113.3750   113.3670    -0.5930    -0.0230   -25.6990    78.1510     5.9080     7.2170     6.1530     2.2000 
  113.5000   113.4920    -0.5950    -0.0280   -25.4450    76.7770     5.8870     7.1680     6.3840     2.1800 
  113.6250   113.6170    -0.5970    -0.0330   -25.4490    73.7070     5.9910     7.3050     6.8000     2.1690 
  113.7500   113.7420    -0.5990    -0.0390   -25.7070    70.1550     6.1880     7.5770     7.0190     2.1630 
  113.8750   113.8660    -0.6020    -0.0440   -25.8100    67.1380     6.4050     7.9030     7.0220     2.1640 
  114.0000   113.9910    -0.6040    -0.0500   -25.4320    65.8520     6.5610     8.1560     6.8990     2.1710 
  114.1250   114.1160    -0.6060    -0.0550   -24.5120    65.0870     6.5060     8.1210     6.6940     2.1770 
  114.2500   114.2410    -0.6080    -0.0610   -23.3740    65.0340     6.1590     7.6690     6.4940     2.1850 
  114.3750   114.3660    -0.6100    -0.0670   -21.9300    66.9240     5.6140     6.9610     6.3970     2.1990 
  114.5000   114.4910    -0.6130    -0.0720   -20.1220    71.1430     4.9920     6.1400     5.8780     2.2240 
  114.6250   114.6160    -0.6150    -0.0780   -17.8930    76.9530     4.4480     5.4510     4.9290     2.2460 
  114.7500   114.7400    -0.6170    -0.0840   -15.3050    82.8120     4.1020     5.0320     4.5310     2.2570 
  114.8750   114.8650    -0.6190    -0.0900   -12.9060    88.3180     4.0310     4.9710     4.4790     2.2500 
  115.0000   114.9900    -0.6220    -0.0960   -11.4110    90.3630     4.2420     5.2670     4.3900     2.2350 
  115.1250   115.1150    -0.6240    -0.1020   -11.1880    89.7820     4.6850     5.8500     4.9000     2.2140 
  115.2500   115.2400    -0.6260    -0.1080   -11.8810    85.5700     5.2930     6.6370     5.8860     2.1990 
  115.3750   115.3650    -0.6280    -0.1150   -13.4450    81.3810     5.8730     7.3620     6.5890     2.1920 
  115.5000   115.4890    -0.6310    -0.1210   -15.3230    77.4710     6.3590     7.9500     6.8100     2.1960 
  115.6250   115.6140    -0.6330    -0.1270   -16.6820    76.9620     6.5490     8.1600     6.7830     2.1980 
  115.7500   115.7390    -0.6350    -0.1330   -17.1980    78.3520     6.3650     7.9220     6.6820     2.2040 
  115.8750   115.8640    -0.6380    -0.1400   -16.9420    80.0210     5.8720     7.3110     6.3060     2.2220 
  116.0000   115.9890    -0.6400    -0.1460   -16.1320    81.6030     5.2530     6.5650     5.3570     2.2560 
  116.1250   116.1130    -0.6420    -0.1530   -14.7560    82.3110     4.6170     5.7830     4.3140     2.2890 
  116.2500   116.2380    -0.6450    -0.1600   -12.9530    83.0830     4.0720     5.1050     3.9230     2.3100 
  116.3750   116.3630    -0.6470    -0.1660   -11.3940    84.9730     3.7050     4.6590     3.8380     2.3190 
  116.5000   116.4880    -0.6500    -0.1730   -10.8870    89.8740     3.5730     4.5210     3.5540     2.3190 
  116.6250   116.6130    -0.6520    -0.1800   -11.7730    94.1180     3.7030     4.7250     3.7730     2.2940 
  116.7500   116.7370    -0.6550    -0.1870   -13.7590    94.0680     4.0340     5.1890     4.9580     2.2450 
  116.8750   116.8620    -0.6570    -0.1940   -16.7210    87.6230     4.5510     5.9030     6.0520     2.1940 
  117.0000   116.9870    -0.6600    -0.2010   -20.4160    79.4410     5.1530     6.6600     6.3580     2.1670 
  117.1250   117.1120    -0.6620    -0.2080   -24.0110    75.0330     5.6630     7.2390     6.4300     2.1640 
  117.2500   117.2360    -0.6650    -0.2150   -26.4170    75.8620     5.9760     7.5190     6.5460     2.1710 
  117.3750   117.3610    -0.6670    -0.2220   -27.3210    78.5000     6.0540     7.4900     6.6040     2.1800 
  117.5000   117.4860    -0.6700    -0.2290   -27.3290    78.3040     6.0360     7.4120     6.5850     2.1870 
  117.6250   117.6110    -0.6720    -0.2370   -26.6580    74.6150     5.9710     7.3040     6.5370     2.1900 
