~V
VERS. 2.00: Ver 2.00
~W
STRT.M 62.0000:
STOP.M 282.0000:
STEP.M 0.1250:
NULL. -999.2500:
UWI. FD10887:
~C
DEPT.M :
TVD. :
DX. :
DY. :
SP.MV :
GR.API :
RI. :
RML.OHMM :
RXO.OHMM :
DEN.GM/CC :
~A
# ...
  107.6250   107.3960    -0.8890     3.8600   -22.9500    75.4620     4.9360     5.6960     4.1480     2.2620 
  107.7500   107.5190    -0.8910     3.8820   -23.3070    73.6500     5.4730     6.2700     4.2920     2.2720 
  107.8750   107.6420    -0.8930     3.9050   -23.5440    75.7370     5.8450     6.6490     5.1560     2.2990 
  108.0000   107.7650    -0.8950     3.9280   -23.7450    77.4420     5.9720     6.7790     6.7350     2.3310 
  108.1250   107.8880    -0.8960     3.9500   -23.9040    75.8330     5.9580     6.7440     8.0350     2.3460 
  108.2500   108.0100    -0.8980     3.9730   -23.9830    73.5340     5.7750     6.5300     7.4690     2.3360 
  108.3750   108.1330    -0.9000     3.9960   -23.9410    73.3710     5.5440     6.2510     5.3990     2.3040 
  108.5000   108.2560    -0.9010     4.0190   -23.7930    73.0040     5.3320     6.0160     4.2020     2.2690 
  108.6250   108.3790    -0.9030     4.0420   -23.5610    72.3130     5.2150     5.9120     4.1310     2.2390 
  108.7500   108.5020    -0.9050     4.0650   -23.2790    73.3500     5.1780     5.9290     4.0790     2.2160 
  108.8750   108.6250    -0.9060     4.0880   -22.9690    74.8140     5.1770     5.9740     3.9360     2.1970 
  109.0000   108.7480    -0.9080     4.1110   -22.6680    73.9020     5.1680     6.0040     3.8480     2.1840 
  109.1250   108.8700    -0.9100     4.1340   -22.4270    72.5290     5.1170     5.9800     3.8900     2.1890 
  109.2500   108.9930    -0.9110     4.1580   -22.2940    73.7260     5.0750     5.9310     3.9060     2.2200 
  109.3750   109.1160    -0.9130     4.1810   -22.3120    76.5920     4.9860     5.8850     3.7830     2.2800 
  109.5000   109.2390    -0.9140     4.2040   -22.4700    78.5600     4.8420     5.7510     3.8690     2.3480 
  109.6250   109.3620    -0.9160     4.2280   -22.7410    79.6390     4.6240     5.4900     4.1430     2.3890 
  109.7500   109.4840    -0.9180     4.2510   -23.0530    81.0210     4.3670     5.1850     4.1250     2.3840 
  109.8750   109.6070    -0.9190     4.2750   -23.3310    84.0690     4.1090     4.8650     3.8110     2.3390 
  110.0000   109.7300    -0.9210     4.2990   -23.5140    88.4160     3.8940     4.6760     3.4510     2.2930 
  110.1250   109.8520    -0.9230     4.3220   -23.5450    91.3990     3.7980     4.6420     3.2840     2.2690 
  110.2500   109.9750    -0.9240     4.3460   -23.4240    92.0420     3.8410     4.7370     3.4470     2.2600 
  110.3750   110.0980    -0.9260     4.3700   -23.1590    90.1740     3.9650     4.8770     3.7270     2.2460 
  110.5000   110.2210    -0.9280     4.3940   -22.8040    87.3360     4.0850     5.0100     3.8370     2.2240 
  110.6250   110.3430    -0.9290     4.4180   -22.4110    83.6710     4.2730     5.2340     3.7730     2.2080 
  110.7500   110.4660    -0.9310     4.4420   -22.0340    81.5210     4.5970     5.6440     3.7490     2.2110 
  110.8750   110.5890    -0.9320     4.4660   -21.7200    80.1510     5.1960     6.4180     4.0430     2.2410 
  111.0000   110.7110    -0.9340     4.4900   -21.4800    76.9270     6.0630     7.5150     6.2140     2.2920 
  111.1250   110.8340    -0.9360     4.5140   -21.3120    71.6090     6.9930     8.7080    10.4790     2.3550 
  111.2500   110.9560    -0.9370     4.5390   -21.1860    67.0160     7.6100     9.4610    11.4980     2.4020 
  111.3750   111.0790    -0.9390     4.5630   -21.0820    65.1790     7.4360     9.1950     7.9410     2.3990 
  111.5000   111.2020    -0.9400     4.5870   -21.0030    64.7250     6.7540     8.2870     5.3130     2.3410 
  111.6250   111.3240    -0.9420     4.6120   -21.0020    66.2080     5.8290     7.0830     4.6740     2.2600 
  111.7500   111.4470    -0.9440     4.6370   -21.1330    69.9300     5.1070     6.1710     4.4560     2.1970 
  111.8750   111.5690    -0.9450     4.6610   -21.4400    74.2790     4.7980     5.7860     4.5350     2.1740 
  112.0000   111.6920    -0.9470     4.6860   -21.8760    77.2180     4.6220     5.5770     4.4910     2.1810 
  112.1250   111.8140    -0.9480     4.7110   -22.3610    78.8590     4.5310     5.4860     4.2500     2.1970 
  112.2500   111.9370    -0.9500     4.7360   -22.8100    80.2740     4.4960     5.4400     4.0470     2.2080 
  112.3750   112.0590    -0.9520     4.7610   -23.1780    79.8310     4.4490     5.3790     3.9280     2.2110 
  112.5000   112.1820    -0.9530     4.7860   -23.4840    78.0640     4.4040     5.3040     3.9170     2.2120 
  112.6250   112.3040    -0.9550     4.8110   -23.7510    76.9320     4.3760     5.2410     4.0080     2.2150 
  112.7500   112.4260    -0.9560     4.8360   -23.9980    77.4470     4.3780     5.2180     4.0420     2.2170 
  112.8750   112.5490    -0.9580     4.8620   -24.2090    76.6900     4.4370     5.2500     3.9680     2.2140 
  113.0000   112.6710    -0.9590     4.8870   -24.3660    75.5780     4.4810     5.2880     3.9260     2.2080 
  113.1250   112.7940    -0.9610     4.9130   -24.4450    76.9570     4.4660     5.2690     3.9960     2.2060 
  113.2500   112.9160    -0.9620     4.9380   -24.4470    80.0850     4.3590     5.1420     4.0710     2.2150 
  113.3750   113.0380    -0.9640     4.9640   -24.3750    82.9650     4.1240     4.9020     3.9960     2.2360 
  113.5000   113.1610    -0.9650     4.9900   -24.2550    85.4340     3.8920     4.6400     3.8290     2.2600 
  113.6250   113.2830    -0.9670     5.0150   -24.1050    89.1640     3.7430     4.4420     3.7030     2.2820 
  113.7500   113.4050    -0.9680     5.0410   -23.9220    90.5230     3.7490     4.4260     3.6790     2.2970 
  113.8750   113.5270    -0.9690     5.0670   -23.6700    86.8980     3.9420     4.6220     3.8820     2.3020 
  114.0000   113.6500    -0.9710     5.0930   -23.3130    81.7330     4.3210     5.0780     4.3930     2.2970 
  114.1250   113.7720    -0.9720     5.1190   -22.8370    78.4350     5.1370     6.0660     5.5340     2.2810 
  114.2500   113.8940    -0.9740     5.1450   -22.3110    75.9250     6.4620     7.6910     6.8670     2.2630 
  114.3750   114.0160    -0.9750     5.1710   -21.8530    71.4320     8.0190     9.5560     7.2640     2.2610 
  114.5000   114.1390    -0.9770     5.1980   -21.5840    66.1930     8.9160    10.6130     7.4420     2.2900 
  114.6250   114.2610    -0.9780     5.2240   -21.6090    63.7340     8.7370    10.3060    10.0350     2.3540 
  114.7500   114.3830    -0.9790     5.2500   -21.9170    65.5870     7.6450     8.8330    14.2040     2.4190 
  114.8750   114.5050    -0.9810     5.2770   -22.4570    70.1660     6.1630     6.9520    13.0790     2.4410 
  115.0000   114.6270    -0.9820     5.3030   -23.0980    74.0550     4.9970     5.5080     7.1050     2.4080 
  115.1250   114.7490    -0.9840     5.3300   -23.7130    77.1400     4.2580     4.6890     4.1230     2.3390 
  115.2500   114.8720    -0.9850     5.3560   -24.2060    79.9990     3.8870     4.3660     3.9210     2.2760 
  115.3750   114.9940    -0.9870     5.3830   -24.5150    80.6660     3.8500     4.4120     3.6590     2.2450 
  115.5000   115.1160    -0.9880     5.4100   -24.6590    79.3300     3.9310     4.5580     3.8170     2.2390 
  115.6250   115.2380    -0.9890     5.4360   -24.6640    80.7400     4.0600     4.7150     4.1970     2.2420 
  115.7500   115.3600    -0.9910     5.4630   -24.5840    85.4030     4.1960     4.8340     4.2610     2.2430 
  115.8750   115.4820    -0.9920     5.4900   -24.4470    86.6960     4.2650     4.8730     4.0990     2.2440 
  116.0000   115.6040    -0.9940     5.5170   -24.2790    83.4990     4.2460     4.8320     4.2770     2.2500 
  116.1250   115.7260    -0.9950     5.5440   -24.0840    81.9690     4.1650     4.6910     4.6160     2.2590 
  116.2500   115.8480    -0.9960     5.5710   -23.8520    84.7220     4.1130     4.5980     4.3240     2.2660 
  116.3750   115.9700    -0.9980     5.5980   -23.5360    87.8570     4.3280     4.7950     3.7910     2.2710 
  116.5000   116.0920    -0.9990     5.6260   -23.0770    87.9050     4.8180     5.3240     3.8320     2.2730 
  116.6250   116.2140    -1.0010     5.6530   -22.3920    84.8740     5.5370     6.1920     5.0450     2.2760 
