~V
VERS. 2.00: Ver 2.00
~W
STRT.M 63.0000:
STOP.M 256.0000:
STEP.M 0.1250:
NULL. -999.2500:
UWI. FD10901:
~C
DEPT.M :
TVD. :
DX. :
DY. :
SP.MV :
GR.API :
RI. :
RML.OHMM :
RXO.OHMM :
DEN.GM/CC :
~A
   63.0000    63.0000     0.0000     0.0000   104.4410    56.2870     0.1700     0.2870     0.1360     2.3500 
   63.1250    63.1250    -0.0010     0.0010   103.3120    54.7060     0.1700     0.2890     0.1250     2.3430 
   63.2500    63.2500    -0.0020     0.0020   102.3630    53.9450     0.1690     0.2850     0.0970     2.3410 
   63.3750    63.3750    -0.0030     0.0030   102.1220    53.8580     0.1690     0.2780     0.0800     2.3480 
   63.5000    63.5000    -0.0050     0.0050   102.6870    52.6820     0.1790     0.2750     0.0910     2.3770 
   63.6250    63.6250    -0.0060     0.0060   103.8060    51.0380     0.1800     0.2860     0.1150     2.4320 
   63.7500    63.7500    -0.0070     0.0070   105.5280    48.7870     0.1800     0.3100     0.1320     2.4850 
   63.8750    63.8750    -0.0080     0.0080   107.6810    47.3210     0.1740     0.3290     0.1370     2.4950 
   64.0000    64.0000    -0.0090     0.0090   109.4040    45.8270     0.1600     0.3440     0.1380     2.4550 
   64.1250    64.1250    -0.0100     0.0110   110.3360    45.4740     0.1480     0.3360     0.1360     2.4070 
   64.2500    64.2500    -0.0110     0.0120   110.7100    46.6940     0.1240     0.3070     0.1380     2.3830 
   64.3750    64.3750    -0.0120     0.0130   110.2520    48.9060     0.0900     0.2350     0.1510     2.3750 
   64.5000    64.5000    -0.0130     0.0140   108.8720    49.6510     0.0600     0.1630     0.1610     2.3600 
   64.6250    64.6250    -0.0140     0.0150   106.8340    48.8880     0.0430     0.1010     0.1480     2.3410 
   64.7500    64.7500    -0.0150     0.0170   104.4090    49.2290     0.0610     0.0910     0.1370     2.3340 
   64.8750    64.8750    -0.0160     0.0180   100.6350    52.0260     0.1390     0.1410     0.2390     2.3290 
   65.0000    65.0000    -0.0170     0.0190    94.3760    57.5580     0.3490     0.2820     0.4970     2.3400 
   65.1250    65.1250    -0.0180     0.0200    84.5950    62.1190     0.7070     0.5770     0.9240     2.3700 
   65.2500    65.2500    -0.0190     0.0220    72.3290    64.6720     1.2500     1.0530     2.2870     2.3960 
   65.3750    65.3750    -0.0210     0.0230    59.4890    65.6420     2.1790     1.8900     4.5270     2.3460 
   65.5000    65.5000    -0.0220     0.0240    47.1310    67.2150     3.3290     2.9500     5.8770     2.2480 
   65.6250    65.6250    -0.0230     0.0260    35.7060    70.2680     4.4690     3.8270     6.3080     2.1650 
   65.7500    65.7500    -0.0240     0.0270    25.4870    71.4350     5.2990     4.1870     6.6870     2.1330 
   65.8750    65.8750    -0.0250     0.0280    16.9310    69.9540     5.5720     3.8810     6.7750     2.1270 
   66.0000    66.0000    -0.0260     0.0300    10.0800    67.1220     5.5480     3.3540     6.6230     2.1220 
   66.1250    66.1250    -0.0270     0.0310     5.1090    66.9820     5.3350     3.0700     6.5460     2.1120 
   66.2500    66.2500    -0.0280     0.0320     1.6200    68.8130     5.1310     3.1650     6.5550     2.1030 
   66.3750    66.3750    -0.0290     0.0330    -0.6560    72.5030     4.9160     3.4650     6.6110     2.1010 
   66.5000    66.5000    -0.0300     0.0350    -1.9950    78.2730     4.7610     3.7420     6.4130     2.1250 
   66.6250    66.6250    -0.0310     0.0360    -2.4420    85.8790     4.6910     3.9020     5.4780     2.1710 
   66.7500    66.7500    -0.0320     0.0370    -2.1470    91.9710     4.6440     3.9640     4.8280     2.2160 
   66.8750    66.8750    -0.0340     0.0390    -1.3380    92.2220     4.6070     4.0620     5.1370     2.2340 
   67.0000    67.0000    -0.0350     0.0400    -0.7630    88.3830     4.5870     4.1550     5.2180     2.2340 
   67.1250    67.1250    -0.0360     0.0410    -1.2470    86.0890     4.6160     4.2490     4.6170     2.2310 
   67.2500    67.2500    -0.0370     0.0430    -2.4410    86.1610     4.6890     4.2860     4.1100     2.2340 
   67.3750    67.3750    -0.0380     0.0440    -3.7060    85.9910     4.8120     4.1990     4.2930     2.2240 
   67.5000    67.5000    -0.0390     0.0450    -5.1800    83.8560     5.0670     4.4990     4.9470     2.2020 
   67.6250    67.6250    -0.0400     0.0470    -7.7300    80.8510     5.3430     4.9310     5.7860     2.1750 
   67.7500    67.7500    -0.0410     0.0480   -11.2480    78.6520     5.6470     5.5290     6.5080     2.1570 
   67.8750    67.8750    -0.0420     0.0490   -14.8510    75.0300     5.8430     5.9800     6.4610     2.1500 
   68.0000    68.0000    -0.0440     0.0500   -17.6920    71.2250     5.9500     5.7860     6.0440     2.1490 
   68.1250    68.1250    -0.0450     0.0520   -19.6580    69.0430     5.9770     5.4570     6.0870     2.1510 
   68.2500    68.2500    -0.0460     0.0530   -21.2830    69.0360     5.9520     5.0200     6.3280     2.1510 
   68.3750    68.3750    -0.0470     0.0540   -22.7580    69.3520     6.3040     5.3260     6.3680     2.1570 
   68.5000    68.5000    -0.0480     0.0560   -23.9690    68.9950     7.0320     6.5590     6.2360     2.1980 
   68.6250    68.6240    -0.0490     0.0570   -24.6300    67.6700     8.0400     7.8480    15.1150     2.3040 
   68.7500    68.7490    -0.0500     0.0580   -24.7630    66.0680     8.9360     8.9560    32.7450     2.4300 
   68.8750    68.8740    -0.0510     0.0600   -24.6150    64.0340     9.5340     9.4720    34.8950     2.4850 
   69.0000    68.9990    -0.0530     0.0610   -24.6030    62.9590     9.2730     8.9920    20.1530     2.4260 
   69.1250    69.1240    -0.0540     0.0620   -24.9540    63.4230     8.3540     8.2770     9.6110     2.3000 
   69.2500    69.2490    -0.0550     0.0630   -25.7560    64.2740     7.1130     7.1570     6.9200     2.1830 
   69.3750    69.3740    -0.0560     0.0650   -26.5820    66.0050     5.8460     6.0260     6.3710     2.1270 
   69.5000    69.4990    -0.0570     0.0660   -26.7210    67.6660     5.2650     5.5100     6.1190     2.1180 
   69.6250    69.6240    -0.0580     0.0670   -25.7830    70.7690     5.1660     5.3430     5.5770     2.1380 
   69.7500    69.7490    -0.0590     0.0690   -24.1170    73.2870     5.2560     5.4360     5.0390     2.1480 
   69.8750    69.8740    -0.0600     0.0700   -22.4580    75.4270     5.4590     5.6970     5.4050     2.1450 
   70.0000    69.9990    -0.0620     0.0710   -21.3730    75.7130     5.7080     6.0540     6.0290     2.1290 
   70.1250    70.1240    -0.0630     0.0720   -20.8750    75.1180     5.7970     6.0190     6.1590     2.1250 
   70.2500    70.2490    -0.0640     0.0740   -20.1520    76.3760     5.6910     5.7110     5.8400     2.1350 
   70.3750    70.3740    -0.0650     0.0750   -18.4050    81.9030     5.3260     5.2550     4.9630     2.1670 
   70.5000    70.4990    -0.0660     0.0760   -15.3900    91.6740     4.7400     4.7910     3.9600     2.2070 
   70.6250    70.6240    -0.0670     0.0770   -11.4880   102.1160     4.1830     4.5310     3.5620     2.2430 
   70.7500    70.7490    -0.0680     0.0790    -7.9780   110.4360     3.7210     4.4740     3.4830     2.2660 
   70.8750    70.8740    -0.0700     0.0800    -5.5760   115.0660     3.4500     4.3910     3.2430     2.2820 
   71.0000    70.9990    -0.0710     0.0810    -4.1650   117.6020     3.3570     4.3200     3.0550     2.2960 
   71.1250    71.1240    -0.0720     0.0830    -3.4160   118.3090     3.3170     4.2710     3.0460     2.3140 
   71.2500    71.2490    -0.0730     0.0840    -2.9910   117.0280     3.2810     4.2440     3.0620     2.3190 
   71.3750    71.3740    -0.0740     0.0850    -2.7310   114.5720     3.2450     4.2430     3.0290     2.3030 
   71.5000    71.4990    -0.0750     0.0860    -2.4680   110.3530     3.2500     4.2730     2.9900     2.2780 
   71.6250    71.6240    -0.0770     0.0880    -2.0980   107.5510     3.2800     4.3300     3.0080     2.2610 
   71.7500    71.7490    -0.0780     0.0890    -1.8370   106.4760     3.3280     4.4160     3.0210     2.2570 
   71.8750    71.8740    -0.0790     0.0900    -1.9540   108.2150     3.3700     4.5090     2.9970     2.2640 
   72.0000    71.9990    -0.0800     0.0910    -2.2610   110.5160     3.3860     4.5730     3.0000     2.2790 
