~V
VERS. 2.00: Ver 2.00
~W
STRT.M 64.0000:
STOP.M 246.0000:
STEP.M 0.1250:
NULL. -999.2500:
UWI. FD10853:
~C
DEPT.M :
TVD. :
DX. :
DY. :
SP.MV :
GR.API :
RI. :
RML.OHMM :
RXO.OHMM :
DEN.GM/CC :
~A
# ...
  118.7500   118.6250    -2.5150    -0.7610   -19.8700    78.9960    10.5670    11.2850     9.1480     2.2360 
  118.8750   118.7480    -2.5330    -0.7650   -19.6800    80.4970    12.7480    13.6460    11.5790     2.2020 
  119.0000   118.8720    -2.5520    -0.7680   -19.4730    80.9560    16.5510    17.7320    22.3970     2.1590 
  119.1250   118.9950    -2.5700    -0.7720   -19.2380    78.7410    22.2840    24.0640    38.9420     2.1310 
  119.2500   119.1190    -2.5890    -0.7760   -18.8590    71.9540    29.5940    31.9280    48.5160     2.1170 
  119.3750   119.2430    -2.6070    -0.7800   -18.4460    66.4750    35.6580    38.1830    48.4350     2.1130 
  119.5000   119.3660    -2.6260    -0.7840   -17.9300    63.6620    39.5240    41.9280    45.5260     2.1050 
  119.6250   119.4900    -2.6450    -0.7870   -17.3370    65.5060    40.9270    42.8520    42.7470     2.0970 
  119.7500   119.6130    -2.6640    -0.7910   -16.7840    66.5900    40.7640    42.4300    40.8930     2.0870 
  119.8750   119.7370    -2.6830    -0.7950   -16.3570    66.8070    40.7180    42.3930    43.1910     2.0830 
  120.0000   119.8600    -2.7020    -0.7990   -15.9700    64.5390    41.1080    42.9020    47.2840     2.0890 
  120.1250   119.9840    -2.7210    -0.8030   -15.5810    62.8070    42.0710    44.0070    48.5320     2.1030 
  120.2500   120.1070    -2.7400    -0.8070   -15.2620    62.6620    43.1920    45.1950    48.2710     2.1070 
  120.3750   120.2300    -2.7600    -0.8110   -14.9850    64.1430    43.9880    45.9390    48.0090     2.0990 
  120.5000   120.3540    -2.7790    -0.8150   -14.7290    64.8350    44.1850    45.9700    48.0090     2.0860 
  120.6250   120.4770    -2.7980    -0.8190   -14.4750    64.7210    43.9730    45.5270    47.9360     2.0870 
  120.7500   120.6010    -2.8180    -0.8230   -14.2920    64.5570    43.9310    45.2080    47.4960     2.0910 
  120.8750   120.7240    -2.8380    -0.8270   -14.2090    65.2530    44.0060    45.0380    47.4960     2.0900 
  121.0000   120.8470    -2.8570    -0.8310   -14.2340    64.3750    44.6440    45.5650    48.2350     2.0760 
  121.1250   120.9710    -2.8770    -0.8350   -14.2870    63.2110    46.0750    46.9070    49.6670     2.0670 
  121.2500   121.0940    -2.8960    -0.8390   -14.3670    62.8390    47.4390    48.1210    50.5470     2.0620 
  121.3750   121.2180    -2.9160    -0.8430   -14.4560    63.7410    48.1020    48.5440    50.6630     2.0650 
  121.5000   121.3410    -2.9360    -0.8470   -14.5430    63.6390    47.2420    47.3910    50.2510     2.0690 
  121.6250   121.4640    -2.9560    -0.8520   -14.6290    61.9170    45.3560    45.2680    48.8100     2.0770 
  121.7500   121.5880    -2.9760    -0.8560   -14.7020    60.4700    43.6630    43.4100    46.7360     2.0850 
  121.8750   121.7110    -2.9960    -0.8610   -14.7450    59.0500    42.5230    42.0360    45.6710     2.0960 
  122.0000   121.8340    -3.0160    -0.8650   -14.8510    59.9310    42.3760    41.6230    45.1130     2.1040 
  122.1250   121.9570    -3.0360    -0.8700   -14.9670    59.2850    44.4080    43.4810    46.0960     2.1280 
  122.2500   122.0810    -3.0560    -0.8740   -15.1430    59.7500    49.6430    48.5350    51.5730     2.1960 
  122.3750   122.2040    -3.0760    -0.8790   -15.3600    59.2460    59.1400    57.9190    58.1680     2.3240 
  122.5000   122.3270    -3.0970    -0.8840   -15.5570    61.8750    70.8040    69.2590    63.9950     2.4630 
  122.6250   122.4500    -3.1170    -0.8880   -15.7180    64.3900    81.5870    78.9220    68.3670     2.5220 
  122.7500   122.5740    -3.1380    -0.8930   -15.8080    65.2090    85.6650    80.7450    75.2030     2.4570 
  122.8750   122.6970    -3.1580    -0.8980   -15.8740    64.9510    79.0630    71.5730    60.3730     2.3310 
  123.0000   122.8200    -3.1790    -0.9020   -15.9470    66.0310    62.8500    54.9680    43.0840     2.2340 
  123.1250   122.9430    -3.2000    -0.9070   -15.9920    70.4200    43.9850    37.1040    37.5480     2.1980 
  123.2500   123.0660    -3.2200    -0.9120   -15.9530    74.1440    28.3150    24.0210    32.8120     2.2060 
  123.3750   123.1900    -3.2410    -0.9170   -16.0080    76.3680    19.8700    17.3650    26.6850     2.2180 
  123.5000   123.3130    -3.2620    -0.9220   -16.0790    77.5440    16.3010    14.3980    18.4880     2.2180 
  123.6250   123.4360    -3.2830    -0.9270   -16.1810    81.0210    15.3680    13.8510    15.8080     2.1950 
  123.7500   123.5590    -3.3040    -0.9320   -16.1980    82.6130    16.3580    15.0050    17.4700     2.1530 
  123.8750   123.6820    -3.3260    -0.9360   -16.1520    80.5380    19.5810    18.1740    21.0630     2.1030 
  124.0000   123.8050    -3.3470    -0.9410   -16.0210    72.9230    24.7190    23.3310    23.0310     2.0700 
  124.1250   123.9280    -3.3680    -0.9460   -15.8280    65.8790    32.2060    30.6750    25.5710     2.0590 
  124.2500   124.0510    -3.3900    -0.9510   -15.5940    61.8250    40.2430    38.4100    28.8580     2.0700 
  124.3750   124.1740    -3.4110    -0.9550   -15.3530    61.1500    46.8420    44.7130    33.5190     2.0810 
  124.5000   124.2970    -3.4330    -0.9600   -15.0850    61.4250    51.3450    48.9470    40.3090     2.0860 
  124.6250   124.4200    -3.4540    -0.9650   -14.8800    60.4270    53.4340    51.3020    48.3440     2.0780 
  124.7500   124.5430    -3.4760    -0.9700   -14.8380    58.6660    55.9900    54.6080    57.5100     2.0680 
  124.8750   124.6660    -3.4980    -0.9750   -14.7730    56.8710    60.2760    59.9780    58.9130     2.0630 
  125.0000   124.7890    -3.5190    -0.9800   -14.6920    56.4370    65.9890    67.1770    63.9100     2.0680 
  125.1250   124.9120    -3.5410    -0.9850   -14.6410    56.0310    70.9310    73.5860    74.1780     2.0720 
  125.2500   125.0350    -3.5630    -0.9900   -14.6650    55.5770    72.4530    76.0770    71.9360     2.0750 
  125.3750   125.1580    -3.5850    -0.9950   -14.8010    55.5590    70.1150    74.0240    66.5430     2.0760 
  125.5000   125.2810    -3.6070    -1.0000   -15.0110    55.9640    64.7590    68.4540    63.3290     2.0820 
  125.6250   125.4040    -3.6280    -1.0050   -15.2310    57.7820    58.8910    62.3910    60.8370     2.0950 
  125.7500   125.5270    -3.6500    -1.0100   -15.4620    60.3970    54.1150    57.6440    59.4930     2.1130 
  125.8750   125.6500    -3.6720    -1.0150   -15.7640    62.8270    50.3930    53.7630    57.5800     2.1250 
  126.0000   125.7730    -3.6940    -1.0200   -16.0930    64.2610    45.3540    47.9510    54.5980     2.1350 
  126.1250   125.8960    -3.7160    -1.0250   -16.4600    66.1640    37.4170    38.9440    51.5760     2.1470 
  126.2500   126.0190    -3.7380    -1.0300   -16.7740    70.6020    27.9260    28.3580    30.8350     2.1700 
  126.3750   126.1420    -3.7600    -1.0350   -17.0200    76.7810    18.2210    18.0910    11.7810     2.1980 
  126.5000   126.2650    -3.7820    -1.0410   -17.3400    82.0100    11.9720    11.7030    10.1280     2.2310 
  126.6250   126.3880    -3.8040    -1.0460   -17.7250    86.1090     8.4680     8.2670     9.4150     2.2600 
  126.7500   126.5110    -3.8260    -1.0510   -18.1100    90.6680     6.8060     6.7180     8.7560     2.2770 
  126.8750   126.6340    -3.8480    -1.0560   -18.4340    95.7170     6.1600     6.2140     7.8250     2.2770 
  127.0000   126.7570    -3.8710    -1.0620   -18.6800   100.3270     6.1520     6.3350     6.9970     2.2700 
  127.1250   126.8790    -3.8930    -1.0670   -18.8810   102.3710     6.3320     6.6160     6.5900     2.2640 
  127.2500   127.0020    -3.9150    -1.0720   -19.1040   101.9100     6.5060     6.8420     6.5490     2.2700 
  127.3750   127.1250    -3.9370    -1.0780   -19.3900   101.4420     6.4860     6.8220     6.5230     2.2790 
  127.5000   127.2480    -3.9600    -1.0830   -19.6330   100.7820     6.2510     6.5690     6.4090     2.2890 
  127.6250   127.3710    -3.9820    -1.0890   -19.8000   102.4160     5.9730     6.2600     6.2310     2.2880 
  127.7500   127.4940    -4.0040    -1.0940   -19.8260   102.2020     5.7520     6.0150     6.0120     2.2830 
