~V
VERS. 2.00: Ver 2.00
~W
STRT.M 27.0000:
STOP.M 267.0000:
STEP.M 0.1250:
NULL. -999.2500:
UWI. FD10204:
~C
DEPT.M :
TVD. :
DX. :
DY. :
GR.API :
RML.OHMM :
RI. :
RXO.OHMM :
CALI.CM :
SP.MV :
DEN.GM/CC :
~A
# ...
   84.7500    84.6700    -1.0540    -1.5620    56.1950     8.2010     7.1660     8.5730    22.9690   -28.1590     2.2000 
   84.8750    84.7940    -1.0600    -1.5790    53.7390     8.1130     7.1740     8.8240    22.9630   -28.5310     2.1940 
   85.0000    84.9170    -1.0670    -1.5950    52.8150     7.9640     7.1420     8.8630    22.9580   -28.9790     2.1840 
   85.1250    85.0410    -1.0740    -1.6120    53.3590     7.7590     7.0760     8.6110    22.9630   -29.5570     2.1740 
   85.2500    85.1650    -1.0810    -1.6280    54.5660     7.5180     6.9740     8.2370    22.9820   -30.2940     2.1690 
   85.3750    85.2890    -1.0880    -1.6440    55.6670     7.2380     6.7990     7.9280    23.0070   -31.1860     2.1760 
   85.5000    85.4120    -1.0940    -1.6610    56.1570     6.8910     6.4940     7.5670    23.0800   -32.2310     2.2010 
   85.6250    85.5360    -1.1010    -1.6770    58.5250     6.4230     6.0050     6.8810    23.3640   -33.4530     2.2390 
   85.7500    85.6600    -1.1080    -1.6930    66.1000     5.8800     5.4250     5.9230    23.8280   -34.7180     2.2730 
   85.8750    85.7830    -1.1150    -1.7100    77.6420     5.3920     4.8950     5.0930    24.2620   -35.9230     2.2910 
   86.0000    85.9070    -1.1220    -1.7260    87.9570     5.1630     4.5870     4.6990    24.4780   -36.9970     2.2900 
   86.1250    86.0310    -1.1280    -1.7430    89.7800     5.5100     4.7340     4.7090    24.4950   -37.8130     2.2880 
   86.2500    86.1550    -1.1350    -1.7590    84.9490     6.4970     5.3800     5.3250    24.4850   -38.3820     2.3170 
   86.3750    86.2780    -1.1420    -1.7750    77.1290     8.0730     6.5230     7.2160    24.4630   -38.7080     2.3980 
   86.5000    86.4020    -1.1490    -1.7920    71.2530     9.9250     7.9910    10.9820    24.4030   -38.7600     2.5030 
   86.6250    86.5260    -1.1550    -1.8080    70.3940    11.2530     9.2590    14.3250    24.3760   -38.4300     2.5410 
   86.7500    86.6490    -1.1620    -1.8250    70.3090    11.4550     9.7750    14.9580    24.2660   -37.8830     2.4900 
   86.8750    86.7730    -1.1690    -1.8410    68.7840    10.5610     9.4110    12.7350    23.8240   -37.2180     2.3890 
   87.0000    86.8970    -1.1760    -1.8570    65.4420     9.1720     8.5020     9.4450    23.0920   -36.5060     2.2850 
   87.1250    87.0210    -1.1830    -1.8740    62.2730     7.9930     7.5610     8.2920    22.5370   -35.8790     2.2160 
   87.2500    87.1440    -1.1890    -1.8900    62.5010     7.2550     6.8760     7.7530    22.3680   -35.3640     2.1870 
   87.3750    87.2680    -1.1960    -1.9070    66.7670     6.9130     6.4850     7.3060    22.3840   -34.9640     2.1870 
   87.5000    87.3920    -1.2030    -1.9230    72.5600     6.8380     6.3210     6.9450    22.3830   -34.6920     2.2010 
   87.6250    87.5150    -1.2100    -1.9390    75.3690     6.8790     6.2760     6.8850    22.3820   -34.6310     2.2170 
   87.7500    87.6390    -1.2170    -1.9560    75.0380     6.8730     6.2140     6.8420    22.3870   -34.7250     2.2350 
   87.8750    87.7630    -1.2230    -1.9720    76.1630     6.7500     6.0810     6.7490    22.3900   -34.9530     2.2510 
   88.0000    87.8870    -1.2300    -1.9880    80.6200     6.5340     5.8950     6.4620    22.3910   -35.2350     2.2640 
   88.1250    88.0100    -1.2370    -2.0050    86.4450     6.3650     5.7600     5.9450    22.3910   -35.3900     2.2700 
   88.2500    88.1340    -1.2440    -2.0210    89.3100     6.3970     5.7670     5.7010    22.3910   -35.3680     2.2790 
   88.3750    88.2580    -1.2510    -2.0380    88.5960     6.6960     5.9530     5.8480    22.3910   -35.1910     2.3040 
   88.5000    88.3820    -1.2570    -2.0540    85.8320     7.2190     6.2840     7.1980    22.3920   -34.8370     2.3480 
   88.6250    88.5050    -1.2640    -2.0700    79.8370     7.7790     6.6450    11.1790    22.3910   -34.2460     2.3880 
   88.7500    88.6290    -1.2710    -2.0870    73.6620     8.1210     6.8710    14.4860    22.3870   -33.4930     2.3930 
   88.8750    88.7530    -1.2780    -2.1030    71.5130     8.1120     6.8720    11.5730    22.3910   -32.6220     2.3560 
   89.0000    88.8760    -1.2850    -2.1200    73.0560     7.7860     6.6530     8.4520    22.3940   -31.6920     2.2950 
   89.1250    89.0000    -1.2910    -2.1360    74.4270     7.3340     6.3150     7.7620    22.3500   -30.8070     2.2380 
   89.2500    89.1240    -1.2980    -2.1520    73.2410     7.0330     6.0400     8.1580    22.3030   -30.0410     2.1990 
   89.3750    89.2480    -1.3050    -2.1690    71.2640     7.0740     5.9790     8.5010    22.3060   -29.3800     2.1740 
   89.5000    89.3710    -1.3120    -2.1850    69.4050     7.6250     6.2740     8.6140    22.3580   -28.8470     2.1680 
   89.6250    89.4950    -1.3190    -2.2020    67.7490     8.9750     7.1610     8.6050    22.4280   -28.5060     2.2030 
   89.7500    89.6190    -1.3250    -2.2180    66.3920    11.1260     8.6710     8.5910    22.5020   -28.2880     2.2920 
   89.8750    89.7420    -1.3320    -2.2340    64.6690    13.9540    10.7760     9.8460    22.5690   -28.1420     2.4290 
   90.0000    89.8660    -1.3390    -2.2510    61.8610    16.8840    13.1380    15.2430    22.6030   -28.0460     2.5760 
   90.1250    89.9900    -1.3460    -2.2670    57.2430    18.4370    14.7190    28.9870    22.5910   -28.0120     2.6710 
   90.2500    90.1140    -1.3520    -2.2830    54.2010    17.7790    14.7180    31.3740    22.5250   -27.9660     2.6950 
   90.3750    90.2370    -1.3590    -2.3000    54.5070    15.2840    13.2180    19.9990    22.3980   -27.8740     2.6540 
   90.5000    90.3610    -1.3660    -2.3160    57.2550    12.2210    11.0390    10.9730    22.2460   -27.7460     2.5640 
   90.6250    90.4850    -1.3730    -2.3330    59.0310     9.8280     9.0730     8.9280    22.1600   -27.5490     2.4520 
   90.7500    90.6090    -1.3800    -2.3490    59.2160     8.3330     7.6460     8.6770    22.1600   -27.3120     2.3470 
   90.8750    90.7320    -1.3860    -2.3650    59.3030     7.5970     6.7620     8.7550    22.2130   -27.0980     2.2650 
   91.0000    90.8560    -1.3930    -2.3820    59.9620     7.3840     6.3250     8.7370    22.2740   -26.9390     2.2120 
   91.1250    90.9800    -1.4000    -2.3980    62.4380     7.4830     6.2320     8.6430    22.3010   -26.7710     2.1880 
   91.2500    91.1030    -1.4080    -2.4180    65.0380     7.6460     6.2830     8.6110    22.3070   -26.6030     2.1780 
   91.3750    91.2250    -1.4180    -2.4400    66.3450     7.7660     6.3730     8.6220    22.3080   -26.4890     2.1750 
   91.5000    91.3480    -1.4270    -2.4620    65.8830     7.8030     6.4470     8.5400    22.3120   -26.4370     2.1750 
   91.6250    91.4710    -1.4360    -2.4840    64.6720     7.7510     6.4840     8.4580    22.3150   -26.3840     2.1770 
   91.7500    91.5930    -1.4450    -2.5060    65.3890     7.6530     6.4960     8.4140    22.3120   -26.3180     2.1770 
   91.8750    91.7160    -1.4540    -2.5280    66.3200     7.5440     6.4900     8.3550    22.3100   -26.2380     2.1750 
   92.0000    91.8390    -1.4630    -2.5500    64.4970     7.4520     6.4690     8.2720    22.3130   -26.1310     2.1690 
   92.1250    91.9620    -1.4720    -2.5720    61.4920     7.4050     6.4340     8.2640    22.3180   -26.0180     2.1620 
   92.2500    92.0840    -1.4820    -2.5940    61.8670     7.3950     6.3880     8.2690    22.3210   -25.9080     2.1570 
   92.3750    92.2070    -1.4910    -2.6160    65.3770     7.4050     6.3380     8.2520    22.3210   -25.8390     2.1540 
   92.5000    92.3300    -1.5000    -2.6380    68.0470     7.4140     6.2920     8.1640    22.3170   -25.8060     2.1550 
   92.6250    92.4520    -1.5090    -2.6600    68.5330     7.4080     6.2640     8.0490    22.3130   -25.8030     2.1550 
   92.7500    92.5750    -1.5180    -2.6830    68.4970     7.4010     6.2600     8.0840    22.3130   -25.8090     2.1530 
   92.8750    92.6980    -1.5270    -2.7050    67.7470     7.4220     6.2880     8.1810    22.3160   -25.8510     2.1530 
