~V
VERS. 2.00: Ver 2.00
~W
STRT.M 20.0000:
STOP.M 282.0000:
STEP.M 0.1250:
NULL. -999.2500:
UWI. FD10228:
~C
DEPT.M :
TVD. :
DX. :
DY. :
GR.API :
RML.OHMM :
RI. :
RXO.OHMM :
CALI.CM :
SP.MV :
DEN.GM/CC :
~A
   20.0000    20.0000     0.0000     0.0000    44.1520    11.9440     1.0860    10.4290    25.2390   158.2170  -999.2500 
   20.1250    20.1250     0.0000     0.0000    45.2950    11.1150     1.0620    10.2230    25.2390   156.8810  -999.2500 
   20.2500    20.2500     0.0000     0.0000    44.2280    10.6160     1.0520     9.2230    25.2390   155.6130  -999.2500 
   20.3750    20.3750     0.0000     0.0000    42.2070    10.5060     1.0580     8.5100    25.2380   154.3630  -999.2500 
   20.5000    20.5000     0.0000     0.0000    39.4400    10.7040     1.0760     8.7620    25.2370   153.0770  -999.2500 
   20.6250    20.6250     0.0000     0.0000    37.6240    11.0550     1.0870     9.9340    25.2330   151.7370     2.0540 
   20.7500    20.7500     0.0000     0.0000    37.7000    11.4090     1.0790    10.6100    25.2380   150.3630     2.0540 
   20.8750    20.8750     0.0000     0.0000    38.8040    11.7990     1.0510    11.0350    25.2390   149.0080     2.0610 
   21.0000    21.0000     0.0000     0.0000    39.3370    12.3890     1.0120    11.7610    25.2410   147.7230     2.0630 
   21.1250    21.1250     0.0000     0.0000    37.8780    13.3290     0.9760    11.6970    25.2560   146.5000     2.0600 
   21.2500    21.2500     0.0000     0.0000    36.7180    14.3030     0.9450    11.4100    25.2610   145.2570     2.0500 
   21.3750    21.3750     0.0000     0.0000    37.2560    14.7290     0.9230    11.4200    25.2710   144.0400     2.0350 
   21.5000    21.5000     0.0000     0.0000    39.6970    14.1500     0.9160    11.8530    25.2450   142.9000     2.0170 
   21.6250    21.6250     0.0000     0.0000    42.2680    12.7960     0.9330    11.7100    25.2420   141.8120     2.0020 
   21.7500    21.7500     0.0000     0.0000    43.2710    11.7720     0.9710    11.0080    25.2520   140.7300     1.9950 
   21.8750    21.8750     0.0000     0.0000    43.2240    11.6940     1.0180    10.7460    25.2500   139.6840     1.9960 
   22.0000    22.0000     0.0000     0.0000    43.1730    12.6090     1.0590    11.4890    25.2550   138.6820     2.0020 
   22.1250    22.1250     0.0000     0.0000    43.3030    14.1390     1.0860    11.8500    25.2800   137.7050     2.0080 
   22.2500    22.2500     0.0000     0.0000    42.0750    15.4650     1.1020    12.4970    25.2980   136.8080     2.0080 
   22.3750    22.3750     0.0000     0.0000    39.8770    16.0400     1.1140    12.6010    25.2840   135.9790     2.0070 
   22.5000    22.5000     0.0000     0.0000    39.2250    15.7400     1.1190    11.5430    25.3050   135.1770     2.0070 
   22.6250    22.6250     0.0000     0.0000    41.9360    14.7760     1.1130    11.0080    25.2480   134.4340     2.0090 
   22.7500    22.7500     0.0000     0.0000    45.7020    13.6950     1.0980    11.6770    25.2410   133.7820     2.0110 
   22.8750    22.8750     0.0000     0.0000    46.9740    12.8200     1.0820    12.6980    25.2390   133.1760     2.0110 
   23.0000    23.0000     0.0000     0.0000    46.5060    12.3410     1.0720    12.5680    25.2390   132.5830     2.0140 
   23.1250    23.1250     0.0000     0.0000    45.9170    12.4160     1.0720    11.7930    25.2390   132.0180     2.0300 
   23.2500    23.2500     0.0000     0.0000    44.1040    12.8610     1.0770    10.9140    25.2390   131.4740     2.0640 
   23.3750    23.3750     0.0000     0.0000    41.1500    13.4610     1.0830    11.0390    25.2390   130.9220     2.1060 
   23.5000    23.5000     0.0000     0.0000    39.5190    14.0090     1.0850    12.1220    25.2390   130.3230     2.1360 
   23.6250    23.6250     0.0000     0.0000    41.5150    14.4800     1.0790    13.0440    25.2390   129.6180     2.1380 
   23.7500    23.7500     0.0000     0.0000    42.8240    15.0860     1.0690    13.2600    25.2390   128.7790     2.1030 
   23.8750    23.8750     0.0000     0.0000    42.1710    15.9230     1.0540    12.9710    25.2390   127.7970     2.0550 
   24.0000    24.0000     0.0000     0.0000    42.3760    16.8390     1.0360    13.1200    25.2390   126.6850     2.0140 
   24.1250    24.1250     0.0000     0.0000    45.4840    17.4380     1.0210    13.8180    25.2380   125.3800     1.9940 
   24.2500    24.2500     0.0000     0.0000    48.2870    17.6840     1.0100    14.2870    25.2380   123.8830     2.0100 
   24.3750    24.3750     0.0000     0.0000    48.8650    17.9370     1.0030    14.3180    25.2330   122.2210     2.0460 
   24.5000    24.5000     0.0000     0.0000    46.8750    18.5570     0.9970    14.0600    25.2370   120.3850     2.0880 
   24.6250    24.6250     0.0000     0.0000    44.6640    19.4020     0.9890    13.9430    25.2380   118.3050     2.1180 
   24.7500    24.7500     0.0000     0.0000    43.7500    19.6290     0.9750    14.4760    25.2390   116.0020     2.1200 
   24.8750    24.8750     0.0000     0.0000    44.5970    18.6300     0.9530    14.6350    25.2390   113.4610     2.1020 
   25.0000    25.0000     0.0000     0.0000    45.7370    16.7190     0.9220    14.4540    25.2390   110.6250     2.0780 
   25.1250    25.1250     0.0000     0.0000    46.9140    15.0600     0.8790    14.1120    25.2370   107.4690     2.0590 
   25.2500    25.2500     0.0000     0.0000    48.1150    14.2970     0.8270    14.2890    25.2280   103.9380     2.0550 
   25.3750    25.3750     0.0000     0.0000    48.6430    14.3700     0.7680    15.8360    25.1980    99.8940     2.0600 
   25.5000    25.5000     0.0000     0.0000    47.9800    14.8690     0.7010    20.8310    25.1820    95.2860     2.0710 
   25.6250    25.6250     0.0000     0.0000    46.9840    14.9250     0.6120    31.1820    25.2050    89.9460     2.0930 
   25.7500    25.7500     0.0000     0.0000    46.1620    13.3970     0.5000    27.8290    25.2230    83.9540     2.1380 
   25.8750    25.8750     0.0000     0.0000    44.4130    10.0570     0.3740    15.4070    25.1950    77.2800     2.2070 
   26.0000    26.0000     0.0000     0.0000    42.1020     6.3720     0.2570     7.9840    25.1960    69.8700     2.2950 
   26.1250    26.1250     0.0000     0.0000    44.0510     3.9270     0.1790     4.3780    25.2050    61.4040     2.3790 
   26.2500    26.2500     0.0000     0.0000    50.2500     2.7000     0.1480     2.4920    25.1550    51.9430     2.4190 
   26.3750    26.3750     0.0000     0.0000    55.6930     2.5020     0.1790     1.9650    24.9230    41.5760     2.4090 
   26.5000    26.5000     0.0000     0.0000    56.1820     3.2970     0.3090     2.6920    24.3170    30.7270     2.3670 
   26.6250    26.6250     0.0000     0.0000    55.4290     5.6060     0.6660     5.1900    24.2910    20.2360     2.3200 
   26.7500    26.7500     0.0000     0.0000    59.5380    10.0310     1.3660     8.1050    24.2430    10.4450     2.2930 
   26.8750    26.8750     0.0000     0.0000    66.4360    17.8860     2.5240    10.1130    23.8470     1.4910     2.2890 
   27.0000    27.0000     0.0000     0.0000    70.7690    30.0040     4.0290    12.2500    23.7270    -6.4750     2.2980 
   27.1250    27.1250     0.0000     0.0000    71.6130    39.4040     5.2910    13.1300    23.4970   -13.0380     2.3070 
   27.2500    27.2500     0.0000     0.0000    72.9360    38.1350     5.9700    11.0350    23.3560   -18.1090     2.3020 
   27.3750    27.3750     0.0000     0.0000    76.1300    32.4610     6.2500     9.3100    23.2810   -21.6230     2.2850 
   27.5000    27.5000     0.0000     0.0000    80.0680    28.6600     6.4280     9.2710    23.2480   -23.9130     2.2630 
   27.6250    27.6250     0.0000     0.0000    83.5940    27.5180     6.6960    10.0180    23.2060   -25.4880     2.2390 
   27.7500    27.7500     0.0000     0.0000    85.4140    27.5660     7.1110    10.6550    23.2930   -26.7610     2.2160 
   27.8750    27.8750     0.0000     0.0000    82.6480    27.8160     7.6920    11.1260    23.4250   -27.8140     2.1950 
   28.0000    28.0000     0.0000     0.0000    76.2320    27.4470     8.3990    11.8150    23.4730   -28.6810     2.1770 
   28.1250    28.1250     0.0000     0.0000    73.5240    26.0940     9.1050    12.3540    23.5460   -29.3440     2.1620 
