~V
VERS. 2.00: Ver 2.00
~W
STRT.M 32.0000:
STOP.M 269.0000:
STEP.M 0.1250:
NULL. -999.2500:
UWI. FD10881:
~C
DEPT.M :
TVD. :
DX. :
DY. :
SP.MV :
GR.API :
RI. :
RML.OHMM :
RXO.OHMM :
~A
# ...
  142.0000   139.1380   -18.6900    -8.8690    10.2600    56.1930    17.5800    21.5530     9.4240 
  142.1250   139.2530   -18.7350    -8.8890     9.4000    58.7620    16.8350    20.4810     9.0600 
  142.2500   139.3680   -18.7790    -8.9090     8.3990    62.3900    16.0000    19.4070     8.5110 
  142.3750   139.4830   -18.8230    -8.9290     7.3880    63.7670    15.3110    18.6110     7.4250 
  142.5000   139.5980   -18.8680    -8.9490     6.6090    65.3000    14.6210    17.8700     6.9710 
  142.6250   139.7130   -18.9120    -8.9700     6.1320    70.5350    13.7930    16.9320     8.7270 
  142.7500   139.8280   -18.9570    -8.9900     5.9320    77.0460    12.8830    15.8370    10.8100 
  142.8750   139.9430   -19.0010    -9.0100     5.7140    79.2640    12.0790    14.8040    10.3180 
  143.0000   140.0580   -19.0460    -9.0300     4.8790    77.5400    11.3140    13.7930     8.5170 
  143.1250   140.1730   -19.0910    -9.0500     3.6710    76.2420    10.6330    12.9260     8.0710 
  143.2500   140.2880   -19.1360    -9.0710     2.8040    75.2740    10.2400    12.4570     9.0680 
  143.3750   140.4030   -19.1810    -9.0910     2.4050    73.9550    10.3500    12.6250     9.0920 
  143.5000   140.5170   -19.2260    -9.1110     2.5810    73.6130    10.9750    13.3980     7.9230 
  143.6250   140.6320   -19.2710    -9.1310     3.3060    73.3680    11.9290    14.5950     8.6780 
  143.7500   140.7470   -19.3170    -9.1520     4.4480    71.3550    13.1280    16.1550    11.4810 
  143.8750   140.8620   -19.3620    -9.1720     5.6850    68.3410    14.5440    17.9700    13.5110 
  144.0000   140.9760   -19.4070    -9.1920     7.0290    64.2010    15.7490    19.4390    13.7420 
  144.1250   141.0910   -19.4530    -9.2120     8.2540    59.5540    16.5700    20.3770    13.0620 
  144.2500   141.2060   -19.4980    -9.2330     8.9390    57.2370    16.8200    20.5680    12.9180 
  144.3750   141.3200   -19.5440    -9.2530     9.1890    59.9720    16.6890    20.3920    13.3550 
  144.5000   141.4350   -19.5890    -9.2730     9.1990    62.9150    16.5080    20.2420    13.2750 
  144.6250   141.5490   -19.6350    -9.2940     9.0660    62.7110    16.3560    20.1570    12.9660 
  144.7500   141.6640   -19.6810    -9.3140     8.9140    60.8450    16.2220    20.1090    12.4830 
  144.8750   141.7780   -19.7260    -9.3350     8.7660    60.4660    16.1010    20.0410    12.9040 
  145.0000   141.8930   -19.7720    -9.3560     8.4810    62.0340    15.9990    19.9880    14.3340 
  145.1250   142.0070   -19.8180    -9.3760     8.0970    64.6660    15.9510    19.9910    14.8540 
  145.2500   142.1220   -19.8640    -9.3970     7.6960    66.6550    15.8830    19.9590    14.4510 
  145.3750   142.2360   -19.9100    -9.4170     7.2450    65.5890    15.8120    19.9160    12.9050 
  145.5000   142.3510   -19.9560    -9.4380     6.9030    62.8660    15.7010    19.7930    12.8170 
  145.6250   142.4650   -20.0020    -9.4590     6.9650    61.4100    15.5570    19.6130    17.3100 
  145.7500   142.5790   -20.0480    -9.4790     7.4850    62.0050    15.4060    19.4040    19.5110 
  145.8750   142.6940   -20.0940    -9.5000     8.1310    62.5880    15.2320    19.1490    15.1000 
  146.0000   142.8080   -20.1410    -9.5210     8.6620    63.8470    15.0740    18.9220    11.6300 
  146.1250   142.9220   -20.1870    -9.5420     8.8410    66.3130    14.9770    18.7770    11.3630 
  146.2500   143.0360   -20.2330    -9.5620     8.5200    68.3490    14.9840    18.7800    11.1550 
  146.3750   143.1500   -20.2800    -9.5830     7.9930    67.0870    15.1220    18.9680    10.7710 
  146.5000   143.2650   -20.3260    -9.6050     7.5460    64.1530    15.3960    19.3230    11.4870 
  146.6250   143.3790   -20.3720    -9.6260     7.3710    61.9610    15.8680    19.9200    13.2710 
  146.7500   143.4930   -20.4190    -9.6470     7.7020    61.2330    16.4380    20.6130    13.7460 
  146.8750   143.6070   -20.4660    -9.6680     8.4480    60.7170    16.8830    21.1150    13.3590 
  147.0000   143.7210   -20.5120    -9.6890     9.2440    60.6510    17.1070    21.3240    14.2170 
  147.1250   143.8350   -20.5590    -9.7100     9.8710    60.3520    16.9920    21.1040    14.3420 
  147.2500   143.9490   -20.6060    -9.7310    10.2570    59.7780    16.5610    20.4470    12.2130 
  147.3750   144.0630   -20.6530    -9.7530    10.2020    60.2980    15.9830    19.6620    10.9140 
  147.5000   144.1770   -20.6990    -9.7740     9.7670    62.3750    15.4940    19.0290    11.3450 
  147.6250   144.2900   -20.7470    -9.7960     9.2440    63.4770    15.2000    18.6740    11.8870 
  147.7500   144.4040   -20.7940    -9.8170     8.7080    64.5630    15.1850    18.6740    11.8080 
  147.8750   144.5180   -20.8410    -9.8390     8.2430    66.2850    15.2970    18.8010    11.3360 
  148.0000   144.6320   -20.8880    -9.8600     7.8760    67.9290    15.4420    18.9450    11.3120 
  148.1250   144.7450   -20.9360    -9.8820     7.5940    67.9980    15.5930    19.1040    11.7480 
  148.2500   144.8590   -20.9830    -9.9030     7.2420    65.9880    15.7370    19.2550    12.2040 
  148.3750   144.9720   -21.0310    -9.9240     6.7420    63.7400    15.8500    19.3500    12.4840 
  148.5000   145.0860   -21.0790    -9.9460     6.1880    63.1690    15.8840    19.3680    12.7170 
  148.6250   145.1990   -21.1270    -9.9670     5.6930    64.5980    15.8630    19.3010    12.7960 
  148.7500   145.3130   -21.1750    -9.9880     5.5840    64.9680    15.7850    19.1630    12.2750 
  148.8750   145.4260   -21.2230   -10.0100     5.9460    63.6050    15.7140    18.9910    11.7100 
  149.0000   145.5390   -21.2720   -10.0310     6.6450    62.5930    15.7800    18.9580    11.6430 
  149.1250   145.6520   -21.3200   -10.0530     7.2810    62.1330    16.0340    19.1050    11.5150 
  149.2500   145.7660   -21.3690   -10.0740     7.4160    60.5740    16.4800    19.4380    11.4210 
  149.3750   145.8790   -21.4170   -10.0960     6.9570    58.2880    17.0250    19.8910    11.9600 
  149.5000   145.9920   -21.4660   -10.1170     6.0920    57.6310    17.6470    20.4430    12.8070 
  149.6250   146.1050   -21.5150   -10.1390     5.1390    57.1990    18.1520    20.7850    12.7510 
  149.7500   146.2180   -21.5640   -10.1600     4.2550    56.6690    18.1230    20.4870    11.9180 
  149.8750   146.3310   -21.6130   -10.1820     3.6890    58.2890    17.4480    19.4470    12.1240 
  150.0000   146.4440   -21.6620   -10.2040     3.4400    62.8660    16.1740    17.7400    13.8250 
  150.1250   146.5560   -21.7110   -10.2260     3.1120    67.0090    14.4900    15.6710    15.3350 
  150.2500   146.6690   -21.7600   -10.2480     2.3700    67.7470    12.7130    13.5800    14.8220 
  150.3750   146.7820   -21.8090   -10.2700     1.3440    66.2500    10.8660    11.4900    12.9670 
  150.5000   146.8950   -21.8590   -10.2920     0.0500    65.8600     9.2030     9.6900    11.6000 
  150.6250   147.0070   -21.9080   -10.3140    -1.3160    68.9350     8.0140     8.4470    10.2120 
  150.7500   147.1200   -21.9570   -10.3370    -2.5120    74.2460     7.5270     7.9880     8.3010 
  150.8750   147.2320   -22.0070   -10.3590    -3.6290    77.7480     7.5720     8.1080     7.2820 
  151.0000   147.3450   -22.0570   -10.3820    -4.5560    76.3940     7.8320     8.4500     7.8250 
  151.1250   147.4570   -22.1060   -10.4040    -5.0960    73.5730     8.0950     8.7300    10.7920 
  151.2500   147.5700   -22.1560   -10.4270    -5.3450    72.6880     8.2080     8.7680    16.2540 
  151.3750   147.6820   -22.2060   -10.4490    -5.6430    74.8130     8.2760     8.7290    17.0700 
  151.5000   147.7940   -22.2560   -10.4720    -6.1130    77.2110     8.7700     9.1730    11.5480 
  151.6250   147.9070   -22.3060   -10.4950    -6.6580    75.3910    10.0590    10.7070     9.4510 
  151.7500   148.0190   -22.3560   -10.5170    -7.0770    68.9480    12.4660    13.6500    13.9290 
  151.8750   148.1310   -22.4060   -10.5390    -7.1270    62.3760    15.9690    17.6600    21.1620 
