~V
VERS. 2.00: Ver 2.00
~W
STRT.M 12.0000:
STOP.M 226.0000:
STEP.M 0.1250:
NULL. -999.2500:
UWI. FD10605:
~C
DEPT.M :
TVD. :
DX. :
DY. :
GR.API :
RML.OHMM :
RI. :
RXO.OHMM :
CALI.CM :
DEN.GM/CC :
SP.MV :
~A
# ...
  160.5000   152.5100    36.3140    17.2530    63.4040    24.8240    21.3110    30.5460    21.7690     2.2510    -1.8070 
  160.6250   152.6140    36.3780    17.2810    63.1810    27.6760    24.2830    31.5260    21.8090     2.2490    -1.9330 
  160.7500   152.7170    36.4420    17.3090    64.7980    29.5040    26.4630    30.1780    21.7710     2.2670    -2.0250 
  160.8750   152.8200    36.5070    17.3380    65.3640    29.9620    27.2930    28.1610    21.6490     2.2940    -2.0020 
  161.0000   152.9240    36.5710    17.3660    64.5770    29.2390    26.8390    26.3660    21.5540     2.3150    -1.9350 
  161.1250   153.0270    36.6350    17.3940    65.1840    27.9550    25.7100    22.8720    21.5880     2.3190    -1.8740 
  161.2500   153.1300    36.6990    17.4230    66.5510    26.9140    24.7260    21.0480    21.7050     2.3100    -1.8570 
  161.3750   153.2340    36.7630    17.4510    67.2290    26.4830    24.2350    20.4590    21.8030     2.2950    -1.8100 
  161.5000   153.3370    36.8280    17.4790    67.0370    26.7480    24.3460    22.3220    21.8700     2.2810    -1.6930 
  161.6250   153.4410    36.8920    17.5080    65.0530    27.6250    25.0320    25.8220    21.8110     2.2740    -1.5940 
  161.7500   153.5440    36.9560    17.5360    62.9320    28.7150    25.9510    27.4350    21.6230     2.2740    -1.4950 
  161.8750   153.6470    37.0200    17.5640    64.0190    29.7360    26.8410    27.2140    21.4110     2.2800    -1.5120 
  162.0000   153.7510    37.0850    17.5930    66.8470    30.4960    27.5080    25.9080    21.3560     2.2830    -1.5720 
  162.1250   153.8540    37.1490    17.6210    67.2940    30.9310    27.8720    25.3780    21.4200     2.2760    -1.6460 
  162.2500   153.9570    37.2130    17.6490    65.6450    31.2860    28.1430    25.6160    21.6330     2.2590    -1.7100 
  162.3750   154.0610    37.2770    17.6780    64.3120    31.9060    28.6050    26.2570    21.9860     2.2500    -1.7130 
  162.5000   154.1640    37.3420    17.7060    63.6220    33.2530    29.6390    26.9800    22.1750     2.2720    -1.7740 
  162.6250   154.2670    37.4060    17.7340    61.1020    36.1360    32.0150    27.3830    21.9190     2.3560    -1.8120 
  162.7500   154.3710    37.4700    17.7630    59.6520    40.7510    36.0920    29.3560    21.3580     2.4870    -1.8840 
  162.8750   154.4740    37.5340    17.7910    60.5590    46.9260    41.9350    35.2390    20.8500     2.6330    -1.9210 
  163.0000   154.5770    37.5990    17.8190    60.3000    53.6120    48.7980    48.2170    20.6520     2.7490    -1.9410 
  163.1250   154.6810    37.6630    17.8480    55.8890    58.2560    54.3500    69.4480    20.8030     2.7810    -1.9720 
  163.2500   154.7840    37.7270    17.8760    51.4300    59.1540    56.2710    76.8340    21.0670     2.7300    -1.9880 
  163.3750   154.8870    37.7910    17.9040    51.5910    56.1410    53.8270    53.6550    21.2800     2.6200    -2.0710 
  163.5000   154.9910    37.8560    17.9330    56.9670    50.5350    48.3480    35.0440    21.3570     2.4890    -2.1160 
  163.6250   155.0940    37.9200    17.9610    64.2100    44.3300    42.2240    31.1150    21.2560     2.3830    -2.1380 
  163.7500   155.1970    37.9840    17.9890    68.6580    39.0990    37.1660    30.4510    21.0880     2.3160    -2.1090 
  163.8750   155.3010    38.0480    18.0180    67.9610    35.3270    33.5580    30.2090    20.9720     2.2830    -2.1310 
  164.0000   155.4040    38.1130    18.0460    64.0850    32.9200    31.2580    28.5450    20.9600     2.2680    -2.1830 
  164.1250   155.5070    38.1770    18.0740    62.7730    31.5830    30.0260    25.8040    21.1180     2.2590    -2.2070 
  164.2500   155.6110    38.2410    18.1030    63.9040    30.7960    29.3470    25.2190    21.3320     2.2530    -2.2270 
  164.3750   155.7140    38.3050    18.1310    65.1200    30.3210    28.9940    25.5110    21.4780     2.2500    -2.1910 
  164.5000   155.8170    38.3690    18.1590    65.1590    29.9600    28.7710    25.6500    21.3840     2.2510    -2.1560 
  164.6250   155.9210    38.4340    18.1880    65.4570    29.5190    28.4520    25.8560    21.1000     2.2560    -2.1110 
  164.7500   156.0240    38.4980    18.2160    67.7280    28.9300    27.9350    24.8460    20.8650     2.2660    -2.1260 
  164.8750   156.1280    38.5620    18.2440    70.9960    28.2530    27.2530    22.5640    20.7380     2.2770    -2.1060 
  165.0000   156.2310    38.6260    18.2730    73.2420    27.6410    26.5510    20.5450    20.7200     2.2890    -2.0290 
  165.1250   156.3340    38.6910    18.3010    72.5360    27.3220    26.0680    20.4370    20.7520     2.2950    -2.0100 
  165.2500   156.4380    38.7550    18.3290    70.7840    27.3530    25.9010    22.0450    20.7840     2.2910    -2.0450 
  165.3750   156.5410    38.8190    18.3580    69.0330    27.7300    26.0560    24.0670    20.7880     2.2710    -2.1110 
  165.5000   156.6440    38.8830    18.3860    67.0240    28.4470    26.5090    24.2710    20.7580     2.2370    -2.1500 
  165.6250   156.7480    38.9480    18.4140    65.5140    29.6640    27.3850    24.5050    20.6870     2.2090    -2.2220 
  165.7500   156.8510    39.0120    18.4430    64.4870    31.5000    28.8170    25.9230    20.6330     2.2170    -2.2170 
  165.8750   156.9540    39.0760    18.4710    62.8990    34.0950    30.9900    26.5080    20.5790     2.2850    -2.1560 
  166.0000   157.0580    39.1400    18.4990    59.7600    37.3750    33.9470    25.1790    20.4300     2.4080    -2.1030 
  166.1250   157.1610    39.2050    18.5280    55.4490    40.7880    37.3560    25.7020    20.1860     2.5480    -2.0250 
  166.2500   157.2640    39.2690    18.5560    51.9810    43.3340    40.1910    28.8950    20.0510     2.6420    -1.9210 
  166.3750   157.3680    39.3330    18.5840    51.7280    44.2100    41.4700    31.1620    19.9390     2.6580    -1.9280 
  166.5000   157.4710    39.3970    18.6130    54.9050    43.1490    40.7320    29.4170    19.7680     2.5990    -2.0690 
  166.6250   157.5740    39.4620    18.6410    59.0510    40.4920    38.2470    25.0640    19.6420     2.4970    -2.2350 
  166.7500   157.6780    39.5260    18.6690    62.2690    37.4910    35.3550    22.6500    19.6280     2.4050    -2.4990 
  166.8750   157.7810    39.5900    18.6980    64.1470    34.8790    32.8340    22.2800    19.6720     2.3400    -2.8880 
  167.0000   157.8840    39.6540    18.7260    65.1400    32.9720    31.0220    22.5740    19.7700     2.3050    -3.3650 
  167.1250   157.9880    39.7190    18.7540    66.9510    31.7850    29.9490    22.7080    19.9170     2.2910    -3.8410 
  167.2500   158.0910    39.7830    18.7830    69.0110    30.9500    29.2460    22.7910    20.0340     2.2830    -4.3250 
  167.3750   158.1940    39.8470    18.8110    69.3920    30.2780    28.7180    23.7730    20.0840     2.2810    -4.7130 
  167.5000   158.2980    39.9110    18.8390    69.8490    29.6820    28.2690    23.9020    20.1250     2.2850    -5.0100 
  167.6250   158.4010    39.9750    18.8680    73.3980    29.1530    27.8900    22.0950    20.1630     2.2990    -5.2660 
  167.7500   158.5050    40.0400    18.8960    75.0880    28.6640    27.5480    21.6060    20.2020     2.3190    -5.4430 
  167.8750   158.6080    40.1040    18.9240    73.1040    28.1690    27.1870    22.8330    20.2210     2.3340    -5.5380 
  168.0000   158.7110    40.1680    18.9530    72.1840    27.6080    26.7400    23.8140    20.2090     2.3390    -5.6210 
  168.1250   158.8150    40.2320    18.9810    73.4100    26.9270    26.1260    22.5590    20.2160     2.3280    -5.7530 
  168.2500   158.9180    40.2970    19.0090    72.7350    26.1770    25.3860    20.8280    20.2520     2.3100    -5.9260 
  168.3750   159.0210    40.3610    19.0380    70.5310    25.4640    24.6210    19.4260    20.2770     2.2940    -6.1240 
  168.5000   159.1250    40.4250    19.0660    71.1720    24.9430    23.9940    18.6170    20.2940     2.2850    -6.2850 
  168.6250   159.2280    40.4890    19.0940    73.1930    24.8530    23.7460    18.7880    20.3160     2.2830    -6.4670 
