~V
VERS. 2.00: Ver 2.00
~W
STRT.M 50.0000:
STOP.M 287.0000:
STEP.M 0.1250:
NULL. -999.2500:
UWI. FD10894:
~C
DEPT.M :
TVD. :
DX. :
DY. :
SP.MV :
GR.API :
RI. :
RML.OHMM :
RXO.OHMM :
DEN.GM/CC :
~A
# ...
   68.2500    68.2490     0.1190    -0.1160   -23.1500    63.5570     5.9940     7.9440     7.9980     2.0920 
   68.3750    68.3740     0.1210    -0.1160   -23.0120    63.5290     5.9810     7.7190     7.9800     2.0910 
   68.5000    68.4990     0.1220    -0.1160   -22.9020    63.0220     6.0000     7.5300     7.9650     2.0890 
   68.6250    68.6240     0.1230    -0.1160   -22.8480    60.9990     6.0360     7.4490     7.9410     2.0870 
   68.7500    68.7490     0.1240    -0.1160   -22.8600    58.1610     6.0820     7.5370     7.8290     2.0870 
   68.8750    68.8740     0.1260    -0.1150   -22.9400    57.3090     6.1190     7.6700     7.7150     2.0900 
   69.0000    68.9990     0.1270    -0.1150   -23.0730    58.6410     6.1570     7.8450     7.6890     2.0940 
   69.1250    69.1240     0.1280    -0.1150   -23.2460    60.0570     6.1960     8.0590     7.7160     2.0980 
   69.2500    69.2490     0.1290    -0.1140   -23.4390    61.0450     6.2370     8.1950     7.7850     2.1000 
   69.3750    69.3740     0.1300    -0.1140   -23.6310    61.5520     6.2870     8.2810     7.9240     2.1010 
   69.5000    69.4990     0.1320    -0.1130   -23.8020    61.5360     6.3260     8.3310     8.1250     2.1000 
   69.6250    69.6240     0.1330    -0.1130   -23.9250    61.4660     6.3530     8.2320     8.1990     2.0980 
   69.7500    69.7490     0.1340    -0.1130   -23.9750    61.4090     6.3500     8.1280     8.0150     2.0960 
   69.8750    69.8740     0.1350    -0.1120   -23.9210    60.8620     6.3070     8.0010     7.8420     2.0940 
   70.0000    69.9990     0.1360    -0.1120   -23.7570    60.5990     6.2260     7.7640     7.9080     2.0920 
   70.1250    70.1240     0.1380    -0.1110   -23.4860    62.5730     6.1150     7.5470     8.0140     2.0900 
   70.2500    70.2490     0.1390    -0.1110   -23.1480    65.4520     5.9930     7.3500     7.8940     2.0890 
   70.3750    70.3740     0.1400    -0.1100   -22.8020    65.0210     5.8620     7.1340     7.6060     2.0880 
   70.5000    70.4990     0.1410    -0.1100   -22.5090    63.1020     5.7310     6.9970     7.3600     2.0880 
   70.6250    70.6240     0.1430    -0.1090   -22.3260    63.8330     5.6490     6.9030     7.2400     2.0910 
   70.7500    70.7490     0.1440    -0.1080   -22.2620    67.1080     5.6570     6.8780     7.2850     2.0930 
   70.8750    70.8740     0.1450    -0.1080   -22.3050    66.8350     5.7630     7.0170     7.6270     2.0930 
   71.0000    70.9990     0.1470    -0.1070   -22.4000    62.7200     5.9070     7.1500     8.0730     2.0880 
   71.1250    71.1240     0.1480    -0.1060   -22.4900    58.7390     6.0320     7.2510     8.1910     2.0800 
   71.2500    71.2490     0.1500    -0.1050   -22.5270    57.3890     6.1200     7.2840     8.0900     2.0730 
   71.3750    71.3740     0.1510    -0.1040   -22.4760    58.2800     6.1930     7.3110     8.1440     2.0700 
   71.5000    71.4990     0.1530    -0.1030   -22.3420    59.4010     6.2640     7.4090     8.2310     2.0710 
   71.6250    71.6240     0.1540    -0.1020   -22.1320    60.0360     6.3060     7.5010     8.2710     2.0720 
   71.7500    71.7490     0.1560    -0.1010   -21.8730    60.0620     6.2560     7.4570     8.5320     2.0670 
   71.8750    71.8740     0.1580    -0.1000   -21.5820    60.1710     6.0430     7.1780     8.7130     2.0550 
   72.0000    71.9990     0.1600    -0.0990   -21.2770    61.9660     5.6380     6.6360     8.3940     2.0400 
   72.1250    72.1240     0.1610    -0.0980   -20.9720    66.7020     5.1220     5.9920     7.6480     2.0300 
   72.2500    72.2490     0.1630    -0.0960   -20.6810    73.3200     4.5710     5.3310     6.4340     2.0350 
   72.3750    72.3740     0.1650    -0.0950   -20.4230    78.8740     4.1290     4.8160     5.4920     2.0640 
   72.5000    72.4990     0.1670    -0.0930   -20.2170    83.1100     3.8610     4.5060     5.4430     2.1100 
   72.6250    72.6240     0.1690    -0.0920   -20.0780    86.8990     3.8030     4.4440     5.3350     2.1580 
   72.7500    72.7490     0.1710    -0.0910   -19.9980    88.7410     3.9220     4.5690     5.2040     2.1920 
   72.8750    72.8740     0.1730    -0.0890   -19.9560    86.2750     4.1110     4.7720     5.5320     2.2000 
   73.0000    72.9990     0.1750    -0.0870   -19.9110    83.2710     4.2580     4.9080     5.7180     2.1880 
   73.1250    73.1240     0.1770    -0.0860   -19.8170    82.8160     4.2740     4.8880     5.7010     2.1630 
   73.2500    73.2490     0.1790    -0.0840   -19.6530    83.7890     4.2130     4.7660     5.6080     2.1330 
   73.3750    73.3740     0.1810    -0.0820   -19.4180    85.0090     4.1110     4.5960     5.3120     2.1110 
   73.5000    73.4980     0.1840    -0.0800   -19.1560    87.5110     4.0120     4.4530     5.1050     2.1040 
   73.6250    73.6230     0.1860    -0.0790   -18.9290    91.0050     3.9740     4.4170     5.1260     2.1190 
   73.7500    73.7480     0.1880    -0.0770   -18.7880    91.8700     4.0190     4.5050     5.3280     2.1510 
   73.8750    73.8730     0.1900    -0.0750   -18.7730    88.6460     4.1580     4.7520     5.4020     2.1850 
   74.0000    73.9980     0.1920    -0.0730   -18.8630    85.4810     4.3360     5.0550     5.3840     2.2050 
   74.1250    74.1230     0.1950    -0.0710   -19.0160    83.9910     4.4150     5.1790     6.0300     2.2060 
   74.2500    74.2480     0.1970    -0.0690   -19.1600    80.3670     4.4190     5.1560     6.7410     2.1940 
   74.3750    74.3730     0.1990    -0.0670   -19.2350    75.1120     4.4960     5.1570     6.7010     2.1800 
   74.5000    74.4980     0.2020    -0.0660   -19.2150    72.1580     4.8200     5.4570     6.1950     2.1730 
   74.6250    74.6230     0.2040    -0.0640   -19.0990    73.7220     5.7860     6.6800     6.8930     2.1830 
   74.7500    74.7480     0.2060    -0.0620   -18.9290    76.1970     7.2720     8.6210    14.3210     2.2140 
   74.8750    74.8730     0.2090    -0.0600   -18.7520    77.9620     8.8100    10.5070    27.3110     2.2700 
   75.0000    74.9980     0.2110    -0.0580   -18.6150    77.0220     9.3820    11.0790    32.7140     2.3390 
   75.1250    75.1230     0.2140    -0.0560   -18.5560    73.7650     8.5320     9.8420    27.6040     2.4040 
   75.2500    75.2480     0.2160    -0.0540   -18.5840    72.0560     6.8700     7.6420    18.6280     2.4440 
   75.3750    75.3730     0.2190    -0.0520   -18.7070    75.6550     5.1250     5.5380     9.6190     2.4400 
   75.5000    75.4980     0.2210    -0.0500   -18.9080    80.0030     4.1490     4.4710     5.4810     2.3990 
   75.6250    75.6230     0.2240    -0.0480   -19.1740    82.3250     3.9410     4.3500     5.2810     2.3330 
   75.7500    75.7480     0.2270    -0.0460   -19.4770    81.4960     4.1840     4.7610     5.3010     2.2630 
   75.8750    75.8730     0.2290    -0.0440   -19.7850    78.1820     4.6950     5.4780     6.2490     2.2020 
   76.0000    75.9980     0.2320    -0.0420   -20.0560    73.3680     5.1160     6.0190     8.3360     2.1530 
   76.1250    76.1230     0.2350    -0.0400   -20.2380    70.6480     5.1750     6.0510     9.1620     2.1190 
   76.2500    76.2480     0.2380    -0.0370   -20.2970    70.7970     4.8610     5.6060     7.5220     2.1010 
   76.3750    76.3730     0.2410    -0.0350   -20.2030    74.2540     4.3280     4.8840     5.5660     2.1040 
   76.5000    76.4970     0.2440    -0.0330   -19.9780    79.4890     3.8130     4.2090     4.7250     2.1240 
   76.6250    76.6220     0.2470    -0.0310   -19.6610    84.1860     3.5970     3.9440     4.7510     2.1570 
   76.7500    76.7470     0.2500    -0.0280   -19.3250    86.6430     3.7670     4.1570     5.0920     2.1930 
   76.8750    76.8720     0.2530    -0.0260   -19.0440    87.5620     4.2680     4.7800     5.2910     2.2280 
   77.0000    76.9970     0.2560    -0.0230   -18.8650    86.4810     4.8530     5.5130     8.7080     2.2610 
   77.1250    77.1220     0.2600    -0.0210   -18.8120    83.0050     5.4060     6.1860    16.6780     2.2870 
   77.2500    77.2470     0.2630    -0.0180   -18.8570    79.0590     5.7400     6.5560    18.3990     2.3000 
