~V
VERS. 2.00: Ver 2.00
~W
STRT.M 44.0000:
STOP.M 206.0000:
STEP.M 0.1250:
NULL. -999.2500:
UWI. FD10808:
~C
DEPT.M :
TVD. :
DX. :
DY. :
SP.MV :
GR.API :
RI. :
RML.OHMM :
RXO.OHMM :
DEN.GM/CC :
~A
   44.0000    44.0000     0.0000     0.0000   114.0840    38.6280     0.1410     0.1780     0.1760     2.0800 
   44.1250    44.1250    -0.0010     0.0010   113.4140    41.5180     0.1390     0.1850     0.1790     2.0840 
   44.2500    44.2500    -0.0010     0.0020   112.2320    43.0210     0.1270     0.1860     0.1860     2.1010 
   44.3750    44.3750    -0.0020     0.0030   110.3530    43.4610     0.1080     0.1690     0.1920     2.1190 
   44.5000    44.5000    -0.0030     0.0030   107.7590    42.7600     0.0790     0.1330     0.1980     2.1270 
   44.6250    44.6250    -0.0030     0.0040   104.1860    41.7640     0.0490     0.0860     0.2100     2.1220 
   44.7500    44.7500    -0.0040     0.0050    99.4610    41.2360     0.0320     0.0490     0.2120     2.1140 
   44.8750    44.8750    -0.0040     0.0060    92.8250    41.2360     0.0370     0.0450     0.1910     2.1160 
   45.0000    45.0000    -0.0050     0.0070    83.8020    42.1200     0.1030     0.1110     0.1680     2.1340 
   45.1250    45.1250    -0.0050     0.0080    71.7660    43.1960     0.3330     0.3980     1.2080     2.1460 
   45.2500    45.2500    -0.0060     0.0090    57.2850    44.8220     0.9690     1.5540     3.7340     2.1160 
   45.3750    45.3750    -0.0070     0.0100    41.8040    47.8670     3.1420     5.1390     5.8530     2.0430 
   45.5000    45.5000    -0.0070     0.0110    28.1570    51.3020     6.7740     9.9520     6.5850     1.9820 
   45.6250    45.6250    -0.0080     0.0120    18.1570    53.5580     9.1150    12.9160     6.5540     1.9600 
   45.7500    45.7500    -0.0080     0.0130    10.6700    54.4740    10.4720    13.1640     6.4340     1.9660 
   45.8750    45.8750    -0.0090     0.0140     4.9750    55.0390     9.6390    10.6650     6.5270     1.9710 
   46.0000    46.0000    -0.0090     0.0160     0.3920    56.0400     8.8670     8.2100     6.5000     1.9740 
   46.1250    46.1250    -0.0100     0.0170    -3.1910    55.4900     9.1030     7.7200     6.2130     1.9850 
   46.2500    46.2500    -0.0100     0.0180    -6.0650    54.8010     9.5910     8.1030     5.9880     2.0040 
   46.3750    46.3750    -0.0110     0.0190    -8.3220    54.8720    10.0220     8.5980     5.9870     2.0280 
   46.5000    46.5000    -0.0120     0.0200   -10.1410    55.7870    10.3440     9.0050     6.3160     2.0400 
   46.6250    46.6250    -0.0120     0.0210   -11.6910    55.3950    10.5580     9.3090     6.7240     2.0260 
   46.7500    46.7500    -0.0130     0.0230   -13.0280    53.9010    10.7340     9.6020     6.7290     1.9940 
   46.8750    46.8750    -0.0130     0.0240   -14.2130    52.0570    10.8950     9.9780     6.5430     1.9610 
   47.0000    47.0000    -0.0140     0.0250   -15.3510    51.9820    11.0470    10.4130     6.4660     1.9390 
   47.1250    47.1250    -0.0150     0.0270   -16.4600    52.6150    11.1420    10.8250     6.3800     1.9250 
   47.2500    47.2500    -0.0150     0.0280   -17.4940    53.9610    11.1130    11.1510     6.2480     1.9140 
   47.3750    47.3750    -0.0160     0.0290   -18.4950    54.4870    10.9480    11.3230     6.1850     1.9120 
   47.5000    47.5000    -0.0160     0.0310   -19.4680    55.2880    10.6810    11.3350     6.2330     1.9210 
   47.6250    47.6250    -0.0170     0.0320   -20.5540    54.5040    10.2830    11.1650     6.3270     1.9340 
   47.7500    47.7500    -0.0180     0.0340   -21.6150    52.9630     9.8050    10.8550     6.3740     1.9450 
   47.8750    47.8750    -0.0180     0.0350   -22.5670    50.7330     9.2770    10.4180     6.2810     1.9490 
   48.0000    48.0000    -0.0190     0.0360   -23.5080    49.0820     8.7150     9.8940     6.0920     1.9550 
   48.1250    48.1250    -0.0200     0.0380   -24.3030    48.9370     8.1950     9.3450     5.9920     1.9620 
   48.2500    48.2500    -0.0200     0.0400   -24.9500    50.1490     7.6760     8.8000     5.8890     1.9730 
   48.3750    48.3750    -0.0210     0.0410   -25.4940    52.8890     7.1760     8.2840     5.5940     1.9840 
   48.5000    48.5000    -0.0210     0.0430   -25.9400    54.2550     6.7090     7.7980     5.3330     1.9920 
   48.6250    48.6250    -0.0220     0.0440   -26.1150    53.8860     6.2560     7.3350     5.2430     1.9950 
   48.7500    48.7500    -0.0230     0.0460   -26.1540    53.1220     5.8320     6.9330     5.1740     1.9980 
   48.8750    48.8750    -0.0240     0.0480   -25.9460    52.5930     5.5250     6.6650     5.1270     2.0030 
   49.0000    49.0000    -0.0240     0.0500   -25.5510    53.0530     5.3510     6.5470     5.1010     2.0110 
   49.1250    49.1250    -0.0250     0.0510   -24.9790    54.6160     5.3200     6.5490     5.5360     2.0220 
   49.2500    49.2500    -0.0260     0.0530   -24.2910    57.9910     5.3370     6.5750     6.8310     2.0400 
   49.3750    49.3750    -0.0260     0.0550   -23.5530    62.0710     5.2920     6.5390     8.1470     2.0520 
   49.5000    49.5000    -0.0270     0.0570   -22.7650    65.0750     5.1780     6.4000     8.3450     2.0510 
   49.6250    49.6250    -0.0280     0.0590   -21.9920    65.1970     4.9860     6.1830     7.6350     2.0380 
   49.7500    49.7500    -0.0280     0.0610   -21.1860    64.5920     4.7810     5.9760     7.2370     2.0310 
   49.8750    49.8750    -0.0290     0.0630   -20.4370    63.9020     4.6350     5.8680     7.4200     2.0310 
   50.0000    50.0000    -0.0300     0.0650   -19.8470    64.6140     4.5730     5.8780     7.7270     2.0320 
   50.1250    50.1250    -0.0300     0.0670   -19.5030    65.0030     4.5970     5.9910     7.9360     2.0330 
   50.2500    50.2500    -0.0310     0.0690   -19.1250    64.3970     4.6670     6.1540     8.1260     2.0420 
   50.3750    50.3740    -0.0320     0.0710   -18.4910    63.9660     4.7350     6.3080     8.4330     2.0590 
   50.5000    50.4990    -0.0320     0.0740   -17.6000    63.2230     4.7320     6.3830     8.4670     2.0730 
   50.6250    50.6240    -0.0330     0.0760   -16.3100    64.0970     4.6020     6.2860     8.2020     2.0820 
   50.7500    50.7490    -0.0340     0.0780   -14.5210    66.5110     4.3120     6.0090     8.0380     2.0940 
   50.8750    50.8740    -0.0340     0.0810   -12.1090    71.8300     3.9550     5.6240     7.4210     2.1210 
   51.0000    50.9990    -0.0350     0.0830    -9.7680    79.0390     3.6140     5.2760     6.0030     2.1590 
   51.1250    51.1240    -0.0360     0.0860    -7.9120    85.8680     3.4260     5.1300     4.6010     2.1860 
   51.2500    51.2490    -0.0360     0.0880    -6.7780    89.5280     3.3820     5.2270     4.3560     2.1860 
   51.3750    51.3740    -0.0370     0.0910    -6.5440    89.9960     3.4660     5.5130     5.6780     2.1600 
   51.5000    51.4990    -0.0380     0.0930    -6.9550    87.1720     3.6030     5.8030     6.9090     2.1300 
   51.6250    51.6240    -0.0380     0.0960    -7.2260    83.9890     3.6340     5.8750     6.7480     2.1160 
   51.7500    51.7490    -0.0390     0.0990    -6.7620    81.6820     3.5250     5.6600     6.1370     2.1220 
   51.8750    51.8740    -0.0400     0.1010    -5.8160    82.5700     3.2820     5.2380     5.2770     2.1390 
   52.0000    51.9990    -0.0400     0.1040    -4.6940    84.9300     3.0510     4.8740     4.2710     2.1520 
   52.1250    52.1240    -0.0410     0.1070    -4.2130    86.7120     3.0110     4.8690     3.9120     2.1560 
   52.2500    52.2490    -0.0420     0.1100    -4.0670    87.6760     3.2470     5.3040     4.1470     2.1640 
   52.3750    52.3740    -0.0420     0.1130    -4.2680    86.7550     3.6890     6.0640     4.9330     2.1990 
   52.5000    52.4990    -0.0430     0.1160    -4.4780    85.0520     4.1460     6.8240     6.7280     2.2640 
   52.6250    52.6240    -0.0440     0.1190    -4.3270    82.7440     4.4190     7.2340     8.5850     2.3210 
   52.7500    52.7490    -0.0450     0.1220    -3.8750    82.8360     4.3910     7.1470     8.0000     2.3300 
   52.8750    52.8740    -0.0450     0.1250    -3.4560    84.5570     4.0650     6.6000     5.7260     2.2790 
   53.0000    52.9990    -0.0460     0.1280    -3.1190    86.9480     3.6180     5.8870     4.6800     2.2150 
