~V
VERS. 2.00: Ver 2.00
~W
STRT.M 22.0000:
STOP.M 238.0000:
STEP.M 0.1250:
NULL. -999.2500:
UWI. FD10612:
~C
DEPT.M :
TVD. :
DX. :
DY. :
GR.API :
RML.OHMM :
RI. :
RXO.OHMM :
CALI.CM :
DEN.GM/CC :
SP.MV :
~A
# ...
  121.0000   119.3680    11.2800     8.8530    52.2820    24.3930    22.0400    19.2740    22.7470     2.1530    -7.4450 
  121.1250   119.4810    11.3250     8.8780    50.9010    24.1340    21.9130    19.6010    22.6610     2.1470    -6.9960 
  121.2500   119.5950    11.3690     8.9040    50.1420    23.0340    20.9770    19.6060    22.5860     2.1480    -6.7000 
  121.3750   119.7090    11.4140     8.9290    52.1580    21.2540    19.3610    18.5090    22.5580     2.1580    -6.7080 
  121.5000   119.8230    11.4590     8.9540    58.3550    19.1290    17.4150    15.9130    22.5580     2.1790    -6.9150 
  121.6250   119.9370    11.5030     8.9800    67.1230    17.1770    15.6200    13.1250    22.5620     2.2060    -7.3440 
  121.7500   120.0500    11.5480     9.0050    72.0360    15.8170    14.3100    12.0340    22.5490     2.2250    -7.9170 
  121.8750   120.1640    11.5920     9.0300    71.2100    15.2790    13.6850    13.5660    22.4860     2.2280    -8.4900 
  122.0000   120.2780    11.6370     9.0560    70.4510    15.5570    13.8130    15.0600    22.3930     2.2240    -9.0750 
  122.1250   120.3920    11.6810     9.0810    72.1150    16.3300    14.5660    14.0040    22.3180     2.2450    -9.6130 
  122.2500   120.5060    11.7260     9.1070    70.0270    16.8220    15.2810    13.2510    22.3310     2.3050   -10.2340 
  122.3750   120.6190    11.7700     9.1320    64.9440    16.4330    15.2690    16.8670    22.3990     2.3920   -10.9290 
  122.5000   120.7330    11.8150     9.1570    64.4740    14.9450    14.1180    28.4050    22.4800     2.4750   -11.6910 
  122.6250   120.8470    11.8600     9.1830    72.8200    12.6380    12.0480    25.7540    22.5300     2.5110   -12.4380 
  122.7500   120.9610    11.9040     9.2080    80.5450    10.3390     9.9680    13.8130    22.5230     2.5040   -13.1600 
  122.8750   121.0750    11.9490     9.2330    84.9770     8.5100     8.3170     7.5880    22.4720     2.4700   -13.9070 
  123.0000   121.1890    11.9930     9.2590    88.8410     7.3090     7.2030     6.5370    22.4050     2.4340   -14.6370 
  123.1250   121.3020    12.0380     9.2840    92.7360     6.7260     6.6330     6.8930    22.4190     2.4070   -15.3240 
  123.2500   121.4160    12.0820     9.3090    94.8390     6.4700     6.3880     6.6740    22.5120     2.3900   -15.8700 
  123.3750   121.5300    12.1270     9.3350    93.8880     6.3470     6.3010     6.1440    22.6590     2.3800   -16.2180 
  123.5000   121.6440    12.1710     9.3600    92.2270     6.2080     6.2130     5.8700    22.7920     2.3820   -16.4330 
  123.6250   121.7580    12.2160     9.3860    96.5130     5.9670     6.0240     5.7600    22.7960     2.3990   -16.5550 
  123.7500   121.8710    12.2600     9.4110   105.6660     5.6680     5.7740     5.7270    22.6550     2.4260   -16.5530 
  123.8750   121.9850    12.3050     9.4360   113.0080     5.3750     5.5250     5.4350    22.4630     2.4550   -16.4520 
  124.0000   122.0990    12.3500     9.4620   111.2840     5.1480     5.3290     5.0290    22.2930     2.4790   -16.2760 
  124.1250   122.2130    12.3940     9.4870   102.9280     5.0390     5.2330     4.9650    22.2250     2.4940   -16.0520 
  124.2500   122.3270    12.4390     9.5120    98.6370     5.0210     5.2210     5.1610    22.2390     2.5010   -15.7500 
  124.3750   122.4400    12.4830     9.5380   100.2090     5.0540     5.2620     5.4200    22.3180     2.4990   -15.4420 
  124.5000   122.5540    12.5280     9.5630   102.2690     5.0880     5.3020     5.5790    22.4630     2.4890   -15.1830 
  124.6250   122.6680    12.5720     9.5880    99.5500     5.0750     5.2770     5.4760    22.5510     2.4750   -15.0740 
  124.7500   122.7820    12.6170     9.6140    96.2940     5.0150     5.1820     5.2050    22.4970     2.4630   -15.1540 
  124.8750   122.8960    12.6610     9.6390    96.0060     4.9350     5.0500     5.0260    22.3840     2.4610   -15.4460 
  125.0000   123.0090    12.7060     9.6640    97.1370     4.8780     4.9320     4.9770    22.2950     2.4680   -15.9450 
  125.1250   123.1230    12.7510     9.6900    98.7140     4.9020     4.8910     4.9740    22.2480     2.4760   -16.3690 
  125.2500   123.2370    12.7950     9.7150   100.6840     5.0280     4.9480     5.2200    22.2480     2.4760   -16.7970 
  125.3750   123.3510    12.8400     9.7410   103.6410     5.2550     5.1060     5.5530    22.2840     2.4640   -17.1450 
  125.5000   123.4650    12.8840     9.7660   105.8750     5.5600     5.3440     5.8790    22.3320     2.4470   -17.3270 
  125.6250   123.5790    12.9290     9.7910   104.4200     5.9160     5.6340     6.2000    22.3420     2.4300   -17.3910 
  125.7500   123.6920    12.9730     9.8170   100.5890     6.3120     5.9500     6.5950    22.3210     2.4140   -17.2690 
  125.8750   123.8060    13.0180     9.8420    95.8580     6.8060     6.3200     6.9240    22.2810     2.3970   -16.9240 
  126.0000   123.9200    13.0620     9.8670    90.7900     7.5090     6.8270     7.2220    22.2160     2.3790   -16.4660 
  126.1250   124.0340    13.1070     9.8930    86.5400     8.6490     7.6600     7.7740    22.1160     2.3760   -16.2080 
  126.2500   124.1480    13.1510     9.9180    82.9950    10.3010     8.9260     9.3200    22.0590     2.3930   -15.9660 
  126.3750   124.2610    13.1960     9.9430    78.6510    12.4880    10.7170    12.6570    22.0630     2.4170   -15.7170 
  126.5000   124.3750    13.2410     9.9690    73.7200    15.0710    13.0060    17.1940    22.1210     2.4260   -15.5720 
  126.6250   124.4890    13.2850     9.9940    71.1100    17.6470    15.5130    19.3990    22.1940     2.3960   -15.3740 
  126.7500   124.6030    13.3300    10.0200    70.7760    19.7020    17.6350    18.2350    22.2230     2.3410   -15.1590 
  126.8750   124.7170    13.3740    10.0450    70.1710    20.9320    18.9440    17.3360    22.2260     2.2880   -14.9990 
  127.0000   124.8300    13.4190    10.0700    68.6150    21.3500    19.3780    17.1670    22.2250     2.2540   -14.7610 
  127.1250   124.9440    13.4630    10.0960    67.7710    21.2690    19.2410    16.7980    22.2270     2.2430   -14.4450 
  127.2500   125.0580    13.5080    10.1210    67.6390    21.2620    19.1110    17.1030    22.2390     2.2320   -14.1700 
  127.3750   125.1720    13.5520    10.1460    66.6670    21.6580    19.2920    18.1950    22.2630     2.2140   -13.9630 
  127.5000   125.2860    13.5970    10.1720    64.9030    22.6240    19.9430    19.1970    22.2730     2.1890   -13.6940 
  127.6250   125.4000    13.6420    10.1970    63.8950    24.2900    21.2250    19.7020    22.2650     2.1670   -13.4080 
  127.7500   125.5130    13.6860    10.2220    65.3580    26.4940    23.0570    21.5790    22.2540     2.1530   -13.1600 
  127.8750   125.6270    13.7310    10.2480    68.4020    29.1230    25.3820    23.6570    22.2430     2.1490   -12.8740 
  128.0000   125.7410    13.7750    10.2730    69.6310    32.0120    28.0640    23.9910    22.2310     2.1580   -12.6590 
  128.1250   125.8550    13.8200    10.2980    66.3280    34.9040    30.8750    24.2870    22.2250     2.1850   -12.5810 
  128.2500   125.9690    13.8640    10.3240    62.3570    37.4790    33.4870    27.4990    22.2260     2.2210   -12.6430 
  128.3750   126.0820    13.9090    10.3490    61.9240    39.4470    35.6010    31.1380    22.2400     2.2500   -12.7290 
  128.5000   126.1960    13.9530    10.3750    63.9170    40.5800    36.9560    31.3120    22.2750     2.2610   -12.7250 
  128.6250   126.3100    13.9980    10.4000    64.3090    40.6660    37.2810    28.6670    22.2770     2.2480   -12.5850 
  128.7500   126.4240    14.0420    10.4250    63.1790    40.0680    36.8690    26.9920    22.1650     2.2230   -12.4190 
  128.8750   126.5380    14.0870    10.4510    63.1610    39.2000    36.0890    24.3170    22.0530     2.1990   -12.2350 
  129.0000   126.6510    14.1320    10.4760    65.6440    38.5830    35.4360    21.1260    22.0790     2.1820   -12.0220 
  129.1250   126.7650    14.1760    10.5010    67.8320    38.9100    35.5710    20.0930    22.2040     2.1710   -11.6430 
