~V
VERS. 2.00: Ver 2.00
~W
STRT.M 12.0000:
STOP.M 226.0000:
STEP.M 0.1250:
NULL. -999.2500:
UWI. FD10605:
~C
DEPT.M :
TVD. :
DX. :
DY. :
GR.API :
RML.OHMM :
RI. :
RXO.OHMM :
CALI.CM :
DEN.GM/CC :
SP.MV :
~A
# ...
   36.7500    36.6910     1.5560     0.1060    68.9360    24.9650     7.6910     7.2070    24.4870     2.1780   -22.6940 
   36.8750    36.8150     1.5690     0.1090    69.4050    24.3010     7.8580     7.2160    24.8020     2.1600   -23.3450 
   37.0000    36.9390     1.5820     0.1120    69.0080    23.3910     7.9030     7.2040    25.0420     2.1350   -23.8150 
   37.1250    37.0630     1.5960     0.1150    65.4250    22.2260     7.7990     7.5000    25.1330     2.1100   -23.8920 
   37.2500    37.1870     1.6090     0.1180    64.7410    20.7790     7.5430     7.6300    25.1650     2.0960   -23.4790 
   37.3750    37.3120     1.6220     0.1210    71.5130    19.0170     7.1180     7.6110    25.1310     2.1020   -22.6030 
   37.5000    37.4360     1.6350     0.1240    83.8080    17.0130     6.5410     7.1880    24.9830     2.1290   -21.3780 
   37.6250    37.5600     1.6480     0.1270    95.7980    14.9710     5.8830     6.2580    24.9020     2.1750   -19.9610 
   37.7500    37.6840     1.6620     0.1300   106.8200    13.1360     5.2600     5.4010    24.8570     2.2210   -18.5010 
   37.8750    37.8080     1.6750     0.1330   116.7440    11.6610     4.7500     5.0470    24.7440     2.2560   -17.1720 
   38.0000    37.9320     1.6880     0.1360   123.3380    10.6550     4.4230     4.9870    24.5230     2.2750   -16.0810 
   38.1250    38.0570     1.7010     0.1390   123.4750    10.3380     4.3870     5.0220    24.3890     2.2890   -15.4770 
   38.2500    38.1810     1.7140     0.1420   119.8010    10.7270     4.6460     5.2260    24.3310     2.3090   -15.4870 
   38.3750    38.3050     1.7280     0.1440   112.8490    11.8300     5.2020     6.4290    24.2790     2.3340   -16.1810 
   38.5000    38.4290     1.7410     0.1470   100.6160    13.4590     6.0070     9.7190    24.1490     2.3490   -17.4770 
   38.6250    38.5530     1.7540     0.1500    87.1230    15.1030     6.8920    15.2170    24.0210     2.3260   -19.1340 
   38.7500    38.6780     1.7670     0.1530    76.8120    16.1680     7.5640    13.5820    24.1190     2.2720   -20.8740 
   38.8750    38.8020     1.7800     0.1560    69.8350    16.3970     7.8530     9.9780    24.4450     2.2040   -22.5190 
   39.0000    38.9260     1.7940     0.1590    64.7800    15.9280     7.7850     8.4640    24.7380     2.1480   -24.0430 
   39.1250    39.0500     1.8070     0.1620    61.7700    15.1780     7.5340     8.0650    24.8680     2.1200   -25.3340 
   39.2500    39.1740     1.8200     0.1650    61.6090    14.5610     7.3130     7.8630    24.8000     2.1080   -26.3400 
   39.3750    39.2980     1.8330     0.1680    62.4550    14.1520     7.1760     8.0350    24.7060     2.1010   -26.9420 
   39.5000    39.4230     1.8460     0.1710    63.7040    13.8540     7.0870     8.4290    24.7850     2.0950   -27.0850 
   39.6250    39.5470     1.8590     0.1740    66.3220    13.5240     6.9700     8.3850    25.0630     2.0940   -26.8450 
   39.7500    39.6710     1.8730     0.1770    69.8420    13.1310     6.8100     7.8290    25.0530     2.0970   -26.4300 
   39.8750    39.7950     1.8860     0.1800    73.5810    12.7440     6.6410     7.0180    24.7880     2.1010   -26.0000 
   40.0000    39.9190     1.8990     0.1830    76.2970    12.4550     6.5090     6.4140    24.5980     2.1010   -25.6550 
   40.1250    40.0440     1.9120     0.1860    76.3210    12.3660     6.4660     7.1050    24.5790     2.1010   -25.2690 
   40.2500    40.1680     1.9250     0.1890    73.6010    12.4490     6.5110     7.7030    24.5540     2.1080   -24.8620 
   40.3750    40.2920     1.9390     0.1920    69.2740    12.6460     6.6280     8.0780    24.4770     2.1260   -24.4870 
   40.5000    40.4160     1.9520     0.1950    66.4210    12.8750     6.7830     8.2990    24.4000     2.1510   -24.2110 
   40.6250    40.5400     1.9650     0.1980    64.8390    13.0370     6.9360     8.3360    24.4170     2.1680   -24.0230 
   40.7500    40.6640     1.9780     0.2000    63.1430    13.0870     7.0540     8.4270    24.5050     2.1680   -23.9160 
   40.8750    40.7890     1.9910     0.2030    62.8620    13.0060     7.1150     8.6020    24.5630     2.1460   -23.8130 
   41.0000    40.9130     2.0050     0.2060    65.6540    12.7910     7.0990     8.6780    24.5220     2.1140   -23.6670 
   41.1250    41.0370     2.0180     0.2090    70.1430    12.4390     6.9720     8.6110    24.4070     2.0930   -23.5230 
   41.2500    41.1610     2.0310     0.2120    72.3540    12.0200     6.7710     8.4090    24.3600     2.0970   -23.3820 
   41.3750    41.2850     2.0440     0.2150    73.1410    11.6090     6.5420     7.8500    24.2790     2.1240   -23.2610 
   41.5000    41.4100     2.0570     0.2180    73.6160    11.2910     6.3450     7.2870    24.1340     2.1570   -23.1570 
   41.6250    41.5340     2.0710     0.2210    72.1110    11.1590     6.2470     7.3550    24.0350     2.1720   -23.1810 
   41.7500    41.6580     2.0840     0.2240    69.1970    11.1950     6.2460     7.8550    24.0700     2.1600   -23.2310 
   41.8750    41.7820     2.0970     0.2270    67.1410    11.3450     6.3250     8.1500    24.1260     2.1290   -23.2910 
   42.0000    41.9060     2.1100     0.2300    66.7970    11.5260     6.4430     8.1950    24.1590     2.0950   -23.3250 
   42.1250    42.0300     2.1230     0.2330    66.0990    11.6350     6.5450     8.2480    24.1840     2.0800   -23.3900 
   42.2500    42.1550     2.1360     0.2360    66.1090    11.6410     6.5960     8.2760    24.1890     2.0870   -23.4830 
   42.3750    42.2790     2.1500     0.2390    67.8930    11.5600     6.5930     8.3180    24.1820     2.1130   -23.5850 
   42.5000    42.4030     2.1630     0.2420    68.7320    11.4290     6.5530     8.3440    24.2400     2.1440   -23.6940 
   42.6250    42.5270     2.1760     0.2450    66.9910    11.2670     6.4930     8.2250    24.4910     2.1630   -23.7430 
   42.7500    42.6510     2.1890     0.2480    64.2990    11.0570     6.4150     8.2070    24.8410     2.1640   -23.7880 
   42.8750    42.7750     2.2020     0.2510    62.0480    10.7830     6.3060     8.3400    25.0340     2.1410   -23.8080 
   43.0000    42.9000     2.2160     0.2540    60.6380    10.5050     6.1830     8.5410    24.9780     2.0970   -23.7880 
   43.1250    43.0240     2.2290     0.2570    62.3640    10.4660     6.1600     8.6560    24.7040     2.0450   -23.6840 
   43.2500    43.1480     2.2420     0.2590    66.3870    10.9180     6.3780     8.5650    24.4030     2.0260   -23.5030 
   43.3750    43.2720     2.2550     0.2620    68.7620    12.0350     6.9490     8.5990    24.1600     2.0770   -23.2360 
   43.5000    43.3960     2.2680     0.2650    68.1110    13.7740     7.9070    11.0700    24.0130     2.2100   -22.8890 
   43.6250    43.5210     2.2820     0.2680    64.9650    15.6690     9.1340    21.6550    23.9150     2.3830   -22.4120 
   43.7500    43.6450     2.2950     0.2710    62.7410    16.8490    10.1300    38.1170    23.8380     2.5090   -21.9050 
   43.8750    43.7690     2.3080     0.2740    62.8170    16.6880    10.3640    34.6930    23.8020     2.5340   -21.3880 
   44.0000    43.8930     2.3210     0.2770    63.4320    15.1480     9.6530    18.5380    23.8040     2.4590   -20.8610 
   44.1250    44.0170     2.3340     0.2800    64.2840    12.8640     8.3670    11.1520    23.8900     2.3360   -20.4500 
   44.2500    44.1410     2.3480     0.2830    67.1400    10.8840     7.1760     8.5630    23.9470     2.2380   -20.1260 
   44.3750    44.2660     2.3610     0.2860    73.2950     9.6690     6.3530     7.7520    23.9580     2.1880   -19.8930 
   44.5000    44.3900     2.3740     0.2890    77.8710     9.2380     5.9520     7.5510    23.9620     2.1790   -19.6790 
   44.6250    44.5140     2.3870     0.2920    74.9230     9.3400     5.9200     8.5010    23.9860     2.1890   -19.3660 
   44.7500    44.6380     2.4000     0.2950    70.5630     9.4850     6.0090     8.9030    23.9970     2.1980   -18.9240 
   44.8750    44.7620     2.4140     0.2980    70.9800     9.4090     6.0500     8.5680    23.9830     2.2050   -18.3770 
