~V
VERS. 2.00: Ver 2.00
~W
STRT.M 55.0000:
STOP.M 289.0000:
STEP.M 0.1250:
NULL. -999.2500:
UWI. FD10909:
~C
DEPT.M :
TVD. :
DX. :
DY. :
SP.MV :
GR.API :
RI. :
RML.OHMM :
RXO.OHMM :
DEN.GM/CC :
~A
# ...
  255.7500   247.9800    48.3950    10.3610   -10.4010    28.8250     2.4240     3.0380     2.6780     2.3410 
  255.8750   248.0980    48.4360    10.3720   -10.4650    30.5200     2.4660     3.0830     2.6900     2.3380 
  256.0000   248.2150    48.4770    10.3820   -10.5270    34.4730     2.5540     3.1780     2.8400     2.3360 
  256.1250   248.3330    48.5170    10.3930   -10.5710    38.2780     2.6560     3.2900     3.0660     2.3350 
  256.2500   248.4510    48.5580    10.4030   -10.5790    41.0190     2.7460     3.3880     3.1860     2.3340 
  256.3750   248.5680    48.5990    10.4130   -10.5530    42.5460     2.8060     3.4520     3.2140     2.3310 
  256.5000   248.6860    48.6400    10.4240   -10.5110    43.9550     2.8230     3.4710     3.2950     2.3250 
  256.6250   248.8040    48.6800    10.4340   -10.4720    44.5360     2.8060     3.4530     3.4150     2.3160 
  256.7500   248.9220    48.7210    10.4440   -10.4420    44.5860     2.7800     3.4250     3.5180     2.3060 
  256.8750   249.0390    48.7620    10.4550   -10.4140    44.7750     2.7780     3.4230     3.5260     2.3040 
  257.0000   249.1570    48.8020    10.4650   -10.3730    45.9220     2.8230     3.4710     3.3360     2.3120 
  257.1250   249.2750    48.8430    10.4760   -10.3260    48.1030     2.9140     3.5710     3.2030     2.3230 
  257.2500   249.3930    48.8840    10.4860   -10.3020    49.9900     3.0460     3.7140     3.4410     2.3290 
  257.3750   249.5100    48.9240    10.4970   -10.3370    52.2030     3.1890     3.8700     3.8290     2.3280 
  257.5000   249.6280    48.9650    10.5070   -10.4450    54.4170     3.3020     3.9930     4.0270     2.3230 
  257.6250   249.7460    49.0060    10.5170   -10.5980    57.3160     3.3400     4.0340     4.0730     2.3210 
  257.7500   249.8630    49.0460    10.5280   -10.7700    56.0970     3.2640     3.9530     4.0700     2.3280 
  257.8750   249.9810    49.0870    10.5380   -10.9380    51.3930     3.0990     3.8050     3.8860     2.3410 
  258.0000   250.0990    49.1280    10.5490   -11.1000    43.8170     2.8900     3.6490     3.4450     2.3560 
  258.1250   250.2170    49.1690    10.5590   -11.2440    38.3100     2.6920     3.4760     3.0190     2.3690 
  258.2500   250.3340    49.2090    10.5700   -11.3450    34.2380     2.5470     3.3210     2.8270     2.3740 
  258.3750   250.4520    49.2500    10.5800   -11.4050    32.7590     2.4640     3.2310     2.7620     2.3700 
  258.5000   250.5700    49.2910    10.5910   -11.4570    32.8080     2.4440     3.2090     2.6840     2.3590 
  258.6250   250.6880    49.3310    10.6020   -11.5480    34.8140     2.4610     3.2270     2.6360     2.3490 
  258.7500   250.8050    49.3720    10.6120   -11.6940    37.4510     2.4900     3.2590     2.7120     2.3430 
  258.8750   250.9230    49.4120    10.6230   -11.8590    39.4180     2.5180     3.2890     2.8310     2.3370 
  259.0000   251.0410    49.4530    10.6330   -11.9790    40.0250     2.5500     3.3240     2.8510     2.3280 
  259.1250   251.1590    49.4940    10.6440   -12.0280    39.1410     2.6030     3.3820     2.7740     2.3160 
  259.2500   251.2760    49.5340    10.6540   -12.0220    39.9860     2.7180     3.5070     2.7410     2.3090 
  259.3750   251.3940    49.5750    10.6650   -12.0260    42.7310     2.9340     3.7420     2.8280     2.3140 
  259.5000   251.5120    49.6160    10.6760   -12.0970    46.7220     3.2680     4.1060     3.0670     2.3320 
  259.6250   251.6290    49.6560    10.6860   -12.2260    49.1660     3.6600     4.5320     3.7470     2.3580 
  259.7500   251.7470    49.6970    10.6970   -12.3560    48.8790     4.0100     4.9120     5.1420     2.3790 
  259.8750   251.8650    49.7380    10.7080   -12.4250    47.2530     4.2220     5.1440     6.5020     2.3840 
  260.0000   251.9830    49.7780    10.7190   -12.4050    46.6350     4.2410     5.1640     6.7640     2.3690 
  260.1250   252.1000    49.8190    10.7300   -12.3320    46.7850     4.1110     5.0220     6.1840     2.3460 
  260.2500   252.2180    49.8590    10.7400   -12.2450    47.7300     3.8980     4.7920     7.8020     2.3270 
  260.3750   252.3360    49.9000    10.7510   -12.1450    48.3800     3.6950     4.5710    18.0830     2.3170 
  260.5000   252.4540    49.9400    10.7620   -11.9960    49.9930     3.5570     4.4200    36.5050     2.3150 
  260.6250   252.5710    49.9810    10.7730   -11.7760    50.8390     3.4800     4.3360    43.8090     2.3230 
  260.7500   252.6890    50.0220    10.7840   -11.4950    50.0320     3.4320     4.2830    29.1030     2.3470 
  260.8750   252.8070    50.0620    10.7950   -11.2110    47.2920     3.3720     4.2190    11.1550     2.3750 
  261.0000   252.9240    50.1030    10.8060   -10.9730    45.4320     3.2920     4.1320     4.0740     2.3910 
  261.1250   253.0420    50.1430    10.8160   -10.7950    45.4620     3.2080     4.0400     3.1430     2.3860 
  261.2500   253.1600    50.1840    10.8270   -10.6790    46.4660     3.1460     3.9730     3.3610     2.3630 
  261.3750   253.2780    50.2250    10.8380   -10.6230    46.9590     3.1300     3.9560     3.5320     2.3410 
  261.5000   253.3950    50.2650    10.8490   -10.6610    46.4490     3.1790     4.0090     3.5530     2.3300 
  261.6250   253.5130    50.3060    10.8590   -10.7710    46.8220     3.3020     4.1420     3.6120     2.3290 
  261.7500   253.6310    50.3470    10.8700   -10.9070    47.6290     3.5020     4.3600     4.1020     2.3340 
  261.8750   253.7490    50.3870    10.8810   -11.0140    48.7490     3.7310     4.6100     5.3300     2.3430 
  262.0000   253.8660    50.4280    10.8920   -11.0650    48.0240     3.9120     4.8060     6.6250     2.3520 
  262.1250   253.9840    50.4680    10.9030   -11.0760    47.7110     3.9810     4.8810     6.7100     2.3520 
  262.2500   254.1020    50.5090    10.9140   -11.0350    48.9710     3.9040     4.7980     5.8000     2.3360 
  262.3750   254.2190    50.5500    10.9250   -10.9280    51.6830     3.6930     4.5680     6.6810     2.3100 
  262.5000   254.3370    50.5900    10.9350   -10.7440    52.7600     3.3770     4.2150    14.8890     2.2860 
  262.6250   254.4550    50.6310    10.9460   -10.5090    51.4210     3.0340     3.7930    27.2960     2.2700 
  262.7500   254.5720    50.6720    10.9570   -10.2590    48.9020     2.7440     3.4090    28.3150     2.2660 
  262.8750   254.6900    50.7120    10.9680   -10.0120    46.8000     2.5650     3.1900    16.1620     2.2680 
  263.0000   254.8080    50.7530    10.9780    -9.7730    45.2470     2.5170     3.1380     5.7560     2.2730 
  263.1250   254.9260    50.7940    10.9890    -9.5470    43.9040     2.5600     3.1850     2.9190     2.2780 
  263.2500   255.0430    50.8340    11.0000    -9.3490    43.9940     2.6730     3.3090     3.0560     2.2820 
  263.3750   255.1610    50.8750    11.0110    -9.1930    46.1830     2.8190     3.4670     3.3440     2.2870 
  263.5000   255.2790    50.9160    11.0210    -9.0750    48.6780     2.9380     3.5960     3.7370     2.3020 
  263.6250   255.3960    50.9560    11.0320    -8.9760    49.9640     2.9760     3.6380     4.5820     2.3280 
  263.7500   255.5140    50.9970    11.0430    -8.8800    49.0550     2.9000     3.5550     5.6170     2.3570 
  263.8750   255.6320    51.0380    11.0530    -8.7940    46.7700     2.7360     3.3770     5.5270     2.3760 
  264.0000   255.7500    51.0780    11.0640    -8.7280    42.1720     2.5450     3.1690     4.2020     2.3790 
  264.1250   255.8670    51.1190    11.0750    -8.6710    37.7420     2.3950     3.0060     3.1780     2.3700 
  264.2500   255.9850    51.1600    11.0860    -8.5790    35.3150     2.3400     2.9450     2.9200     2.3530 
  264.3750   256.1030    51.2000    11.0960    -8.4020    34.7870     2.3840     2.9940     2.9290     2.3350 
  264.5000   256.2200    51.2410    11.1070    -8.1150    35.8040     2.5200     3.1420     3.1020     2.3240 
  264.6250   256.3380    51.2820    11.1180    -7.7630    38.1070     2.7050     3.3430     3.3240     2.3230 
  264.7500   256.4560    51.3230    11.1280    -7.4310    42.1770     2.9180     3.5740     3.4440     2.3320 
