~V
VERS. 2.00: Ver 2.00
~W
STRT.M 65.0000:
STOP.M 248.0000:
STEP.M 0.1250:
NULL. -999.2500:
UWI. FD10900:
~C
DEPT.M :
TVD. :
DX. :
DY. :
SP.MV :
GR.API :
RI. :
RML.OHMM :
RXO.OHMM :
DEN.GM/CC :
~A
# ...
  119.7500   119.5490    -3.5910     1.5550   -18.3450    77.3550     7.4080     8.3520     6.9290     2.1570 
  119.8750   119.6730    -3.6060     1.5650   -18.8950    74.9320     7.6870     8.6930     7.1380     2.1410 
  120.0000   119.7970    -3.6220     1.5750   -19.4280    75.1660     8.1350     9.2050     7.6480     2.1260 
  120.1250   119.9200    -3.6380     1.5850   -19.7270    74.3210     8.6160     9.7310     8.2830     2.1170 
  120.2500   120.0440    -3.6530     1.5950   -19.8700    73.7660     9.0200    10.1630     8.7090     2.1090 
  120.3750   120.1670    -3.6690     1.6050   -19.9460    72.0180     9.3160    10.4850     8.8180     2.1000 
  120.5000   120.2910    -3.6850     1.6160   -19.9720    71.7200     9.4720    10.6630     8.7000     2.0910 
  120.6250   120.4150    -3.7000     1.6260   -19.9570    71.2380     9.4710    10.6790     8.4430     2.0870 
  120.7500   120.5380    -3.7160     1.6360   -19.9050    71.6830     9.3090    10.5290     8.0030     2.0920 
  120.8750   120.6620    -3.7320     1.6460   -19.8200    70.9710     9.0710    10.3060     7.5600     2.1040 
  121.0000   120.7850    -3.7470     1.6560   -19.7180    71.3810     8.8850    10.1610     7.4090     2.1180 
  121.1250   120.9090    -3.7630     1.6660   -19.6040    72.3720     8.8690    10.2310     7.5110     2.1340 
  121.2500   121.0330    -3.7790     1.6770   -19.3810    73.6600     9.1070    10.6110     7.8210     2.1580 
  121.3750   121.1560    -3.7950     1.6870   -19.1300    74.1810     9.6150    11.3140     8.5410     2.1920 
  121.5000   121.2800    -3.8100     1.6970   -18.8450    73.6330    10.4220    12.3510     9.7330     2.2230 
  121.6250   121.4030    -3.8260     1.7070   -18.4740    71.5570    11.4290    13.5800    11.2700     2.2260 
  121.7500   121.5270    -3.8420     1.7170   -17.9410    67.6320    12.4970    14.8350    13.2850     2.1950 
  121.8750   121.6500    -3.8580     1.7280   -17.3020    62.3630    13.4770    15.9790    15.2810     2.1520 
  122.0000   121.7740    -3.8740     1.7380   -16.6800    59.8560    14.2720    16.9250    16.6060     2.1210 
  122.1250   121.8970    -3.8900     1.7480   -16.1840    58.2320    14.8500    17.6330    17.3130     2.1080 
  122.2500   122.0210    -3.9060     1.7590   -15.8320    58.9790    15.0090    17.8040    17.5550     2.1040 
  122.3750   122.1450    -3.9220     1.7690   -15.5790    58.4880    14.5770    17.2070    17.7540     2.1010 
  122.5000   122.2680    -3.9380     1.7790   -15.4000    58.6950    13.5720    15.8970    17.8410     2.1050 
  122.6250   122.3920    -3.9540     1.7890   -15.2820    60.7970    12.3090    14.3050    16.7480     2.1150 
  122.7500   122.5150    -3.9700     1.8000   -15.3370    65.3170    11.1940    12.9790    14.5560     2.1300 
  122.8750   122.6390    -3.9860     1.8100   -15.5920    70.9600    10.5260    12.2870    12.9090     2.1400 
  123.0000   122.7620    -4.0020     1.8200   -15.8970    71.5780    10.4550    12.3840    11.8140     2.1380 
  123.1250   122.8860    -4.0190     1.8310   -16.2510    69.8120    10.9250    13.1470    11.0650     2.1260 
  123.2500   123.0090    -4.0350     1.8410   -16.4160    66.6170    11.7980    14.3590    11.3950     2.1090 
  123.3750   123.1330    -4.0510     1.8510   -16.2960    66.0380    12.7480    15.5900    11.9180     2.0950 
  123.5000   123.2560    -4.0670     1.8620   -15.9530    67.1780    13.4450    16.4270    12.3100     2.0870 
  123.6250   123.3800    -4.0830     1.8720   -15.5180    66.3820    13.7280    16.7050    13.5120     2.0870 
  123.7500   123.5030    -4.1000     1.8830   -15.0990    64.8380    13.6490    16.5160    14.9790     2.0920 
  123.8750   123.6270    -4.1160     1.8930   -14.7590    63.7980    13.4640    16.2110    15.4460     2.1010 
  124.0000   123.7500    -4.1320     1.9030   -14.5580    66.0040    13.4190    16.1220    15.1120     2.1130 
  124.1250   123.8740    -4.1480     1.9140   -14.4350    66.8100    13.6770    16.4650    15.4370     2.1250 
  124.2500   123.9970    -4.1640     1.9250   -14.3410    64.7440    14.3020    17.3160    16.8030     2.1340 
  124.3750   124.1210    -4.1810     1.9350   -14.2600    61.2930    15.0520    18.3380    17.8540     2.1400 
  124.5000   124.2440    -4.1970     1.9460   -14.0930    58.8850    15.5220    18.9840    18.1430     2.1450 
  124.6250   124.3680    -4.2130     1.9560   -13.9050    58.6540    15.4390    18.8980    18.1450     2.1520 
  124.7500   124.4910    -4.2290     1.9670   -13.8300    60.7720    14.7090    17.9710    17.0040     2.1610 
  124.8750   124.6150    -4.2460     1.9770   -13.9240    63.5150    13.5960    16.5850    14.4500     2.1640 
  125.0000   124.7380    -4.2620     1.9880   -14.3140    66.0030    12.4130    15.1620    12.5380     2.1570 
  125.1250   124.8620    -4.2780     1.9990   -15.0270    67.1520    11.3040    13.8570    12.4790     2.1460 
  125.2500   124.9850    -4.2940     2.0090   -16.0110    68.4300    10.2660    12.6220    12.4880     2.1350 
  125.3750   125.1090    -4.3110     2.0200   -16.9710    69.0940     9.3010    11.4270    11.0750     2.1320 
  125.5000   125.2320    -4.3270     2.0310   -17.6650    69.9530     8.5090    10.4160     9.1710     2.1440 
  125.6250   125.3560    -4.3430     2.0420   -18.1870    71.5230     8.0650     9.8650     8.0030     2.1780 
  125.7500   125.4790    -4.3590     2.0520   -18.7300    74.6400     8.0800     9.9530     7.6860     2.2430 
  125.8750   125.6030    -4.3760     2.0630   -19.3200    77.5710     8.3960    10.4600     8.8110     2.3340 
  126.0000   125.7260    -4.3920     2.0740   -19.8620    78.4870     8.6920    10.9100    12.4510     2.4270 
  126.1250   125.8490    -4.4090     2.0840   -20.2880    79.2350     8.6500    10.8340    15.6720     2.4830 
  126.2500   125.9730    -4.4250     2.0950   -20.5820    82.2390     8.1360    10.0690    14.1850     2.4800 
  126.3750   126.0960    -4.4410     2.1060   -20.7100    86.6040     7.2840     8.8600     9.8650     2.4370 
  126.5000   126.2200    -4.4580     2.1170   -20.7500    89.2820     6.3240     7.5800     6.9560     2.3860 
  126.6250   126.3430    -4.4740     2.1270   -20.7420    89.8930     5.5130     6.5770     6.3810     2.3470 
  126.7500   126.4670    -4.4910     2.1380   -20.7360    91.1160     5.0060     6.0090     6.8440     2.3180 
  126.8750   126.5900    -4.5070     2.1490   -20.7360    94.0750     4.7600     5.7550     6.6910     2.2940 
  127.0000   126.7140    -4.5240     2.1600   -20.7930    94.6120     4.6490     5.6360     5.7300     2.2780 
  127.1250   126.8370    -4.5400     2.1710   -20.8730    92.9060     4.5610     5.5260     5.0330     2.2700 
  127.2500   126.9600    -4.5570     2.1810   -20.9130    89.5620     4.4690     5.4040     4.8610     2.2680 
  127.3750   127.0840    -4.5740     2.1920   -20.9590    89.9450     4.3770     5.2700     4.7220     2.2650 
  127.5000   127.2070    -4.5900     2.2030   -21.0400    94.3330     4.3000     5.1470     4.4460     2.2640 
  127.6250   127.3310    -4.6070     2.2140   -21.1540    99.5750     4.2660     5.0770     4.2560     2.2640 
  127.7500   127.4540    -4.6230     2.2250   -21.2050   101.2690     4.3120     5.1150     4.3920     2.2670 
  127.8750   127.5770    -4.6400     2.2360   -21.2160   100.2050     4.4400     5.2660     4.7220     2.2730 
  128.0000   127.7010    -4.6570     2.2470   -21.2340   100.1700     4.6160     5.4780     5.0690     2.2830 
  128.1250   127.8240    -4.6730     2.2580   -21.2380   101.9810     4.7720     5.6550     5.3230     2.2920 
  128.2500   127.9480    -4.6900     2.2690   -21.2960   102.3520     4.8460     5.7220     5.2680     2.2920 
  128.3750   128.0710    -4.7070     2.2800   -21.4050   101.3960     4.8370     5.6890     4.9650     2.2820 
  128.5000   128.1940    -4.7230     2.2920   -21.4520    99.0280     4.7840     5.6080     4.7470     2.2710 
  128.6250   128.3180    -4.7400     2.3030   -21.4810    97.3430     4.7350     5.5400     4.7280     2.2670 
  128.7500   128.4410    -4.7570     2.3140   -21.4960    95.7140     4.7240     5.5210     4.8480     2.2700 
