~V
VERS. 2.00: Ver 2.00
~W
STRT.M 64.0000:
STOP.M 246.0000:
STEP.M 0.1250:
NULL. -999.2500:
UWI. FD10853:
~C
DEPT.M :
TVD. :
DX. :
DY. :
SP.MV :
GR.API :
RI. :
RML.OHMM :
RXO.OHMM :
DEN.GM/CC :
~A
# ...
  228.2500   224.8970   -27.0960    -9.6320    -4.7160    32.4290     2.5490     2.6930     2.6960     2.3130 
  228.3750   225.0170   -27.1270    -9.6440    -4.7870    30.2170     2.4950     2.6360     2.6690     2.3030 
  228.5000   225.1380   -27.1580    -9.6550    -3.9160    29.9480     2.4630     2.6070     2.6860     2.3060 
  228.6250   225.2580   -27.1890    -9.6670    -1.7980    29.9160     2.4420     2.5910     2.7300     2.3080 
  228.7500   225.3790   -27.2190    -9.6790    -0.6780    30.4330     2.4320     2.5830     2.7500     2.2950 
  228.8750   225.5000   -27.2500    -9.6910    -0.5930    30.3940     2.4340     2.5860     2.7000     2.2760 
  229.0000   225.6200   -27.2810    -9.7030    -0.6400    30.5230     2.4410     2.5980     2.6320     2.2670 
  229.1250   225.7410   -27.3120    -9.7140    -0.6860    30.7660     2.4560     2.6160     2.6280     2.2680 
  229.2500   225.8610   -27.3430    -9.7270    -0.7220    32.2190     2.4900     2.6580     2.6850     2.2730 
  229.3750   225.9820   -27.3740    -9.7390    -0.7570    33.7780     2.5460     2.7220     2.7380     2.2800 
  229.5000   226.1020   -27.4050    -9.7510    -0.6710    34.5840     2.6010     2.7810     2.7680     2.2930 
  229.6250   226.2230   -27.4360    -9.7630    -0.5730    34.6200     2.6370     2.8220     2.7880     2.3010 
  229.7500   226.3430   -27.4670    -9.7750    -0.4910    34.9260     2.6350     2.8180     2.7710     2.2940 
  229.8750   226.4640   -27.4980    -9.7870    -0.5080    35.8090     2.5960     2.7770     2.7260     2.2870 
  230.0000   226.5840   -27.5290    -9.7990    -0.5590    36.0630     2.5410     2.7200     2.7090     2.2930 
  230.1250   226.7050   -27.5600    -9.8110    -0.5590    34.8180     2.4890     2.6660     2.7060     2.3110 
  230.2500   226.8250   -27.5910    -9.8230    -0.5590    32.5250     2.4600     2.6370     2.6700     2.3190 
  230.3750   226.9450   -27.6220    -9.8350    -0.5590    31.3150     2.4570     2.6390     2.6280     2.3180 
  230.5000   227.0660   -27.6540    -9.8470    -0.5590    31.6140     2.4730     2.6630     2.6250     2.3070 
  230.6250   227.1860   -27.6850    -9.8600    -0.5590    33.1590     2.4980     2.6950     2.6510     2.2950 
  230.7500   227.3070   -27.7160    -9.8720    -0.5590    34.1640     2.5240     2.7380     2.6620     2.2850 
  230.8750   227.4270   -27.7480    -9.8840    -0.5590    34.8290     2.5540     2.7760     2.6330     2.2920 
  231.0000   227.5470   -27.7790    -9.8970    -0.5590    34.8030     2.5840     2.8240     2.6160     2.2930 
  231.1250   227.6680   -27.8100    -9.9090    -0.5590    34.1960     2.6100     2.8700     2.6430     2.2760 
  231.2500   227.7880   -27.8420    -9.9210    -0.5590    33.6510     2.6360     2.9170     2.6580     2.2310 
  231.3750   227.9080   -27.8730    -9.9330    -0.5590    33.9180     2.6640     2.9740     2.6440     2.2120 
  231.5000   228.0290   -27.9050    -9.9460    -0.5590    34.5600     2.6880     3.0180     2.6530     2.2270 
  231.6250   228.1490   -27.9360    -9.9590    -0.5590    35.1100     2.7180     3.0700     2.6930     2.2660 
  231.7500   228.2690   -27.9680    -9.9710    -0.5590    35.3980     2.7520     3.1180     2.7480     2.3040 
  231.8750   228.3900   -27.9990    -9.9840    -0.5590    36.3070     2.7890     3.1670     2.7880     2.3400 
  232.0000   228.5100   -28.0300    -9.9970    -0.5590    36.8380     2.8270     3.2170     2.7920     2.3660 
  232.1250   228.6300   -28.0620   -10.0090    -0.5590    36.6450     2.8710     3.2720     2.7840     2.3730 
  232.2500   228.7510   -28.0930   -10.0220    -0.5590    35.4830     2.9140     3.3260     2.8040     2.3670 
  232.3750   228.8710   -28.1240   -10.0350    -0.5590    34.5300     2.9600     3.3820     2.8490     2.3600 
  232.5000   228.9910   -28.1560   -10.0480    -0.5590    34.1740     3.0070     3.4280     2.8720     2.3610 
  232.6250   229.1120   -28.1870   -10.0610    -0.5590    34.4810     3.0330     3.4510     2.8740     2.3650 
  232.7500   229.2320   -28.2190   -10.0740    -0.5590    34.8790     3.0300     3.4500     2.9000     2.3630 
  232.8750   229.3520   -28.2500   -10.0870    -0.5590    34.9490     3.0000     3.4170     2.9140     2.3580 
  233.0000   229.4730   -28.2810   -10.1000    -0.5590    34.4660     2.9510     3.3710     2.8670     2.3500 
  233.1250   229.5930   -28.3120   -10.1130    -0.5590    33.6910     2.9050     3.3210     2.8020     2.3520 
  233.2500   229.7130   -28.3440   -10.1260    -0.5590    32.3670     2.8650     3.2850     2.7670     2.3690 
  233.3750   229.8340   -28.3750   -10.1390    -0.5590    31.3400     2.8440     3.2690     2.7550     2.3950 
  233.5000   229.9540   -28.4060   -10.1520    -0.5590    30.5590     2.8320     3.2600     2.7470     2.4000 
  233.6250   230.0740   -28.4380   -10.1650    -0.5590    30.8180     2.8270     3.2550     2.7200     2.3740 
  233.7500   230.1940   -28.4690   -10.1780    -0.5590    31.2850     2.8170     3.2410     2.6760     2.3300 
  233.8750   230.3150   -28.5000   -10.1920    -0.5590    31.8900     2.8050     3.2270     2.6480     2.3130 
  234.0000   230.4350   -28.5320   -10.2050    -0.5590    32.2460     2.7910     3.2190     2.6500     2.3240 
  234.1250   230.5550   -28.5630   -10.2180    -0.5590    32.8000     2.7820     3.2150     2.6640     2.3480 
  234.2500   230.6760   -28.5940   -10.2310    -0.5590    33.2160     2.7700     3.1990     2.6760     2.3580 
  234.3750   230.7960   -28.6260   -10.2440    -0.5590    33.3780     2.7590     3.1850     2.6730     2.3670 
  234.5000   230.9160   -28.6570   -10.2570    -0.5590    33.2960     2.7650     3.1800     2.6520     2.3760 
  234.6250   231.0370   -28.6880   -10.2700    -0.5590    33.6030     2.7970     3.2150     2.6290     2.3850 
  234.7500   231.1570   -28.7200   -10.2840    -0.5590    33.7310     2.8610     3.2950     2.6430     2.3860 
  234.8750   231.2770   -28.7510   -10.2970    -0.5590    33.6640     2.9440     3.4030     2.7030     2.3810 
  235.0000   231.3970   -28.7820   -10.3100    -0.5590    33.3500     3.0420     3.5270     2.7470     2.3750 
  235.1250   231.5180   -28.8140   -10.3230    -0.5590    33.6070     3.1440     3.6520     2.7280     2.3750 
  235.2500   231.6380   -28.8450   -10.3360    -0.5590    33.8310     3.2420     3.7630     2.6810     2.3870 
  235.3750   231.7580   -28.8760   -10.3490    -0.5590    33.7820     3.3490     3.8830     2.6480     2.3970 
  235.5000   231.8790   -28.9080   -10.3630    -0.5590    33.7050     3.4590     4.0170     2.6150     2.3880 
  235.6250   231.9990   -28.9390   -10.3760    -0.5590    33.8800     3.5590     4.1390     2.5940     2.3660 
  235.7500   232.1190   -28.9700   -10.3890    -0.5590    34.4800     3.6240     4.2260     2.6440     2.3520 
  235.8750   232.2390   -29.0020   -10.4020    -0.5590    34.3880     3.6110     4.2090     2.7380     2.3510 
  236.0000   232.3600   -29.0330   -10.4150    -0.5590    33.7100     3.5350     4.1060     2.8090     2.3520 
  236.1250   232.4800   -29.0640   -10.4280    -0.5590    33.0150     3.4160     3.9490     2.8600     2.3500 
  236.2500   232.6000   -29.0960   -10.4420    -0.5590    32.7480     3.3090     3.8270     2.9310     2.3480 
  236.3750   232.7210   -29.1270   -10.4550    -0.5590    32.7480     3.2270     3.7360     3.0020     2.3540 
  236.5000   232.8410   -29.1590   -10.4680    -0.5590    32.7480     3.1790     3.7020     3.0100     2.3700 
  236.6250   232.9610   -29.1900   -10.4810    -0.5590    32.7480     3.1370     3.6620     2.9540     2.3870 
  236.7500   233.0810   -29.2210   -10.4940    -0.5590    32.7480     3.0830     3.5880     2.8470     2.3890 
  236.8750   233.2020   -29.2530   -10.5070    -0.5590    32.7480     3.0140     3.4960     2.7200     2.3730 
  237.0000   233.3220   -29.2840   -10.5210    -0.5590    32.7480     2.9590     3.4230     2.6610     2.3570 
  237.1250   233.4420   -29.3150   -10.5340    -0.5590    32.7480     2.9210     3.3710     2.6920     2.3550 
  237.2500   233.5630   -29.3470   -10.5470    -0.5590    32.7480     2.9080     3.3520     2.7530     2.3620 
