~V
VERS. 2.00: Ver 2.00
~W
STRT.M 55.0000:
STOP.M 289.0000:
STEP.M 0.1250:
NULL. -999.2500:
UWI. FD10909:
~C
DEPT.M :
TVD. :
DX. :
DY. :
SP.MV :
GR.API :
RI. :
RML.OHMM :
RXO.OHMM :
DEN.GM/CC :
~A
# ...
  191.8750   187.7630    27.7380     5.1450    -1.7500    64.2580     2.7320     3.5170     2.9120     2.3150 
  192.0000   187.8810    27.7790     5.1540    -1.7650    63.0430     2.8080     3.5990     2.9130     2.3070 
  192.1250   187.9990    27.8210     5.1620    -1.7770    61.3770     2.8130     3.6040     2.8140     2.3030 
  192.2500   188.1160    27.8620     5.1710    -1.7960    60.8410     2.7650     3.5520     2.7130     2.3010 
  192.3750   188.2340    27.9030     5.1800    -1.8380    60.0080     2.6970     3.4790     2.6790     2.3010 
  192.5000   188.3520    27.9440     5.1890    -1.9060    58.1790     2.6320     3.4090     2.7380     2.3040 
  192.6250   188.4690    27.9860     5.1980    -1.9870    55.9230     2.5680     3.3410     2.8250     2.3090 
  192.7500   188.5870    28.0270     5.2070    -2.0720    53.0080     2.5110     3.2790     2.8650     2.3150 
  192.8750   188.7050    28.0680     5.2160    -2.1680    50.2770     2.4860     3.2520     2.9770     2.3170 
  193.0000   188.8220    28.1090     5.2250    -2.2840    48.3030     2.5000     3.2670     3.2310     2.3090 
  193.1250   188.9400    28.1500     5.2340    -2.4200    46.2580     2.5510     3.3220     3.4080     2.2900 
  193.2500   189.0580    28.1910     5.2430    -2.5710    44.9870     2.6540     3.4330     3.3820     2.2630 
  193.3750   189.1760    28.2320     5.2520    -2.7320    44.0390     2.8020     3.5920     3.2920     2.2370 
  193.5000   189.2930    28.2730     5.2610    -2.9010    44.7920     2.9230     3.7220     3.2030     2.2230 
  193.6250   189.4110    28.3140     5.2700    -3.0760    44.5070     2.9190     3.7160     3.0350     2.2250 
  193.7500   189.5290    28.3550     5.2790    -3.2600    43.7290     2.7480     3.5240     2.7480     2.2440 
  193.8750   189.6470    28.3960     5.2890    -3.4570    42.3300     2.5170     3.2890     2.4980     2.2680 
  194.0000   189.7640    28.4370     5.2980    -3.6710    42.6740     2.3860     3.1620     2.4300     2.2840 
  194.1250   189.8820    28.4770     5.3070    -3.8930    43.6890     2.3450     3.1100     2.4530     2.2880 
  194.2500   190.0000    28.5180     5.3160    -4.0970    43.5880     2.3350     3.0940     2.5180     2.2890 
  194.3750   190.1180    28.5590     5.3250    -4.2560    41.8260     2.3350     3.0940     2.7250     2.2970 
  194.5000   190.2360    28.6000     5.3340    -4.3570    40.4990     2.3380     3.0980     3.0980     2.3120 
  194.6250   190.3530    28.6400     5.3440    -4.4270    40.3020     2.3430     3.1020     3.4180     2.3290 
  194.7500   190.4710    28.6810     5.3530    -4.5000    41.1880     2.3610     3.1200     3.3860     2.3420 
  194.8750   190.5890    28.7220     5.3620    -4.6030    41.4090     2.3980     3.1580     3.0220     2.3470 
  195.0000   190.7070    28.7620     5.3710    -4.7350    41.5520     2.4470     3.2100     2.6620     2.3420 
  195.1250   190.8250    28.8030     5.3810    -4.8630    41.5230     2.4950     3.2620     2.5680     2.3340 
  195.2500   190.9430    28.8440     5.3900    -4.9420    42.0780     2.5300     3.3000     2.7080     2.3330 
  195.3750   191.0610    28.8840     5.4000    -4.9490    41.9470     2.5510     3.3230     2.9380     2.3410 
  195.5000   191.1780    28.9250     5.4090    -4.8860    42.0850     2.5620     3.3340     3.1520     2.3530 
  195.6250   191.2960    28.9650     5.4180    -4.7900    41.4460     2.5680     3.3390     3.2560     2.3560 
  195.7500   191.4140    29.0060     5.4280    -4.6920    41.3580     2.5680     3.3400     3.2420     2.3490 
  195.8750   191.5320    29.0460     5.4380    -4.6070    39.7770     2.5660     3.3380     3.1330     2.3400 
  196.0000   191.6500    29.0860     5.4470    -4.5280    39.7340     2.5660     3.3390     2.9610     2.3410 
  196.1250   191.7680    29.1270     5.4570    -4.4440    39.1910     2.5720     3.3450     2.8320     2.3510 
  196.2500   191.8860    29.1670     5.4670    -4.3530    39.1080     2.5870     3.3610     2.8430     2.3610 
  196.3750   192.0040    29.2070     5.4760    -4.2660    38.2990     2.6060     3.3820     3.0350     2.3650 
  196.5000   192.1220    29.2480     5.4860    -4.2070    38.6720     2.6210     3.3980     3.2890     2.3640 
  196.6250   192.2400    29.2880     5.4950    -4.1890    40.7260     2.6310     3.4080     3.4010     2.3640 
  196.7500   192.3580    29.3280     5.5050    -4.2120    43.2770     2.6490     3.4280     3.3790     2.3680 
  196.8750   192.4750    29.3690     5.5150    -4.2550    45.3590     2.6910     3.4730     3.3410     2.3760 
  197.0000   192.5930    29.4090     5.5250    -4.3020    46.4330     2.7640     3.5510     3.3290     2.3860 
  197.1250   192.7110    29.4490     5.5340    -4.3470    48.1920     2.8540     3.6480     3.3780     2.3940 
  197.2500   192.8290    29.4890     5.5440    -4.3980    50.4730     2.9350     3.7350     3.5000     2.3940 
  197.3750   192.9470    29.5300     5.5540    -4.4650    52.9180     2.9920     3.7970     3.6660     2.3880 
  197.5000   193.0650    29.5700     5.5640    -4.5530    53.4570     3.0220     3.8290     3.8140     2.3800 
  197.6250   193.1830    29.6100     5.5740    -4.6550    52.7750     3.0240     3.8310     3.8630     2.3720 
  197.7500   193.3010    29.6500     5.5830    -4.7610    52.6840     2.9930     3.7980     3.7590     2.3620 
  197.8750   193.4190    29.6910     5.5930    -4.8540    52.9480     2.9450     3.7450     3.6150     2.3510 
  198.0000   193.5370    29.7310     5.6030    -4.9150    52.5560     2.8710     3.6660     3.6020     2.3450 
  198.1250   193.6550    29.7710     5.6130    -4.9350    50.1410     2.7670     3.5550     3.6240     2.3450 
  198.2500   193.7730    29.8110     5.6230    -4.9100    47.3860     2.6730     3.4530     3.4970     2.3470 
  198.3750   193.8910    29.8510     5.6320    -4.8600    45.3410     2.6340     3.4110     3.3030     2.3460 
  198.5000   194.0090    29.8920     5.6420    -4.8060    44.4700     2.6670     3.4470     3.1940     2.3430 
  198.6250   194.1270    29.9320     5.6520    -4.7700    46.1520     2.7520     3.5390     3.2220     2.3390 
  198.7500   194.2450    29.9720     5.6620    -4.7660    49.5540     2.8340     3.6280     3.3520     2.3290 
  198.8750   194.3630    30.0120     5.6710    -4.7850    53.2910     2.8760     3.6710     3.4040     2.3170 
  199.0000   194.4810    30.0520     5.6810    -4.8010    53.4520     2.8890     3.6820     3.2960     2.3070 
  199.1250   194.5990    30.0920     5.6910    -4.7850    52.2000     2.8890     3.6850     3.1920     2.3060 
  199.2500   194.7170    30.1320     5.7010    -4.7240    51.6940     2.8860     3.6820     3.2150     2.3110 
  199.3750   194.8350    30.1730     5.7110    -4.6330    52.9680     2.8840     3.6800     3.2860     2.3190 
  199.5000   194.9530    30.2130     5.7210    -4.5330    52.8090     2.8920     3.6880     3.3150     2.3280 
  199.6250   195.0710    30.2530     5.7310    -4.4470    50.1380     2.9130     3.7070     3.3500     2.3400 
  199.7500   195.1880    30.2930     5.7400    -4.3850    46.2110     2.9440     3.7350     3.4230     2.3560 
  199.8750   195.3060    30.3330     5.7500    -4.3510    44.2290     2.9740     3.7630     3.4770     2.3700 
  200.0000   195.4240    30.3730     5.7600    -4.3530    45.7530     2.9910     3.7840     3.5880     2.3740 
  200.1250   195.5420    30.4130     5.7700    -4.3870    49.2060     2.9940     3.7950     3.8140     2.3700 
  200.2500   195.6600    30.4530     5.7800    -4.4580    54.5270     3.0030     3.8090     4.0860     2.3580 
  200.3750   195.7780    30.4930     5.7900    -4.5660    59.8410     3.0400     3.8480     4.3920     2.3440 
  200.5000   195.8960    30.5330     5.8000    -4.7130    63.3670     3.1240     3.9380     4.7540     2.3280 
  200.6250   196.0140    30.5740     5.8100    -4.8890    63.5120     3.2280     4.0500     5.0060     2.3060 
  200.7500   196.1320    30.6140     5.8200    -5.0910    60.1000     3.2550     4.0790     4.8070     2.2730 
  200.8750   196.2500    30.6540     5.8300    -5.3110    55.4250     3.1930     4.0120     4.2690     2.2290 
