~V
VERS. 2.00: Ver 2.00
~W
STRT.M 30.0000:
STOP.M 223.0000:
STEP.M 0.1250:
NULL. -999.2500:
UWI. FD10814:
~C
DEPT.M :
TVD. :
DX. :
DY. :
SP.MV :
GR.API :
RI. :
RML.OHMM :
RXO.OHMM :
DEN.GM/CC :
~A
# ...
   66.5000    66.4770    -0.5570     0.7030   -23.4770    69.3100     3.6390     4.4760     5.6860     2.0450 
   66.6250    66.6020    -0.5580     0.7140   -23.5140    68.2060     3.6250     4.4360     5.9150     2.0430 
   66.7500    66.7260    -0.5590     0.7260   -23.4800    66.1350     3.6250     4.4090     6.2150     2.0410 
   66.8750    66.8510    -0.5600     0.7380   -23.4600    65.4280     3.6430     4.3920     6.1640     2.0420 
   67.0000    66.9750    -0.5610     0.7490   -23.3610    66.3640     3.6660     4.3880     5.9080     2.0590 
   67.1250    67.1000    -0.5620     0.7610   -23.2840    69.1610     3.6970     4.3890     5.9340     2.0930 
   67.2500    67.2240    -0.5630     0.7740   -23.1370    71.3910     3.7440     4.4180     6.1290     2.1330 
   67.3750    67.3480    -0.5640     0.7860   -22.9400    72.1640     3.8220     4.4830     5.9820     2.1550 
   67.5000    67.4730    -0.5640     0.7980   -22.7700    69.5160     3.9240     4.5680     5.7420     2.1510 
   67.6250    67.5970    -0.5650     0.8110   -22.6480    65.8800     4.0230     4.6590     6.0370     2.1300 
   67.7500    67.7220    -0.5660     0.8230   -22.5290    64.8240     4.1070     4.7130     6.6420     2.1130 
   67.8750    67.8460    -0.5670     0.8360   -22.2890    68.0870     4.1190     4.6810     6.8760     2.1080 
   68.0000    67.9700    -0.5670     0.8490   -21.9040    72.5690     4.0440     4.5540     6.8060     2.1110 
   68.1250    68.0950    -0.5680     0.8620   -21.2730    75.6410     3.8750     4.3470     6.5260     2.1140 
   68.2500    68.2190    -0.5690     0.8760   -20.4290    77.3800     3.6610     4.1060     5.7060     2.1150 
   68.3750    68.3430    -0.5690     0.8890   -19.5280    78.5890     3.4590     3.9000     4.8050     2.1160 
   68.5000    68.4670    -0.5700     0.9020   -18.8240    80.7880     3.3190     3.7580     4.5090     2.1200 
   68.6250    68.5920    -0.5710     0.9160   -18.2650    82.1550     3.2460     3.6880     4.6750     2.1270 
   68.7500    68.7160    -0.5720     0.9300   -17.8880    83.4320     3.2230     3.6680     4.7740     2.1300 
   68.8750    68.8400    -0.5720     0.9440   -17.6330    83.1470     3.2360     3.6710     4.6900     2.1270 
   69.0000    68.9640    -0.5730     0.9580   -17.5110    84.0700     3.2370     3.6510     4.7590     2.1250 
   69.1250    69.0880    -0.5740     0.9720   -17.3350    84.7360     3.2060     3.5880     4.8710     2.1280 
   69.2500    69.2130    -0.5740     0.9860   -17.1340    86.5370     3.1460     3.4950     4.6890     2.1310 
   69.3750    69.3370    -0.5750     1.0000   -16.9680    86.6110     3.0700     3.4010     4.3450     2.1330 
   69.5000    69.4610    -0.5750     1.0150   -16.9030    86.0070     3.0240     3.3460     4.1150     2.1340 
   69.6250    69.5850    -0.5760     1.0300   -17.2400    84.3780     3.0200     3.3470     4.1140     2.1300 
   69.7500    69.7090    -0.5760     1.0440   -18.0730    81.9700     3.0730     3.4060     4.3700     2.1160 
   69.8750    69.8330    -0.5770     1.0590   -19.2070    78.5270     3.1730     3.5080     4.7590     2.0960 
   70.0000    69.9570    -0.5780     1.0740   -20.2760    75.5780     3.2950     3.6310     5.0620     2.0800 
   70.1250    70.0820    -0.5780     1.0890   -21.3250    75.2120     3.4140     3.7460     5.2560     2.0750 
   70.2500    70.2060    -0.5780     1.1050   -22.2930    76.5840     3.5090     3.8370     5.3960     2.0750 
   70.3750    70.3300    -0.5790     1.1200   -23.0440    78.0290     3.5800     3.8940     5.4860     2.0760 
   70.5000    70.4540    -0.5790     1.1350   -23.5740    76.3820     3.6170     3.9210     5.5840     2.0760 
   70.6250    70.5780    -0.5800     1.1510   -23.9690    73.5990     3.6340     3.9290     5.7340     2.0770 
   70.7500    70.7020    -0.5800     1.1670   -24.1130    71.3990     3.6560     3.9540     5.7740     2.0850 
   70.8750    70.8260    -0.5810     1.1830   -23.9650    72.8400     3.7290     4.0410     5.5870     2.1250 
   71.0000    70.9500    -0.5810     1.1990   -23.7460    74.7730     3.8420     4.1640     5.4480     2.2180 
   71.1250    71.0740    -0.5810     1.2150   -23.5370    75.7410     3.9720     4.3060     5.5970     2.3520 
   71.2500    71.1980    -0.5820     1.2310   -23.4140    74.1000     4.1030     4.4440     5.8130     2.4500 
   71.3750    71.3220    -0.5820     1.2470   -23.3340    72.8720     4.1530     4.5000     5.8630     2.4330 
   71.5000    71.4450    -0.5820     1.2640   -23.2500    72.9500     4.0810     4.4240     5.8560     2.3190 
   71.6250    71.5690    -0.5820     1.2800   -23.0360    75.9580     3.8770     4.2090     5.9200     2.2050 
   71.7500    71.6930    -0.5830     1.2970   -22.7340    80.5780     3.6140     3.9380     5.5620     2.1580 
   71.8750    71.8170    -0.5830     1.3140   -22.5100    84.7710     3.4050     3.7230     4.8470     2.1630 
   72.0000    71.9410    -0.5830     1.3310   -22.6420    87.5990     3.3230     3.6370     4.8060     2.1660 
   72.1250    72.0650    -0.5830     1.3480   -23.4020    86.0070     3.3800     3.6930     5.3290     2.1440 
   72.2500    72.1880    -0.5830     1.3660   -24.3470    82.0600     3.5210     3.8260     5.6930     2.1160 
   72.3750    72.3120    -0.5830     1.3830   -24.9340    76.1020     3.6670     3.9480     5.8320     2.0980 
   72.5000    72.4360    -0.5830     1.4010   -25.1470    72.7810     3.7330     3.9830     5.8270     2.0930 
   72.6250    72.5600    -0.5830     1.4190   -25.2690    73.0580     3.6660     3.9040     5.8090     2.0950 
   72.7500    72.6830    -0.5830     1.4370   -25.3470    76.4180     3.5250     3.7690     5.7390     2.0950 
   72.8750    72.8070    -0.5830     1.4550   -25.3580    78.5560     3.4080     3.6470     5.5280     2.0910 
   73.0000    72.9310    -0.5830     1.4730   -25.3050    78.3290     3.3370     3.5720     5.4480     2.0870 
   73.1250    73.0540    -0.5830     1.4920   -25.3150    76.8150     3.3220     3.5390     5.5090     2.0900 
   73.2500    73.1780    -0.5830     1.5100   -25.4340    75.7820     3.3200     3.5170     5.5000     2.0950 
   73.3750    73.3020    -0.5820     1.5290   -25.6780    76.6290     3.3200     3.5100     5.4500     2.1000 
   73.5000    73.4250    -0.5820     1.5480   -26.1830    78.7780     3.3560     3.5560     5.4660     2.0990 
   73.6250    73.5490    -0.5820     1.5670   -26.8050    79.3490     3.4480     3.6780     5.6940     2.0950 
   73.7500    73.6720    -0.5820     1.5860   -27.4950    77.2060     3.5600     3.8260     9.5410     2.0910 
   73.8750    73.7960    -0.5810     1.6050   -28.0450    72.0850     3.7100     3.9570    16.2200     2.0880 
   74.0000    73.9190    -0.5810     1.6250   -28.4330    68.6120     3.8170     4.0370    15.6840     2.0850 
   74.1250    74.0430    -0.5810     1.6440   -28.6060    67.6340     3.8440     4.0250     8.8250     2.0850 
   74.2500    74.1660    -0.5810     1.6640   -28.5820    69.1780     3.7580     3.9260     5.4760     2.0870 
   74.3750    74.2890    -0.5810     1.6840   -28.3480    71.2940     3.6250     3.7810     5.4380     2.0890 
   74.5000    74.4130    -0.5800     1.7040   -28.0420    73.3690     3.4950     3.6560     5.4600     2.0850 
   74.6250    74.5360    -0.5800     1.7240   -27.7560    73.9160     3.4440     3.5990     5.4300     2.0800 
   74.7500    74.6600    -0.5800     1.7440   -27.4590    74.3170     3.4630     3.6070     5.5810     2.0760 
   74.8750    74.7830    -0.5800     1.7650   -27.0480    74.6980     3.4980     3.6440     5.8340     2.0780 
   75.0000    74.9060    -0.5790     1.7850   -26.3900    74.8750     3.5200     3.6680     5.8930     2.0830 
   75.1250    75.0290    -0.5790     1.8060   -25.4130    73.5780     3.5000     3.6590     5.6230     2.0920 
   75.2500    75.1530    -0.5790     1.8270   -24.0570    72.2140     3.4850     3.6390     5.4000     2.0990 
   75.3750    75.2760    -0.5790     1.8480   -22.3300    72.5170     3.4890     3.6490     5.4690     2.1150 
   75.5000    75.3990    -0.5780     1.8690   -20.3090    73.8240     3.5400     3.7320     6.0390     2.1640 
