~V
VERS. 2.00: Ver 2.00
~W
STRT.M 33.0000:
STOP.M 273.0000:
STEP.M 0.1250:
NULL. -999.2500:
UWI. FD10880:
~C
DEPT.M :
TVD. :
DX. :
DY. :
SP.MV :
GR.API :
RI. :
RML.OHMM :
RXO.OHMM :
DEN.GM/CC :
~A
# ...
   51.2500    51.2210     0.9500     0.0850    -3.9420    59.9960     4.5660     6.6750     6.6170     2.0530 
   51.3750    51.3460     0.9620     0.0870    -3.4250    60.9870     4.6490     6.9710     6.5480     2.0560 
   51.5000    51.4700     0.9730     0.0890    -2.8330    60.9610     4.7170     7.2150     6.6760     2.0490 
   51.6250    51.5950     0.9840     0.0910    -2.2890    61.3520     4.6530     7.1760     6.9420     2.0390 
   51.7500    51.7190     0.9950     0.0930    -1.7500    64.0140     4.3670     6.7040     7.2770     2.0520 
   51.8750    51.8440     1.0060     0.0950    -1.1400    70.0160     3.9070     5.8890     6.7180     2.1040 
   52.0000    51.9680     1.0180     0.0970    -0.4020    80.0050     3.4400     5.0590     5.0230     2.1790 
   52.1250    52.0930     1.0290     0.0990     0.4000    90.3270     3.0930     4.4660     3.9710     2.2330 
   52.2500    52.2170     1.0410     0.1010     1.0200    97.4080     2.9620     4.2710     4.0070     2.2460 
   52.3750    52.3410     1.0520     0.1030     1.1630   100.3770     3.0850     4.5350     4.3430     2.2330 
   52.5000    52.4660     1.0640     0.1050     0.8980    99.7870     3.4370     5.1680     4.8090     2.2120 
   52.6250    52.5900     1.0750     0.1070     0.4440    96.5330     3.8900     5.9100     5.3580     2.1900 
   52.7500    52.7150     1.0870     0.1090    -0.1430    90.6320     4.2260     6.3740     5.6480     2.1690 
   52.8750    52.8390     1.0990     0.1110    -0.7260    83.4710     4.3730     6.5220     5.7620     2.1510 
   53.0000    52.9640     1.1110     0.1130    -0.9230    77.9210     4.3270     6.3440     5.9930     2.1430 
   53.1250    53.0880     1.1230     0.1160    -0.5730    78.0270     4.1910     6.0400     5.7700     2.1480 
   53.2500    53.2120     1.1350     0.1180     0.2050    81.6480     4.0410     5.7730     5.3210     2.1590 
   53.3750    53.3370     1.1470     0.1200     1.0640    82.1280     3.9480     5.6290     5.6040     2.1630 
   53.5000    53.4610     1.1590     0.1230     1.5270    76.7490     3.9400     5.5880     6.1430     2.1530 
   53.6250    53.5860     1.1710     0.1250     1.3190    71.2600     3.9700     5.5340     6.1080     2.1370 
   53.7500    53.7100     1.1830     0.1280     0.7140    71.1680     3.9800     5.3450     5.7830     2.1300 
   53.8750    53.8340     1.1950     0.1300     0.1590    76.4380     3.9080     5.0270     5.6520     2.1380 
   54.0000    53.9590     1.2080     0.1330    -0.1340    82.8900     3.7550     4.6740     5.5040     2.1590 
   54.1250    54.0830     1.2200     0.1350     0.0470    87.2390     3.5810     4.3650     5.2800     2.1840 
   54.2500    54.2070     1.2330     0.1380     0.7170    88.8530     3.4250     4.1590     5.0520     2.2040 
   54.3750    54.3320     1.2450     0.1400     1.3900    88.0150     3.2900     3.9830     4.7660     2.2150 
   54.5000    54.4560     1.2580     0.1430     1.8630    85.7440     3.1710     3.8390     4.5090     2.2180 
   54.6250    54.5800     1.2710     0.1460     2.2650    85.4230     3.0490     3.7030     4.1800     2.2230 
   54.7500    54.7050     1.2840     0.1490     2.4900    89.3200     2.9010     3.5100     3.8660     2.2350 
   54.8750    54.8290     1.2970     0.1510     2.4820    94.1140     2.7230     3.2890     3.8390     2.2500 
   55.0000    54.9530     1.3100     0.1540     2.2830    97.1610     2.5440     3.0580     3.9440     2.2660 
   55.1250    55.0780     1.3230     0.1570     2.0170    97.6730     2.3870     2.8400     3.9030     2.2760 
   55.2500    55.2020     1.3360     0.1600     1.6770    97.0560     2.3400     2.7730     3.8470     2.2740 
   55.3750    55.3260     1.3490     0.1630     1.3090    96.3080     2.4090     2.8510     3.8780     2.2620 
   55.5000    55.4500     1.3620     0.1660     0.7470    94.8990     2.6490     3.1760     3.9260     2.2420 
   55.6250    55.5750     1.3750     0.1690    -0.0920    92.0360     3.0300     3.7100     4.3790     2.2190 
   55.7500    55.6990     1.3890     0.1720    -1.1010    87.3490     3.5580     4.4410     5.4660     2.1940 
   55.8750    55.8230     1.4020     0.1750    -2.2720    80.1030     4.1340     5.2190     6.4390     2.1680 
   56.0000    55.9470     1.4160     0.1780    -3.4890    71.6970     4.5380     5.6900     6.9680     2.1440 
   56.1250    56.0720     1.4290     0.1810    -4.2760    65.1650     4.7050     5.7900     7.4880     2.1270 
   56.2500    56.1960     1.4430     0.1840    -4.2740    62.9750     4.6880     5.5960     7.8820     2.1200 
   56.3750    56.3200     1.4570     0.1870    -3.7400    62.0940     4.7180     5.4800     7.6570     2.1240 
   56.5000    56.4440     1.4710     0.1900    -3.0230    62.4210     5.1110     5.8690     7.3240     2.1340 
   56.6250    56.5680     1.4840     0.1930    -2.5260    63.7170     6.0170     6.9460    10.1860     2.1500 
   56.7500    56.6930     1.4980     0.1960    -2.5320    64.9550     7.6410     8.9930    19.9650     2.1830 
   56.8750    56.8170     1.5120     0.2000    -2.8860    65.3520     9.7330    11.6530    29.4250     2.2470 
   57.0000    56.9410     1.5270     0.2030    -3.3660    65.3810    11.5310    13.8320    28.9870     2.3410 
   57.1250    57.0650     1.5410     0.2060    -3.8290    66.1630    12.0810    14.3850    22.4290     2.4330 
   57.2500    57.1890     1.5550     0.2100    -4.0570    69.0650    10.8380    12.7020    19.3670     2.4800 
   57.3750    57.3130     1.5690     0.2130    -3.9370    72.1440     8.7380    10.0730    22.2530     2.4640 
   57.5000    57.4370     1.5840     0.2160    -3.7760    72.8990     6.6180     7.6030    20.7350     2.3890 
   57.6250    57.5620     1.5980     0.2200    -3.8050    69.5980     5.2440     6.0620    12.7400     2.2890 
   57.7500    57.6860     1.6130     0.2240    -4.0030    64.6900     4.5750     5.3350     8.0420     2.1980 
   57.8750    57.8100     1.6280     0.2270    -4.2560    61.1870     4.2520     5.0270     7.2880     2.1340 
   58.0000    57.9340     1.6420     0.2310    -4.6070    60.7580     4.1920     5.0350     7.1400     2.1000 
   58.1250    58.0580     1.6570     0.2350    -5.0460    61.8210     4.2540     5.1780     7.1830     2.0850 
   58.2500    58.1820     1.6720     0.2380    -5.4820    62.8450     4.3630     5.3050     8.3380     2.0810 
   58.3750    58.3060     1.6870     0.2420    -5.8900    63.6040     4.4150     5.3270    11.6760     2.0830 
   58.5000    58.4300     1.7020     0.2460    -6.1850    63.0740     4.4260     5.2850    12.5640     2.0870 
   58.6250    58.5540     1.7170     0.2500    -6.4120    60.2800     4.4100     5.2040     8.9060     2.0900 
   58.7500    58.6780     1.7330     0.2540    -6.6510    58.3260     4.3810     5.1330     6.6700     2.0920 
   58.8750    58.8020     1.7480     0.2570    -6.8900    60.0370     4.3530     5.0900     6.8030     2.0950 
   59.0000    58.9260     1.7640     0.2610    -7.1190    63.5210     4.3330     5.0730     6.9560     2.0950 
   59.1250    59.0500     1.7790     0.2650    -7.4020    65.7240     4.3240     5.0760     7.2080     2.0930 
   59.2500    59.1740     1.7950     0.2690    -7.5230    68.0420     4.3020     5.0740     7.3270     2.0930 
   59.3750    59.2980     1.8110     0.2740    -7.2360    71.7910     4.2600     5.0260     7.1570     2.0950 
   59.5000    59.4220     1.8260     0.2780    -6.5430    72.5620     4.1890     4.9480     6.8740     2.0980 
   59.6250    59.5460     1.8420     0.2820    -5.7000    68.5640     4.0960     4.8420     6.6570     2.0980 
   59.7500    59.6700     1.8580     0.2860    -5.0150    63.1740     4.0090     4.7130     6.5840     2.0940 
   59.8750    59.7930     1.8740     0.2900    -4.8560    61.8130     3.9730     4.6540     6.6430     2.0870 
   60.0000    59.9170     1.8900     0.2950    -5.2140    64.3060     4.1080     4.7910     6.8890     2.0840 
   60.1250    60.0410     1.9060     0.2990    -5.7240    66.6580     4.4540     5.2020     7.1320     2.0970 
   60.2500    60.1650     1.9230     0.3040    -6.1610    68.4480     5.1320     6.0540     6.9490     2.1480 
