~V
VERS. 2.00: Ver 2.00
~W
STRT.M 50.0000:
STOP.M 219.0000:
STEP.M 0.1250:
NULL. -999.2500:
UWI. FD10804:
~C
DEPT.M :
TVD. :
DX. :
DY. :
SP.MV :
GR.API :
RI. :
RML.OHMM :
RXO.OHMM :
DEN.GM/CC :
~A
# ...
   95.6250    95.4860    -2.6860    -1.1870  -128.4540    68.0550     2.1820     2.5150     3.8790     2.0040 
   95.7500    95.6090    -2.7010    -1.1970  -128.2090    65.7570     2.2650     2.6000     3.9820     1.9960 
   95.8750    95.7330    -2.7160    -1.2070  -128.0580    66.1360     2.3240     2.6510     4.0710     1.9890 
   96.0000    95.8570    -2.7300    -1.2180  -127.9530    67.5470     2.3560     2.6790     4.1890     1.9870 
   96.1250    95.9800    -2.7450    -1.2280  -127.8740    70.2540     2.3750     2.6970     4.2660     1.9940 
   96.2500    96.1040    -2.7600    -1.2380  -127.8130    72.2890     2.3780     2.7040     4.2660     2.0070 
   96.3750    96.2280    -2.7750    -1.2490  -127.7710    72.9020     2.3710     2.6960     4.2410     2.0180 
   96.5000    96.3520    -2.7900    -1.2590  -127.7510    70.9990     2.3500     2.6760     4.2660     2.0250 
   96.6250    96.4750    -2.8040    -1.2690  -127.7490    68.9850     2.3260     2.6570     4.2800     2.0270 
   96.7500    96.5990    -2.8190    -1.2800  -127.7420    68.2910     2.3180     2.6500     4.2480     2.0270 
   96.8750    96.7230    -2.8340    -1.2910  -127.7070    69.9900     2.3240     2.6610     4.2110     2.0260 
   97.0000    96.8460    -2.8490    -1.3020  -127.6290    71.9730     2.3470     2.6860     4.1980     2.0260 
   97.1250    96.9700    -2.8640    -1.3120  -127.4980    72.1230     2.3790     2.7140     4.2660     2.0300 
   97.2500    97.0930    -2.8790    -1.3230  -127.3280    70.4050     2.4030     2.7330     4.3270     2.0370 
   97.3750    97.2170    -2.8940    -1.3340  -127.1390    69.7530     2.4100     2.7350     4.2930     2.0420 
   97.5000    97.3410    -2.9090    -1.3450  -126.9520    70.1040     2.4080     2.7210     4.2260     2.0450 
   97.6250    97.4640    -2.9240    -1.3560  -126.7710    70.4630     2.3740     2.6840     4.1750     2.0460 
   97.7500    97.5880    -2.9390    -1.3680  -126.5940    69.4250     2.3080     2.6160     4.1970     2.0480 
   97.8750    97.7110    -2.9540    -1.3790  -126.4270    69.3350     2.2090     2.5130     4.1990     2.0510 
   98.0000    97.8350    -2.9690    -1.3900  -126.2740    71.1620     2.0870     2.3880     3.9060     2.0550 
   98.1250    97.9590    -2.9840    -1.4010  -126.1370    73.1040     1.9740     2.2690     3.4280     2.0570 
   98.2500    98.0820    -2.9990    -1.4130  -126.0110    74.9800     1.8960     2.1900     3.1640     2.0590 
   98.3750    98.2060    -3.0140    -1.4240  -125.8560    75.4540     1.8650     2.1700     3.1060     2.0560 
   98.5000    98.3290    -3.0290    -1.4360  -125.6320    76.2660     1.8850     2.2010     3.1040     2.0510 
   98.6250    98.4530    -3.0440    -1.4470  -125.3130    76.7160     1.9500     2.2710     3.1450     2.0450 
   98.7500    98.5760    -3.0590    -1.4590  -124.9130    76.7680     2.0380     2.3580     3.2030     2.0390 
   98.8750    98.7000    -3.0740    -1.4700  -124.4570    75.9590     2.1350     2.4510     3.3060     2.0350 
   99.0000    98.8230    -3.0890    -1.4820  -123.9920    74.8410     2.2310     2.5420     3.4560     2.0350 
   99.1250    98.9470    -3.1050    -1.4940  -123.5470    73.5680     2.3190     2.6210     3.5840     2.0380 
   99.2500    99.0700    -3.1200    -1.5050  -123.1360    72.6150     2.3920     2.6870     3.6440     2.0420 
   99.3750    99.1940    -3.1350    -1.5170  -122.7750    71.5800     2.4600     2.7500     3.6820     2.0440 
   99.5000    99.3170    -3.1510    -1.5290  -122.4690    71.4650     2.5410     2.8350     3.7680     2.0450 
   99.6250    99.4410    -3.1660    -1.5410  -122.2330    71.4560     2.6660     2.9680     4.0240     2.0420 
   99.7500    99.5640    -3.1810    -1.5520  -122.0660    71.4290     2.8340     3.1280     4.4410     2.0390 
   99.8750    99.6880    -3.1970    -1.5640  -121.9660    71.3070     2.9700     3.2410     4.8820     2.0370 
  100.0000    99.8110    -3.2120    -1.5760  -121.9110    71.5530     3.0210     3.2570     5.1400     2.0400 
  100.1250    99.9350    -3.2280    -1.5880  -121.8770    73.4400     2.9920     3.1900     4.9220     2.0490 
  100.2500   100.0580    -3.2430    -1.6000  -121.8340    75.7080     2.9630     3.1370     4.5060     2.0610 
  100.3750   100.1820    -3.2590    -1.6120  -121.7540    78.0100     3.0380     3.2350     4.7640     2.0660 
  100.5000   100.3050    -3.2740    -1.6240  -121.6280    78.5860     3.3080     3.5430     5.7360     2.0650 
  100.6250   100.4290    -3.2900    -1.6360  -121.4470    76.9250     3.7320     3.9540     6.5790     2.0610 
  100.7500   100.5520    -3.3050    -1.6480  -121.2270    74.8050     4.0110     4.1930     7.2310     2.0650 
  100.8750   100.6750    -3.3210    -1.6610  -120.9860    74.5970     3.8660     4.0180     7.3030     2.0730 
  101.0000   100.7990    -3.3370    -1.6730  -120.7530    77.5080     3.2800     3.4170     6.0260     2.0860 
  101.1250   100.9220    -3.3520    -1.6850  -120.5520    83.6540     2.4240     2.5590     4.0640     2.1190 
  101.2500   101.0460    -3.3680    -1.6970  -120.3990    91.5240     1.7140     1.8120     2.5210     2.1630 
  101.3750   101.1690    -3.3840    -1.7090  -120.3110    98.7790     1.2790     1.3670     1.9210     2.1940 
  101.5000   101.2930    -3.3990    -1.7220  -120.2830   103.5020     1.0780     1.1690     1.9080     2.2060 
  101.6250   101.4160    -3.4150    -1.7340  -120.3100   105.8570     1.0210     1.1300     1.9370     2.2100 
  101.7500   101.5390    -3.4310    -1.7460  -120.3810   106.8920     1.0160     1.1430     1.9320     2.2120 
  101.8750   101.6630    -3.4470    -1.7590  -120.4890   106.6480     1.0160     1.1450     1.8370     2.2110 
  102.0000   101.7860    -3.4630    -1.7710  -120.6320   105.2790     0.9840     1.1070     1.7420     2.2000 
  102.1250   101.9090    -3.4790    -1.7840  -120.8280   104.4270     0.9390     1.0470     1.7830     2.1850 
  102.2500   102.0330    -3.4940    -1.7960  -121.0700   104.8830     0.9290     1.0260     1.8570     2.1810 
  102.3750   102.1560    -3.5100    -1.8090  -121.3370   104.2490     1.0260     1.1410     1.9740     2.2010 
  102.5000   102.2790    -3.5260    -1.8210  -121.5910   101.7320     1.3200     1.4780     2.4850     2.2480 
  102.6250   102.4030    -3.5420    -1.8340  -121.7840    96.8960     1.8920     2.1280     4.8770     2.3030 
  102.7500   102.5260    -3.5580    -1.8470  -121.8940    89.4370     2.7600     3.0420     7.4780     2.3160 
  102.8750   102.6490    -3.5740    -1.8590  -121.9200    81.7500     3.7520     4.0160     6.6920     2.2530 
  103.0000   102.7730    -3.5900    -1.8720  -121.8880    76.4390     4.4630     4.7060     4.7470     2.1480 
  103.1250   102.8960    -3.6070    -1.8850  -121.8190    74.6130     4.6520     4.8700     4.0720     2.0750 
  103.2500   103.0190    -3.6230    -1.8980  -121.7380    75.0790     4.4160     4.6310     3.8980     2.0500 
  103.3750   103.1430    -3.6390    -1.9110  -121.6560    75.8960     4.0390     4.2820     3.8570     2.0570 
  103.5000   103.2660    -3.6550    -1.9240  -121.5810    75.8580     3.8460     4.0960     3.8720     2.0660 
  103.6250   103.3890    -3.6710    -1.9370  -121.5090    75.2540     3.8480     4.0830     3.9100     2.0760 
  103.7500   103.5120    -3.6880    -1.9500  -121.4260    74.9130     3.9040     4.1260     3.8560     2.0830 
  103.8750   103.6350    -3.7040    -1.9630  -121.3150    74.6260     3.9630     4.2020     3.6680     2.0860 
  104.0000   103.7590    -3.7200    -1.9760  -121.1710    73.7010     3.9970     4.2740     3.4540     2.0810 
  104.1250   103.8820    -3.7370    -1.9890  -120.9930    72.4380     4.0220     4.3200     3.2870     2.0710 
  104.2500   104.0050    -3.7530    -2.0030  -120.8030    70.8700     4.0480     4.3570     3.1890     2.0600 
  104.3750   104.1280    -3.7700    -2.0160  -120.6280    69.5480     4.0910     4.4090     3.1460     2.0520 
  104.5000   104.2520    -3.7860    -2.0290  -120.4830    68.0820     4.1800     4.4930     3.1210     2.0520 
  104.6250   104.3750    -3.8030    -2.0430  -120.3750    68.5180     4.2970     4.6070     3.0850     2.0570 
