~V
VERS. 2.00: Ver 2.00
~W
STRT.M 64.0000:
STOP.M 246.0000:
STEP.M 0.1250:
NULL. -999.2500:
UWI. FD10853:
~C
DEPT.M :
TVD. :
DX. :
DY. :
SP.MV :
GR.API :
RI. :
RML.OHMM :
RXO.OHMM :
DEN.GM/CC :
~A
# ...
  182.6250   180.8750   -15.9100    -5.3240   -14.9310    73.7960     6.4450     6.7110     6.8280     2.2930 
  182.7500   180.9960   -15.9400    -5.3360   -14.8550    71.8750     6.2010     6.4970     6.6060     2.2800 
  182.8750   181.1170   -15.9700    -5.3480   -14.6560    69.6430     6.0030     6.3480     6.4600     2.2770 
  183.0000   181.2370   -16.0000    -5.3600   -14.5330    71.0520     5.7940     6.1920     6.3220     2.2940 
  183.1250   181.3580   -16.0300    -5.3720   -14.4820    72.5610     5.4790     5.8910     6.1690     2.3210 
  183.2500   181.4790   -16.0600    -5.3840   -14.5020    74.6740     5.1200     5.5100     5.9440     2.3430 
  183.3750   181.6000   -16.0900    -5.3970   -14.5550    75.1310     4.7560     5.1130     5.7600     2.3570 
  183.5000   181.7200   -16.1200    -5.4090   -14.6140    76.5390     4.4500     4.7970     5.5000     2.3540 
  183.6250   181.8410   -16.1500    -5.4210   -14.5480    78.9100     4.2640     4.6270     5.1480     2.3410 
  183.7500   181.9620   -16.1800    -5.4330   -14.4820    81.1720     4.1810     4.5750     4.9510     2.3290 
  183.8750   182.0830   -16.2090    -5.4460   -14.4870    82.6590     4.2110     4.6320     5.0010     2.3210 
  184.0000   182.2040   -16.2390    -5.4580   -14.5530    80.5340     4.3400     4.7880     5.2060     2.3130 
  184.1250   182.3240   -16.2690    -5.4710   -14.5700    77.9010     4.5680     5.0500     5.4520     2.2980 
  184.2500   182.4450   -16.2980    -5.4830   -14.6040    76.3920     4.9120     5.4440     5.7510     2.2950 
  184.3750   182.5660   -16.3280    -5.4960   -14.6870    75.9950     5.3170     5.8990     5.9820     2.3060 
  184.5000   182.6870   -16.3570    -5.5080   -14.7730    75.1240     5.7310     6.3600     6.1330     2.3290 
  184.6250   182.8080   -16.3870    -5.5200   -14.8600    72.8740     6.0370     6.6920     6.2350     2.3340 
  184.7500   182.9290   -16.4160    -5.5330   -14.9500    70.6090     6.2190     6.8790     6.3080     2.3270 
  184.8750   183.0490   -16.4460    -5.5450   -15.1240    69.0930     6.2600     6.9050     6.3880     2.3140 
  185.0000   183.1700   -16.4750    -5.5570   -15.3230    69.0920     6.2060     6.8300     6.4870     2.3030 
  185.1250   183.2910   -16.5050    -5.5700   -15.4670    70.8380     6.1110     6.7260     6.5450     2.2970 
  185.2500   183.4120   -16.5340    -5.5820   -15.4720    72.2930     6.0150     6.6460     6.3450     2.3000 
  185.3750   183.5330   -16.5640    -5.5950   -15.5230    72.8000     5.9450     6.6150     6.2780     2.3090 
  185.5000   183.6530   -16.5940    -5.6070   -15.6280    71.1080     5.8970     6.6250     6.2280     2.3040 
  185.6250   183.7740   -16.6230    -5.6190   -15.7920    70.5230     5.8220     6.5950     6.1870     2.2900 
  185.7500   183.8950   -16.6530    -5.6310   -15.9770    71.8040     5.7060     6.4990     6.1260     2.2720 
  185.8750   184.0160   -16.6830    -5.6430   -16.1710    74.9720     5.5490     6.3420     6.0560     2.2660 
  186.0000   184.1370   -16.7120    -5.6560   -16.3400    77.9260     5.3760     6.1580     6.0280     2.2660 
  186.1250   184.2580   -16.7420    -5.6680   -16.5500    78.5040     5.2430     6.0250     6.0280     2.2700 
  186.2500   184.3780   -16.7720    -5.6800   -16.7600    77.9730     5.1820     5.9730     6.0320     2.2800 
  186.3750   184.4990   -16.8020    -5.6930   -16.9060    75.6930     5.1800     5.9920     6.1700     2.3020 
  186.5000   184.6200   -16.8310    -5.7050   -16.8830    75.0860     5.2650     6.1090     6.3810     2.3250 
  186.6250   184.7410   -16.8610    -5.7170   -16.6990    74.9890     5.4670     6.3750     6.5810     2.3360 
  186.7500   184.8610   -16.8910    -5.7300   -16.4420    74.4110     5.8200     6.8100     6.8730     2.3200 
  186.8750   184.9820   -16.9210    -5.7420   -16.1400    72.1940     6.2570     7.3370     7.1670     2.2980 
  187.0000   185.1030   -16.9500    -5.7550   -15.9530    67.7790     6.7100     7.8270     7.4700     2.2800 
  187.1250   185.2240   -16.9800    -5.7670   -15.8530    65.6290     7.0580     8.1670     7.7870     2.2760 
  187.2500   185.3440   -17.0100    -5.7790   -15.8590    65.2350     7.3610     8.4350     8.1140     2.2690 
  187.3750   185.4650   -17.0400    -5.7910   -15.9040    67.1760     7.6880     8.7310     8.3630     2.2600 
  187.5000   185.5860   -17.0700    -5.8040   -16.0960    68.0750     8.0650     9.1330     8.6680     2.2520 
  187.6250   185.7070   -17.1000    -5.8160   -16.3790    68.4400     8.5360     9.6810     9.2010     2.2580 
  187.7500   185.8270   -17.1300    -5.8280   -16.7130    68.2310     9.0150    10.2760     9.3730     2.2680 
  187.8750   185.9480   -17.1600    -5.8400   -16.9710    67.6940     9.4040    10.7250     9.3060     2.2820 
  188.0000   186.0690   -17.1900    -5.8530   -17.2660    67.8650     9.4770    10.7600     9.1250     2.2860 
  188.1250   186.1900   -17.2190    -5.8650   -17.6080    69.1170     9.1560    10.3000     8.8800     2.2810 
  188.2500   186.3100   -17.2490    -5.8770   -17.8390    71.1480     8.6050     9.6050     8.6700     2.2720 
  188.3750   186.4310   -17.2790    -5.8890   -17.9460    72.1510     8.0890     8.9960     8.6720     2.2650 
  188.5000   186.5520   -17.3090    -5.9010   -18.0390    70.7310     7.8450     8.7470     8.8850     2.2590 
  188.6250   186.6730   -17.3390    -5.9140   -18.2900    69.0410     7.8980     8.8770     9.3000     2.2400 
  188.7500   186.7940   -17.3690    -5.9260   -18.6630    67.2820     8.1860     9.2680     9.7100     2.2150 
  188.8750   186.9140   -17.3980    -5.9380   -19.1950    66.1460     8.5990     9.7590    10.3130     2.1850 
  189.0000   187.0350   -17.4280    -5.9510   -19.8020    64.8830     9.0210    10.2110    11.0760     2.1670 
  189.1250   187.1560   -17.4570    -5.9640   -20.3430    63.7310     9.3280    10.5080    11.6200     2.1640 
  189.2500   187.2770   -17.4870    -5.9760   -20.7550    63.6890     9.6200    10.8080    11.7090     2.1960 
  189.3750   187.3980   -17.5160    -5.9880   -20.9500    63.3650     9.8650    11.0680    11.7270     2.2580 
  189.5000   187.5180   -17.5460    -6.0010   -20.8670    62.7250    10.0920    11.3030    12.0420     2.3470 
  189.6250   187.6390   -17.5760    -6.0130   -20.5740    61.2660    10.3700    11.5750    12.8090     2.4570 
  189.7500   187.7600   -17.6050    -6.0260   -20.2260    60.2100    10.7730    11.9240    14.1400     2.5340 
  189.8750   187.8810   -17.6350    -6.0380   -19.8140    59.5600    11.3310    12.3380    15.4160     2.5360 
  190.0000   188.0020   -17.6640    -6.0500   -19.4700    58.4830    12.0370    12.9490    16.7200     2.4780 
  190.1250   188.1230   -17.6940    -6.0630   -19.3460    57.1850    13.2680    14.2810    17.5600     2.4640 
  190.2500   188.2430   -17.7240    -6.0750   -19.3100    56.6840    15.4890    16.8590    20.1120     2.5440 
  190.3750   188.3640   -17.7530    -6.0870   -19.3170    57.1000    18.0270    20.0190    23.1320     2.6610 
  190.5000   188.4850   -17.7830    -6.1000   -19.2490    59.9580    19.7280    22.7270    27.1820     2.7310 
  190.6250   188.6060   -17.8120    -6.1120   -19.1630    64.0580    18.8740    21.9740    30.3300     2.7350 
  190.7500   188.7270   -17.8420    -6.1240   -19.0290    68.4550    15.4950    17.8830    28.6820     2.6850 
  190.8750   188.8470   -17.8710    -6.1370   -18.8710    70.3280    10.5940    11.9530    26.8440     2.5850 
  191.0000   188.9680   -17.9010    -6.1490   -18.6590    68.9990     6.2890     6.4740    23.9820     2.4450 
  191.1250   189.0890   -17.9310    -6.1610   -18.5020    67.4960     3.3410     3.2650    13.9590     2.3070 
  191.2500   189.2100   -17.9600    -6.1730   -18.3640    67.3460     2.0170     1.9840     4.7090     2.2350 
  191.3750   189.3310   -17.9900    -6.1860   -18.1540    68.5140     1.5660     1.5720     1.9620     2.2210 
  191.5000   189.4510   -18.0200    -6.1980   -17.8420    67.5810     1.4760     1.5280     1.9210     2.2310 
  191.6250   189.5720   -18.0500    -6.2100   -17.4980    66.2050     1.5700     1.6700     2.0120     2.2440 
