~V
VERS. 2.00: Ver 2.00
~W
STRT.M 50.0000:
STOP.M 219.0000:
STEP.M 0.1250:
NULL. -999.2500:
UWI. FD10804:
~C
DEPT.M :
TVD. :
DX. :
DY. :
SP.MV :
GR.API :
RI. :
RML.OHMM :
RXO.OHMM :
DEN.GM/CC :
~A
# ...
  113.8750   113.4550    -5.1450    -3.1820  -117.7180    72.9600     1.9620     2.2620     3.5000     2.2160 
  114.0000   113.5770    -5.1650    -3.1990  -117.6860    71.4890     2.2910     2.5100     4.5340     2.2610 
  114.1250   113.6990    -5.1850    -3.2170  -117.6320    70.2630     2.5000     2.6860     4.5990     2.2690 
  114.2500   113.8210    -5.2050    -3.2340  -117.5150    69.9070     2.4960     2.6790     3.9440     2.2500 
  114.3750   113.9440    -5.2240    -3.2520  -117.3240    70.5460     2.3270     2.5570     3.4690     2.2130 
  114.5000   114.0660    -5.2440    -3.2690  -117.0850    70.9200     2.2050     2.4980     3.1030     2.1870 
  114.6250   114.1880    -5.2640    -3.2870  -116.8310    70.9340     2.3050     2.5840     3.0100     2.1880 
  114.7500   114.3100    -5.2840    -3.3050  -116.5960    69.8330     2.5520     2.7700     4.0570     2.1960 
  114.8750   114.4320    -5.3040    -3.3220  -116.4100    67.7310     2.7870     2.9650     6.3650     2.1750 
  115.0000   114.5540    -5.3250    -3.3400  -116.2830    65.4390     2.8540     3.0190     7.5540     2.1360 
  115.1250   114.6760    -5.3450    -3.3580  -116.2330    66.4490     2.6550     2.8360     5.8540     2.1300 
  115.2500   114.7980    -5.3650    -3.3760  -116.2550    70.4100     2.3410     2.5510     3.6770     2.1560 
  115.3750   114.9200    -5.3850    -3.3940  -116.3480    75.3980     2.0820     2.4020     2.9790     2.1840 
  115.5000   115.0420    -5.4050    -3.4120  -116.4910    76.1940     2.0830     2.5020     2.9210     2.2000 
  115.6250   115.1640    -5.4250    -3.4300  -116.6640    73.4520     2.4870     2.9270     3.4330     2.2370 
  115.7500   115.2860    -5.4460    -3.4480  -116.8360    67.6480     3.3390     3.7830     5.4200     2.3150 
  115.8750   115.4080    -5.4660    -3.4660  -116.9870    61.5400     4.5760     5.0590     8.7740     2.4110 
  116.0000   115.5300    -5.4860    -3.4850  -117.1020    55.7910     5.8500     6.2430    11.4410     2.4810 
  116.1250   115.6520    -5.5070    -3.5030  -117.1660    52.1930     6.4620     6.7870    11.9060     2.5100 
  116.2500   115.7740    -5.5270    -3.5210  -117.1830    50.6610     6.4120     6.6460    11.1070     2.5060 
  116.3750   115.8960    -5.5470    -3.5400  -117.1530    50.6270     5.8480     6.1090     9.8470     2.4990 
  116.5000   116.0180    -5.5680    -3.5580  -117.0910    50.8010     5.3160     5.6400     8.2020     2.4970 
  116.6250   116.1400    -5.5880    -3.5770  -117.0240    50.7840     5.2000     5.4650     7.9210     2.5010 
  116.7500   116.2620    -5.6090    -3.5950  -116.9750    50.8490     5.3540     5.6030     9.4130     2.5010 
  116.8750   116.3840    -5.6290    -3.6140  -116.9590    51.1010     5.7180     5.9620    10.2410     2.4820 
  117.0000   116.5060    -5.6500    -3.6320  -116.9750    51.0140     6.0450     6.3230    10.1190     2.4570 
  117.1250   116.6280    -5.6710    -3.6510  -117.0110    51.0580     6.2860     6.5380     9.7840     2.4410 
  117.2500   116.7490    -5.6910    -3.6690  -117.0460    51.1570     6.3200     6.5910     9.6870     2.4450 
  117.3750   116.8710    -5.7120    -3.6880  -117.0710    51.6330     6.2830     6.5910    10.0270     2.4530 
  117.5000   116.9930    -5.7330    -3.7070  -117.0910    51.2760     6.3380     6.6240     9.6370     2.4450 
  117.6250   117.1150    -5.7540    -3.7260  -117.1130    50.5900     6.4070     6.6740     8.9900     2.4210 
  117.7500   117.2370    -5.7740    -3.7450  -117.1450    48.9440     6.4640     6.7080     9.2890     2.4040 
  117.8750   117.3590    -5.7950    -3.7630  -117.1880    47.5560     6.4650     6.6890    10.0120     2.4020 
  118.0000   117.4800    -5.8160    -3.7820  -117.2320    46.9400     6.3970     6.6240    10.0010     2.4210 
  118.1250   117.6020    -5.8370    -3.8020  -117.2690    47.4100     6.3280     6.5500     9.6150     2.4490 
  118.2500   117.7240    -5.8580    -3.8210  -117.2870    48.0710     6.2620     6.4970     9.9320     2.4810 
  118.3750   117.8460    -5.8780    -3.8400  -117.2830    48.0690     6.2510     6.4950    10.2520     2.5080 
  118.5000   117.9670    -5.8990    -3.8590  -117.2620    48.2200     6.3020     6.5870    10.6110     2.5200 
  118.6250   118.0890    -5.9200    -3.8790  -117.2280    48.2190     6.5460     6.8320    10.8790     2.5200 
  118.7500   118.2110    -5.9410    -3.8980  -117.1960    48.4220     6.8930     7.1760    10.2630     2.5040 
  118.8750   118.3320    -5.9620    -3.9170  -117.1750    47.8970     7.2500     7.5630    11.1640     2.4920 
  119.0000   118.4540    -5.9830    -3.9370  -117.1650    48.5500     7.6460     7.9450    13.6230     2.4900 
  119.1250   118.5760    -6.0040    -3.9560  -117.1600    48.6350     7.9560     8.2350    13.8960     2.5020 
  119.2500   118.6970    -6.0260    -3.9760  -117.1480    48.4390     8.1200     8.3920    12.3410     2.5180 
  119.3750   118.8190    -6.0470    -3.9950  -117.1190    47.1930     8.1670     8.4330    12.2760     2.5290 
  119.5000   118.9410    -6.0680    -4.0150  -117.0760    46.4960     8.1530     8.4080    13.5800     2.5310 
  119.6250   119.0620    -6.0890    -4.0340  -117.0280    46.1420     8.0780     8.3240    12.8720     2.5210 
  119.7500   119.1840    -6.1110    -4.0540  -116.9920    46.9380     7.9660     8.2010    11.0260     2.5030 
  119.8750   119.3050    -6.1320    -4.0740  -116.9830    48.6580     7.7690     8.0580    11.0300     2.4810 
  120.0000   119.4270    -6.1530    -4.0930  -117.0070    50.1240     7.5920     7.8810    11.0420     2.4640 
  120.1250   119.5490    -6.1750    -4.1130  -117.0700    50.6840     7.3900     7.6790    10.0890     2.4560 
  120.2500   119.6700    -6.1960    -4.1330  -117.1710    49.4690     7.2160     7.4970    10.0240     2.4530 
  120.3750   119.7920    -6.2170    -4.1530  -117.3100    48.8260     7.0420     7.3550     9.8800     2.4440 
  120.5000   119.9130    -6.2390    -4.1730  -117.4780    48.7630     6.9330     7.2800     8.7530     2.4210 
  120.6250   120.0350    -6.2600    -4.1920  -117.6540    51.3340     6.9060     7.2890     8.7360     2.4040 
  120.7500   120.1560    -6.2810    -4.2120  -117.8090    53.0010     6.9570     7.3580    10.0410     2.4050 
  120.8750   120.2780    -6.3030    -4.2320  -117.9170    53.0760     7.0880     7.4870    10.7240     2.4180 
  121.0000   120.3990    -6.3240    -4.2520  -117.9690    51.6710     7.2590     7.6290    10.2480     2.4190 
  121.1250   120.5210    -6.3460    -4.2720  -117.9700    51.2290     7.3770     7.6960    10.0820     2.4100 
  121.2500   120.6420    -6.3680    -4.2930  -117.9520    51.3820     7.3590     7.6440    10.5130     2.4040 
  121.3750   120.7640    -6.3890    -4.3130  -117.9440    51.1220     7.2210     7.4880    10.4120     2.4030 
  121.5000   120.8850    -6.4110    -4.3330  -117.9600    50.2230     7.0440     7.3300    10.4580     2.3990 
  121.6250   121.0070    -6.4320    -4.3530  -118.0050    49.7220     6.9500     7.2360    10.7410     2.4010 
  121.7500   121.1280    -6.4540    -4.3740  -118.0600    50.0550     6.8920     7.1880    10.2380     2.4200 
  121.8750   121.2490    -6.4760    -4.3940  -118.1090    50.5980     6.8440     7.1630     9.7470     2.4450 
  122.0000   121.3710    -6.4970    -4.4140  -118.1470    50.9010     6.8100     7.1260     9.8500     2.4520 
  122.1250   121.4920    -6.5190    -4.4350  -118.1810    50.6570     6.7300     7.0320     9.6600     2.4300 
  122.2500   121.6140    -6.5410    -4.4550  -118.2290    51.0490     6.5990     6.8780     9.1950     2.4000 
  122.3750   121.7350    -6.5630    -4.4760  -118.3120    51.4960     6.4610     6.7300     9.0450     2.3820 
  122.5000   121.8560    -6.5850    -4.4960  -118.4320    52.5760     6.3780     6.6740     9.0160     2.3830 
  122.6250   121.9780    -6.6070    -4.5170  -118.5790    53.5970     6.4520     6.7560     8.8550     2.3900 
  122.7500   122.0990    -6.6290    -4.5370  -118.7180    53.7130     6.6060     6.9340     8.7740     2.4030 
  122.8750   122.2200    -6.6510    -4.5580  -118.8250    53.0920     6.8120     7.1410     9.3650     2.4140 
