~V
VERS. 2.00: Ver 2.00
~W
STRT.M 25.0000:
STOP.M 295.0000:
STEP.M 0.1250:
NULL. -999.2500:
UWI. FD10906:
~C
DEPT.M :
TVD. :
DX. :
DY. :
SP.MV :
GR.API :
RI. :
RML.OHMM :
RXO.OHMM :
DEN.GM/CC :
~A
# ...
   98.0000    96.1090   -13.4730     5.5780   -26.4910    72.8590     5.6140     7.3320     6.7490     2.2460 
   98.1250    96.2250   -13.5190     5.5800   -26.0670    72.8490     5.7450     7.6000     6.5540     2.3490 
   98.2500    96.3410   -13.5650     5.5830   -25.4810    72.6760     5.6060     7.4330     6.4870     2.4350 
   98.3750    96.4570   -13.6110     5.5850   -24.7950    72.8420     5.2410     6.8790     6.5660     2.4580 
   98.5000    96.5730   -13.6570     5.5870   -24.0950    74.9080     4.8270     6.2090     6.6690     2.4020 
   98.6250    96.6890   -13.7040     5.5890   -23.4820    77.2600     4.6340     5.8650     6.8050     2.3130 
   98.7500    96.8050   -13.7500     5.5910   -23.0330    78.9040     4.9520     6.3060     7.9590     2.2500 
   98.8750    96.9210   -13.7960     5.5930   -22.7480    78.6970     5.8420     7.6200    12.5840     2.2530 
   99.0000    97.0380   -13.8430     5.5960   -22.6080    75.5460     7.1360     9.5060    21.8790     2.3290 
   99.1250    97.1540   -13.8890     5.5980   -22.5570    72.8640     8.2970    11.1190    30.7820     2.4380 
   99.2500    97.2700   -13.9360     5.6000   -22.5720    72.1600     8.7240    11.5880    33.5370     2.5190 
   99.3750    97.3850   -13.9820     5.6010   -22.6560    72.3910     8.2550    10.7480    29.7190     2.5260 
   99.5000    97.5010   -14.0290     5.6030   -22.8530    70.9600     7.0950     8.9940    20.9650     2.4490 
   99.6250    97.6170   -14.0760     5.6050   -23.1910    69.8880     5.8310     7.2180    12.3110     2.3340 
   99.7500    97.7330   -14.1230     5.6070   -23.6710    68.7610     4.9230     6.0640     8.0980     2.2300 
   99.8750    97.8490   -14.1700     5.6080   -24.2100    68.2050     4.4830     5.6180     7.2090     2.1620 
  100.0000    97.9650   -14.2170     5.6100   -24.6930    66.9510     4.4460     5.7260     7.3230     2.1310 
  100.1250    98.0810   -14.2640     5.6110   -25.0190    66.8500     4.5990     6.0440     7.4420     2.1190 
  100.2500    98.1960   -14.3110     5.6130   -25.1100    68.2140     4.7690     6.3160     7.4640     2.1150 
  100.3750    98.3120   -14.3580     5.6140   -24.9630    70.7500     4.8440     6.4020     7.4380     2.1180 
  100.5000    98.4280   -14.4050     5.6150   -24.5500    74.3200     4.7870     6.2770     7.3760     2.1280 
  100.6250    98.5430   -14.4530     5.6160   -23.8880    79.5090     4.6350     6.0210     7.1730     2.1470 
  100.7500    98.6590   -14.5000     5.6170   -22.9490    85.5400     4.4290     5.7050     6.6580     2.1700 
  100.8750    98.7750   -14.5480     5.6180   -21.7730    91.1470     4.2200     5.4050     6.0270     2.1900 
  101.0000    98.8900   -14.5950     5.6190   -20.4180    93.7820     4.0370     5.1600     5.6530     2.1990 
  101.1250    99.0060   -14.6430     5.6200   -19.0260    94.3100     3.8870     4.9720     5.5020     2.2000 
  101.2500    99.1220   -14.6900     5.6210   -17.7720    94.5750     3.7750     4.8430     5.3650     2.2000 
  101.3750    99.2370   -14.7380     5.6210   -16.7810    96.7760     3.6980     4.7650     5.1960     2.2030 
  101.5000    99.3530   -14.7860     5.6220   -16.1120    99.6010     3.6630     4.7470     5.0110     2.2100 
  101.6250    99.4680   -14.8330     5.6230   -15.6870   101.2410     3.6760     4.7960     4.8900     2.2200 
  101.7500    99.5840   -14.8810     5.6240   -15.4280   100.7030     3.7430     4.9240     4.9190     2.2330 
  101.8750    99.6990   -14.9290     5.6240   -15.2600    99.8320     3.8430     5.0970     4.9670     2.2470 
  102.0000    99.8150   -14.9770     5.6250   -15.1740    99.2240     3.9350     5.2520     5.0120     2.2550 
  102.1250    99.9300   -15.0250     5.6250   -15.1660    98.8830     3.9710     5.3220     5.2550     2.2500 
  102.2500   100.0450   -15.0730     5.6250   -15.2340    98.1490     3.9140     5.2470     5.6280     2.2360 
  102.3750   100.1610   -15.1210     5.6250   -15.3380    99.2170     3.7760     5.0450     5.6710     2.2300 
  102.5000   100.2760   -15.1690     5.6260   -15.4260   102.6280     3.6050     4.7880     5.2070     2.2430 
  102.6250   100.3910   -15.2180     5.6260   -15.4450   108.6560     3.4720     4.5960     4.6820     2.2680 
  102.7500   100.5070   -15.2660     5.6260   -15.3650   111.1150     3.4400     4.5690     4.4720     2.2870 
  102.8750   100.6220   -15.3140     5.6260   -15.2490   109.8260     3.5230     4.7210     4.5950     2.2840 
  103.0000   100.7370   -15.3620     5.6260   -15.2230   104.9900     3.7150     5.0260     5.0310     2.2610 
  103.1250   100.8530   -15.4110     5.6260   -15.3980    99.5840     3.9670     5.3980     5.6290     2.2350 
  103.2500   100.9680   -15.4590     5.6250   -15.8220    93.5250     4.2090     5.7350     6.6360     2.2270 
  103.3750   101.0830   -15.5080     5.6250   -16.3830    86.8180     4.3770     5.9490     9.5720     2.2410 
  103.5000   101.1980   -15.5570     5.6250   -16.9190    83.2440     4.4320     5.9890    14.3580     2.2640 
  103.6250   101.3130   -15.6050     5.6250   -17.2870    83.7590     4.3890     5.8900    15.7680     2.2750 
  103.7500   101.4280   -15.6540     5.6240   -17.3980    87.9070     4.2760     5.7080    11.3450     2.2620 
  103.8750   101.5430   -15.7030     5.6240   -17.2930    90.9760     4.1320     5.5090     6.7870     2.2400 
  104.0000   101.6580   -15.7520     5.6230   -17.0370    91.0830     3.9810     5.3220     5.4860     2.2240 
  104.1250   101.7740   -15.8010     5.6230   -16.7290    89.9050     3.8400     5.1530     5.4780     2.2200 
  104.2500   101.8890   -15.8500     5.6220   -16.4240    88.7320     3.7270     5.0060     5.3490     2.2250 
  104.3750   102.0030   -15.8990     5.6210   -16.1230    88.6050     3.6560     4.9010     5.0960     2.2320 
  104.5000   102.1180   -15.9480     5.6210   -15.8050    89.9390     3.6700     4.9060     5.0150     2.2420 
  104.6250   102.2330   -15.9970     5.6200   -15.4630    91.9340     3.7970     5.0770     5.0410     2.2630 
  104.7500   102.3480   -16.0460     5.6190   -15.1170    93.4880     4.0340     5.4110     5.0500     2.3050 
  104.8750   102.4630   -16.0960     5.6190   -14.7920    92.2130     4.2990     5.7820     5.4820     2.3640 
  105.0000   102.5780   -16.1450     5.6180   -14.4990    89.2120     4.4740     6.0060     6.6400     2.4180 
  105.1250   102.6930   -16.1940     5.6170   -14.2380    84.6180     4.4830     5.9690     7.6350     2.4410 
  105.2500   102.8070   -16.2440     5.6160   -14.0420    82.1280     4.3070     5.6600     7.3630     2.4200 
  105.3750   102.9220   -16.2930     5.6140   -13.9560    82.9130     4.0370     5.2300     6.1750     2.3700 
  105.5000   103.0370   -16.3430     5.6130   -14.0470    86.1620     3.7810     4.8550     5.2050     2.3190 
  105.6250   103.1520   -16.3930     5.6120   -14.3040    87.9740     3.6230     4.6430     4.8350     2.2840 
  105.7500   103.2660   -16.4430     5.6100   -14.6940    87.5700     3.5900     4.6160     4.7630     2.2670 
  105.8750   103.3810   -16.4920     5.6090   -15.1310    85.7360     3.6400     4.7000     4.8390     2.2620 
  106.0000   103.4950   -16.5420     5.6070   -15.5430    85.6620     3.7280     4.8250     5.0020     2.2640 
  106.1250   103.6100   -16.5920     5.6050   -15.8980    84.1250     3.8160     4.9330     5.1150     2.2670 
  106.2500   103.7250   -16.6420     5.6040   -16.1850    82.5950     3.8860     5.0060     5.1850     2.2690 
  106.3750   103.8390   -16.6930     5.6020   -16.4200    80.3380     3.9350     5.0450     5.2540     2.2670 
  106.5000   103.9530   -16.7430     5.6000   -16.6000    80.3760     3.9560     5.0460     5.2850     2.2590 
  106.6250   104.0680   -16.7930     5.5980   -16.7210    81.8060     3.9380     4.9990     5.2120     2.2520 
  106.7500   104.1820   -16.8430     5.5960   -16.7670    84.0340     3.8740     4.8910     5.1830     2.2520 
  106.8750   104.2970   -16.8940     5.5940   -16.7430    84.9240     3.7760     4.7360     5.1890     2.2630 
  107.0000   104.4110   -16.9440     5.5920   -16.6620    83.9470     3.6670     4.5730     4.9130     2.2790 
