~V
VERS. 2.00: Ver 2.00
~W
STRT.M 20.0000:
STOP.M 206.0000:
STEP.M 0.1250:
NULL. -999.2500:
UWI. FD10809:
~C
DEPT.M :
TVD. :
DX. :
DY. :
SP.MV :
GR.API :
RI. :
RML.OHMM :
DEN.GM/CC :
RXO.OHMM :
~A
# ...
   29.1250    29.1240     0.1280     0.0410   -23.9210    63.8830     6.2040     9.5730     1.9920     6.8460 
   29.2500    29.2490     0.1290     0.0430   -24.1340    61.3720     6.1910     9.6860     1.9850     6.6680 
   29.3750    29.3740     0.1300     0.0440   -24.2650    59.6480     6.1640     9.7610     1.9780     6.5050 
   29.5000    29.4990     0.1320     0.0460   -24.3190    60.1850     6.1500     9.8260     1.9750     6.5220 
   29.6250    29.6240     0.1330     0.0470   -24.2910    61.3840     6.1240     9.9090     1.9790     6.6100 
   29.7500    29.7490     0.1350     0.0490   -24.2330    63.1880     6.1130    10.0240     1.9820     6.7390 
   29.8750    29.8740     0.1360     0.0510   -24.1640    63.6030     6.1200    10.2050     1.9830     6.8910 
   30.0000    29.9990     0.1380     0.0530   -24.0770    64.1960     6.1410    10.4520     1.9820     6.8660 
   30.1250    30.1240     0.1390     0.0550   -23.9800    62.9660     6.1530    10.7540     1.9830     6.7490 
   30.2500    30.2490     0.1400     0.0570   -23.7400    61.3120     6.1540    11.0900     1.9870     6.6400 
   30.3750    30.3740     0.1420     0.0580   -23.4020    59.6900     6.1120    11.3100     1.9930     6.4390 
   30.5000    30.4990     0.1430     0.0600   -22.9670    60.0490     5.8980    11.1830     2.0100     6.3350 
   30.6250    30.6240     0.1440     0.0630   -22.5050    62.2520     5.5020    10.6980     2.0450     6.4020 
   30.7500    30.7490     0.1460     0.0650   -22.0960    65.8230     5.0630    10.0210     2.0920     5.8690 
   30.8750    30.8740     0.1470     0.0670   -21.8060    69.8230     4.7090     9.4570     2.1150     4.8520 
   31.0000    30.9990     0.1480     0.0690   -21.8560    72.0260     4.6180     9.3330     2.0930     4.9780 
   31.1250    31.1240     0.1500     0.0710   -22.3470    73.5140     4.7980     9.7650     2.0420     6.2600 
   31.2500    31.2490     0.1510     0.0740   -23.0600    73.8190     5.2380    10.7050     1.9980     7.0250 
   31.3750    31.3740     0.1520     0.0760   -23.5630    73.0410     5.7540    11.8270     1.9770     6.9860 
   31.5000    31.4990     0.1530     0.0780   -23.7930    70.9160     6.2270    12.7330     1.9750     6.9170 
   31.6250    31.6230     0.1540     0.0810   -23.8130    68.8260     6.4530    13.1740     1.9730     6.9940 
   31.7500    31.7480     0.1560     0.0840   -23.7200    68.5240     6.4570    13.1910     1.9680     6.9230 
   31.8750    31.8730     0.1570     0.0860   -23.5770    68.4100     6.3820    13.0370     1.9650     6.7520 
   32.0000    31.9980     0.1580     0.0890   -23.3820    68.4170     6.2410    12.7520     1.9700     6.8460 
   32.1250    32.1230     0.1590     0.0920   -23.0200    68.2540     6.0020    12.1650     1.9780     7.1660 
   32.2500    32.2480     0.1600     0.0940   -22.5380    70.0060     5.4590    11.0770     1.9960     7.0540 
   32.3750    32.3730     0.1610     0.0970   -22.0280    73.2820     4.7880     9.7040     2.0270     6.4270 
   32.5000    32.4980     0.1620     0.1000   -21.5670    77.8230     4.1710     8.4380     2.0680     5.3330 
   32.6250    32.6230     0.1630     0.1030   -21.2100    80.7750     3.7850     7.6100     2.0930     4.0320 
   32.7500    32.7480     0.1630     0.1060   -21.2300    80.0460     3.7350     7.4670     2.0860     4.3570 
   32.8750    32.8730     0.1640     0.1090   -21.8090    76.7410     4.0260     8.0570     2.0650     6.0430 
   33.0000    32.9980     0.1650     0.1130   -22.5960    71.5460     4.7480     9.3170     2.0490     7.0090 
   33.1250    33.1230     0.1660     0.1160   -23.1600    67.7570     5.5740    10.8540     2.0400     7.4750 
   33.2500    33.2480     0.1670     0.1190   -23.2580    65.2340     6.4260    12.3640     2.0210     7.9440 
   33.3750    33.3730     0.1670     0.1220   -23.0540    64.6810     7.1050    13.5600     2.0020     8.1150 
   33.5000    33.4980     0.1680     0.1260   -22.5350    64.6800     7.4520    14.0110     2.0120     8.0770 
   33.6250    33.6230     0.1690     0.1290   -21.6900    63.9490     7.2330    13.4970     2.0770     8.1260 
   33.7500    33.7480     0.1700     0.1330   -20.4680    63.6270     6.5230    11.9560     2.1700     8.4320 
   33.8750    33.8730     0.1700     0.1360   -19.0670    65.6220     5.4130     9.8150     2.2290     7.5730 
   34.0000    33.9980     0.1710     0.1400   -17.7730    71.0440     4.3910     7.8050     2.2230     5.2680 
   34.1250    34.1230     0.1720     0.1440   -16.8850    77.0530     3.6990     6.4260     2.1870     4.0750 
   34.2500    34.2480     0.1730     0.1470   -16.4810    82.7340     3.3080     5.8050     2.1670     4.0810 
   34.3750    34.3720     0.1730     0.1510   -16.1990    86.5170     3.2150     5.7980     2.1640     4.1080 
   34.5000    34.4970     0.1740     0.1550   -16.0190    89.0440     3.3500     6.2150     2.1670     4.4990 
   34.6250    34.6220     0.1750     0.1590   -15.8180    90.6230     3.5590     6.6900     2.1690     4.7790 
   34.7500    34.7470     0.1760     0.1630   -15.6390    93.0020     3.6480     6.9000     2.1680     4.2370 
   34.8750    34.8720     0.1760     0.1670   -15.4640    97.1750     3.5800     6.7610     2.1670     3.4410 
   35.0000    34.9970     0.1770     0.1710   -15.5250   100.5330     3.3610     6.3100     2.1590     3.1940 
   35.1250    35.1220     0.1780     0.1760   -15.7510   102.5570     3.0600     5.7010     2.1470     3.0610 
   35.2500    35.2470     0.1790     0.1800   -15.9690   101.4540     2.7730     5.1410     2.1290     2.6900 
   35.3750    35.3720     0.1790     0.1840   -16.3230   100.0430     2.6220     4.8290     2.1120     2.5640 
   35.5000    35.4970     0.1800     0.1890   -16.8100    96.6430     2.6980     4.9650     2.0900     2.5960 
   35.6250    35.6220     0.1810     0.1930   -17.3180    92.3800     3.0710     5.6200     2.0560     3.3990 
   35.7500    35.7470     0.1820     0.1980   -17.8060    86.5910     3.6930     6.8160     2.0170     5.4830 
   35.8750    35.8720     0.1820     0.2020   -18.2390    80.6630     4.5760     8.4120     1.9880     7.1050 
   36.0000    35.9970     0.1830     0.2070   -18.2490    76.2810     5.5580    10.2210     1.9850     7.4280 
   36.1250    36.1210     0.1840     0.2120   -17.8580    73.5680     6.5640    11.7870     2.0070     7.5110 
   36.2500    36.2460     0.1850     0.2170   -17.0930    72.3310     6.9580    12.3710     2.0380     8.3220 
   36.3750    36.3710     0.1860     0.2220   -16.0560    72.4640     6.6100    11.7950     2.0430    11.3380 
   36.5000    36.4960     0.1860     0.2260   -14.8080    74.8880     5.7640    10.3180     2.0000    12.3320 
   36.6250    36.6210     0.1870     0.2320   -13.6000    80.4210     4.7230     8.6270     1.9620     7.5520 
   36.7500    36.7460     0.1880     0.2370   -12.8600    86.0760     4.0560     7.3990     2.0020     3.9800 
   36.8750    36.8710     0.1890     0.2420   -12.4560    89.6260     3.7410     6.7930     2.1200     4.0530 
   37.0000    36.9960     0.1900     0.2470   -12.3370    89.4200     3.6370     6.6530     2.2490     4.1790 
   37.1250    37.1210     0.1910     0.2520   -12.2550    88.2190     3.6410     6.6840     2.3200     4.2320 
   37.2500    37.2450     0.1920     0.2580   -12.2740    86.5400     3.6800     6.6780     2.3070     4.0620 
   37.3750    37.3700     0.1930     0.2630   -12.2570    86.9200     3.6640     6.5270     2.2470     3.4190 
   37.5000    37.4950     0.1930     0.2690   -12.2100    88.5140     3.6110     6.3730     2.1810     3.1370 
   37.6250    37.6200     0.1940     0.2740   -12.3950    90.3350     3.7070     6.4560     2.1340     3.6900 
   37.7500    37.7450     0.1950     0.2800   -12.8060    88.8560     3.9170     6.7830     2.1000     4.5520 
   37.8750    37.8700     0.1960     0.2850   -13.3530    87.0680     4.1440     7.1930     2.0810     5.0040 
   38.0000    37.9950     0.1970     0.2910   -13.8640    85.9990     4.3890     7.6040     2.0840     5.0770 
   38.1250    38.1200     0.1980     0.2970   -14.2300    88.6880     4.6130     7.9130     2.1020     4.6720 
