~V
VERS. 2.00: Ver 2.00
~W
STRT.M 24.0000:
STOP.M 309.0000:
STEP.M 0.1250:
NULL. -999.2500:
UWI. FD10911:
~C
DEPT.M :
TVD. :
DX. :
DY. :
SP.MV :
GR.API :
RI. :
RML.OHMM :
RXO.OHMM :
DEN.GM/CC :
~A
# ...
  279.5000   253.4080    45.1140   -86.5920   -13.9570    31.3730     2.5880     3.7920     3.2120     2.2840 
  279.6250   253.5110    45.1520   -86.6520   -14.1920    28.9880     2.5920     3.7720     3.5700     2.3110 
  279.7500   253.6140    45.1900   -86.7120   -14.4230    27.8220     2.5780     3.7310     3.8200     2.3410 
  279.8750   253.7170    45.2280   -86.7720   -14.6360    26.7440     2.5530     3.6880     3.8680     2.3570 
  280.0000   253.8200    45.2660   -86.8310   -14.8040    25.6510     2.5250     3.6590     3.8260     2.3500 
  280.1250   253.9230    45.3030   -86.8910   -14.9130    24.4250     2.5020     3.6520     3.6660     2.3290 
  280.2500   254.0260    45.3410   -86.9510   -14.9510    23.4840     2.4880     3.6610     3.3820     2.3130 
  280.3750   254.1290    45.3790   -87.0110   -14.9310    23.1230     2.4790     3.6670     3.2040     2.3070 
  280.5000   254.2320    45.4170   -87.0710   -14.8780    24.3970     2.4700     3.6590     3.1900     2.3100 
  280.6250   254.3360    45.4540   -87.1300   -14.8240    26.0380     2.4640     3.6380     3.2050     2.3180 
  280.7500   254.4390    45.4920   -87.1900   -14.7950    27.9810     2.4620     3.6160     3.2310     2.3290 
  280.8750   254.5420    45.5290   -87.2500   -14.7920    29.1480     2.4650     3.6040     3.3260     2.3390 
  281.0000   254.6450    45.5670   -87.3100   -14.8070    30.7900     2.4740     3.6060     3.4460     2.3520 
  281.1250   254.7480    45.6040   -87.3700   -14.8310    32.4150     2.4850     3.6110     3.4710     2.3650 
  281.2500   254.8510    45.6410   -87.4300   -14.8600    34.5280     2.4990     3.6100     3.3710     2.3760 
  281.3750   254.9540    45.6780   -87.4900   -14.8920    34.8270     2.5210     3.6080     3.2470     2.3820 
  281.5000   255.0570    45.7160   -87.5500   -14.9190    34.5030     2.5650     3.6370     3.1790     2.3830 
  281.6250   255.1600    45.7530   -87.6110   -14.9320    34.4320     2.6450     3.7310     3.1820     2.3790 
  281.7500   255.2640    45.7900   -87.6710   -14.9330    36.6790     2.7640     3.9020     3.3070     2.3700 
  281.8750   255.3670    45.8270   -87.7310   -14.9270    38.8440     2.8800     4.0820     3.6500     2.3630 
  282.0000   255.4700    45.8640   -87.7910   -14.9210    39.5850     2.9420     4.1740     4.1220     2.3700 
  282.1250   255.5730    45.9010   -87.8510   -14.9150    38.7570     2.9190     4.1270     4.2580     2.3900 
  282.2500   255.6760    45.9390   -87.9110   -14.8970    37.9210     2.8030     3.9340     3.9100     2.4060 
  282.3750   255.7790    45.9760   -87.9710   -14.8550    37.1560     2.6440     3.6840     3.5560     2.4000 
  282.5000   255.8830    46.0140   -88.0300   -14.7780    36.2320     2.4960     3.4680     3.3980     2.3660 
  282.6250   255.9860    46.0510   -88.0900   -14.6700    35.6030     2.3930     3.3250     3.3130     2.3240 
  282.7500   256.0890    46.0880   -88.1500   -14.5470    35.2410     2.3460     3.2550     3.2910     2.2880 
  282.8750   256.1920    46.1260   -88.2100   -14.4350    35.8530     2.3290     3.2130     3.3130     2.2680 
  283.0000   256.2950    46.1630   -88.2700   -14.3430    36.5350     2.3200     3.1710     3.2920     2.2650 
  283.1250   256.3980    46.2000   -88.3300   -14.2550    36.7310     2.3050     3.1250     3.2020     2.2750 
  283.2500   256.5020    46.2380   -88.3900   -14.1330    36.5380     2.2830     3.0760     3.0940     2.2900 
  283.3750   256.6050    46.2750   -88.4500   -13.9580    36.1800     2.2590     3.0320     2.9990     2.3000 
  283.5000   256.7080    46.3120   -88.5090   -13.7480    36.4430     2.2410     2.9980     2.9230     2.3010 
  283.6250   256.8110    46.3500   -88.5690   -13.5570    35.5210     2.2320     2.9750     2.8820     2.2980 
  283.7500   256.9140    46.3870   -88.6290   -13.4440    34.1440     2.2330     2.9650     2.8770     2.2980 
  283.8750   257.0170    46.4240   -88.6890   -13.4210    32.8010     2.2370     2.9620     2.8740     2.3020 
  284.0000   257.1210    46.4620   -88.7490   -13.4850    32.7310     2.2410     2.9590     2.8360     2.3060 
  284.1250   257.2240    46.4990   -88.8090   -13.5910    33.0500     2.2400     2.9540     2.7880     2.3070 
  284.2500   257.3270    46.5360   -88.8690   -13.7060    33.3670     2.2360     2.9430     2.7850     2.3010 
  284.3750   257.4300    46.5740   -88.9290   -13.7950    33.3590     2.2300     2.9270     2.8290     2.2910 
  284.5000   257.5330    46.6110   -88.9890   -13.8330    32.9340     2.2250     2.9060     2.8820     2.2850 
  284.6250   257.6360    46.6480   -89.0490   -13.8200    31.1600     2.2190     2.8790     2.8980     2.2830 
  284.7500   257.7400    46.6850   -89.1090   -13.7520    29.5790     2.2070     2.8490     2.8540     2.2820 
  284.8750   257.8430    46.7220   -89.1680   -13.6530    28.9820     2.1880     2.8180     2.7830     2.2810 
  285.0000   257.9460    46.7590   -89.2280   -13.5530    29.7250     2.1680     2.7880     2.7270     2.2830 
  285.1250   258.0490    46.7970   -89.2880   -13.4880    29.9720     2.1510     2.7640     2.6860     2.2890 
  285.2500   258.1520    46.8340   -89.3490   -13.4840    28.7330     2.1390     2.7480     2.6400     2.2960 
  285.3750   258.2560    46.8710   -89.4090   -13.5300    26.5980     2.1310     2.7450     2.6100     2.3000 
  285.5000   258.3590    46.9080   -89.4690   -13.6050    24.0630     2.1270     2.7500     2.6280     2.3010 
  285.6250   258.4620    46.9440   -89.5290   -13.6890    22.3480     2.1250     2.7530     2.6540     2.2970 
  285.7500   258.5650    46.9810   -89.5890   -13.7850    21.9740     2.1270     2.7480     2.6350     2.2890 
  285.8750   258.6690    47.0180   -89.6490   -13.9120    22.3370     2.1330     2.7440     2.5990     2.2810 
  286.0000   258.7720    47.0550   -89.7090   -14.0820    22.9640     2.1450     2.7500     2.6010     2.2750 
  286.1250   258.8750    47.0930   -89.7690   -14.2810    23.2020     2.1630     2.7720     2.6370     2.2720 
  286.2500   258.9780    47.1300   -89.8280   -14.4770    23.5100     2.1940     2.8130     2.6770     2.2700 
  286.3750   259.0810    47.1670   -89.8880   -14.6470    24.0080     2.2440     2.8760     2.7010     2.2670 
  286.5000   259.1850    47.2040   -89.9480   -14.7850    25.9920     2.3190     2.9690     2.7010     2.2610 
  286.6250   259.2880    47.2410   -90.0080   -14.9110    28.3890     2.4250     3.0940     2.6920     2.2590 
  286.7500   259.3910    47.2790   -90.0680   -15.0420    30.1050     2.5660     3.2560     2.8030     2.2640 
  286.8750   259.4950    47.3160   -90.1270   -15.1690    31.0620     2.7330     3.4530     3.2360     2.2760 
  287.0000   259.5980    47.3530   -90.1870   -15.2670    32.5190     2.9070     3.6640     4.0160     2.2900 
  287.1250   259.7010    47.3910   -90.2470   -15.3070    34.0180     3.0520     3.8420     4.7250     2.3050 
  287.2500   259.8040    47.4280   -90.3060   -15.2710    34.1780     3.1310     3.9310     5.0050     2.3220 
  287.3750   259.9080    47.4660   -90.3660   -15.1790    32.4810     3.1300     3.9130     5.0570     2.3440 
  287.5000   260.0110    47.5030   -90.4260   -15.0480    30.8810     3.0580     3.8050     5.0750     2.3730 
  287.6250   260.1140    47.5410   -90.4850   -14.9200    30.0350     2.9580     3.6680     4.9070     2.4000 
  287.7500   260.2180    47.5790   -90.5440   -14.8150    29.5570     2.8650     3.5470     4.5110     2.4170 
  287.8750   260.3210    47.6170   -90.6040   -14.7400    29.2590     2.7980     3.4680     4.1770     2.4140 
  288.0000   260.4240    47.6550   -90.6630   -14.6750    30.1100     2.7670     3.4330     4.0530     2.3880 
  288.1250   260.5270    47.6930   -90.7220   -14.5990    31.5950     2.7640     3.4290     4.0390     2.3470 
  288.2500   260.6310    47.7310   -90.7810   -14.5060    32.0400     2.7880     3.4530     4.0220     2.3080 
  288.3750   260.7340    47.7690   -90.8400   -14.4160    31.8410     2.8270     3.4900     3.9470     2.2860 
  288.5000   260.8370    47.8080   -90.8990   -14.3500    31.9810     2.8720     3.5320     3.8940     2.2860 
