~V
VERS. 2.00: Ver 2.00
~W
STRT.M 44.0000:
STOP.M 206.0000:
STEP.M 0.1250:
NULL. -999.2500:
UWI. FD10808:
~C
DEPT.M :
TVD. :
DX. :
DY. :
SP.MV :
GR.API :
RI. :
RML.OHMM :
RXO.OHMM :
DEN.GM/CC :
~A
# ...
  190.0000   176.0750   -23.5250    49.5390     0.0250    89.3270     6.5580     7.7000    10.3510     2.2400 
  190.1250   176.1780   -23.5580    49.6020    -0.2010    89.5450     6.6570     7.8270    13.8730     2.2380 
  190.2500   176.2810   -23.5900    49.6650    -0.4260    90.4540     6.7720     7.9500    35.1220     2.2340 
  190.3750   176.3840   -23.6220    49.7280    -0.3620    90.2740     6.8180     8.0140    48.0040     2.2300 
  190.5000   176.4870   -23.6540    49.7910    -0.3310    90.6190     6.7870     7.9910    26.7680     2.2280 
  190.6250   176.5900   -23.6870    49.8540    -0.1810    89.9980     6.6850     7.8750     8.9290     2.2320 
  190.7500   176.6930   -23.7190    49.9170    -0.0570    89.5520     6.5270     7.7140     7.8470     2.2430 
  190.8750   176.7960   -23.7510    49.9800     0.0480    87.6700     6.3850     7.5690     7.4080     2.2520 
  191.0000   176.8990   -23.7840    50.0430     0.1190    86.3090     6.2940     7.4910     7.2240     2.2530 
  191.1250   177.0020   -23.8160    50.1060     0.1010    84.3710     6.3080     7.5130     7.4020     2.2460 
  191.2500   177.1050   -23.8480    50.1690     0.0280    83.2210     6.3840     7.5990     8.3110     2.2300 
  191.3750   177.2080   -23.8800    50.2320     0.0080    82.1050     6.4830     7.6990     9.4680     2.2150 
  191.5000   177.3110   -23.9130    50.2950     0.0310    82.7740     6.5710     7.7810     9.4740     2.2140 
  191.6250   177.4140   -23.9450    50.3580     0.0420    85.2290     6.6370     7.8340     8.7630     2.2340 
  191.7500   177.5170   -23.9770    50.4210     0.0420    89.2370     6.6830     7.8500     8.4860     2.2550 
  191.8750   177.6200   -24.0100    50.4830     0.0420    91.4170     6.6480     7.8020     9.2010     2.2660 
  192.0000   177.7230   -24.0420    50.5460     0.0420    90.5630     6.5800     7.6990     9.6650     2.2670 
  192.1250   177.8260   -24.0750    50.6090     0.0420    87.6850     6.4750     7.5460     8.9410     2.2600 
  192.2500   177.9290   -24.1070    50.6720     0.0420    85.1330     6.3300     7.3750     8.7540     2.2480 
  192.3750   178.0320   -24.1400    50.7350     0.0420    83.8240     6.2080     7.2280    11.0210     2.2340 
  192.5000   178.1350   -24.1720    50.7980     0.0420    81.8880     6.0750     7.1100    15.1460     2.2260 
  192.6250   178.2380   -24.2050    50.8610     0.0420    81.4660     5.9990     7.0310    14.6440     2.2240 
  192.7500   178.3410   -24.2370    50.9240     0.0420    82.0590     5.9590     6.9840     9.5660     2.2240 
  192.8750   178.4440   -24.2690    50.9870     0.0420    83.6350     5.9540     6.9650     7.5920     2.2210 
  193.0000   178.5470   -24.3010    51.0500     0.0420    84.2380     5.9700     6.9650     7.9850     2.2210 
  193.1250   178.6500   -24.3340    51.1130     0.0420    83.1230     5.9830     6.9700     7.6130     2.2230 
  193.2500   178.7530   -24.3660    51.1770     0.0420    83.2040     5.9880     6.9620     7.1560     2.2250 
  193.3750   178.8560   -24.3980    51.2400     0.0420    83.6430     5.9560     6.9300     7.7160     2.2210 
  193.5000   178.9590   -24.4300    51.3030     0.0420    84.9830     5.9210     6.8860     8.7520     2.2200 
  193.6250   179.0620   -24.4620    51.3660     0.0420    84.6920     5.9100     6.8580     8.4880     2.2280 
  193.7500   179.1650   -24.4940    51.4290     0.0420    84.4140     5.9400     6.8630     7.4810     2.2430 
  193.8750   179.2680   -24.5260    51.4920     0.0420    84.2280     6.0100     6.9220     7.0670     2.2590 
  194.0000   179.3710   -24.5580    51.5550     0.0420    85.3410     6.1430     7.0450     7.2860     2.2690 
  194.1250   179.4740   -24.5900    51.6180     0.0420    86.0180     6.2940     7.2120     7.7750     2.2830 
  194.2500   179.5770   -24.6220    51.6810     0.0420    86.0880     6.4580     7.3760     8.1910     2.2930 
  194.3750   179.6800   -24.6540    51.7450     0.0420    85.5140     6.5480     7.4910     8.2040     2.2990 
  194.5000   179.7830   -24.6860    51.8080     0.0420    84.6840     6.5920     7.5330     7.7330     2.2960 
  194.6250   179.8860   -24.7180    51.8710     0.0420    84.2780     6.5380     7.4870     7.4180     2.2940 
  194.7500   179.9890   -24.7500    51.9340     0.0420    84.3070     6.4370     7.3870     7.0310     2.2950 
  194.8750   180.0920   -24.7820    51.9970     0.0420    85.2160     6.3130     7.2530     5.9190     2.2980 
  195.0000   180.1950   -24.8140    52.0610     0.0420    85.5220     6.1760     7.1140     5.1250     2.2870 
  195.1250   180.2980   -24.8450    52.1240     0.0420    84.2770     6.0770     7.0020     5.2270     2.2670 
  195.2500   180.4010   -24.8770    52.1870     0.0420    83.4150     6.0060     6.9320     5.3500     2.2480 
  195.3750   180.5040   -24.9090    52.2500     0.0420    83.7100     5.9970     6.9170     5.2240     2.2440 
  195.5000   180.6070   -24.9410    52.3140     0.0420    85.6750     6.0170     6.9520     5.2410     2.2460 
  195.6250   180.7100   -24.9720    52.3770     0.0420    86.8440     6.1230     7.0570     5.3580     2.2520 
  195.7500   180.8130   -25.0040    52.4400     0.0420    87.7950     6.2760     7.2300     5.6270     2.2610 
  195.8750   180.9160   -25.0360    52.5040     0.0420    87.5780     6.5110     7.4690     6.4510     2.2800 
  196.0000   181.0190   -25.0680    52.5670     0.0420    87.0850     6.7750     7.7430     7.6260     2.3040 
  196.1250   181.1220   -25.0990    52.6300     0.0420    86.5230     7.0230     7.9980     8.7430     2.3310 
  196.2500   181.2250   -25.1310    52.6940     0.0420    86.3350     7.2100     8.1770     8.8490     2.3480 
  196.3750   181.3280   -25.1630    52.7570     0.0420    88.2770     7.2970     8.2370     7.6510     2.3510 
  196.5000   181.4310   -25.1950    52.8200     0.0420    90.4490     7.2480     8.1830     6.6950     2.3400 
  196.6250   181.5340   -25.2260    52.8840     0.0420    91.8760     7.1480     8.0620     6.1650     2.3260 
  196.7500   181.6370   -25.2580    52.9470     0.0420    91.3020     7.0300     7.9330     5.3270     2.3140 
  196.8750   181.7400   -25.2900    53.0100     0.0420    89.7480     6.9070     7.8190     9.9640     2.3060 
  197.0000   181.8430   -25.3220    53.0740     0.0420    88.8810     6.8330     7.7070    28.3640     2.2980 
  197.1250   181.9460   -25.3530    53.1370     0.0420    89.4880     6.6780     7.5450    55.8240     2.2960 
  197.2500   182.0490   -25.3850    53.2000     0.0420    90.9870     6.4980     7.3350    56.8810     2.2960 
  197.3750   182.1520   -25.4170    53.2640     0.0420    92.6790     6.3210     7.1240    24.6280     2.2910 
  197.5000   182.2550   -25.4490    53.3270     0.0420    93.4690     6.1880     6.9650     5.8170     2.2800 
  197.6250   182.3580   -25.4800    53.3900     0.0420    92.9390     6.1670     6.9260     6.6730     2.2670 
  197.7500   182.4610   -25.5120    53.4540     0.0420    91.2260     6.2720     7.0320     8.2130     2.2600 
  197.8750   182.5640   -25.5440    53.5170     0.0420    90.3050     6.5340     7.2760     9.4210     2.2690 
  198.0000   182.6670   -25.5760    53.5800     0.0420    90.3540     6.8180     7.5510     9.3280     2.2920 
  198.1250   182.7700   -25.6070    53.6430     0.0420    90.7870     7.0250     7.7400     9.0040     2.3110 
  198.2500   182.8730   -25.6390    53.7070     0.0420    90.9850     7.0590     7.7760    20.4790     2.3080 
  198.3750   182.9760   -25.6710    53.7700     0.0420    90.8840     6.9410     7.6750    71.2370     2.2840 
  198.5000   183.0790   -25.7030    53.8330     0.0420    90.9180     6.7990     7.5400    98.3190     2.2540 
  198.6250   183.1820   -25.7340    53.8970     0.0420    90.9180     6.6970     7.4400    46.4210     2.2390 
  198.7500   183.2850   -25.7660    53.9600     0.0420    90.9180     6.6560     7.3890     8.2840     2.2390 
  198.8750   183.3880   -25.7980    54.0230     0.0420    90.9180     6.6450     7.3700    10.3380     2.2480 
  199.0000   183.4910   -25.8300    54.0870     0.0420    90.9180     6.6470     7.3640     9.5290     2.2570 
