~V
VERS. 2.00: Ver 2.00
~W
STRT.M 62.0000:
STOP.M 282.0000:
STEP.M 0.1250:
NULL. -999.2500:
UWI. FD10887:
~C
DEPT.M :
TVD. :
DX. :
DY. :
SP.MV :
GR.API :
RI. :
RML.OHMM :
RXO.OHMM :
DEN.GM/CC :
~A
# ...
  144.1250   142.6460    -1.4350    13.1840     6.3370    51.1910    26.9390    30.0270     8.0690     2.1050 
  144.2500   142.7640    -1.4380    13.2250     4.8970    51.6080    27.8290    31.0040     9.5030     2.0990 
  144.3750   142.8820    -1.4400    13.2660     3.1260    53.3450    25.9040    28.6560    10.4800     2.0960 
  144.5000   143.0000    -1.4420    13.3060     1.0150    55.0700    21.6760    23.6080    10.7030     2.1010 
  144.6250   143.1180    -1.4450    13.3470    -1.4510    56.7480    15.6040    16.5830     8.5220     2.1220 
  144.7500   143.2370    -1.4470    13.3880    -4.1800    60.9210    10.2940    10.6410     8.2650     2.1620 
  144.8750   143.3550    -1.4490    13.4290    -7.0550    70.1720     6.8790     6.9990     9.9690     2.2120 
  145.0000   143.4730    -1.4520    13.4700    -9.8530    80.9690     4.8860     4.9310     7.3740     2.2570 
  145.1250   143.5910    -1.4540    13.5110   -12.2650    87.0980     4.4690     4.5910     3.8770     2.2810 
  145.2500   143.7090    -1.4570    13.5520   -14.0300    88.9690     4.7210     4.9790     3.4630     2.2820 
  145.3750   143.8270    -1.4590    13.5930   -14.8660    88.2930     5.7380     6.2080     4.2400     2.2620 
  145.5000   143.9450    -1.4620    13.6350   -14.7720    84.0090     7.5490     8.2840     5.0600     2.2280 
  145.6250   144.0630    -1.4640    13.6760   -13.7770    74.7410    10.0140    11.0160     5.7330     2.1880 
  145.7500   144.1800    -1.4670    13.7170   -12.1850    65.7000    12.7070    13.9250     6.2650     2.1520 
  145.8750   144.2980    -1.4690    13.7590   -10.2970    62.5880    14.7370    16.0680     6.6020     2.1290 
  146.0000   144.4160    -1.4710    13.8010    -8.4690    63.3560    15.8850    17.2280     6.7750     2.1150 
  146.1250   144.5340    -1.4740    13.8420    -6.9760    62.4120    15.9950    17.3010     6.7560     2.1080 
  146.2500   144.6520    -1.4760    13.8840    -5.9040    58.7040    15.5660    16.8660     6.7400     2.1020 
  146.3750   144.7690    -1.4790    13.9260    -5.2590    57.0920    14.9170    16.2820     6.5700     2.1000 
  146.5000   144.8870    -1.4810    13.9680    -4.9140    59.7950    14.2410    15.7220     6.1150     2.0990 
  146.6250   145.0050    -1.4840    14.0100    -4.7900    64.0370    13.6410    15.2670     5.6800     2.1010 
  146.7500   145.1220    -1.4860    14.0520    -4.8020    66.1310    13.2130    15.0000     5.4050     2.1040 
  146.8750   145.2400    -1.4890    14.0950    -4.9220    67.5230    12.9630    14.8930     5.2740     2.1060 
  147.0000   145.3580    -1.4910    14.1370    -5.1190    68.5720    12.8270    14.8520     5.1680     2.1060 
  147.1250   145.4750    -1.4940    14.1800    -5.3980    66.7270    12.6940    14.7360     5.0420     2.1050 
  147.2500   145.5930    -1.4960    14.2220    -5.7660    64.0650    12.5350    14.5100     4.9460     2.1040 
  147.3750   145.7100    -1.4990    14.2650    -6.2510    64.6800    12.2980    14.1650     4.8800     2.1070 
  147.5000   145.8280    -1.5010    14.3070    -6.8490    68.7900    12.0720    13.8170     4.8490     2.1120 
  147.6250   145.9450    -1.5040    14.3500    -7.5410    72.5550    11.8650    13.5000     4.7480     2.1150 
  147.7500   146.0630    -1.5060    14.3930    -8.2650    72.7490    11.6860    13.2380     4.5940     2.1140 
  147.8750   146.1800    -1.5090    14.4360    -8.9510    70.8750    11.4770    12.9370     4.5840     2.1110 
  148.0000   146.2970    -1.5110    14.4790    -9.5420    71.0130    11.2440    12.6250     4.7220     2.1080 
  148.1250   146.4140    -1.5140    14.5220    -9.9880    73.9120    11.0170    12.3100     4.9100     2.1060 
  148.2500   146.5320    -1.5160    14.5660   -10.2720    76.0570    10.8020    12.0480     4.9620     2.1080 
  148.3750   146.6490    -1.5190    14.6090   -10.3540    73.7410    10.6870    11.9580     4.8650     2.1120 
  148.5000   146.7660    -1.5210    14.6530   -10.2220    69.7600    10.7020    11.9950     4.9280     2.1180 
  148.6250   146.8830    -1.5240    14.6960    -9.8430    66.0540    10.8360    12.2060     5.2240     2.1220 
  148.7500   147.0000    -1.5260    14.7400    -9.2430    63.7570    11.2650    12.7620     5.5370     2.1220 
  148.8750   147.1170    -1.5290    14.7840    -8.4340    63.1940    11.9680    13.6460     5.7160     2.1230 
  149.0000   147.2340    -1.5320    14.8270    -7.4660    64.0680    12.9900    14.9370     5.6170     2.1320 
  149.1250   147.3510    -1.5340    14.8710    -6.3550    64.9350    14.3710    16.6880     5.3390     2.1600 
  149.2500   147.4680    -1.5370    14.9150    -5.1390    64.0100    15.9590    18.6430     5.5470     2.2050 
  149.3750   147.5850    -1.5390    14.9590    -3.8600    62.3170    17.2550    20.0780     6.6990     2.2460 
  149.5000   147.7020    -1.5420    15.0030    -2.5930    62.0060    17.9720    20.7550     8.0790     2.2600 
  149.6250   147.8190    -1.5440    15.0470    -1.4230    62.4090    17.9660    20.5960     8.4990     2.2330 
  149.7500   147.9360    -1.5470    15.0920    -0.3960    61.7510    17.5720    20.0850     7.8520     2.1850 
  149.8750   148.0530    -1.5490    15.1360     0.4630    60.7750    17.2820    19.8600     7.3900     2.1390 
  150.0000   148.1700    -1.5520    15.1800     1.1860    61.6100    17.2330    19.9150     8.0560     2.1080 
  150.1250   148.2860    -1.5540    15.2250     1.8000    62.2420    17.4100    20.1720     8.8370     2.0920 
  150.2500   148.4030    -1.5570    15.2700     2.3440    60.6930    17.6670    20.4860     8.5550     2.0850 
  150.3750   148.5200    -1.5590    15.3150     2.8310    58.2230    17.9680    20.8180     7.9400     2.0870 
  150.5000   148.6360    -1.5610    15.3600     3.2610    57.9120    18.2400    21.1430     7.8440     2.0920 
  150.6250   148.7530    -1.5640    15.4050     3.6080    58.7550    18.4460    21.4420     8.1160     2.0970 
  150.7500   148.8700    -1.5660    15.4500     3.8500    59.9540    18.5850    21.7040     8.5090     2.1000 
  150.8750   148.9860    -1.5680    15.4950     3.9450    60.3890    18.4680    21.6330     8.7610     2.0980 
  151.0000   149.1030    -1.5710    15.5400     3.8770    59.2610    18.0890    21.1900     8.4930     2.0920 
  151.1250   149.2190    -1.5730    15.5850     3.6190    57.0860    17.3460    20.2640     7.8180     2.0870 
  151.2500   149.3360    -1.5750    15.6310     3.2010    56.2320    16.4850    19.1860     7.1150     2.0850 
  151.3750   149.4520    -1.5780    15.6760     2.6740    58.0420    15.7690    18.2980     6.2070     2.0870 
  151.5000   149.5690    -1.5800    15.7210     2.1430    60.0680    15.2610    17.6770     5.4580     2.0910 
  151.6250   149.6850    -1.5820    15.7670     1.7240    60.1260    15.1710    17.5770     5.3970     2.0980 
  151.7500   149.8010    -1.5840    15.8120     1.4870    59.6210    15.3800    17.8590     5.7130     2.1090 
  151.8750   149.9180    -1.5870    15.8580     1.4780    60.0900    15.7970    18.4130     6.1630     2.1190 
  152.0000   150.0340    -1.5890    15.9030     1.6610    60.9560    16.3900    19.1580     6.8250     2.1240 
  152.1250   150.1500    -1.5910    15.9490     1.9930    60.0790    16.8330    19.6940     7.4180     2.1250 
  152.2500   150.2670    -1.5930    15.9950     2.3960    58.8280    16.9340    19.8180     7.2560     2.1290 
  152.3750   150.3830    -1.5950    16.0410     2.8010    59.0770    16.7820    19.6630     6.3220     2.1450 
  152.5000   150.4990    -1.5970    16.0870     3.1540    60.5000    16.5330    19.4450     5.1980     2.1650 
  152.6250   150.6150    -1.5990    16.1330     3.4290    61.3950    16.3900    19.3680     4.3540     2.1720 
  152.7500   150.7320    -1.6010    16.1790     3.6520    60.4550    16.4960    19.5850     4.0330     2.1590 
  152.8750   150.8480    -1.6030    16.2250     3.8780    58.0780    16.8110    20.0320     4.4670     2.1360 
  153.0000   150.9640    -1.6050    16.2710     4.1610    55.8440    17.2220    20.5500     5.4430     2.1170 
  153.1250   151.0800    -1.6070    16.3170     4.5310    56.2720    17.6400    21.0770     6.0270     2.1110 
