~V
VERS. 2.00: Ver 2.00
~W
STRT.M 64.0000:
STOP.M 246.0000:
STEP.M 0.1250:
NULL. -999.2500:
UWI. FD10853:
~C
DEPT.M :
TVD. :
DX. :
DY. :
SP.MV :
GR.API :
RI. :
RML.OHMM :
RXO.OHMM :
DEN.GM/CC :
~A
# ...
  200.8750   198.5000   -20.3140    -7.0620   -24.6880    67.6410    16.7380    15.8890    17.7080     2.2440 
  201.0000   198.6210   -20.3450    -7.0730   -24.5490    66.7700    16.0700    15.2500    17.9040     2.2590 
  201.1250   198.7410   -20.3770    -7.0840   -24.4190    65.4350    15.4430    14.6540    20.7620     2.2810 
  201.2500   198.8620   -20.4080    -7.0950   -24.2980    65.3890    14.9030    14.1350    22.1070     2.3100 
  201.3750   198.9820   -20.4390    -7.1060   -24.2470    67.3260    14.4790    13.7220    19.1150     2.3260 
  201.5000   199.1030   -20.4700    -7.1170   -24.2710    69.1970    14.0680    13.3090    16.1370     2.3190 
  201.6250   199.2230   -20.5010    -7.1280   -24.4610    68.8010    13.7900    13.0420    16.0450     2.2920 
  201.7500   199.3440   -20.5320    -7.1400   -24.6540    67.6830    13.7460    13.0140    16.9610     2.2670 
  201.8750   199.4640   -20.5630    -7.1510   -24.8460    67.3380    14.0130    13.2790    16.8060     2.2460 
  202.0000   199.5850   -20.5940    -7.1630   -25.1390    67.1930    14.4110    13.6480    15.6840     2.2250 
  202.1250   199.7050   -20.6250    -7.1740   -25.5550    65.2770    14.7980    14.0110    15.8030     2.2040 
  202.2500   199.8260   -20.6560    -7.1860   -25.9020    63.3910    15.2740    14.4470    17.5040     2.1980 
  202.3750   199.9470   -20.6880    -7.1980   -26.1670    62.3010    15.7810    14.9220    18.7400     2.2010 
  202.5000   200.0670   -20.7190    -7.2090   -26.4040    62.3370    16.2760    15.3720    19.0310     2.2010 
  202.6250   200.1880   -20.7500    -7.2210   -26.6310    60.5830    16.6430    15.7140    19.0670     2.1990 
  202.7500   200.3080   -20.7810    -7.2330   -26.8650    58.0910    17.0440    16.1450    19.0350     2.1950 
  202.8750   200.4290   -20.8120    -7.2450   -27.1350    56.5050    17.5670    16.7340    19.1120     2.1910 
  203.0000   200.5490   -20.8430    -7.2570   -27.3600    56.6780    18.1220    17.3440    19.7920     2.1840 
  203.1250   200.6700   -20.8740    -7.2680   -27.5230    57.7250    18.6300    17.8850    20.9060     2.1820 
  203.2500   200.7900   -20.9050    -7.2800   -27.6250    59.8020    18.9410    18.1940    21.8190     2.1830 
  203.3750   200.9100   -20.9360    -7.2920   -27.6840    61.6150    19.1090    18.3470    22.1680     2.1870 
  203.5000   201.0310   -20.9670    -7.3040   -27.7230    62.8380    19.0960    18.3250    21.8820     2.1920 
  203.6250   201.1510   -20.9990    -7.3150   -27.7080    62.2260    19.0250    18.2760    21.4640     2.2010 
  203.7500   201.2720   -21.0300    -7.3270   -27.6620    61.9210    19.0420    18.3270    21.1700     2.2070 
  203.8750   201.3920   -21.0610    -7.3390   -27.6040    60.9650    19.2190    18.5370    20.7580     2.2110 
  204.0000   201.5130   -21.0920    -7.3510   -27.5740    59.7650    19.5740    18.9020    21.4220     2.2060 
  204.1250   201.6330   -21.1230    -7.3640   -27.5740    59.1760    20.0360    19.3470    22.5910     2.2010 
  204.2500   201.7540   -21.1540    -7.3760   -27.5870    59.4210    20.5500    19.8150    22.7560     2.1970 
  204.3750   201.8740   -21.1850    -7.3880   -27.4960    60.1800    21.1160    20.3170    22.2240     2.2010 
  204.5000   201.9950   -21.2170    -7.4000   -27.2960    59.3820    21.8480    20.9810    21.7920     2.2040 
  204.6250   202.1150   -21.2480    -7.4120   -26.9910    58.1910    22.7330    21.8250    22.0890     2.2120 
  204.7500   202.2360   -21.2790    -7.4240   -26.6520    57.3240    23.8850    22.9910    22.7190     2.2230 
  204.8750   202.3560   -21.3100    -7.4360   -26.3410    58.0020    25.3340    24.4920    24.5360     2.2370 
  205.0000   202.4770   -21.3410    -7.4480   -26.0450    58.8340    26.5370    25.6730    28.8160     2.2470 
  205.1250   202.5970   -21.3720    -7.4600   -25.7390    58.8460    26.9770    26.0430    33.1450     2.2620 
  205.2500   202.7170   -21.4030    -7.4720   -25.4270    58.0510    26.4010    25.4140    36.7490     2.2810 
  205.3750   202.8380   -21.4340    -7.4840   -25.1440    57.7900    25.2960    24.3330    38.1230     2.2940 
  205.5000   202.9580   -21.4650    -7.4970   -24.8040    57.8250    24.3110    23.5070    31.9670     2.2910 
  205.6250   203.0790   -21.4960    -7.5090   -24.4880    57.9550    24.1200    23.5450    24.7840     2.2800 
  205.7500   203.1990   -21.5270    -7.5210   -24.1360    57.8510    25.2690    24.9700    25.7540     2.2580 
  205.8750   203.3200   -21.5570    -7.5330   -23.7730    58.7610    27.7240    27.8340    30.4550     2.2440 
  206.0000   203.4410   -21.5880    -7.5460   -23.4200    58.9200    32.2570    32.9030    31.0420     2.2630 
  206.1250   203.5610   -21.6190    -7.5580   -23.1010    56.6980    39.1670    40.4720    31.9270     2.3440 
  206.2500   203.6820   -21.6500    -7.5700   -22.8170    53.9030    49.9940    52.0760    55.7590     2.4570 
  206.3750   203.8020   -21.6810    -7.5820   -22.4230    52.9090    63.0500    65.6190   117.2680     2.5610 
  206.5000   203.9230   -21.7110    -7.5950   -21.8710    56.5120    75.3190    77.5680   181.8160     2.6050 
  206.6250   204.0430   -21.7420    -7.6070   -21.2480    60.9260    83.9780    84.9000   187.4830     2.6190 
  206.7500   204.1640   -21.7730    -7.6190   -20.5480    63.2920    86.1450    85.3100   135.2330     2.6200 
  206.8750   204.2840   -21.8040    -7.6320   -19.7650    61.9190    85.9210    84.3000    89.0410     2.6350 
  207.0000   204.4050   -21.8340    -7.6440   -18.9410    59.6690    88.3560    88.1130    91.0050     2.6420 
  207.1250   204.5250   -21.8650    -7.6560   -18.0850    58.0030    96.3710   100.9730   122.1660     2.6510 
  207.2500   204.6460   -21.8960    -7.6690   -17.2150    58.4910   109.5830   116.4060   137.7450     2.6580 
  207.3750   204.7660   -21.9270    -7.6810   -16.3840    59.3220    98.2540   102.8950   141.1850     2.6690 
  207.5000   204.8870   -21.9570    -7.6940   -15.6110    59.9980    71.6210    74.1020   149.9920     2.6450 
  207.6250   205.0070   -21.9880    -7.7060   -14.8120    59.2380    37.4450    34.2790   141.8090     2.5610 
  207.7500   205.1280   -22.0190    -7.7190   -14.0380    55.9130     9.1150     8.6810   103.0800     2.4120 
  207.8750   205.2480   -22.0500    -7.7310   -13.2880    50.4020     3.0250     3.1100    52.0880     2.2650 
  208.0000   205.3690   -22.0800    -7.7440   -12.5530    43.3810     1.6700     1.7940    15.1220     2.1820 
  208.1250   205.4890   -22.1110    -7.7560   -11.9690    36.7310     1.2240     1.4500     2.4440     2.1640 
  208.2500   205.6100   -22.1420    -7.7690   -11.5280    31.7760     1.1530     1.3660     1.6990     2.1830 
  208.3750   205.7300   -22.1730    -7.7810   -11.2220    29.4670     1.2490     1.5580     1.7370     2.2140 
  208.5000   205.8510   -22.2030    -7.7940   -11.1450    29.2110     1.4120     1.7630     1.8270     2.2500 
  208.6250   205.9720   -22.2340    -7.8060   -11.2720    29.4950     1.5720     1.9090     1.9960     2.2740 
  208.7500   206.0920   -22.2650    -7.8180   -11.3960    29.5780     1.7440     2.0470     2.1750     2.2750 
  208.8750   206.2130   -22.2950    -7.8310   -11.4620    29.3040     1.9080     2.1850     2.2950     2.2760 
  209.0000   206.3330   -22.3260    -7.8430   -11.5180    30.2290     2.0340     2.3020     2.4330     2.3000 
  209.1250   206.4540   -22.3570    -7.8550   -11.6470    31.9350     2.1180     2.3830     2.6560     2.3390 
  209.2500   206.5740   -22.3880    -7.8670   -11.8300    34.2430     2.1250     2.3810     2.8330     2.3630 
  209.3750   206.6950   -22.4180    -7.8790   -12.0590    34.2840     2.0650     2.3020     2.8530     2.3650 
  209.5000   206.8150   -22.4490    -7.8910   -12.1860    32.3440     1.9570     2.1750     2.7820     2.3610 
  209.6250   206.9360   -22.4800    -7.9030   -12.2510    29.9410     1.8400     2.0570     2.6720     2.3610 
  209.7500   207.0560   -22.5110    -7.9150   -12.2710    29.8050     1.7460     1.9750     2.5110     2.3540 
  209.8750   207.1770   -22.5420    -7.9270   -12.2910    30.8830     1.6940     1.9500     2.4230     2.3400 
