~V
VERS. 2.00: Ver 2.00
~W
STRT.M 65.0000:
STOP.M 248.0000:
STEP.M 0.1250:
NULL. -999.2500:
UWI. FD10900:
~C
DEPT.M :
TVD. :
DX. :
DY. :
SP.MV :
GR.API :
RI. :
RML.OHMM :
RXO.OHMM :
DEN.GM/CC :
~A
# ...
   92.3750    92.3570    -0.9250     0.0250   -15.1180    81.8930     4.1510     4.9780     5.4360     2.2120 
   92.5000    92.4820    -0.9330     0.0270   -15.0660    80.9940     4.3240     5.1910     5.5230     2.2020 
   92.6250    92.6060    -0.9410     0.0290   -15.2210    81.1780     4.3700     5.2390     5.2150     2.1960 
   92.7500    92.7310    -0.9490     0.0310   -15.4580    80.8930     4.2560     5.0910     4.9940     2.1920 
   92.8750    92.8560    -0.9570     0.0340   -15.5990    80.6260     4.0440     4.8270     5.2630     2.1930 
   93.0000    92.9810    -0.9650     0.0370   -15.6080    81.3750     3.8020     4.5330     5.5160     2.2030 
   93.1250    93.1050    -0.9730     0.0390   -15.5970    85.2220     3.5970     4.2960     5.0450     2.2160 
   93.2500    93.2300    -0.9810     0.0420   -15.6200    88.3990     3.5000     4.2060     4.2890     2.2230 
   93.3750    93.3550    -0.9890     0.0450   -15.6630    89.4510     3.5420     4.3010     4.0910     2.2190 
   93.5000    93.4790    -0.9970     0.0480   -15.6910    86.4020     3.7280     4.5850     4.5000     2.2060 
   93.6250    93.6040    -1.0050     0.0510   -15.7900    82.4320     4.0170     4.9910     5.1610     2.1890 
   93.7500    93.7290    -1.0130     0.0540   -16.1670    76.8880     4.3480     5.4310     5.9540     2.1720 
   93.8750    93.8540    -1.0210     0.0580   -16.7340    72.2830     4.6700     5.8390     6.5860     2.1600 
   94.0000    93.9780    -1.0290     0.0610   -17.4120    70.2130     4.9660     6.2040     6.8010     2.1580 
   94.1250    94.1030    -1.0380     0.0640   -18.1080    70.7560     5.2450     6.5420     6.9680     2.1590 
   94.2500    94.2280    -1.0460     0.0680   -18.7560    71.6740     5.5080     6.8580     7.4300     2.1540 
   94.3750    94.3520    -1.0540     0.0710   -19.3000    71.1500     5.7450     7.1430     8.0600     2.1460 
   94.5000    94.4770    -1.0630     0.0740   -19.7610    68.9820     5.9230     7.3470     8.6540     2.1410 
   94.6250    94.6020    -1.0710     0.0780   -20.2030    66.2120     6.0170     7.4330     8.9900     2.1430 
   94.7500    94.7260    -1.0800     0.0810   -20.5170    64.2450     6.0060     7.3770     8.9370     2.1460 
   94.8750    94.8510    -1.0880     0.0850   -20.7430    63.6200     5.9100     7.2160     8.6000     2.1390 
   95.0000    94.9760    -1.0960     0.0890   -20.9000    63.8440     5.7650     7.0100     8.0190     2.1110 
   95.1250    95.1000    -1.1050     0.0930   -21.0600    63.5680     5.6270     6.8410     7.3830     2.0660 
   95.2500    95.2250    -1.1130     0.0960   -21.1740    62.3650     5.5510     6.7720     7.0000     2.0160 
   95.3750    95.3500    -1.1220     0.1000   -21.2410    61.0420     5.5520     6.8110     6.9700     1.9870 
   95.5000    95.4740    -1.1300     0.1040   -21.2890    60.0100     5.6130     6.9300     7.0820     1.9980 
   95.6250    95.5990    -1.1390     0.1080   -21.2930    59.2130     5.6670     7.0300     7.0560     2.0350 
   95.7500    95.7230    -1.1480     0.1120   -21.1890    60.3590     5.6180     6.9790     6.9310     2.0760 
   95.8750    95.8480    -1.1560     0.1160   -21.0270    62.1160     5.4200     6.7150     6.8590     2.1040 
   96.0000    95.9730    -1.1650     0.1210   -20.8700    66.0280     5.0720     6.2430     6.7920     2.1250 
   96.1250    96.0970    -1.1730     0.1250   -20.6890    69.3670     4.6740     5.7050     6.5190     2.1520 
   96.2500    96.2220    -1.1820     0.1290   -20.4440    73.9560     4.3760     5.3100     5.7850     2.1880 
   96.3750    96.3470    -1.1910     0.1340   -20.1750    76.4520     4.2790     5.2000     4.9280     2.2130 
   96.5000    96.4710    -1.2000     0.1390   -19.9380    76.2750     4.4690     5.4900     4.8940     2.2130 
   96.6250    96.5960    -1.2080     0.1430   -19.7560    73.9710     4.9190     6.1260     5.9970     2.1990 
   96.7500    96.7200    -1.2170     0.1480   -19.7060    70.6800     5.5220     6.9350     7.4750     2.1930 
   96.8750    96.8450    -1.2260     0.1530   -19.9200    68.5650     6.0820     7.6340     8.1920     2.2000 
   97.0000    96.9700    -1.2350     0.1570   -20.3920    67.1230     6.4170     7.9830     7.9360     2.2050 
   97.1250    97.0940    -1.2440     0.1620   -20.8600    66.7690     6.4820     7.9640     7.4790     2.1930 
   97.2500    97.2190    -1.2530     0.1670   -21.2190    66.8290     6.3480     7.7110     7.2750     2.1690 
   97.3750    97.3430    -1.2620     0.1720   -21.5370    66.4980     6.1670     7.4370     7.3670     2.1460 
   97.5000    97.4680    -1.2710     0.1770   -21.7690    65.8710     6.0250     7.2430     7.6770     2.1330 
   97.6250    97.5920    -1.2810     0.1810   -21.9280    64.0890     5.9350     7.1270     7.9220     2.1260 
   97.7500    97.7170    -1.2900     0.1860   -21.9950    61.5700     5.8880     7.0630     7.8600     2.1220 
   97.8750    97.8420    -1.2990     0.1910   -22.0100    59.4010     5.8700     7.0260     7.5810     2.1170 
   98.0000    97.9660    -1.3090     0.1960   -22.0590    57.2160     5.8790     7.0160     7.7190     2.1120 
   98.1250    98.0910    -1.3180     0.2010   -22.0490    56.2780     5.9120     7.0390    10.1890     2.1070 
   98.2500    98.2150    -1.3280     0.2060   -21.9960    56.2740     5.9640     7.0990    15.9510     2.1050 
   98.3750    98.3400    -1.3370     0.2110   -21.9110    57.8910     6.0420     7.2040    19.1700     2.1040 
   98.5000    98.4640    -1.3470     0.2170   -21.7170    59.7650     6.1560     7.3600    14.9650     2.1000 
   98.6250    98.5890    -1.3570     0.2220   -21.4580    60.9770     6.2380     7.4610     9.2000     2.0980 
   98.7500    98.7130    -1.3670     0.2270   -21.1330    60.6570     6.1490     7.3260     8.0030     2.1090 
   98.8750    98.8380    -1.3770     0.2320   -20.7650    60.9000     5.8360     6.8990    12.1640     2.1410 
   99.0000    98.9620    -1.3870     0.2370   -20.3600    63.5980     5.3250     6.2270    18.2560     2.1870 
   99.1250    99.0870    -1.3970     0.2420   -19.8740    70.4210     4.7630     5.5080    18.0830     2.2290 
   99.2500    99.2110    -1.4070     0.2470   -19.2510    78.9610     4.3000     4.9360    10.9980     2.2470 
   99.3750    99.3360    -1.4170     0.2520   -18.4780    87.5330     4.0090     4.6000     5.6480     2.2450 
   99.5000    99.4600    -1.4270     0.2570   -17.7480    92.7620     3.9260     4.5320     4.5480     2.2320 
   99.6250    99.5850    -1.4370     0.2620   -17.2900    94.1760     3.9930     4.6390     4.5080     2.2160 
   99.7500    99.7090    -1.4480     0.2680   -17.1770    91.6470     4.1060     4.7640     4.5530     2.1990 
   99.8750    99.8340    -1.4580     0.2730   -17.1820    87.6910     4.1510     4.7680     4.8420     2.1860 
  100.0000    99.9580    -1.4680     0.2780   -17.2190    85.7540     4.0940     4.6290     5.0000     2.1870 
  100.1250   100.0820    -1.4790     0.2830   -17.2450    86.1520     3.9880     4.4390     4.6400     2.2050 
  100.2500   100.2070    -1.4890     0.2890   -17.2950    87.5630     3.9100     4.3180     4.1110     2.2230 
  100.3750   100.3310    -1.5000     0.2940   -17.3380    87.7540     3.9170     4.3320     3.9960     2.2280 
  100.5000   100.4560    -1.5100     0.3000   -17.2790    86.5170     4.0320     4.5020     4.2940     2.2140 
  100.6250   100.5800    -1.5210     0.3060   -17.1690    84.7670     4.2150     4.7600     4.6800     2.1940 
  100.7500   100.7050    -1.5320     0.3110   -17.1310    83.7940     4.3890     5.0040     5.0470     2.1810 
  100.8750   100.8290    -1.5420     0.3170   -17.2380    84.1790     4.4760     5.1370     5.3000     2.1840 
  101.0000   100.9530    -1.5530     0.3230   -17.5090    85.9930     4.4410     5.1260     5.2790     2.2030 
  101.1250   101.0780    -1.5640     0.3280   -17.8640    87.5670     4.3400     5.0390     5.0110     2.2250 
  101.2500   101.2020    -1.5750     0.3340   -18.1370    87.8350     4.2430     4.9620     4.7190     2.2350 
  101.3750   101.3270    -1.5850     0.3400   -18.2350    85.2310     4.2090     4.9550     4.7310     2.2250 
