~V
VERS. 2.00: Ver 2.00
~W
STRT.M 32.0000:
STOP.M 269.0000:
STEP.M 0.1250:
NULL. -999.2500:
UWI. FD10881:
~C
DEPT.M :
TVD. :
DX. :
DY. :
SP.MV :
GR.API :
RI. :
RML.OHMM :
RXO.OHMM :
~A
# ...
  182.0000   173.7700   -36.3100   -17.9080   -10.8630    45.2430     1.1230     1.5630     2.5090 
  182.1250   173.8720   -36.3740   -17.9420   -10.9530    47.2240     1.1140     1.5660     2.5550 
  182.2500   173.9730   -36.4380   -17.9770   -11.0660    47.4340     1.1060     1.5750     2.5630 
  182.3750   174.0750   -36.5020   -18.0120   -11.2530    46.2640     1.0970     1.5730     2.4920 
  182.5000   174.1760   -36.5660   -18.0470   -11.4540    46.6500     1.0870     1.5670     2.3920 
  182.6250   174.2780   -36.6300   -18.0820   -11.6240    48.8450     1.0640     1.5440     2.2810 
  182.7500   174.3800   -36.6940   -18.1170   -11.8300    51.9260     1.0290     1.5020     2.1710 
  182.8750   174.4810   -36.7580   -18.1520   -12.1740    56.0990     0.9900     1.4610     2.1140 
  183.0000   174.5830   -36.8220   -18.1870   -12.6240    61.8640     0.9540     1.4040     2.1060 
  183.1250   174.6840   -36.8860   -18.2220   -13.1760    67.5620     0.9300     1.3560     2.1270 
  183.2500   174.7860   -36.9500   -18.2570   -13.7950    70.7370     0.9270     1.3390     2.2090 
  183.3750   174.8870   -37.0140   -18.2920   -14.1540    73.0730     0.9430     1.3470     2.3200 
  183.5000   174.9880   -37.0780   -18.3270   -13.9100    76.1740     0.9890     1.4120     2.4070 
  183.6250   175.0900   -37.1420   -18.3620   -13.1710    79.1720     1.0680     1.5250     2.3800 
  183.7500   175.1910   -37.2060   -18.3960   -12.3410    79.1640     1.1680     1.6600     2.2420 
  183.8750   175.2930   -37.2700   -18.4310   -11.7860    77.7810     1.2760     1.7980     2.3870 
  184.0000   175.3940   -37.3350   -18.4660   -11.7860    77.4990     1.3800     1.9330     3.5520 
  184.1250   175.4960   -37.3990   -18.5010   -12.1700    78.4190     1.4810     2.0570     4.6860 
  184.2500   175.5970   -37.4630   -18.5360   -12.6660    78.4730     1.6010     2.2150     4.1680 
  184.3750   175.6990   -37.5270   -18.5710   -13.0290    75.8740     1.7130     2.3430     3.2770 
  184.5000   175.8000   -37.5910   -18.6060   -12.9640    72.8390     1.8590     2.4920     3.6020 
  184.6250   175.9010   -37.6560   -18.6410   -12.5460    71.4750     2.0250     2.6540     4.7530 
  184.7500   176.0030   -37.7200   -18.6760   -12.1680    70.2870     2.2250     2.8620     5.5000 
  184.8750   176.1040   -37.7840   -18.7110   -11.9940    66.9960     2.4670     3.1470     5.3100 
  185.0000   176.2050   -37.8490   -18.7450   -11.9570    62.4800     2.7090     3.4610     4.9580 
  185.1250   176.3070   -37.9130   -18.7800   -12.1450    58.9090     2.9410     3.7420     5.7230 
  185.2500   176.4080   -37.9770   -18.8150   -12.5640    59.2090     3.0580     3.8650     7.4710 
  185.3750   176.5090   -38.0420   -18.8500   -13.0550    62.6610     3.0620     3.8920     8.3160 
  185.5000   176.6110   -38.1060   -18.8860   -13.5650    66.2610     2.9490     3.7370     7.7300 
  185.6250   176.7120   -38.1700   -18.9210   -13.9340    67.5790     2.8010     3.5610     6.7880 
  185.7500   176.8130   -38.2350   -18.9550   -14.1060    66.9180     2.6870     3.4260     6.0100 
  185.8750   176.9140   -38.2990   -18.9900   -14.1590    67.0960     2.5890     3.2610     5.5410 
  186.0000   177.0160   -38.3640   -19.0250   -14.2040    68.5700     2.4900     3.1240     5.3910 
  186.1250   177.1170   -38.4280   -19.0600   -14.2650    70.6260     2.4160     2.9760     5.3440 
  186.2500   177.2180   -38.4930   -19.0950   -14.4660    72.0850     2.4170     2.9160     5.3570 
  186.3750   177.3190   -38.5570   -19.1300   -14.7210    72.3390     2.5510     3.0650     5.2410 
  186.5000   177.4200   -38.6220   -19.1650   -14.7280    72.7310     2.9010     3.5490     4.7300 
  186.6250   177.5220   -38.6860   -19.2000   -14.4370    72.7360     3.4820     4.2890     5.2010 
  186.7500   177.6230   -38.7500   -19.2350   -14.0900    72.9180     4.1520     5.1100     8.0430 
  186.8750   177.7240   -38.8150   -19.2700   -13.8620    73.5110     4.7200     5.7870    10.8130 
  187.0000   177.8260   -38.8790   -19.3060   -13.9100    72.3010     4.9830     6.0860    11.4700 
  187.1250   177.9270   -38.9430   -19.3410   -14.2060    68.6670     4.8990     5.9740    11.6240 
  187.2500   178.0280   -39.0070   -19.3760   -14.6690    65.1370     4.5740     5.5550    11.7560 
  187.3750   178.1300   -39.0710   -19.4120   -15.1020    64.1890     4.1890     5.0540    10.8080 
  187.5000   178.2310   -39.1350   -19.4470   -15.2200    65.7540     3.7660     4.5210     9.5330 
  187.6250   178.3320   -39.1990   -19.4830   -14.9030    67.1680     3.4360     4.1530     8.7120 
  187.7500   178.4340   -39.2630   -19.5180   -14.2500    69.2060     3.1880     3.8830     7.9520 
  187.8750   178.5350   -39.3270   -19.5540   -13.6400    71.4350     3.0050     3.6920     7.3080 
  188.0000   178.6360   -39.3910   -19.5900   -13.0420    72.7850     2.8960     3.5880     6.6990 
  188.1250   178.7380   -39.4540   -19.6250   -12.4850    72.0680     2.8270     3.4940     6.3180 
  188.2500   178.8390   -39.5180   -19.6620   -12.2330    71.6140     2.8000     3.4710     6.6680 
  188.3750   178.9400   -39.5820   -19.6980   -12.3500    73.9300     2.8100     3.4790     7.1000 
  188.5000   179.0420   -39.6450   -19.7340   -12.7320    77.6340     2.8860     3.5630     6.6330 
  188.6250   179.1430   -39.7090   -19.7690   -13.2300    78.0720     3.0170     3.7130     5.9770 
  188.7500   179.2450   -39.7730   -19.8050   -13.7120    75.7540     3.1890     3.9220     6.2970 
  188.8750   179.3460   -39.8360   -19.8420   -14.1770    73.6900     3.3460     4.1140     7.1260 
  189.0000   179.4470   -39.9000   -19.8780   -14.6440    71.9110     3.4080     4.1720     7.7030 
  189.1250   179.5480   -39.9640   -19.9140   -15.0190    70.2420     3.3370     4.0870     8.0890 
  189.2500   179.6500   -40.0270   -19.9500   -15.2620    69.7800     3.1580     3.8450     8.1580 
  189.3750   179.7510   -40.0910   -19.9860   -15.4510    71.0360     2.8730     3.4900     7.5650 
  189.5000   179.8520   -40.1550   -20.0220   -15.3790    73.8410     2.5530     3.1060     6.4190 
  189.6250   179.9540   -40.2190   -20.0580   -14.8050    77.6340     2.2170     2.7030     5.5480 
  189.7500   180.0550   -40.2840   -20.0930   -13.7830    81.2330     1.9140     2.3470     5.7330 
  189.8750   180.1560   -40.3480   -20.1280   -12.6730    82.5020     1.6850     2.0750     5.7820 
  190.0000   180.2570   -40.4120   -20.1640   -11.8800    82.6790     1.5470     1.9100     4.5980 
  190.1250   180.3580   -40.4770   -20.1990   -11.7010    83.6030     1.5060     1.8750     3.4380 
  190.2500   180.4590   -40.5410   -20.2340   -12.1410    84.8110     1.5620     1.9690     3.0890 
  190.3750   180.5600   -40.6060   -20.2690   -12.8280    83.4730     1.6880     2.1430     3.1860 
  190.5000   180.6620   -40.6700   -20.3050   -13.4730    79.1030     1.8220     2.3130     3.5870 
  190.6250   180.7630   -40.7340   -20.3400   -13.8090    74.6670     1.9040     2.4010     3.9840 
  190.7500   180.8640   -40.7990   -20.3760   -13.5880    74.0120     1.9210     2.3940     4.2730 
  190.8750   180.9650   -40.8630   -20.4120   -13.2200    76.4350     1.8750     2.3170     4.4090 
  191.0000   181.0660   -40.9270   -20.4480   -13.0010    78.7540     1.8010     2.2230     4.1460 
  191.1250   181.1670   -40.9920   -20.4840   -12.7940    79.4680     1.7170     2.1230     3.8310 
  191.2500   181.2680   -41.0560   -20.5190   -12.6320    78.0150     1.6490     2.0400     3.8190 
  191.3750   181.3690   -41.1200   -20.5550   -12.6230    76.8490     1.5840     1.9570     3.8700 
  191.5000   181.4700   -41.1850   -20.5910   -12.7330    78.0750     1.5400     1.8950     3.7640 
  191.6250   181.5710   -41.2490   -20.6260   -12.9730    81.1360     1.5230     1.8700     3.5930 
  191.7500   181.6720   -41.3140   -20.6620   -13.2600    82.1620     1.5680     1.9370     3.4240 
  191.8750   181.7730   -41.3780   -20.6970   -13.4150    79.6770     1.7110     2.1370     3.3160 
