~V
VERS. 2.00: Ver 2.00
~W
STRT.M 34.0000:
STOP.M 260.0000:
STEP.M 0.1250:
NULL. -999.2500:
UWI. FD10858:
~C
DEPT.M :
TVD. :
DX. :
DY. :
SP.MV :
GR.API :
RI. :
RML.OHMM :
RXO.OHMM :
DEN.GM/CC :
~A
   34.0000    34.0000     0.0000     0.0000   112.1000    31.7220     0.2060     0.1990     0.0530     2.3290 
   34.1250    34.1250     0.0000    -0.0010   109.9890    31.2530     0.2220     0.1910     0.0460     2.3330 
   34.2500    34.2500    -0.0010    -0.0020   107.7680    31.4450     0.2880     0.1810     0.0450     2.3340 
   34.3750    34.3750    -0.0010    -0.0030   105.5110    31.8230     0.3760     0.1720     0.0310     2.3290 
   34.5000    34.5000    -0.0020    -0.0040   103.1610    31.6560     0.4430     0.1660     0.0610     2.3190 
   34.6250    34.6250    -0.0020    -0.0060   100.5410    32.4110     0.4560     0.1460     0.0550     2.3040 
   34.7500    34.7500    -0.0030    -0.0070    97.4550    33.5880     0.3880     0.1150     0.0670     2.2880 
   34.8750    34.8750    -0.0030    -0.0080    93.5780    32.4850     0.2710     0.0760     0.0990     2.2770 
   35.0000    35.0000    -0.0040    -0.0090    88.6570    30.3490     0.1510     0.0470     0.0770     2.2830 
   35.1250    35.1250    -0.0040    -0.0100    82.2320    31.0360     0.1020     0.0660     0.0440     2.3110 
   35.2500    35.2500    -0.0040    -0.0110    74.1260    35.2790     0.1380     0.1540     0.2280     2.3540 
   35.3750    35.3750    -0.0050    -0.0120    64.1170    41.5070     0.3260     0.4220     1.3390     2.3840 
   35.5000    35.5000    -0.0050    -0.0130    52.6340    50.1840     0.8160     1.1290     3.0000     2.3730 
   35.6250    35.6250    -0.0060    -0.0150    40.3340    60.7080     1.7670     3.0690     3.9340     2.3150 
   35.7500    35.7500    -0.0060    -0.0160    28.2800    69.1070     2.6100     4.2430     4.2690     2.2430 
   35.8750    35.8750    -0.0070    -0.0170    17.5580    71.7570     3.1600     4.7340     4.3470     2.1910 
   36.0000    36.0000    -0.0070    -0.0180     8.7390    71.1650     3.2790     4.2760     4.1650     2.1740 
   36.1250    36.1250    -0.0080    -0.0190     2.1790    72.0010     3.1410     3.2050     3.8080     2.1860 
   36.2500    36.2500    -0.0080    -0.0200    -2.5180    74.7510     3.2160     2.9800     3.4880     2.2090 
   36.3750    36.3750    -0.0090    -0.0210    -5.6940    76.7620     3.5580     3.2100     3.5710     2.2340 
   36.5000    36.5000    -0.0090    -0.0220    -7.9530    75.2660     4.2180     3.8470     3.9700     2.2660 
   36.6250    36.6250    -0.0100    -0.0240    -9.6450    69.2430     5.3500     5.0260     4.5310     2.3180 
   36.7500    36.7500    -0.0110    -0.0250   -11.0810    62.8490     7.2240     7.0220     5.3700     2.3920 
   36.8750    36.8750    -0.0110    -0.0260   -12.4020    59.4780     9.8910    10.0060     6.9580     2.4730 
   37.0000    37.0000    -0.0120    -0.0270   -13.6890    59.5860    12.2810    12.9170     9.1310     2.5360 
   37.1250    37.1250    -0.0120    -0.0280   -14.9700    58.4490    13.2570    14.5510    12.4440     2.5600 
   37.2500    37.2500    -0.0130    -0.0290   -16.2640    56.2430    12.4630    14.1940    14.9890     2.5450 
   37.3750    37.3750    -0.0130    -0.0300   -17.5840    57.0430    10.3230    12.0710    12.2740     2.4880 
   37.5000    37.5000    -0.0140    -0.0320   -18.9350    60.8270     8.1940     9.6740     7.6480     2.4000 
   37.6250    37.6250    -0.0150    -0.0330   -20.2990    62.5090     6.7790     7.9100     5.9160     2.2990 
   37.7500    37.7500    -0.0150    -0.0340   -21.6330    60.4410     6.0620     7.0660     5.7730     2.2140 
   37.8750    37.8750    -0.0160    -0.0350   -22.8800    58.7680     5.9580     7.0130     5.8780     2.1630 
   38.0000    38.0000    -0.0170    -0.0360   -24.0070    59.5170     6.1290     7.3070     6.0970     2.1370 
   38.1250    38.1250    -0.0170    -0.0370   -24.9840    59.2260     6.4780     7.7650     6.4100     2.1230 
   38.2500    38.2500    -0.0180    -0.0380   -25.8220    55.8890     6.7900     8.1380     6.7080     2.1110 
   38.3750    38.3750    -0.0190    -0.0400   -26.5090    52.5740     6.9650     8.3360     6.7710     2.1020 
   38.5000    38.5000    -0.0200    -0.0410   -27.0580    52.7000     6.9810     8.3300     6.6970     2.0980 
   38.6250    38.6250    -0.0200    -0.0420   -27.4550    54.3170     6.8540     8.2130     6.7090     2.0970 
   38.7500    38.7500    -0.0210    -0.0430   -27.7230    54.1790     6.6800     8.0660     6.6940     2.0960 
   38.8750    38.8750    -0.0220    -0.0440   -27.8780    52.5440     6.5060     7.9560     6.3850     2.0930 
   39.0000    39.0000    -0.0230    -0.0450   -27.9650    51.6360     6.3430     7.8740     6.1780     2.0890 
   39.1250    39.1250    -0.0230    -0.0460   -28.0200    51.7390     6.1900     7.7770     6.3070     2.0890 
   39.2500    39.2500    -0.0240    -0.0480   -28.0780    52.8410     6.1030     7.6760     6.1970     2.0930 
   39.3750    39.3750    -0.0250    -0.0490   -28.1630    54.7150     6.0770     7.5690     5.7630     2.1000 
   39.5000    39.5000    -0.0260    -0.0500   -28.2790    56.0340     6.1010     7.4970     5.5330     2.1090 
   39.6250    39.6250    -0.0260    -0.0510   -28.4190    55.6960     6.1190     7.4850     5.8230     2.1190 
   39.7500    39.7500    -0.0270    -0.0520   -28.5690    55.6310     6.1070     7.5700     6.2540     2.1290 
   39.8750    39.8750    -0.0280    -0.0540   -28.7180    56.7960     6.2040     7.8510     6.4840     2.1380 
   40.0000    40.0000    -0.0290    -0.0550   -28.8610    57.4500     6.4660     8.3350     6.5780     2.1490 
   40.1250    40.1250    -0.0300    -0.0560   -28.9990    55.9480     6.8960     8.9000     6.3430     2.1680 
   40.2500    40.2500    -0.0310    -0.0580   -29.1260    55.7550     7.3050     9.3470     5.9650     2.1950 
   40.3750    40.3750    -0.0310    -0.0590   -29.2400    58.0430     7.4620     9.5340     6.0040     2.2190 
   40.5000    40.5000    -0.0320    -0.0600   -29.3450    59.4600     7.2680     9.3390     6.4500     2.2250 
   40.6250    40.6250    -0.0330    -0.0620   -29.4500    58.7700     6.9070     8.9920     6.7930     2.2080 
   40.7500    40.7500    -0.0340    -0.0630   -29.5640    59.8840     6.6650     8.7530     6.8070     2.1840 
   40.8750    40.8750    -0.0350    -0.0640   -29.6850    65.1860     6.7170     8.8310     6.8700     2.1650 
   41.0000    41.0000    -0.0360    -0.0660   -29.7930    69.0490     6.9110     9.0930     7.4380     2.1550 
   41.1250    41.1250    -0.0370    -0.0670   -29.8580    66.9210     7.0650     9.3070     7.9100     2.1530 
   41.2500    41.2500    -0.0380    -0.0690   -29.8540    62.0880     7.0260     9.2420     7.5150     2.1540 
   41.3750    41.3750    -0.0390    -0.0700   -29.7600    58.5130     6.8510     8.8830     6.9150     2.1540 
   41.5000    41.5000    -0.0400    -0.0720   -29.5760    55.5820     6.6280     8.4290     6.7650     2.1450 
   41.6250    41.6250    -0.0410    -0.0730   -29.2950    52.2240     6.4500     8.1350     6.8010     2.1270 
   41.7500    41.7500    -0.0420    -0.0750   -28.9300    51.1160     6.3570     8.0850     6.6400     2.1130 
   41.8750    41.8740    -0.0430    -0.0770   -28.4820    53.7450     6.3310     8.0850     6.5140     2.1120 
   42.0000    41.9990    -0.0440    -0.0780   -27.9680    57.3340     6.2070     7.8110    10.8180     2.1230 
   42.1250    42.1240    -0.0450    -0.0800   -27.3930    59.7670     5.9030     7.2070    16.9420     2.1440 
   42.2500    42.2490    -0.0460    -0.0820   -26.7780    62.9910     5.3190     6.3160    13.8180     2.1730 
   42.3750    42.3740    -0.0470    -0.0830   -26.1450    70.0260     4.6210     5.4290     6.0300     2.2090 
   42.5000    42.4990    -0.0480    -0.0850   -25.5310    79.9360     4.0400     4.7260     3.2150     2.2430 
   42.6250    42.6240    -0.0490    -0.0870   -24.9800    88.5920     3.6470     4.2700     3.1700     2.2690 
   42.7500    42.7490    -0.0500    -0.0890   -24.5170    90.4660     3.4910     4.1130     3.1090     2.2880 
   42.8750    42.8740    -0.0520    -0.0910   -24.1610    87.7390     3.5170     4.2120     3.0860     2.3020 
   43.0000    42.9990    -0.0530    -0.0930   -23.8970    88.1180     3.5500     4.3460     3.1430     2.3140 
