~V
VERS. 2.00: Ver 2.00
~W
STRT.M 50.0000:
STOP.M 219.0000:
STEP.M 0.1250:
NULL. -999.2500:
UWI. FD10804:
~C
DEPT.M :
TVD. :
DX. :
DY. :
SP.MV :
GR.API :
RI. :
RML.OHMM :
RXO.OHMM :
DEN.GM/CC :
~A
# ...
  205.1250   199.2080   -28.4340   -22.9190   -90.9090    83.9940     8.1290     8.8980     8.9790     2.4120 
  205.2500   199.3230   -28.4730   -22.9510   -90.9090    81.9550     7.8470     8.5980     8.7130     2.4180 
  205.3750   199.4370   -28.5130   -22.9830   -90.9090    79.4060     7.4840     8.2510     8.2190     2.4110 
  205.5000   199.5510   -28.5520   -23.0150   -90.9090    77.9860     7.1200     7.9310     7.6390     2.3990 
  205.6250   199.6650   -28.5920   -23.0470   -90.9090    76.8750     6.8220     7.7170     7.1410     2.3830 
  205.7500   199.7800   -28.6310   -23.0780   -90.9090    75.5220     6.6360     7.6200     6.4450     2.3730 
  205.8750   199.8940   -28.6700   -23.1100   -90.9090    73.4490     6.6300     7.6580     5.8130     2.3750 
  206.0000   200.0080   -28.7100   -23.1420   -90.9090    73.6680     6.7770     7.8330     5.7370     2.3810 
  206.1250   200.1220   -28.7490   -23.1740   -90.9090    75.4340     7.0650     8.1490     6.5380     2.3900 
  206.2500   200.2370   -28.7890   -23.2060   -90.9090    77.5360     7.4430     8.5300     7.8920     2.4000 
  206.3750   200.3510   -28.8280   -23.2380   -90.9090    77.1680     7.8120     8.9050     9.9560     2.4060 
  206.5000   200.4650   -28.8680   -23.2690   -90.9090    76.2870     8.1770     9.2380    11.0930     2.3970 
  206.6250   200.5790   -28.9070   -23.3010   -90.9090    76.5920     8.4680     9.4880     9.4940     2.3800 
  206.7500   200.6940   -28.9470   -23.3330   -90.9090    78.6970     8.7050     9.6740     8.4060     2.3800 
  206.8750   200.8080   -28.9870   -23.3650   -90.9090    81.6600     8.8960     9.8140     9.1980     2.4140 
  207.0000   200.9220   -29.0260   -23.3960   -90.9090    82.9330     8.9640     9.8500     9.1990     2.4640 
  207.1250   201.0360   -29.0660   -23.4280   -90.9090    82.9390     8.8480     9.7190     8.7920     2.5120 
  207.2500   201.1510   -29.1060   -23.4590   -90.9090    81.2540     8.5600     9.4640     9.8480     2.5310 
  207.3750   201.2650   -29.1460   -23.4910   -90.9090    80.0010     8.2010     9.1150    10.6060     2.5080 
  207.5000   201.3790   -29.1860   -23.5220   -90.9090    77.2820     7.7680     8.7390    10.0810     2.4490 
  207.6250   201.4930   -29.2260   -23.5540   -90.9090    74.9990     7.4440     8.4090     8.9610     2.3910 
  207.7500   201.6070   -29.2660   -23.5850   -90.9090    72.5670     7.1810     8.1530     7.2630     2.3560 
  207.8750   201.7220   -29.3060   -23.6160   -90.9090    72.0510     7.0860     8.0610     5.9820     2.3390 
  208.0000   201.8360   -29.3460   -23.6470   -90.9090    71.5840     7.1700     8.1770     5.4130     2.3240 
  208.1250   201.9500   -29.3860   -23.6790   -90.9090    71.9490     7.4210     8.4850     5.5540     2.3150 
  208.2500   202.0640   -29.4260   -23.7100   -90.9090    72.7040     7.7380     8.8730     6.6480     2.3260 
  208.3750   202.1780   -29.4660   -23.7410   -90.9090    74.0680     8.0650     9.2330     8.0350     2.3460 
  208.5000   202.2930   -29.5060   -23.7730   -90.9090    75.1620     8.3080     9.4810    10.0310     2.3620 
  208.6250   202.4070   -29.5460   -23.8040   -90.9090    75.7090     8.4090     9.5560    11.4110     2.3670 
  208.7500   202.5210   -29.5860   -23.8350   -90.9090    76.1720     8.3710     9.4930    10.0180     2.3720 
  208.8750   202.6350   -29.6260   -23.8670   -90.9090    76.1160     8.2580     9.3530     8.3750     2.3750 
  209.0000   202.7490   -29.6670   -23.8980   -90.9090    75.6020     8.1060     9.1900     8.2080     2.3800 
  209.1250   202.8630   -29.7070   -23.9290   -90.9090    75.4260     7.9750     9.0410     8.0040     2.3850 
  209.2500   202.9780   -29.7470   -23.9610   -90.9090    76.1510     7.8590     8.9000     7.6450     2.3900 
  209.3750   203.0920   -29.7870   -23.9920   -90.9090    78.4260     7.7520     8.7520     7.3460     2.3910 
  209.5000   203.2060   -29.8270   -24.0230   -90.9090    80.3200     7.6700     8.6320     6.8810     2.3860 
  209.6250   203.3200   -29.8670   -24.0540   -90.9090    80.5110     7.6410     8.5970     6.6410     2.3800 
  209.7500   203.4340   -29.9070   -24.0860   -90.9090    79.8160     7.6640     8.6410     6.7890     2.3800 
  209.8750   203.5490   -29.9470   -24.1170   -90.9090    79.3410     7.7190     8.7320     6.9030     2.3780 
  210.0000   203.6630   -29.9870   -24.1480   -90.9090    79.3870     7.7720     8.8190     6.6520     2.3710 
  210.1250   203.7770   -30.0270   -24.1800   -90.9090    77.8230     7.7790     8.8620     6.2090     2.3570 
  210.2500   203.8910   -30.0670   -24.2110   -90.9090    76.1640     7.7480     8.8410     5.9790     2.3470 
  210.3750   204.0050   -30.1070   -24.2420   -90.9090    75.7480     7.6420     8.7550     5.8050     2.3440 
  210.5000   204.1200   -30.1470   -24.2740   -90.9090    76.5560     7.5000     8.6220     5.4500     2.3510 
  210.6250   204.2340   -30.1870   -24.3050   -90.9090    77.1700     7.3310     8.4560     5.5190     2.3630 
  210.7500   204.3480   -30.2270   -24.3360   -90.9090    77.2380     7.1510     8.3050     6.3260     2.3720 
  210.8750   204.4620   -30.2670   -24.3680   -90.9090    77.1780     7.0250     8.1880     7.4050     2.3650 
  211.0000   204.5760   -30.3070   -24.3990   -90.9090    76.7990     6.9670     8.1460     7.7510     2.3480 
  211.1250   204.6910   -30.3480   -24.4300   -90.9090    76.2830     7.0600     8.2580     7.2280     2.3310 
  211.2500   204.8050   -30.3880   -24.4610   -90.9090    75.9160     7.2850     8.5450     7.4040     2.3390 
  211.3750   204.9190   -30.4280   -24.4930   -90.9090    75.9160     7.7420     8.9890     8.2530     2.3670 
  211.5000   205.0330   -30.4680   -24.5240   -90.9090    75.9160     8.1720     9.4550     9.7420     2.3900 
  211.6250   205.1470   -30.5080   -24.5550   -90.9090    75.9160     8.4950     9.8100    13.2420     2.3880 
  211.7500   205.2620   -30.5480   -24.5870   -90.9090    75.9160     8.6900    10.0310    16.0250     2.3720 
  211.8750   205.3760   -30.5880   -24.6180   -90.9090    75.9160     8.7320    10.1320    14.2300     2.3650 
  212.0000   205.4900   -30.6280   -24.6490   -90.9090    75.9160     8.7650    10.1800    10.2770     2.3680 
  212.1250   205.6040   -30.6680   -24.6810   -90.9090    75.9160     8.7930    10.2060     8.2340     2.3730 
  212.2500   205.7180   -30.7080   -24.7120   -90.9090    75.9160     8.8030    10.2120     7.8700     2.3730 
  212.3750   205.8320   -30.7480   -24.7430   -90.9090    75.9160     8.8030    10.2070     7.4050     2.3870 
  212.5000   205.9470   -30.7880   -24.7750   -90.9090    75.9160     8.8030    10.2000     6.7820     2.4180 
  212.6250   206.0610   -30.8280   -24.8060   -90.9090    75.9160     8.8030    10.1920     7.0490     2.4520 
  212.7500   206.1750   -30.8680   -24.8370   -90.9090    75.9160     8.8020    10.1800     8.1940     2.4690 
  212.8750   206.2890   -30.9080   -24.8680   -90.9090    75.9160     8.8060    10.1690     9.2350     2.4630 
  213.0000   206.4030   -30.9480   -24.9000   -90.9090    75.9160     8.8130    10.1630     9.6340     2.4520 
  213.1250   206.5180   -30.9890   -24.9310   -90.9090    75.9160     8.8200    10.1620     9.4260     2.4500 
  213.2500   206.6320   -31.0290   -24.9620   -90.9090    75.9160     8.8280    10.1620     9.0740     2.4580 
  213.3750   206.7460   -31.0690   -24.9940   -90.9090    75.9160     8.8280    10.1620     8.8140     2.4680 
  213.5000   206.8600   -31.1090   -25.0250   -90.9090    75.9160     8.8280    10.1610     8.4650     2.4700 
  213.6250   206.9740   -31.1490   -25.0560   -90.9090    75.9160     8.8280    10.1600     8.2570     2.4730 
  213.7500   207.0890   -31.1890   -25.0880   -90.9090    75.9160     8.8280    10.1600     8.4280     2.4840 
  213.8750   207.2030   -31.2290   -25.1190   -90.9090    75.9160     8.8280    10.1610     9.6170     2.5050 
  214.0000   207.3170   -31.2690   -25.1500   -90.9090    75.9160     8.8280    10.1610    11.6320     2.5250 
  214.1250   207.4310   -31.3090   -25.1820   -90.9090    75.9160     8.8280    10.1610    12.2300     2.5340 
