~V
VERS. 2.00: Ver 2.00
~W
STRT.M 30.0000:
STOP.M 262.0000:
STEP.M 0.1250:
NULL. -999.2500:
UWI. FD10852:
~C
DEPT.M :
TVD. :
DX. :
DY. :
SP.MV :
GR.API :
RI. :
RML.OHMM :
RXO.OHMM :
DEN.GM/CC :
~A
# ...
  194.2500   177.8300   -62.9830    -3.2280     0.3410    68.5650    12.3540    15.0830    12.6080     2.4030 
  194.3750   177.9320   -63.0550    -3.2290     1.2000    68.4590    12.2570    14.9830    13.0200     2.3840 
  194.5000   178.0330   -63.1280    -3.2310     0.7080    68.0410    12.1000    14.8380    13.3920     2.3700 
  194.6250   178.1350   -63.2000    -3.2320    -0.9050    67.6140    11.8770    14.5610    13.6680     2.3740 
  194.7500   178.2370   -63.2720    -3.2340    -1.8260    66.8230    11.7800    14.4310    13.6630     2.3830 
  194.8750   178.3390   -63.3450    -3.2350    -2.4810    65.8680    11.8810    14.5230    13.1040     2.3810 
  195.0000   178.4410   -63.4170    -3.2370    -2.7350    65.0790    12.2740    15.0410    12.3830     2.3760 
  195.1250   178.5430   -63.4890    -3.2380    -1.7860    65.9270    12.8790    15.8490    12.4810     2.3780 
  195.2500   178.6450   -63.5610    -3.2400     0.1490    67.3710    13.4690    16.6540    13.7900     2.3880 
  195.3750   178.7470   -63.6340    -3.2410     0.7410    69.1130    13.7110    16.9700    16.0380     2.3890 
  195.5000   178.8490   -63.7060    -3.2430     1.3320    68.6910    13.4430    16.5720    16.6140     2.3720 
  195.6250   178.9510   -63.7780    -3.2440     1.8290    66.6910    12.9000    15.8390    14.2930     2.3530 
  195.7500   179.0530   -63.8510    -3.2460     1.8870    65.7820    12.2250    14.9610    11.7930     2.3550 
  195.8750   179.1550   -63.9230    -3.2470     1.4200    66.2190    11.5820    14.1740    10.6700     2.3730 
  196.0000   179.2570   -63.9950    -3.2480     0.5890    65.9790    10.9720    13.4740    10.5870     2.3860 
  196.1250   179.3590   -64.0670    -3.2500    -0.3400    65.6150    10.4600    12.8610    10.8950     2.3920 
  196.2500   179.4610   -64.1400    -3.2510    -1.0640    67.1530     9.9510    12.2190    10.3910     2.3970 
  196.3750   179.5630   -64.2120    -3.2530    -1.2920    70.3910     9.4950    11.6440     9.1240     2.3990 
  196.5000   179.6650   -64.2840    -3.2540    -1.1360    72.3640     9.1030    11.1640     9.0660     2.3920 
  196.6250   179.7670   -64.3560    -3.2560    -1.0460    72.4840     8.7810    10.7830     9.7190     2.3770 
  196.7500   179.8690   -64.4290    -3.2580    -1.1550    72.1350     8.5600    10.4810     9.0020     2.3630 
  196.8750   179.9710   -64.5010    -3.2590    -1.3320    72.2720     8.3750    10.1880     7.9070     2.3600 
  197.0000   180.0730   -64.5730    -3.2610    -1.5490    73.3370     8.2640     9.9650     7.7930     2.3690 
  197.1250   180.1750   -64.6450    -3.2620    -1.9160    74.4370     8.2960     9.9380     7.9630     2.3850 
  197.2500   180.2770   -64.7170    -3.2630    -2.4500    73.5970     8.6300    10.3670     7.9870     2.4030 
  197.3750   180.3800   -64.7890    -3.2650    -3.1160    71.2580     9.1950    11.1140     8.4220     2.4110 
  197.5000   180.4820   -64.8610    -3.2670    -3.9880    70.0460     9.8090    11.9610     9.5870     2.3990 
  197.6250   180.5840   -64.9330    -3.2690    -5.0150    70.1900    10.3630    12.7210    10.6210     2.3740 
  197.7500   180.6860   -65.0050    -3.2700    -6.0730    70.5860    10.5110    12.9370    10.7900     2.3530 
  197.8750   180.7880   -65.0770    -3.2720    -6.8930    70.1860    10.3400    12.7140    10.2460     2.3330 
  198.0000   180.8910   -65.1480    -3.2740    -7.2740    70.4170     9.9700    12.2190     9.1190     2.3160 
  198.1250   180.9930   -65.2200    -3.2760    -7.3610    70.1380     9.7180    11.8940     8.0170     2.3080 
  198.2500   181.0960   -65.2920    -3.2780    -7.2300    69.9950     9.7610    11.9200     7.7690     2.3130 
  198.3750   181.1980   -65.3630    -3.2800    -6.7730    69.3730    10.1810    12.4530     8.3490     2.3070 
  198.5000   181.3000   -65.4350    -3.2820    -6.0050    66.8260    11.0650    13.5290     9.2860     2.2690 
  198.6250   181.4030   -65.5070    -3.2850    -5.1710    63.3380    12.1780    14.8790    10.2850     2.2300 
  198.7500   181.5050   -65.5780    -3.2870    -4.5250    60.8700    13.3540    16.3030    11.2190     2.2560 
  198.8750   181.6080   -65.6490    -3.2900    -4.3470    59.7190    14.3650    17.5190    11.8900     2.3670 
  199.0000   181.7110   -65.7210    -3.2930    -4.7750    58.7980    14.9630    18.1710    12.1210     2.5440 
  199.1250   181.8130   -65.7920    -3.2970    -5.5740    58.7240    15.1030    18.2300    12.1370     2.5610 
  199.2500   181.9160   -65.8630    -3.3000    -6.4620    59.4640    14.8550    17.8260    12.4660     2.4810 
  199.3750   182.0180   -65.9350    -3.3040    -7.0500    60.1600    14.2560    17.0110    13.1830     2.4010 
  199.5000   182.1210   -66.0060    -3.3070    -7.1090    60.7080    13.6350    16.2350    13.6770     2.4010 
  199.6250   182.2240   -66.0770    -3.3100    -6.9610    60.9660    13.1040    15.5830    14.4480     2.4480 
  199.7500   182.3260   -66.1490    -3.3130    -6.9250    60.5550    12.6780    15.0260    14.8510     2.5010 
  199.8750   182.4290   -66.2200    -3.3160    -6.9950    60.9460    12.3790    14.6070    12.9870     2.5380 
  200.0000   182.5320   -66.2910    -3.3190    -7.1490    62.7890    12.2620    14.3940    10.7990     2.5170 
  200.1250   182.6340   -66.3630    -3.3220    -7.4860    65.0710    12.4510    14.5340    12.0350     2.4240 
  200.2500   182.7370   -66.4340    -3.3250    -7.9560    67.1180    12.8660    14.9340    14.9380     2.3050 
  200.3750   182.8390   -66.5050    -3.3270    -8.4120    68.9330    13.5000    15.5850    15.4980     2.2270 
  200.5000   182.9420   -66.5770    -3.3300    -8.8070    70.1040    14.1770    16.2480    15.1780     2.1980 
  200.6250   183.0440   -66.6480    -3.3330    -9.0770    69.4810    14.7620    16.7970    14.7730     2.1900 
  200.7500   183.1470   -66.7200    -3.3370    -9.2570    68.0890    15.1940    17.1610    13.1910     2.1940 
  200.8750   183.2490   -66.7910    -3.3400    -9.4670    67.3270    15.4470    17.3600    11.6740     2.2050 
  201.0000   183.3520   -66.8620    -3.3430    -9.7470    67.9330    15.6020    17.4820    11.1460     2.2140 
  201.1250   183.4540   -66.9340    -3.3460   -10.1120    68.7760    15.7370    17.6090    11.7590     2.2150 
  201.2500   183.5570   -67.0060    -3.3490   -10.5540    68.6560    15.8430    17.7270    13.0810     2.2070 
  201.3750   183.6590   -67.0770    -3.3520   -10.8170    67.1020    15.9540    17.8460    14.0820     2.1940 
  201.5000   183.7620   -67.1490    -3.3550   -10.6400    65.1740    16.1770    18.0850    14.5570     2.2000 
  201.6250   183.8640   -67.2200    -3.3580   -10.0760    64.0940    16.7970    18.8060    14.6150     2.2460 
  201.7500   183.9670   -67.2920    -3.3610    -9.3300    64.8330    18.1610    20.4270    14.7990     2.3220 
  201.8750   184.0690   -67.3630    -3.3640    -8.7860    65.4030    19.9040    22.4150    16.8500     2.3810 
  202.0000   184.1720   -67.4350    -3.3660    -8.8650    63.7510    22.0190    24.8300    22.0690     2.3740 
  202.1250   184.2740   -67.5060    -3.3690    -9.4520    60.9640    24.3020    27.4110    30.8330     2.3130 
  202.2500   184.3770   -67.5780    -3.3720   -10.2110    60.8580    27.1830    30.6160    36.1550     2.2400 
  202.3750   184.4790   -67.6490    -3.3750   -10.8320    62.9510    30.2620    34.0920    32.0400     2.1980 
  202.5000   184.5820   -67.7210    -3.3780   -10.9520    64.1130    33.5120    37.7370    32.1060     2.1920 
  202.6250   184.6840   -67.7920    -3.3810   -10.5150    63.7500    37.1870    41.8800    43.5540     2.2000 
  202.7500   184.7860   -67.8640    -3.3840    -9.8460    62.9040    40.7680    45.8840    53.0330     2.2020 
  202.8750   184.8890   -67.9350    -3.3880    -9.2650    61.7720    43.9590    49.4250    55.7970     2.1960 
  203.0000   184.9910   -68.0070    -3.3910    -8.7750    59.3020    45.8420    51.4780    55.3810     2.1890 
  203.1250   185.0940   -68.0780    -3.3950    -8.4200    56.8150    46.5310    52.1360    53.0270     2.1790 
  203.2500   185.1960   -68.1500    -3.3990    -8.2810    56.1050    47.1970    52.7970    54.1370     2.1750 
