~V
VERS. 2.00: Ver 2.00
~W
STRT.M 24.0000:
STOP.M 309.0000:
STEP.M 0.1250:
NULL. -999.2500:
UWI. FD10911:
~C
DEPT.M :
TVD. :
DX. :
DY. :
SP.MV :
GR.API :
RI. :
RML.OHMM :
RXO.OHMM :
DEN.GM/CC :
~A
# ...
  188.2500   177.8660    18.2560   -43.0300   -21.4560    58.2150     7.7360     9.3700     8.3540     2.4250 
  188.3750   177.9710    18.2910   -43.0880   -21.4800    60.6690     7.5690     9.1980     8.7190     2.4170 
  188.5000   178.0760    18.3260   -43.1460   -21.4810    62.3120     7.4520     9.0800     9.0310     2.4090 
  188.6250   178.1810    18.3620   -43.2040   -21.4600    64.4400     7.3990     9.0370     8.8500     2.4100 
  188.7500   178.2860    18.3970   -43.2620   -21.4300    66.3930     7.4510     9.1170     8.3560     2.4240 
  188.8750   178.3910    18.4320   -43.3200   -21.4010    67.6190     7.6240     9.3420     8.0250     2.4440 
  189.0000   178.4960    18.4670   -43.3780   -21.3780    67.0530     7.9510     9.7430     8.5340     2.4580 
  189.1250   178.6010    18.5030   -43.4360   -21.3540    65.0730     8.4180    10.3020     9.8780     2.4620 
  189.2500   178.7060    18.5380   -43.4940   -21.3190    63.9870     8.9850    10.9620    10.8760     2.4570 
  189.3750   178.8110    18.5730   -43.5520   -21.2760    62.7830     9.5660    11.6230    10.8570     2.4520 
  189.5000   178.9150    18.6090   -43.6100   -21.2340    62.2650    10.0750    12.1850    10.6220     2.4500 
  189.6250   179.0200    18.6440   -43.6680   -21.2070    62.0920    10.4650    12.5920    10.8720     2.4510 
  189.7500   179.1250    18.6800   -43.7250   -21.2020    61.7710    10.6790    12.7690    11.5660     2.4520 
  189.8750   179.2300    18.7150   -43.7830   -21.2180    60.8490    10.6730    12.6750    12.3290     2.4490 
  190.0000   179.3350    18.7510   -43.8410   -21.2530    60.0290    10.4320    12.3050    12.5350     2.4460 
  190.1250   179.4400    18.7860   -43.8990   -21.3000    60.1070    10.0140    11.7460    12.1420     2.4450 
  190.2500   179.5450    18.8220   -43.9580   -21.3570    60.3450     9.4730    11.0650    11.7360     2.4440 
  190.3750   179.6500    18.8570   -44.0160   -21.4320    59.2200     8.8930    10.3490    11.3670     2.4380 
  190.5000   179.7540    18.8930   -44.0740   -21.5380    60.2160     8.3470     9.6860    10.5490     2.4270 
  190.6250   179.8590    18.9280   -44.1320   -21.6870    62.3450     7.9170     9.1720     9.4490     2.4150 
  190.7500   179.9640    18.9640   -44.1900   -21.8910    65.0060     7.6800     8.9000     8.5760     2.4080 
  190.8750   180.0690    18.9990   -44.2480   -22.1470    66.1750     7.6340     8.8660     8.0500     2.4070 
  191.0000   180.1740    19.0340   -44.3070   -22.4540    67.0800     7.7570     9.0300     8.0380     2.4130 
  191.1250   180.2780    19.0700   -44.3650   -22.8010    67.5020     7.9800     9.2940     8.5940     2.4220 
  191.2500   180.3830    19.1050   -44.4230   -23.1860    66.6080     8.2760     9.6150     9.2020     2.4280 
  191.3750   180.4880    19.1400   -44.4810   -23.6050    64.3660     8.6540    10.0110     9.4120     2.4280 
  191.5000   180.5930    19.1760   -44.5400   -24.0630    63.0560     9.1650    10.5610     9.2770     2.4190 
  191.6250   180.6970    19.2110   -44.5980   -24.5570    63.8650     9.8930    11.3940     9.0110     2.4050 
  191.7500   180.8020    19.2470   -44.6560   -25.0870    66.4240    10.9860    12.6900     9.7600     2.3820 
  191.8750   180.9070    19.2820   -44.7150   -25.6480    68.9390    12.5600    14.5590    13.2700     2.3480 
  192.0000   181.0120    19.3170   -44.7730   -26.2430    69.8870    14.8180    17.2060    18.9350     2.3090 
  192.1250   181.1160    19.3530   -44.8310   -26.8660    68.5140    17.6450    20.4760    23.2290     2.2750 
  192.2500   181.2210    19.3880   -44.8900   -27.4940    66.9370    20.9050    24.2010    25.5350     2.2480 
  192.3750   181.3260    19.4230   -44.9480   -28.0870    65.8940    24.4070    28.1800    28.7320     2.2230 
  192.5000   181.4310    19.4590   -45.0070   -28.6030    68.1460    27.9440    32.2090    34.3900     2.1960 
  192.6250   181.5350    19.4940   -45.0650   -29.0320    69.1050    31.3870    36.1490    40.3710     2.1750 
  192.7500   181.6400    19.5290   -45.1240   -29.3850    67.7990    34.6000    39.8350    43.4970     2.1660 
  192.8750   181.7450    19.5640   -45.1820   -29.6910    65.5240    37.4200    43.0450    43.9210     2.1640 
  193.0000   181.8490    19.5990   -45.2410   -29.9560    65.4600    39.6500    45.5090    43.9930     2.1620 
  193.1250   181.9540    19.6340   -45.3000   -30.1820    66.8900    41.1160    47.0360    44.8810     2.1590 
  193.2500   182.0590    19.6690   -45.3580   -30.3450    68.0170    41.5510    47.3550    45.1070     2.1600 
  193.3750   182.1630    19.7040   -45.4170   -30.4450    67.7060    41.0460    46.5880    43.8910     2.1650 
  193.5000   182.2680    19.7390   -45.4750   -30.4790    67.3350    39.8580    45.0420    42.7170     2.1720 
  193.6250   182.3730    19.7740   -45.5340   -30.4680    69.3540    38.5160    43.3280    42.0370     2.1770 
  193.7500   182.4770    19.8090   -45.5930   -30.4230    73.3100    37.4530    41.9390    41.3870     2.1780 
  193.8750   182.5820    19.8450   -45.6510   -30.3540    75.8240    36.9310    41.1820    40.6910     2.1770 
  194.0000   182.6870    19.8800   -45.7100   -30.2530    75.3770    37.1340    41.2580    39.8080     2.1790 
  194.1250   182.7910    19.9150   -45.7690   -30.1180    73.8180    38.0050    42.0710    38.8320     2.1820 
  194.2500   182.8960    19.9500   -45.8270   -29.9440    72.9870    39.4980    43.5430    40.3230     2.1860 
  194.3750   183.0010    19.9860   -45.8860   -29.7340    72.3140    41.3610    45.3750    43.3770     2.1860 
  194.5000   183.1050    20.0210   -45.9440   -29.4920    71.8610    43.2850    47.2290    43.9580     2.1860 
  194.6250   183.2100    20.0570   -46.0030   -29.2320    71.5750    44.9840    48.8070    44.3260     2.1840 
  194.7500   183.3140    20.0920   -46.0610   -28.9640    72.0500    46.2090    49.8450    47.8100     2.1820 
  194.8750   183.4190    20.1280   -46.1190   -28.7020    72.6250    46.8290    50.2090    52.4610     2.1800 
  195.0000   183.5240    20.1640   -46.1780   -28.4620    72.9810    46.6990    49.7740    54.7490     2.1800 
  195.1250   183.6280    20.1990   -46.2360   -28.2660    72.7870    46.0270    48.8080    53.6610     2.1800 
  195.2500   183.7330    20.2350   -46.2950   -28.1440    72.4190    45.1750    47.7310    50.4500     2.1810 
  195.3750   183.8370    20.2710   -46.3530   -28.0980    72.3630    44.5040    46.9280    47.6250     2.1840 
  195.5000   183.9420    20.3060   -46.4120   -28.1200    71.6620    44.1450    46.5120    46.0350     2.1940 
  195.6250   184.0470    20.3420   -46.4700   -28.1800    70.9350    43.8260    46.1350    45.0700     2.2070 
  195.7500   184.1510    20.3780   -46.5290   -28.2520    71.2180    43.0440    45.2100    44.2580     2.2170 
  195.8750   184.2560    20.4130   -46.5870   -28.3280    71.9750    41.5300    43.4550    43.3590     2.2210 
  196.0000   184.3600    20.4490   -46.6460   -28.4200    72.4550    39.2500    40.8930    42.0450     2.2230 
  196.1250   184.4650    20.4850   -46.7040   -28.5470    71.5410    36.4960    37.9070    40.3000     2.2280 
  196.2500   184.5690    20.5200   -46.7630   -28.7270    72.2830    33.6960    35.0150    37.3230     2.2340 
  196.3750   184.6740    20.5560   -46.8210   -28.9590    73.6530    31.3290    32.6840    32.0650     2.2340 
  196.5000   184.7780    20.5910   -46.8800   -29.2400    76.1980    29.7170    31.1940    28.8620     2.2260 
  196.6250   184.8830    20.6270   -46.9380   -29.5560    76.3960    28.9350    30.5770    29.9340     2.2160 
  196.7500   184.9870    20.6630   -46.9970   -29.8880    74.3170    29.0400    30.8760    31.1560     2.2110 
  196.8750   185.0920    20.6980   -47.0560   -30.2140    69.9610    29.8460    31.8950    29.8050     2.2090 
  197.0000   185.1960    20.7340   -47.1140   -30.5040    66.4670    31.1710    33.4450    28.0970     2.2110 
  197.1250   185.3010    20.7690   -47.1730   -30.7430    65.0840    32.6720    35.1610    28.5770     2.2150 
  197.2500   185.4050    20.8050   -47.2320   -30.9430    66.8210    34.0340    36.6890    32.0860     2.2190 
