~V
VERS. 2.00: Ver 2.00
~W
STRT.M 50.0000:
STOP.M 287.0000:
STEP.M 0.1250:
NULL. -999.2500:
UWI. FD10894:
~C
DEPT.M :
TVD. :
DX. :
DY. :
SP.MV :
GR.API :
RI. :
RML.OHMM :
RXO.OHMM :
DEN.GM/CC :
~A
# ...
  113.8750   113.4900     4.7770     1.5840   -21.4780    89.5170     4.6790     5.7200     6.1510     2.2290 
  114.0000   113.6110     4.8060     1.5900   -21.7010    88.0520     5.4290     6.6580     6.0410     2.2330 
  114.1250   113.7330     4.8340     1.5960   -21.9080    84.6200     6.7430     8.3980     8.7190     2.2530 
  114.2500   113.8540     4.8630     1.6020   -22.0850    78.9240     8.3900    10.6260    19.3400     2.2940 
  114.3750   113.9760     4.8920     1.6090   -22.2060    72.9650     9.8910    12.5430    32.0460     2.3470 
  114.5000   114.0970     4.9210     1.6150   -22.2570    71.6650    10.6220    13.3430    30.6390     2.3880 
  114.6250   114.2190     4.9500     1.6210   -22.2120    74.9420    10.1590    12.5160    17.2050     2.3880 
  114.7500   114.3400     4.9790     1.6270   -22.0760    77.8140     8.8850    10.7130     9.5210     2.3420 
  114.8750   114.4620     5.0080     1.6340   -21.8590    78.8370     7.4440     8.8720     8.5990     2.2660 
  115.0000   114.5830     5.0370     1.6400   -21.6000    80.8340     6.2640     7.4690     8.0960     2.1950 
  115.1250   114.7050     5.0660     1.6460   -21.3430    84.5390     5.5880     6.7020     7.5560     2.1560 
  115.2500   114.8260     5.0950     1.6530   -21.1280    86.2130     5.1080     6.1070     6.7900     2.1500 
  115.3750   114.9470     5.1240     1.6600   -20.9780    86.8740     4.6890     5.5600     6.2750     2.1710 
  115.5000   115.0690     5.1530     1.6660   -20.8820    90.6580     4.3260     5.0780     5.9990     2.2010 
  115.6250   115.1900     5.1830     1.6730   -20.8080    96.2300     4.0720     4.7560     5.4200     2.2300 
  115.7500   115.3110     5.2120     1.6800   -20.7120    98.9600     3.8990     4.5570     4.8870     2.2540 
  115.8750   115.4330     5.2420     1.6860   -20.5530    98.2950     3.7860     4.4260     4.7970     2.2720 
  116.0000   115.5540     5.2710     1.6930   -20.3160   100.0830     3.7230     4.3520     4.8430     2.2840 
  116.1250   115.6750     5.3010     1.7000   -20.0020   105.1610     3.6800     4.3090     4.7350     2.2930 
  116.2500   115.7960     5.3310     1.7060   -19.6410   107.0920     3.6330     4.2650     4.6110     2.3030 
  116.3750   115.9170     5.3600     1.7130   -19.2620   102.6720     3.5500     4.1960     4.5550     2.3130 
  116.5000   116.0390     5.3900     1.7200   -18.8930    96.4170     3.4150     4.0440     4.4630     2.3220 
  116.6250   116.1600     5.4200     1.7270   -18.5520    94.4810     3.2800     3.8640     4.4930     2.3250 
  116.7500   116.2810     5.4500     1.7330   -18.2400    94.7230     3.2320     3.7670     4.6520     2.3250 
  116.8750   116.4020     5.4800     1.7400   -17.9510    94.7070     3.3980     3.9440     4.6070     2.3250 
  117.0000   116.5230     5.5110     1.7470   -17.6740    94.9160     3.9290     4.6090     4.4800     2.3250 
  117.1250   116.6440     5.5410     1.7540   -17.4010    93.2290     4.9180     5.8870     6.9340     2.3240 
  117.2500   116.7650     5.5710     1.7610   -17.1300    87.5000     6.3130     7.6670    15.3910     2.3160 
  117.3750   116.8860     5.6020     1.7680   -16.8690    78.5350     7.9090     9.5890    24.3740     2.2930 
  117.5000   117.0070     5.6320     1.7740   -16.6260    70.4090     9.0990    10.8910    23.0490     2.2550 
  117.6250   117.1280     5.6630     1.7810   -16.4100    66.5040     9.6650    11.3670    14.8270     2.2090 
  117.7500   117.2490     5.6940     1.7880   -16.2260    65.5160     9.5770    11.0700    10.7020     2.1650 
  117.8750   117.3700     5.7250     1.7950   -16.0780    64.8170     9.1770    10.5040    10.7450     2.1340 
  118.0000   117.4910     5.7560     1.8020   -15.9720    61.9240     8.7400     9.9860    11.0830     2.1170 
  118.1250   117.6120     5.7870     1.8090   -15.9240    59.3660     8.1450     9.3020    10.9830     2.1120 
  118.2500   117.7330     5.8180     1.8160   -15.9470    60.7750     7.3160     8.3470    10.1720     2.1170 
  118.3750   117.8540     5.8490     1.8230   -16.0610    65.9640     6.3290     7.2060     8.7130     2.1320 
  118.5000   117.9750     5.8800     1.8300   -16.2590    73.7150     5.4460     6.2030     7.2420     2.1550 
  118.6250   118.0950     5.9120     1.8370   -16.5200    82.5950     4.8750     5.5780     6.1120     2.1840 
  118.7500   118.2160     5.9430     1.8430   -16.7950    88.9420     4.6370     5.3370     5.5760     2.2110 
  118.8750   118.3370     5.9750     1.8500   -17.0290    89.4170     4.6280     5.3280     5.6890     2.2290 
  119.0000   118.4580     6.0060     1.8570   -17.1790    87.3240     4.7220     5.4090     6.2450     2.2360 
  119.1250   118.5780     6.0380     1.8640   -17.2140    87.2580     4.8090     5.4670     6.5750     2.2340 
  119.2500   118.6990     6.0690     1.8720   -17.1500    88.2040     4.8820     5.4930     6.4180     2.2310 
  119.3750   118.8200     6.1010     1.8790   -17.0100    88.9360     4.9860     5.5720     6.1770     2.2320 
  119.5000   118.9400     6.1330     1.8870   -16.8380    90.2270     5.1630     5.7610     5.7660     2.2370 
  119.6250   119.0610     6.1650     1.8940   -16.6660    91.2950     5.4330     6.0990     5.8980     2.2430 
  119.7500   119.1820     6.1970     1.9020   -16.5160    89.6880     5.6830     6.4260     6.5780     2.2470 
  119.8750   119.3020     6.2290     1.9090   -16.3930    85.7780     5.7730     6.5610     6.9840     2.2450 
  120.0000   119.4230     6.2610     1.9160   -16.2850    84.0150     5.6690     6.4260     7.2520     2.2400 
  120.1250   119.5430     6.2940     1.9230   -16.1730    86.4120     5.4110     6.0860     7.0340     2.2370 
  120.2500   119.6640     6.3260     1.9310   -16.0350    89.9080     5.1280     5.7270     6.5200     2.2390 
  120.3750   119.7840     6.3590     1.9380   -15.8470    91.0820     5.0930     5.6840     6.4170     2.2470 
  120.5000   119.9050     6.3910     1.9460   -15.5920    91.0330     5.4190     6.1000     6.2950     2.2560 
  120.6250   120.0250     6.4240     1.9530   -15.2470    90.7550     6.3320     7.2740     6.1960     2.2620 
  120.7500   120.1460     6.4560     1.9610   -14.8060    87.6600     7.9970     9.3570     7.1530     2.2630 
  120.8750   120.2660     6.4890     1.9680   -14.2600    80.2720    10.3810    12.2670    11.8990     2.2530 
  121.0000   120.3860     6.5220     1.9760   -13.6260    71.8730    13.0310    15.4060    18.6570     2.2290 
  121.1250   120.5070     6.5550     1.9840   -12.9350    64.4870    15.2400    17.8750    21.0200     2.1920 
  121.2500   120.6270     6.5880     1.9910   -12.2480    59.4340    16.5010    19.1480    19.4180     2.1470 
  121.3750   120.7470     6.6210     1.9990   -11.6530    57.5360    16.6680    19.1320    17.7210     2.1050 
  121.5000   120.8680     6.6540     2.0060   -11.2320    58.0000    16.2760    18.4830    17.2380     2.0710 
  121.6250   120.9880     6.6870     2.0140   -11.0820    57.4570    15.4970    17.4360    18.1300     2.0500 
  121.7500   121.1080     6.7200     2.0220   -11.2310    54.8630    14.6550    16.4120    19.0150     2.0390 
  121.8750   121.2280     6.7540     2.0300   -11.7050    54.1580    14.0380    15.7710    19.0190     2.0370 
  122.0000   121.3490     6.7870     2.0380   -12.4320    56.5530    13.8450    15.7140    19.0560     2.0480 
  122.1250   121.4690     6.8210     2.0460   -13.3430    59.5690    13.9780    16.0460    19.2220     2.0780 
  122.2500   121.5890     6.8540     2.0540   -14.3200    61.4490    14.1060    16.3020    23.5680     2.1320 
  122.3750   121.7090     6.8880     2.0610   -15.2590    62.8330    13.8720    16.0140    33.7170     2.2050 
  122.5000   121.8290     6.9220     2.0690   -16.0800    63.5640    13.2270    15.1670    38.1190     2.2710 
  122.6250   121.9490     6.9550     2.0770   -16.7180    62.4530    12.3850    14.0580    29.1280     2.3010 
  122.7500   122.0690     6.9890     2.0850   -17.1750    61.7000    11.6250    13.0330    16.1400     2.2830 
  122.8750   122.1890     7.0230     2.0930   -17.4590    62.9920    11.1690    12.4140     9.9420     2.2300 
