~V
VERS. 2.00: Ver 2.00
~W
STRT.M 53.0000:
STOP.M 258.0000:
STEP.M 0.1250:
NULL. -999.2500:
UWI. FD10870:
~C
DEPT.M :
TVD. :
DX. :
DY. :
SP.MV :
GR.API :
RI. :
RML.OHMM :
RXO.OHMM :
DEN.GM/CC :
~A
# ...
  153.3750   150.8040   -16.3900    -5.0720     7.7200    62.8030    30.9430    34.0960    37.6810     2.5750 
  153.5000   150.9200   -16.4330    -5.0540     7.9620    60.5570    37.8730    42.3340    53.9300     2.6370 
  153.6250   151.0360   -16.4750    -5.0360     8.0620    59.8680    44.6690    50.2660    53.9170     2.6450 
  153.7500   151.1520   -16.5180    -5.0180     8.0370    60.5530    49.5780    55.7540    43.1830     2.6210 
  153.8750   151.2680   -16.5610    -4.9990     8.1600    60.5510    51.5620    57.8490    50.4990     2.5930 
  154.0000   151.3840   -16.6040    -4.9810     8.1820    60.1020    51.4010    57.6400    75.9690     2.5680 
  154.1250   151.5000   -16.6470    -4.9620     8.0650    59.5220    49.7090    55.7160    76.8160     2.5520 
  154.2500   151.6160   -16.6900    -4.9440     7.9820    59.1650    47.1950    52.7590    54.5540     2.5400 
  154.3750   151.7320   -16.7330    -4.9250     7.9870    59.3440    44.2030    49.1280    40.2830     2.5240 
  154.5000   151.8470   -16.7760    -4.9060     7.8840    58.7490    41.2250    45.5530    36.0070     2.5120 
  154.6250   151.9630   -16.8200    -4.8870     7.7670    58.3000    39.2610    43.2600    35.3570     2.4970 
  154.7500   152.0790   -16.8630    -4.8680     7.6840    58.5590    38.7190    42.6180    38.1860     2.4870 
  154.8750   152.1950   -16.9060    -4.8490     7.6330    60.3160    39.2910    43.2380    44.4860     2.4840 
  155.0000   152.3100   -16.9500    -4.8290     7.5820    62.5980    40.1920    44.1040    43.2880     2.4840 
  155.1250   152.4260   -16.9930    -4.8100     7.4600    63.7120    40.1890    43.7460    38.6640     2.4830 
  155.2500   152.5410   -17.0370    -4.7910     7.4020    64.4590    38.7100    41.7170    40.1400     2.4760 
  155.3750   152.6570   -17.0800    -4.7710     7.3650    63.8290    35.7320    38.0880    36.3310     2.4840 
  155.5000   152.7720   -17.1240    -4.7520     7.3990    63.9440    31.9610    33.7980    28.6210     2.5010 
  155.6250   152.8880   -17.1680    -4.7320     7.6310    63.2820    28.3960    29.9560    25.4840     2.5240 
  155.7500   153.0030   -17.2110    -4.7120     7.7920    61.1350    26.1940    27.6890    23.4240     2.5360 
  155.8750   153.1190   -17.2550    -4.6920     7.8130    57.5010    26.3200    28.0100    20.9700     2.5420 
  156.0000   153.2340   -17.2990    -4.6720     7.8810    55.5600    28.5750    30.8730    20.8770     2.5410 
  156.1250   153.3490   -17.3420    -4.6510     8.0870    57.4510    33.3320    36.6610    27.4580     2.5370 
  156.2500   153.4650   -17.3860    -4.6300     8.2810    60.4410    39.6670    44.1950    42.0590     2.5370 
  156.3750   153.5800   -17.4290    -4.6100     8.4350    61.3210    47.3650    52.9190    60.6000     2.5590 
  156.5000   153.6950   -17.4730    -4.5890     8.4810    61.4880    53.6520    59.5330    65.7780     2.5940 
  156.6250   153.8100   -17.5170    -4.5680     8.4980    62.3090    56.1490    61.6870    57.8150     2.6200 
  156.7500   153.9260   -17.5600    -4.5470     8.6130    65.5070    54.9740    59.9500    62.6020     2.6150 
  156.8750   154.0410   -17.6040    -4.5260     8.6380    67.5920    51.3060    55.7440    72.5710     2.5740 
  157.0000   154.1560   -17.6480    -4.5040     8.6840    68.5410    47.8130    51.9530    64.6500     2.5200 
  157.1250   154.2710   -17.6920    -4.4830     8.6200    68.0750    45.1320    49.1450    46.3180     2.4820 
  157.2500   154.3860   -17.7360    -4.4620     8.2940    67.9190    43.3230    47.3210    36.9520     2.4810 
  157.3750   154.5010   -17.7800    -4.4400     7.8840    68.0390    41.7880    45.8910    39.3300     2.4940 
  157.5000   154.6160   -17.8240    -4.4190     7.3820    68.2370    40.6670    44.9030    42.5940     2.4950 
  157.6250   154.7310   -17.8680    -4.3970     6.8680    67.8430    39.4350    43.6580    38.1240     2.4770 
  157.7500   154.8460   -17.9120    -4.3760     6.6160    65.9190    37.6620    41.7170    30.4770     2.4570 
  157.8750   154.9610   -17.9570    -4.3540     6.5620    64.7220    35.5070    39.3640    28.4920     2.4530 
  158.0000   155.0760   -18.0010    -4.3330     6.5010    64.9280    33.4850    37.2310    29.3570     2.4720 
  158.1250   155.1900   -18.0460    -4.3110     6.5110    67.1660    32.2970    36.0390    27.4110     2.5050 
  158.2500   155.3050   -18.0900    -4.2890     6.5070    68.1970    32.2910    36.1550    23.7520     2.5340 
  158.3750   155.4200   -18.1350    -4.2670     6.5620    67.1990    33.8670    38.0740    23.2540     2.5410 
  158.5000   155.5340   -18.1800    -4.2450     6.5780    65.9330    37.3590    42.2910    29.5920     2.5410 
  158.6250   155.6490   -18.2250    -4.2230     6.5210    66.1310    43.1780    49.2260    40.1780     2.5490 
  158.7500   155.7630   -18.2690    -4.2010     6.6230    66.4540    50.3260    57.3650    49.5130     2.5750 
  158.8750   155.8780   -18.3140    -4.1790     6.4260    64.1430    56.3410    63.7370    58.7720     2.6170 
  159.0000   155.9920   -18.3600    -4.1560     6.2500    60.3260    58.0730    64.8550    69.8420     2.6620 
  159.1250   156.1070   -18.4050    -4.1330     6.1360    59.9170    55.8300    61.3910    75.5790     2.7000 
  159.2500   156.2210   -18.4500    -4.1110     6.0770    61.9280    50.5460    54.7280    66.1570     2.7230 
  159.3750   156.3350   -18.4950    -4.0880     6.1260    64.6940    44.4990    47.5550    47.5580     2.7250 
  159.5000   156.4490   -18.5410    -4.0650     6.2060    65.4280    39.1890    41.5430    35.9070     2.7050 
  159.6250   156.5640   -18.5860    -4.0420     6.1830    65.5370    34.7010    36.6930    32.8420     2.6700 
  159.7500   156.6780   -18.6320    -4.0190     6.1140    64.3940    31.6220    33.6450    31.6420     2.6410 
  159.8750   156.7920   -18.6770    -3.9960     6.0650    62.2870    29.7660    31.7830    27.8970     2.6330 
  160.0000   156.9060   -18.7230    -3.9720     6.1000    60.3160    27.5190    29.2640    23.6190     2.6460 
  160.1250   157.0200   -18.7690    -3.9490     6.2990    60.5210    23.8160    25.1850    26.2830     2.6700 
  160.2500   157.1330   -18.8150    -3.9260     6.4160    62.7770    19.7500    20.6650    36.8180     2.6890 
  160.3750   157.2470   -18.8610    -3.9020     6.4280    65.2030    16.2980    16.9270    38.1130     2.6730 
  160.5000   157.3610   -18.9070    -3.8790     6.5450    67.2360    14.4510    14.9780    22.0220     2.6270 
  160.6250   157.4750   -18.9530    -3.8550     6.5900    68.0300    14.3120    14.9060    13.6820     2.5730 
  160.7500   157.5880   -18.9990    -3.8320     6.6630    68.1370    15.2790    16.1380    22.4400     2.5410 
  160.8750   157.7020   -19.0460    -3.8080     6.7720    67.1510    17.3970    18.5300    27.6010     2.5310 
  161.0000   157.8160   -19.0920    -3.7840     6.7110    65.7250    19.5070    20.7450    23.9310     2.5410 
  161.1250   157.9290   -19.1390    -3.7610     6.8920    63.7020    20.8870    22.0350    23.5420     2.5460 
  161.2500   158.0430   -19.1850    -3.7370     6.9960    63.1320    21.3530    22.3290    26.9270     2.5420 
  161.3750   158.1560   -19.2320    -3.7130     6.9970    63.9890    21.4140    22.3580    26.1150     2.5230 
  161.5000   158.2700   -19.2780    -3.6900     7.2400    64.8300    21.5580    22.5670    21.4580     2.5070 
  161.6250   158.3830   -19.3250    -3.6660     7.2190    64.2600    21.7000    22.8490    19.0570     2.4940 
  161.7500   158.4970   -19.3720    -3.6420     6.9010    62.5370    21.8200    23.1450    23.0300     2.4800 
  161.8750   158.6100   -19.4190    -3.6180     6.5480    61.6420    22.0200    23.5040    26.8680     2.4730 
  162.0000   158.7240   -19.4650    -3.5940     6.2840    61.2360    22.0750    23.6580    22.7340     2.4710 
  162.1250   158.8370   -19.5120    -3.5700     6.1630    61.3380    22.0110    23.7080    19.8120     2.4760 
  162.2500   158.9510   -19.5590    -3.5460     6.0800    61.4900    21.9590    23.7800    23.3960     2.4810 
  162.3750   159.0640   -19.6060    -3.5230     6.1310    62.6480    21.9290    23.8720    25.2410     2.5040 
