~V
VERS. 2.00: Ver 2.00
~W
STRT.M 24.0000:
STOP.M 309.0000:
STEP.M 0.1250:
NULL. -999.2500:
UWI. FD10911:
~C
DEPT.M :
TVD. :
DX. :
DY. :
SP.MV :
GR.API :
RI. :
RML.OHMM :
RXO.OHMM :
DEN.GM/CC :
~A
   24.0000    24.0000     0.0000     0.0000   105.6580    46.5610     0.1630     0.2070    47.9100     2.3840 
   24.1250    24.1250    -0.0020    -0.0010   107.1100    46.3400     0.1640     0.1950  1364.8550     2.3890 
   24.2500    24.2500    -0.0050    -0.0020   106.7850    45.9330     0.1620     0.1870  6831.1340     2.3910 
   24.3750    24.3750    -0.0070    -0.0040   104.9380    47.5160     0.1580     0.1850 13282.3870     2.3910 
   24.5000    24.5000    -0.0090    -0.0050   102.1130    48.5360     0.1520     0.1860 12230.8140     2.3830 
   24.6250    24.6250    -0.0120    -0.0060    99.0940    49.2540     0.1420     0.1870  5414.9930     2.3690 
   24.7500    24.7500    -0.0140    -0.0070    96.2610    48.7230     0.1260     0.1820   967.7550     2.3590 
   24.8750    24.8750    -0.0170    -0.0080    93.4590    46.5080     0.1020     0.1620    24.4930     2.3590 
   25.0000    25.0000    -0.0190    -0.0090    90.1740    43.9760     0.0740     0.1330    15.9520     2.3690 
   25.1250    25.1250    -0.0220    -0.0110    85.9860    40.6280     0.0530     0.1120    14.1530     2.3830 
   25.2500    25.2500    -0.0240    -0.0120    80.5280    38.3530     0.0570     0.1140    12.2470     2.3990 
   25.3750    25.3750    -0.0270    -0.0130    73.7660    36.5490     0.1180     0.1480     8.5860     2.4210 
   25.5000    25.5000    -0.0290    -0.0140    65.3610    36.6680     0.3060     0.2440     5.4150     2.4490 
   25.6250    25.6250    -0.0320    -0.0150    55.0880    37.3060     0.7260     0.4450     4.6210     2.4660 
   25.7500    25.7500    -0.0350    -0.0170    42.5890    38.2710     1.6120     0.8230     5.8990     2.4390 
   25.8750    25.8750    -0.0370    -0.0180    28.4280    38.8890     2.9010     1.3140     7.2340     2.3580 
   26.0000    26.0000    -0.0400    -0.0190    13.8020    41.1190     4.1210     1.7620     7.5320     2.2490 
   26.1250    26.1240    -0.0430    -0.0200     0.4620    45.1480     4.8440     2.0490     7.0140     2.1560 
   26.2500    26.2490    -0.0450    -0.0210    -9.8750    52.3350     4.8600     2.1240     6.1920     2.0990 
   26.3750    26.3740    -0.0480    -0.0220   -16.7390    62.1180     4.4590     2.0860     5.5050     2.0740 
   26.5000    26.4990    -0.0510    -0.0230   -19.9950    76.5290     4.1080     2.0360     4.9400     2.0840 
   26.6250    26.6240    -0.0530    -0.0240   -20.5010    93.9900     3.9740     2.0070     4.5040     2.1280 
   26.7500    26.7490    -0.0560    -0.0250   -18.8830   109.1070     4.0090     2.0050     4.4150     2.1890 
   26.8750    26.8740    -0.0590    -0.0260   -16.2190   116.2230     4.1240     2.0190     4.4430     2.2400 
   27.0000    26.9990    -0.0620    -0.0280   -13.4510   113.6490     4.2430     2.0380     4.3270     2.2600 
   27.1250    27.1240    -0.0650    -0.0290   -11.3290   109.0710     4.3060     2.0480     4.2110     2.2560 
   27.2500    27.2490    -0.0680    -0.0300   -10.1670   108.1280     4.3010     2.0530     4.1570     2.2410 
   27.3750    27.3740    -0.0700    -0.0310    -9.7210   110.4570     4.2860     2.0790     4.0510     2.2330 
   27.5000    27.4990    -0.0730    -0.0320    -9.6990   113.5190     4.3360     2.1600     3.9240     2.2380 
   27.6250    27.6240    -0.0760    -0.0330    -9.8200   112.8110     4.4600     2.2960     4.0090     2.2540 
   27.7500    27.7490    -0.0790    -0.0340    -9.9910   109.7570     4.6260     2.4610     4.6040     2.2780 
   27.8750    27.8740    -0.0820    -0.0360   -10.1890   105.5490     4.7590     2.6150     5.4310     2.3050 
   28.0000    27.9990    -0.0850    -0.0370   -10.4230   102.6320     4.7830     2.7060     5.6550     2.3300 
   28.1250    28.1240    -0.0880    -0.0380   -10.6980   100.7090     4.7030     2.7330     5.1430     2.3390 
   28.2500    28.2490    -0.0910    -0.0390   -11.0170   100.9390     4.5900     2.7460     4.5150     2.3260 
   28.3750    28.3740    -0.0940    -0.0410   -11.3690   102.7250     4.5490     2.8150     4.1680     2.3040 
   28.5000    28.4990    -0.0970    -0.0420   -11.7470   103.8050     4.6540     2.9870     4.2810     2.2890 
   28.6250    28.6240    -0.1010    -0.0430   -12.1380   102.3010     4.8780     3.2400     4.8860     2.2850 
   28.7500    28.7490    -0.1040    -0.0450   -12.5350    97.5890     5.1260     3.4980     5.5300     2.2810 
   28.8750    28.8740    -0.1070    -0.0460   -12.9200    92.1460     5.2890     3.6950     5.6670     2.2730 
   29.0000    28.9990    -0.1110    -0.0480   -13.2590    88.3470     5.3310     3.8200     5.3770     2.2590 
   29.1250    29.1230    -0.1140    -0.0490   -13.5250    88.2520     5.2950     3.9060     5.0380     2.2440 
   29.2500    29.2480    -0.1170    -0.0510   -13.7040    89.2950     5.2210     3.9730     4.8650     2.2330 
   29.3750    29.3730    -0.1210    -0.0520   -13.8310    89.5330     5.1370     4.0180     5.1220     2.2280 
   29.5000    29.4980    -0.1250    -0.0540   -13.9540    87.8210     5.0290     4.0260     5.6590     2.2270 
   29.6250    29.6230    -0.1280    -0.0550   -14.1070    88.5880     4.8810     3.9990     5.6910     2.2260 
   29.7500    29.7480    -0.1320    -0.0570   -14.2810    90.6790     4.7350     3.9750     5.0110     2.2280 
   29.8750    29.8730    -0.1350    -0.0580   -14.4350    92.4790     4.6720     4.0290     4.4230     2.2390 
   30.0000    29.9980    -0.1390    -0.0600   -14.5420    89.6240     4.7870     4.2580     4.6330     2.2570 
   30.1250    30.1230    -0.1430    -0.0620   -14.6360    84.7150     5.1410     4.7350     5.5900     2.2700 
   30.2500    30.2480    -0.1460    -0.0640   -14.8030    78.5530     5.7250     5.4540     7.1800     2.2640 
   30.3750    30.3730    -0.1500    -0.0650   -15.1000    73.0640     6.3420     6.1990    12.2310     2.2370 
   30.5000    30.4980    -0.1540    -0.0670   -15.5200    70.1660     6.7560     6.7330    23.5000     2.2030 
   30.6250    30.6230    -0.1580    -0.0690   -15.9600    68.7940     6.8220     6.9110    30.2790     2.1810 
   30.7500    30.7480    -0.1620    -0.0710   -16.2880    70.0340     6.5110     6.7100    22.2290     2.1810 
   30.8750    30.8730    -0.1660    -0.0730   -16.4420    73.7960     6.0100     6.3270    10.7140     2.1880 
   31.0000    30.9970    -0.1700    -0.0750   -16.4250    78.9440     5.4860     5.9280     6.4160     2.1850 
   31.1250    31.1220    -0.1740    -0.0770   -16.3180    82.5920     5.0590     5.6370     5.9090     2.1740 
   31.2500    31.2470    -0.1780    -0.0790   -16.1830    84.1780     4.7800     5.4970     5.5230     2.1700 
   31.3750    31.3720    -0.1820    -0.0810   -16.0550    85.2630     4.6170     5.4620     5.0940     2.1780 
   31.5000    31.4970    -0.1860    -0.0830   -15.9550    87.2890     4.5620     5.5250     5.0150     2.1910 
   31.6250    31.6220    -0.1910    -0.0850   -15.9120    87.5170     4.6020     5.6780     5.1030     2.1980 
   31.7500    31.7470    -0.1950    -0.0870   -15.9760    84.4850     4.7400     5.9250     5.2210     2.2010 
   31.8750    31.8720    -0.1990    -0.0890   -16.1710    80.1560     4.9540     6.2500     5.5200     2.2060 
   32.0000    31.9970    -0.2040    -0.0920   -16.4990    77.1080     5.2180     6.6200     5.9520     2.2110 
   32.1250    32.1220    -0.2080    -0.0940   -16.9190    76.2820     5.4870     6.9840     6.2670     2.2040 
   32.2500    32.2470    -0.2130    -0.0960   -17.3760    73.8030     5.7020     7.2740     6.4070     2.1830 
   32.3750    32.3710    -0.2180    -0.0990   -17.8020    71.1770     5.8160     7.4350     6.4760     2.1550 
   32.5000    32.4960    -0.2230    -0.1010   -18.1160    70.1280     5.7950     7.4360     6.4520     2.1360 
   32.6250    32.6210    -0.2270    -0.1040   -18.2730    72.2180     5.6490     7.2850     6.2870     2.1340 
   32.7500    32.7460    -0.2320    -0.1060   -18.2470    74.9470     5.3800     6.9670     6.0580     2.1440 
   32.8750    32.8710    -0.2370    -0.1090   -18.0690    77.5430     5.0100     6.5020     5.8260     2.1550 
   33.0000    32.9960    -0.2420    -0.1110   -17.7730    81.7780     4.5830     5.9500     5.4090     2.1630 
