~V
VERS. 2.00: Ver 2.00
~W
STRT.M 63.0000:
STOP.M 266.0000:
STEP.M 0.1250:
NULL. -999.2500:
UWI. FD10888:
~C
DEPT.M :
TVD. :
DX. :
DY. :
SP.MV :
GR.API :
RI. :
RML.OHMM :
RXO.OHMM :
DEN.GM/CC :
~A
# ...
  163.3750   163.0690    -3.6450    -4.2210   -21.7960    55.4340    12.3380    13.6750    12.2360     2.4410 
  163.5000   163.1920    -3.6580    -4.2390   -21.9580    56.0540    11.9360    13.2160    12.1330     2.4390 
  163.6250   163.3150    -3.6710    -4.2560   -22.1440    56.7610    11.4390    12.6520    12.1310     2.4230 
  163.7500   163.4380    -3.6840    -4.2740   -22.2850    55.5360    10.9370    12.1140    11.7750     2.4040 
  163.8750   163.5610    -3.6980    -4.2920   -22.3720    53.7380    10.5160    11.7210    11.2970     2.3950 
  164.0000   163.6840    -3.7110    -4.3100   -22.3610    54.2870    10.1810    11.3780    10.9120     2.3990 
  164.1250   163.8070    -3.7240    -4.3280   -22.3080    55.8590     9.9330    11.0940    10.4280     2.4130 
  164.2500   163.9300    -3.7370    -4.3460   -22.3050    56.0980     9.8360    10.9570     9.9330     2.4300 
  164.3750   164.0530    -3.7500    -4.3640   -22.3540    55.9040     9.8760    10.9800     9.7970     2.4440 
  164.5000   164.1760    -3.7640    -4.3820   -22.3750    57.3170     9.9580    11.1180    10.1860     2.4500 
  164.6250   164.2990    -3.7770    -4.4000   -22.4030    59.3520    10.0550    11.2590    11.2020     2.4440 
  164.7500   164.4220    -3.7900    -4.4180   -22.4980    60.7300    10.1810    11.4150    12.0290     2.4290 
  164.8750   164.5450    -3.8040    -4.4360   -22.6960    60.3800    10.3840    11.6340    11.7400     2.4150 
  165.0000   164.6680    -3.8170    -4.4540   -22.9340    58.4730    10.7190    11.9880    11.1240     2.4120 
  165.1250   164.7910    -3.8300    -4.4730   -23.1990    56.7080    11.1860    12.5280    11.2510     2.4250 
  165.2500   164.9140    -3.8440    -4.4910   -23.3660    56.7910    11.6170    13.0220    12.1130     2.4430 
  165.3750   165.0370    -3.8570    -4.5090   -23.4450    56.5260    11.9310    13.3640    13.0890     2.4560 
  165.5000   165.1600    -3.8710    -4.5280   -23.5440    55.6150    12.0520    13.4530    13.3640     2.4570 
  165.6250   165.2820    -3.8850    -4.5460   -23.6430    53.6600    11.9800    13.3420    12.7770     2.4510 
  165.7500   165.4050    -3.8980    -4.5640   -23.6980    52.4280    11.8120    13.1550    12.0510     2.4460 
  165.8750   165.5280    -3.9120    -4.5830   -23.7040    51.5810    11.4730    12.7860    11.9510     2.4490 
  166.0000   165.6510    -3.9260    -4.6010   -23.6900    51.5640    10.9590    12.2190    12.7670     2.4640 
  166.1250   165.7740    -3.9400    -4.6200   -23.7030    52.8440    10.3560    11.5390    13.6420     2.4920 
  166.2500   165.8970    -3.9540    -4.6390   -23.7860    56.0340     9.7990    10.9280    12.8260     2.5260 
  166.3750   166.0200    -3.9680    -4.6570   -23.8960    59.8230     9.4520    10.5790    10.3500     2.5460 
  166.5000   166.1420    -3.9820    -4.6760   -23.9850    60.8020     9.3860    10.5840     8.5470     2.5360 
  166.6250   166.2650    -3.9960    -4.6950   -24.1210    57.5590     9.6450    10.9510     8.5930     2.4940 
  166.7500   166.3880    -4.0100    -4.7130   -24.2510    55.5550    10.1550    11.5520     9.7070     2.4390 
  166.8750   166.5110    -4.0240    -4.7320   -24.2820    57.8440    10.8360    12.2960    11.0470     2.4010 
  167.0000   166.6330    -4.0390    -4.7500   -24.2520    61.2810    11.6700    13.1960    12.0900     2.3940 
  167.1250   166.7560    -4.0530    -4.7690   -24.2110    61.1310    12.8240    14.5120    12.9100     2.4200 
  167.2500   166.8790    -4.0670    -4.7880   -24.2030    58.3400    14.0230    15.9350    14.6790     2.4590 
  167.3750   167.0020    -4.0820    -4.8070   -24.3020    56.4430    14.8820    16.9750    19.5450     2.4910 
  167.5000   167.1240    -4.0960    -4.8260   -24.4220    55.0430    15.1740    17.2440    25.5960     2.5040 
  167.6250   167.2470    -4.1110    -4.8450   -24.5360    54.5540    14.6000    16.3810    26.1970     2.4980 
  167.7500   167.3700    -4.1250    -4.8640   -24.5560    55.2430    13.5110    14.9880    20.4840     2.4830 
  167.8750   167.4920    -4.1390    -4.8830   -24.5680    55.9130    12.3620    13.6230    14.7080     2.4670 
  168.0000   167.6150    -4.1540    -4.9020   -24.6120    56.2750    11.3540    12.6280    12.6180     2.4550 
  168.1250   167.7380    -4.1680    -4.9210   -24.6480    56.0890    10.8280    12.2220    12.4110     2.4480 
  168.2500   167.8610    -4.1830    -4.9400   -24.5860    55.8830    10.6240    12.0860    12.1350     2.4440 
  168.3750   167.9830    -4.1980    -4.9590   -24.5120    54.8430    10.5720    12.0350    12.3990     2.4410 
  168.5000   168.1060    -4.2120    -4.9780   -24.4990    54.1340    10.5880    12.0040    13.3380     2.4400 
  168.6250   168.2290    -4.2270    -4.9970   -24.5480    55.2620    10.7450    12.1120    13.8440     2.4420 
  168.7500   168.3510    -4.2420    -5.0160   -24.6060    58.5810    11.0650    12.4090    13.9160     2.4470 
  168.8750   168.4740    -4.2570    -5.0350   -24.6100    61.4270    11.5570    12.9440    14.5010     2.4520 
  169.0000   168.5960    -4.2720    -5.0540   -24.5540    60.3450    12.1980    13.6600    15.2770     2.4520 
  169.1250   168.7190    -4.2860    -5.0730   -24.4830    56.7790    12.8560    14.4050    15.1660     2.4460 
  169.2500   168.8420    -4.3010    -5.0930   -24.4300    55.0100    13.3430    14.9020    13.7490     2.4390 
  169.3750   168.9640    -4.3160    -5.1120   -24.3850    55.2440    13.4540    14.9120    12.6080     2.4370 
  169.5000   169.0870    -4.3310    -5.1310   -24.3330    53.4920    13.0740    14.4120    12.6500     2.4470 
  169.6250   169.2100    -4.3450    -5.1500   -24.3420    51.2560    12.3810    13.6000    13.2120     2.4670 
  169.7500   169.3320    -4.3600    -5.1690   -24.4020    52.0350    11.5980    12.7540    13.2540     2.4870 
  169.8750   169.4550    -4.3750    -5.1890   -24.5100    53.7930    10.9260    12.0660    12.5470     2.4940 
  170.0000   169.5770    -4.3900    -5.2080   -24.5870    51.4180    10.5170    11.6710    12.0920     2.4830 
  170.1250   169.7000    -4.4050    -5.2270   -24.6130    47.9070    10.3080    11.4980    11.6690     2.4570 
  170.2500   169.8230    -4.4190    -5.2470   -24.5280    49.6720    10.2160    11.4170    11.5080     2.4340 
  170.3750   169.9450    -4.4340    -5.2660   -24.4300    54.7530    10.1920    11.3730    11.7280     2.4300 
  170.5000   170.0680    -4.4490    -5.2850   -24.4110    58.3830    10.2510    11.4080    11.2130     2.4520 
  170.6250   170.1900    -4.4640    -5.3050   -24.4710    58.4780    10.4830    11.6510    10.4930     2.4890 
  170.7500   170.3130    -4.4780    -5.3240   -24.4870    57.8850    10.8750    12.1010    10.6850     2.5150 
  170.8750   170.4360    -4.4930    -5.3440   -24.4960    56.3000    11.3700    12.6630    11.9050     2.5100 
  171.0000   170.5580    -4.5080    -5.3630   -24.5600    53.7560    11.7010    13.0030    12.9830     2.4750 
  171.1250   170.6810    -4.5230    -5.3820   -24.6080    50.6950    11.6650    12.8820    13.1550     2.4270 
  171.2500   170.8030    -4.5380    -5.4020   -24.6730    48.6260    11.2760    12.3310    12.8350     2.3930 
  171.3750   170.9260    -4.5530    -5.4210   -24.6350    50.0400    10.6860    11.5900    12.2430     2.3950 
  171.5000   171.0490    -4.5680    -5.4410   -24.4950    52.1580    10.2430    11.0670    11.3050     2.4310 
  171.6250   171.1710    -4.5830    -5.4610   -24.3400    50.9770    10.1250    10.9670    10.5660     2.4810 
  171.7500   171.2940    -4.5980    -5.4800   -24.2490    47.8240    10.3200    11.2500    10.8680     2.5160 
  171.8750   171.4160    -4.6130    -5.5000   -24.1670    47.8530    10.7090    11.7390    12.0950     2.5200 
  172.0000   171.5390    -4.6280    -5.5200   -24.0640    51.7720    11.0840    12.1900    12.9360     2.4980 
  172.1250   171.6610    -4.6430    -5.5400   -24.0380    56.0910    11.2020    12.3010    12.8280     2.4640 
  172.2500   171.7840    -4.6580    -5.5600   -24.0050    57.0690    11.0560    12.0870    12.6140     2.4380 
  172.3750   171.9060    -4.6720    -5.5800   -23.9770    56.0860    10.7400    11.6820    12.4440     2.4390 
