~V
VERS. 2.00: Ver 2.00
~W
STRT.M 32.0000:
STOP.M 275.0000:
STEP.M 0.1250:
NULL. -999.2500:
UWI. FD10902:
~C
DEPT.M :
TVD. :
DX. :
DY. :
SP.MV :
GR.API :
RI. :
RML.OHMM :
RXO.OHMM :
DEN.GM/CC :
~A
# ...
   95.8750    95.2550     7.5110    -1.9190   -10.8110    64.3050     6.4160     7.8680     7.8680     2.1640 
   96.0000    95.3760     7.5400    -1.9280   -10.4150    63.7520     6.5040     7.9280     8.0500     2.1500 
   96.1250    95.4970     7.5700    -1.9370   -10.0660    63.7720     6.5950     7.9830     7.6430     2.1470 
   96.2500    95.6180     7.5990    -1.9450    -9.6840    64.5420     6.6740     8.0620     7.5000     2.1440 
   96.3750    95.7390     7.6290    -1.9540    -9.0960    64.5560     6.7620     8.1770     7.5640     2.1460 
   96.5000    95.8600     7.6590    -1.9630    -8.3090    64.9430     6.7960     8.2770     7.7500     2.1520 
   96.6250    95.9810     7.6890    -1.9720    -7.4580    65.5320     6.7110     8.2200     7.8890     2.1640 
   96.7500    96.1020     7.7190    -1.9800    -6.6460    66.8470     6.3620     7.7980     7.7070     2.1740 
   96.8750    96.2230     7.7490    -1.9890    -6.0990    68.4470     5.7760     7.0380     7.2890     2.1870 
   97.0000    96.3440     7.7790    -1.9980    -6.5020    70.2380     5.1390     6.2050     6.4280     2.2080 
   97.1250    96.4650     7.8090    -2.0070    -7.8930    72.9610     4.6590     5.5870     5.0120     2.2300 
   97.2500    96.5860     7.8390    -2.0160    -9.5030    74.5380     4.4970     5.4040     4.2040     2.2160 
   97.3750    96.7070     7.8700    -2.0240   -10.7280    75.4880     4.6300     5.6160     4.9310     2.1780 
   97.5000    96.8280     7.9000    -2.0330   -11.6140    73.8120     5.1100     6.2870     6.3910     2.1390 
   97.6250    96.9490     7.9310    -2.0420   -12.4330    71.3790     5.8170     7.2060     7.2090     2.1360 
   97.7500    97.0700     7.9620    -2.0510   -13.2620    68.4370     6.4490     7.9700     8.2740     2.1570 
   97.8750    97.1910     7.9930    -2.0600   -14.0980    66.7480     6.8510     8.4030    11.8400     2.1700 
   98.0000    97.3110     8.0240    -2.0690   -14.6160    65.0500     6.8800     8.3300    13.5660     2.1560 
   98.1250    97.4320     8.0550    -2.0780   -14.8070    62.9980     6.7150     8.0340     9.9140     2.1340 
   98.2500    97.5530     8.0860    -2.0870   -14.7850    60.0110     6.4990     7.7160     7.0030     2.1210 
   98.3750    97.6730     8.1180    -2.0960   -14.6510    58.7720     6.3360     7.4950     6.8270     2.1100 
   98.5000    97.7940     8.1490    -2.1050   -14.5070    58.6900     6.2400     7.3770     6.9020     2.0990 
   98.6250    97.9150     8.1800    -2.1140   -14.3330    59.7870     6.2200     7.3590     7.3160     2.0930 
   98.7500    98.0350     8.2120    -2.1240   -14.1120    59.4990     6.2430     7.3620     7.7760     2.0970 
   98.8750    98.1560     8.2440    -2.1330   -13.6510    58.1520     6.2550     7.3220     7.7840     2.1020 
   99.0000    98.2760     8.2760    -2.1420   -12.9160    57.2130     6.3210     7.3620     7.3990     2.0980 
   99.1250    98.3970     8.3070    -2.1510   -11.9660    57.6760     6.4880     7.5640     7.0710     2.0960 
   99.2500    98.5170     8.3390    -2.1610   -10.9560    59.8820     6.7920     7.9410     7.0750     2.1010 
   99.3750    98.6380     8.3710    -2.1700    -9.8680    62.3800     7.1530     8.4090     7.4620     2.1140 
   99.5000    98.7580     8.4030    -2.1800    -8.5590    65.0350     7.5160     8.8680     9.1600     2.1290 
   99.6250    98.8790     8.4350    -2.1890    -6.9140    66.3090     7.6800     9.0340    10.4670     2.1450 
   99.7500    98.9990     8.4680    -2.1990    -5.1090    66.2490     7.3690     8.6180     8.9250     2.1750 
   99.8750    99.1200     8.5000    -2.2080    -3.5340    66.1280     6.6700     7.7300     6.9580     2.2190 
  100.0000    99.2400     8.5320    -2.2180    -2.7100    67.8710     5.7290     6.5570     5.6700     2.2630 
  100.1250    99.3600     8.5650    -2.2270    -2.5670    73.2750     4.8590     5.5100     4.5920     2.2780 
  100.2500    99.4810     8.5970    -2.2370    -2.8080    79.0630     4.2810     4.8280     4.3440     2.2580 
  100.3750    99.6010     8.6300    -2.2460    -3.2630    83.6130     3.9940     4.5260     4.3660     2.2250 
  100.5000    99.7210     8.6620    -2.2550    -3.5990    83.6440     3.9330     4.5240     4.4940     2.1980 
  100.6250    99.8420     8.6950    -2.2650    -3.8260    82.0940     4.0610     4.7680     4.7880     2.1870 
  100.7500    99.9620     8.7280    -2.2740    -3.9940    80.6940     4.3000     5.1050     4.8430     2.1930 
  100.8750   100.0820     8.7610    -2.2830    -4.0500    80.6330     4.4680     5.2930     4.8270     2.2030 
  101.0000   100.2020     8.7930    -2.2910    -3.9330    80.6330     4.5310     5.3130     5.0120     2.2200 
  101.1250   100.3230     8.8270    -2.3000    -3.8800    80.5860     4.4890     5.1780     4.9610     2.2400 
  101.2500   100.4430     8.8600    -2.3080    -4.2280    81.3350     4.3820     4.9750     4.5550     2.2550 
  101.3750   100.5630     8.8930    -2.3160    -4.8640    82.4250     4.3160     4.8540     4.3720     2.2470 
  101.5000   100.6830     8.9260    -2.3250    -5.4400    83.3400     4.3450     4.8830     4.4660     2.2200 
  101.6250   100.8030     8.9590    -2.3330    -5.8130    83.1600     4.5620     5.1830     4.6730     2.1910 
  101.7500   100.9240     8.9930    -2.3420    -5.9920    82.0840     4.9770     5.7460     5.0980     2.1740 
  101.8750   101.0440     9.0260    -2.3510    -6.0000    79.5720     5.4620     6.3770     6.5910     2.1630 
  102.0000   101.1640     9.0590    -2.3600    -5.8630    77.5430     5.7700     6.7630     8.6800     2.1580 
  102.1250   101.2840     9.0920    -2.3690    -5.5420    75.8650     5.7840     6.7870     8.3490     2.1680 
  102.2500   101.4040     9.1260    -2.3780    -5.3810    76.9570     5.4760     6.4090     5.9420     2.1910 
  102.3750   101.5240     9.1590    -2.3880    -5.5190    78.6680     5.0170     5.8960     4.4640     2.2100 
  102.5000   101.6450     9.1920    -2.3980    -5.8800    81.1460     4.6160     5.4960     4.1580     2.2130 
  102.6250   101.7650     9.2250    -2.4070    -6.1330    82.2020     4.3680     5.3070     4.2290     2.2010 
  102.7500   101.8850     9.2590    -2.4170    -6.0740    81.1710     4.3180     5.3440     4.6810     2.1780 
  102.8750   102.0050     9.2920    -2.4280    -5.5530    77.6640     4.5240     5.6580     5.2940     2.1670 
  103.0000   102.1250     9.3250    -2.4380    -4.8220    73.1960     4.9840     6.2320     5.6580     2.2070 
  103.1250   102.2450     9.3590    -2.4480    -4.1160    71.2550     5.6500     7.0150     6.4660     2.3050 
  103.2500   102.3650     9.3920    -2.4580    -3.6850    72.5660     6.6750     8.2270     8.7710     2.4220 
  103.3750   102.4850     9.4260    -2.4680    -3.6340    74.6330     8.1060     9.9360    10.9140     2.5130 
  103.5000   102.6050     9.4590    -2.4790    -3.7600    74.9470    10.1180    12.3560    12.0500     2.5660 
  103.6250   102.7250     9.4930    -2.4890    -4.1090    72.5120    12.4310    15.1680    14.1260     2.6050 
  103.7500   102.8450     9.5270    -2.5000    -4.6380    71.5100    14.3050    17.4050    16.9750     2.6350 
  103.8750   102.9640     9.5600    -2.5100    -5.1840    70.6620    14.8490    17.9340    19.5780     2.6260 
  104.0000   103.0840     9.5940    -2.5210    -5.5670    71.0710    13.6290    16.3050    19.4730     2.5540 
  104.1250   103.2040     9.6280    -2.5320    -5.5570    70.7630    11.3000    13.3110    14.5860     2.4340 
  104.2500   103.3240     9.6620    -2.5430    -5.0010    71.9790     8.5970     9.9800     8.8280     2.3190 
  104.3750   103.4440     9.6960    -2.5540    -4.2820    74.1850     6.4260     7.4160     6.0530     2.2330 
  104.5000   103.5630     9.7300    -2.5650    -3.6550    75.8250     5.0590     5.8790     5.3710     2.1960 
  104.6250   103.6830     9.7640    -2.5760    -3.2450    77.7830     4.2490     5.0340     4.9720     2.1910 
  104.7500   103.8030     9.7990    -2.5870    -3.0500    80.2330     3.9420     4.7580     4.3440     2.2070 
  104.8750   103.9230     9.8330    -2.5970    -2.9030    83.8410     3.8890     4.7480     4.1250     2.2210 
