~V
VERS. 2.00: Ver 2.00
~W
STRT.M 63.0000:
STOP.M 266.0000:
STEP.M 0.1250:
NULL. -999.2500:
UWI. FD10888:
~C
DEPT.M :
TVD. :
DX. :
DY. :
SP.MV :
GR.API :
RI. :
RML.OHMM :
RXO.OHMM :
DEN.GM/CC :
~A
# ...
  154.2500   154.0710    -2.7340    -3.0080   -19.3180    62.2120    20.4730    23.0040    19.6700     2.5700 
  154.3750   154.1950    -2.7460    -3.0230   -19.5870    59.3240    23.7530    26.6520    31.1020     2.5970 
  154.5000   154.3180    -2.7580    -3.0390   -19.7940    55.6120    26.0650    29.1240    38.4150     2.6000 
  154.6250   154.4420    -2.7700    -3.0540   -20.0040    51.7750    27.1220    30.1600    34.4480     2.5930 
  154.7500   154.5650    -2.7820    -3.0700   -20.2570    49.7840    27.3240    30.2440    27.0810     2.5890 
  154.8750   154.6880    -2.7940    -3.0860   -20.4940    49.8020    27.1770    30.0280    25.4610     2.5970 
  155.0000   154.8120    -2.8060    -3.1010   -20.5740    49.7220    27.0480    29.9060    28.3290     2.6080 
  155.1250   154.9350    -2.8180    -3.1170   -20.6870    50.3310    26.9710    29.8770    30.0080     2.6100 
  155.2500   155.0590    -2.8300    -3.1330   -20.8160    52.4570    26.8130    29.7940    28.6230     2.5970 
  155.3750   155.1820    -2.8420    -3.1480   -20.8930    55.0670    26.4850    29.4910    27.7530     2.5760 
  155.5000   155.3060    -2.8540    -3.1640   -20.8860    54.8470    26.1550    29.1510    28.5050     2.5610 
  155.6250   155.4290    -2.8660    -3.1800   -20.7560    51.7910    26.1620    29.1490    28.1160     2.5610 
  155.7500   155.5520    -2.8780    -3.1960   -20.5210    49.7420    26.5640    29.5160    26.6250     2.5720 
  155.8750   155.6760    -2.8900    -3.2120   -20.2170    49.9710    27.0260    29.8390    25.9460     2.5840 
  156.0000   155.7990    -2.9020    -3.2280   -20.0850    49.8940    27.2970    29.9390    26.4980     2.5890 
  156.1250   155.9230    -2.9140    -3.2440   -20.0960    49.4030    27.4550    29.9840    27.5140     2.5900 
  156.2500   156.0460    -2.9260    -3.2600   -20.1680    49.5860    27.6400    30.1270    27.7220     2.5920 
  156.3750   156.1690    -2.9390    -3.2760   -20.1680    50.3410    27.7830    30.2400    28.1470     2.5980 
  156.5000   156.2930    -2.9510    -3.2920   -20.0650    50.5150    27.5840    29.9300    30.9670     2.6050 
  156.6250   156.4160    -2.9630    -3.3080   -19.9470    50.0860    26.5710    28.6930    33.7520     2.6030 
  156.7500   156.5390    -2.9750    -3.3240   -19.8430    48.5920    24.8070    26.6280    31.8840     2.5860 
  156.8750   156.6630    -2.9880    -3.3400   -19.7740    48.2800    22.6450    24.1900    25.4070     2.5530 
  157.0000   156.7860    -3.0000    -3.3560   -19.7560    50.4830    20.4820    21.8210    19.2830     2.5150 
  157.1250   156.9090    -3.0120    -3.3720   -19.7960    52.9320    18.9690    20.2580    16.7760     2.4860 
  157.2500   157.0330    -3.0240    -3.3880   -19.8260    53.7120    18.4390    19.8600    16.6870     2.4760 
  157.3750   157.1560    -3.0360    -3.4040   -19.8420    53.3910    19.0590    20.7410    17.8590     2.4920 
  157.5000   157.2790    -3.0490    -3.4210   -19.9020    53.7830    20.3460    22.2810    20.9670     2.5250 
  157.6250   157.4030    -3.0610    -3.4370   -19.9670    54.2460    21.7420    23.8330    25.7670     2.5590 
  157.7500   157.5260    -3.0730    -3.4530   -19.9580    52.9460    22.6740    24.7680    28.6420     2.5800 
  157.8750   157.6490    -3.0850    -3.4700   -19.9430    50.3810    22.9610    24.9490    27.1830     2.5870 
  158.0000   157.7730    -3.0970    -3.4860   -19.9900    48.8240    22.8000    24.6490    24.2030     2.5880 
  158.1250   157.8960    -3.1090    -3.5030   -20.0920    49.9470    22.3690    24.1600    22.7700     2.5890 
  158.2500   158.0190    -3.1210    -3.5190   -20.2220    50.4240    22.0280    23.8550    23.3740     2.5920 
  158.3750   158.1430    -3.1340    -3.5360   -20.3350    49.2140    22.0220    23.9530    24.5140     2.5990 
  158.5000   158.2660    -3.1460    -3.5530   -20.5050    48.9810    22.3370    24.3900    24.1060     2.6110 
  158.6250   158.3890    -3.1580    -3.5690   -20.6910    49.2500    22.7470    24.8820    22.8480     2.6220 
  158.7500   158.5120    -3.1700    -3.5860   -20.8490    49.2060    22.9130    25.1230    22.5470     2.6250 
  158.8750   158.6360    -3.1820    -3.6030   -20.9260    49.3420    22.4680    24.6540    23.0150     2.6130 
  159.0000   158.7590    -3.1950    -3.6200   -20.9390    50.0530    21.3090    23.3380    23.5290     2.5870 
  159.1250   158.8820    -3.2070    -3.6370   -20.8770    52.4020    19.5980    21.3230    23.4200     2.5550 
  159.2500   159.0050    -3.2200    -3.6540   -20.8460    55.8280    17.7710    19.1640    22.0390     2.5260 
  159.3750   159.1290    -3.2320    -3.6700   -20.8840    58.8710    16.3360    17.5600    19.3300     2.5100 
  159.5000   159.2520    -3.2450    -3.6870   -20.8910    59.1750    15.5880    16.8190    16.3900     2.5090 
  159.6250   159.3750    -3.2580    -3.7040   -20.8720    55.9890    15.7120    17.1470    15.3000     2.5220 
  159.7500   159.4980    -3.2700    -3.7210   -20.8560    52.9590    16.6710    18.4110    17.1220     2.5460 
  159.8750   159.6210    -3.2830    -3.7380   -20.8870    51.5170    18.2930    20.3650    20.6200     2.5770 
  160.0000   159.7450    -3.2960    -3.7550   -20.9150    52.3880    19.9640    22.3060    22.9180     2.6100 
  160.1250   159.8680    -3.3090    -3.7720   -20.9580    52.8950    21.0070    23.4700    22.8910     2.6400 
  160.2500   159.9910    -3.3210    -3.7890   -20.9880    52.7800    21.2240    23.7070    21.8800     2.6610 
  160.3750   160.1140    -3.3340    -3.8060   -20.9780    52.4490    20.5880    22.9550    20.3390     2.6690 
  160.5000   160.2370    -3.3470    -3.8230   -20.9280    51.6380    19.5840    21.8070    18.5440     2.6640 
  160.6250   160.3610    -3.3600    -3.8400   -20.9050    51.6260    18.5910    20.7260    18.1400     2.6470 
  160.7500   160.4840    -3.3730    -3.8570   -20.8520    50.7190    17.9070    20.0550    19.2700     2.6260 
  160.8750   160.6070    -3.3860    -3.8740   -20.8140    49.7780    17.7470    20.0520    19.9960     2.6110 
  161.0000   160.7300    -3.3990    -3.8910   -20.7920    49.0830    17.8450    20.3470    19.9550     2.6130 
  161.1250   160.8530    -3.4120    -3.9080   -20.8340    50.1290    17.8360    20.4500    20.6240     2.6310 
  161.2500   160.9760    -3.4250    -3.9250   -20.9940    52.2600    17.2300    19.7680    21.5460     2.6540 
  161.3750   161.0990    -3.4380    -3.9420   -21.1440    54.3430    16.1240    18.3360    20.5890     2.6650 
  161.5000   161.2230    -3.4500    -3.9590   -21.1750    57.8710    14.7790    16.5950    17.7410     2.6520 
  161.6250   161.3460    -3.4630    -3.9760   -21.1660    61.7130    13.3810    14.8420    14.3020     2.6150 
  161.7500   161.4690    -3.4760    -3.9930   -21.1430    62.1330    12.2020    13.4470    11.6160     2.5680 
  161.8750   161.5920    -3.4890    -4.0110   -21.1440    59.2500    11.2720    12.4770    11.0690     2.5280 
  162.0000   161.7150    -3.5020    -4.0280   -21.1310    58.0110    10.6900    11.8630    11.9700     2.5070 
  162.1250   161.8380    -3.5150    -4.0460   -21.1610    60.2040    10.4460    11.5920    12.2810     2.5060 
  162.2500   161.9610    -3.5270    -4.0630   -21.2510    62.2690    10.4110    11.5480    11.6460     2.5130 
  162.3750   162.0840    -3.5400    -4.0800   -21.3400    61.2990    10.5850    11.7390    11.2320     2.5150 
  162.5000   162.2080    -3.5530    -4.0980   -21.3990    59.1490    10.9220    12.1040    11.7460     2.5060 
  162.6250   162.3310    -3.5660    -4.1150   -21.5320    57.5510    11.3980    12.6430    13.5970     2.4880 
  162.7500   162.4540    -3.5790    -4.1330   -21.5940    56.6210    11.8970    13.2080    16.1050     2.4690 
  162.8750   162.5770    -3.5920    -4.1500   -21.5840    56.7610    12.2670    13.6150    16.9690     2.4510 
  163.0000   162.7000    -3.6050    -4.1680   -21.6120    56.9600    12.4910    13.8600    15.7150     2.4370 
  163.1250   162.8230    -3.6180    -4.1860   -21.6370    56.8430    12.5880    13.9520    14.1020     2.4320 
  163.2500   162.9460    -3.6320    -4.2030   -21.6750    56.0380    12.5680    13.9370    12.9320     2.4360 
