~V
VERS. 2.00: Ver 2.00
~W
STRT.M 20.0000:
STOP.M 206.0000:
STEP.M 0.1250:
NULL. -999.2500:
UWI. FD10809:
~C
DEPT.M :
TVD. :
DX. :
DY. :
SP.MV :
GR.API :
RI. :
RML.OHMM :
DEN.GM/CC :
RXO.OHMM :
~A
# ...
  184.2500   163.5730     2.7460    69.6670   -15.4190    67.1220    13.1390    18.5410     2.4470    42.7300 
  184.3750   163.6720     2.7440    69.7440   -15.4360    68.3040     8.6740    11.2260     2.3480    27.9030 
  184.5000   163.7700     2.7410    69.8210   -15.6790    67.7230     6.7680     8.0940     2.2960    13.9400 
  184.6250   163.8690     2.7380    69.8980   -16.0530    65.1580     5.8970     6.7240     2.2840     6.5020 
  184.7500   163.9670     2.7350    69.9750   -16.6060    62.1790     5.5360     6.2400     2.2850     5.7270 
  184.8750   164.0660     2.7330    70.0520   -16.9990    60.3290     5.4650     6.1100     2.2860     5.7220 
  185.0000   164.1640     2.7300    70.1290   -17.0760    59.2720     5.4860     6.1090     2.2780     5.8520 
  185.1250   164.2620     2.7270    70.2060   -17.2200    58.9550     5.5130     6.1150     2.2610     5.7130 
  185.2500   164.3610     2.7240    70.2830   -17.4450    56.7080     5.4920     6.0870     2.2410     5.6600 
  185.3750   164.4590     2.7220    70.3600   -17.7250    54.7120     5.4320     6.0310     2.2270     5.7510 
  185.5000   164.5580     2.7190    70.4370   -18.0370    54.5560     5.3550     5.9670     2.2240     5.5510 
  185.6250   164.6560     2.7160    70.5140   -18.1390    55.7760     5.2790     5.9140     2.2270     5.2630 
  185.7500   164.7540     2.7140    70.5910   -18.0390    56.7360     5.2240     5.8970     2.2310     5.3300 
  185.8750   164.8530     2.7110    70.6680   -17.9110    56.2190     5.2190     5.9330     2.2320     5.5100 
  186.0000   164.9510     2.7080    70.7450   -18.1180    56.1580     5.2680     6.0310     2.2320     5.6240 
  186.1250   165.0490     2.7060    70.8220   -18.4670    55.5250     5.3470     6.1730     2.2370     5.6860 
  186.2500   165.1480     2.7040    70.8990   -18.6960    53.9960     5.4310     6.3420     2.2420     5.6730 
  186.3750   165.2460     2.7010    70.9770   -18.8170    51.3940     5.4800     6.4940     2.2420     5.8630 
  186.5000   165.3440     2.6980    71.0540   -18.6950    49.6170     5.4700     6.5620     2.2360     5.9780 
  186.6250   165.4430     2.6960    71.1310   -18.4000    49.7040     5.3980     6.5360     2.2360     5.5240 
  186.7500   165.5410     2.6930    71.2080   -18.0370    51.9140     5.2590     6.4350     2.2470     5.1660 
  186.8750   165.6390     2.6900    71.2850   -17.7420    54.2840     5.0870     6.3060     2.2680     5.3130 
  187.0000   165.7370     2.6880    71.3630   -17.3250    55.4180     4.9410     6.2010     2.2880     5.2980 
  187.1250   165.8360     2.6850    71.4400   -16.8500    56.8600     4.8540     6.1420     2.2930     4.8760 
  187.2500   165.9340     2.6820    71.5170   -16.3550    59.9040     4.8010     6.1150     2.2750     4.6970 
  187.3750   166.0320     2.6800    71.5940   -15.8870    64.7000     4.7650     6.0970     2.2450     5.1170 
  187.5000   166.1300     2.6770    71.6720   -15.6040    69.8030     4.7400     6.0830     2.2250     5.6040 
  187.6250   166.2290     2.6740    71.7490   -15.5040    73.9580     4.7070     6.0580     2.2220     5.4930 
  187.7500   166.3270     2.6720    71.8260   -15.5000    75.8890     4.6560     6.0030     2.2280     4.8690 
  187.8750   166.4250     2.6690    71.9030   -15.5170    76.3650     4.5790     5.9340     2.2240     4.4600 
  188.0000   166.5230     2.6670    71.9810   -15.6210    77.0800     4.5510     5.9100     2.2060     4.4640 
  188.1250   166.6210     2.6640    72.0580   -15.9750    78.4750     4.6030     5.9810     2.1830     5.2530 
  188.2500   166.7200     2.6610    72.1350   -16.4800    80.4910     4.7410     6.1570     2.1650     6.8440 
  188.3750   166.8180     2.6580    72.2130   -16.8870    81.7660     4.9100     6.3680     2.1600     9.7370 
  188.5000   166.9160     2.6560    72.2900   -17.5840    82.4500     5.0320     6.5130     2.1700    13.7540 
  188.6250   167.0140     2.6530    72.3670   -17.7080    81.2380     5.0600     6.5140     2.1820    13.2680 
  188.7500   167.1120     2.6500    72.4440   -17.3910    79.1230     4.9260     6.3470     2.1860     8.0300 
  188.8750   167.2110     2.6480    72.5220   -17.0980    76.8400     4.7310     6.0920     2.1810     5.1970 
  189.0000   167.3090     2.6450    72.5990   -17.0030    76.0660     4.4880     5.8350     2.1790     5.0400 
  189.1250   167.4070     2.6420    72.6760   -16.9760    75.1830     4.3200     5.6440     2.1860     4.6990 
  189.2500   167.5050     2.6400    72.7540   -16.9350    74.3610     4.2030     5.5200     2.1960     4.3390 
  189.3750   167.6030     2.6370    72.8310   -16.9310    72.3210     4.1040     5.4320     2.1990     4.2600 
  189.5000   167.7010     2.6340    72.9090   -16.9300    69.9760     4.0520     5.3930     2.1960     4.2710 
  189.6250   167.7990     2.6310    72.9860   -16.9720    67.2270     4.0420     5.3890     2.1950     4.1560 
  189.7500   167.8980     2.6280    73.0630   -16.9620    65.5200     4.0450     5.3940     2.2020     3.9620 
  189.8750   167.9960     2.6260    73.1410   -16.9960    65.5800     4.0520     5.4170     2.2100     3.9240 
  190.0000   168.0940     2.6230    73.2180   -16.9890    66.7550     4.1080     5.4840     2.2110     4.1780 
  190.1250   168.1920     2.6200    73.2960   -16.9990    68.6790     4.1720     5.5810     2.2130     4.3620 
  190.2500   168.2900     2.6170    73.3730   -17.0200    70.7110     4.2720     5.7240     2.2230     4.1580 
  190.3750   168.3880     2.6140    73.4500   -17.0090    72.3220     4.4280     5.9120     2.2480     4.0670 
  190.5000   168.4860     2.6110    73.5280   -16.9770    71.8230     4.5980     6.1130     2.2820     4.4940 
  190.6250   168.5840     2.6070    73.6050   -16.9960    68.7360     4.7570     6.2990     2.3180     4.8920 
  190.7500   168.6830     2.6040    73.6820   -17.0470    64.8940     4.8750     6.4470     2.3390     4.9700 
  190.8750   168.7810     2.6010    73.7600   -17.0300    63.6700     4.9640     6.5540     2.3440     4.9380 
  191.0000   168.8790     2.5980    73.8370   -17.1400    65.7360     5.0130     6.6220     2.3230     5.0860 
  191.1250   168.9770     2.5950    73.9140   -16.9960    68.9890     5.0510     6.6730     2.2890     5.9180 
  191.2500   169.0750     2.5930    73.9920   -16.6600    71.0240     5.0820     6.6940     2.2500     6.9070 
  191.3750   169.1740     2.5900    74.0690   -16.6300    72.2600     5.0440     6.6600     2.2290     6.8780 
  191.5000   169.2720     2.5870    74.1460   -16.6300    73.4730     4.9770     6.5680     2.2280     6.1350 
  191.6250   169.3700     2.5840    74.2230   -16.6300    74.7710     4.8810     6.4210     2.2350     5.6590 
  191.7500   169.4680     2.5810    74.3000   -16.6300    75.0260     4.7400     6.2250     2.2370     5.2950 
  191.8750   169.5670     2.5780    74.3780   -16.6300    74.6300     4.6130     6.0550     2.2310     4.6320 
  192.0000   169.6650     2.5760    74.4550   -16.6300    75.9270     4.5680     5.9960     2.2230     5.2430 
  192.1250   169.7630     2.5730    74.5320   -16.6300    78.1770     4.6190     6.0700     2.2150     7.1440 
  192.2500   169.8610     2.5700    74.6090   -16.6300    81.8950     4.7690     6.2670     2.2150     7.0670 
  192.3750   169.9600     2.5670    74.6870   -16.6300    84.1730     4.9670     6.5240     2.2180     5.6290 
  192.5000   170.0580     2.5650    74.7640   -16.6300    85.5000     5.1670     6.7610     2.2280     5.5460 
  192.6250   170.1560     2.5620    74.8410   -16.6300    85.0130     5.2950     6.9160     2.2390     6.1570 
  192.7500   170.2540     2.5590    74.9180   -16.6300    84.2330     5.3690     6.9690     2.2480     6.4900 
  192.8750   170.3530     2.5560    74.9960   -16.6300    84.0590     5.3950     6.9560     2.2490     6.9290 
  193.0000   170.4510     2.5540    75.0730   -16.6300    84.7890     5.4130     6.9540     2.2430     7.1200 
  193.1250   170.5490     2.5520    75.1500   -16.6300    85.6890     5.5280     7.0840     2.2380     6.4190 
  193.2500   170.6470     2.5490    75.2270   -16.6300    86.6240     5.8170     7.4440     2.2460     5.5700 
