~V
VERS. 2.00: Ver 2.00
~W
STRT.M 32.0000:
STOP.M 269.0000:
STEP.M 0.1250:
NULL. -999.2500:
UWI. FD10881:
~C
DEPT.M :
TVD. :
DX. :
DY. :
SP.MV :
GR.API :
RI. :
RML.OHMM :
RXO.OHMM :
~A
# ...
  262.0000   237.7530   -77.5780   -42.4000   -18.8380    65.7870     3.9210     4.7940     5.2630 
  262.1250   237.8530   -77.6400   -42.4430   -18.8470    65.7870     3.9210     4.7940     5.2890 
  262.2500   237.9530   -77.7020   -42.4850   -18.8560    65.7870     3.9210     4.7950     5.0990 
  262.3750   238.0530   -77.7640   -42.5270   -18.8650    65.7870     3.9210     4.7960     5.0250 
  262.5000   238.1530   -77.8260   -42.5690   -18.8740    65.7870     3.9210     4.7970     5.2700 
  262.6250   238.2530   -77.8880   -42.6110   -18.8830    65.7870     3.9210     4.7970     5.5890 
  262.7500   238.3530   -77.9500   -42.6540   -18.8920    65.7870     3.9200     4.7970     5.6910 
  262.8750   238.4530   -78.0110   -42.6960   -18.9010    65.7870     3.9200     4.7970     5.6220 
  263.0000   238.5530   -78.0730   -42.7380   -18.9110    65.7870     3.9200     4.7970     5.5590 
  263.1250   238.6530   -78.1350   -42.7800   -18.9200    65.7870     3.9200     4.7970     5.4170 
  263.2500   238.7530   -78.1970   -42.8220   -18.9290    65.7870     3.9200     4.7970     5.0540 
  263.3750   238.8530   -78.2590   -42.8650   -18.9380    65.7870     3.9200     4.8020     4.6510 
  263.5000   238.9540   -78.3210   -42.9070   -18.9470    65.7870     3.9190     4.8070     4.2840 
  263.6250   239.0540   -78.3830   -42.9490   -18.9560    65.7870     3.9180     4.8130     4.0430 
  263.7500   239.1540   -78.4450   -42.9910   -18.9650    65.7870     3.9170     4.8170     4.1150 
  263.8750   239.2540   -78.5070   -43.0340   -18.9740    65.7870     3.9170     4.8170     4.3200 
  264.0000   239.3540   -78.5690   -43.0760   -18.9830    65.7870     3.9170     4.8170     4.4010 
  264.1250   239.4540   -78.6310   -43.1180   -18.9920    65.7870     3.9170     4.8170     4.4070 
  264.2500   239.5540   -78.6920   -43.1600   -19.0010    65.7870     3.9170     4.8170     4.3460 
  264.3750   239.6540   -78.7540   -43.2020   -19.0100    65.7870     3.9170     4.8170     4.1760 
  264.5000   239.7540   -78.8160   -43.2450   -19.0200    65.7870     3.9170     4.8170     4.0450 
  264.6250   239.8540   -78.8780   -43.2870   -19.0290    65.7870     3.9170     4.8170     4.0130 
  264.7500   239.9540   -78.9400   -43.3290   -19.0380    65.7870     3.9170     4.8170     4.0130 
  264.8750   240.0540   -79.0020   -43.3710   -19.0470    65.7870     3.9170     4.8170     4.0130 
  265.0000   240.1540   -79.0640   -43.4130   -19.0560    65.7870     3.9170     4.8170     4.0120 
  265.1250   240.2540   -79.1260   -43.4560   -19.0650    65.7870     3.9170     4.8170     4.0120 
  265.2500   240.3540   -79.1880   -43.4980   -19.0740    65.7870     3.9170     4.8170     4.0120 
  265.3750   240.4540   -79.2500   -43.5400   -19.0830    65.7870     3.9170     4.8170     4.0120 
  265.5000   240.5540   -79.3120   -43.5820   -19.0920    65.7870     3.9170     4.8170     4.0120 
  265.6250   240.6540   -79.3740   -43.6250   -19.1010    65.7870     3.9170     4.8170     4.0120 
  265.7500   240.7540   -79.4350   -43.6670   -19.1100    65.7870     3.9170     4.8170     4.0120 
  265.8750   240.8540   -79.4970   -43.7090   -19.1200    65.7870     3.9170     4.8170     4.0110 
  266.0000   240.9540   -79.5590   -43.7510   -19.1290    65.7870     3.9170     4.8170     4.0110 
  266.1250   241.0550   -79.6210   -43.7930   -19.1380    65.7870     3.9170     4.8170     4.0110 
  266.2500   241.1550   -79.6830   -43.8360   -19.1470    65.7870     3.9170     4.8170     4.0110 
  266.3750   241.2550   -79.7450   -43.8780   -19.1560    65.7870     3.9170     4.8170     4.0110 
  266.5000   241.3550   -79.8070   -43.9200   -19.1650    65.7870     3.9170     4.8170     4.0110 
  266.6250   241.4550   -79.8690   -43.9620   -19.1740    65.7870     3.9170     4.8170     4.0110 
  266.7500   241.5550   -79.9310   -44.0040   -19.1830    65.7870     3.9170     4.8170     4.0110 
  266.8750   241.6550   -79.9930   -44.0470   -19.1920    65.7870     3.9170     4.8170     4.0120 
  267.0000   241.7550   -80.0550   -44.0890   -19.2010    65.7870     3.9170     4.8170     4.0110 
  267.1250   241.8550   -80.1160   -44.1310   -19.2100    65.7870     3.9170     4.8170     4.0110 
  267.2500   241.9550   -80.1780   -44.1730   -19.2190    65.7870     3.9170     4.8170     4.0110 
  267.3750   242.0550   -80.2400   -44.2160   -19.2290    65.7870     3.9170     4.8170     4.0100 
  267.5000   242.1550   -80.3020   -44.2580   -19.2380    65.7870     3.9170     4.8170     4.0100 
  267.6250   242.2550   -80.3640   -44.3000   -19.2470    65.7870     3.9170     4.8170     4.0100 
  267.7500   242.3550   -80.4260   -44.3420   -19.2560    65.7870     3.9170     4.8170     4.0100 
  267.8750   242.4550   -80.4880   -44.3840   -19.2650    65.7870     3.9170     4.8170     4.0100 
  268.0000   242.5550   -80.5500   -44.4270   -19.2740    65.7870     3.9170     4.8170     4.0100 
  268.1250   242.6550   -80.6120   -44.4690   -19.2830    65.7870     3.9170     4.8170     4.0100 
  268.2500   242.7550   -80.6740   -44.5110   -19.2920    65.7870     3.9170     4.8170     4.0100 
  268.3750   242.8550   -80.7360   -44.5530   -19.3010    65.7870     3.9170     4.8170     4.0100 
  268.5000   242.9550   -80.7980   -44.5950   -19.3100    65.7870     3.9170     4.8170     4.0100 
  268.6250   243.0560   -80.8590   -44.6380   -19.3190    65.7870     3.9170     4.8170     4.0100 
  268.7500   243.1560   -80.9210   -44.6800   -19.3280    65.7870     3.9170     4.8170     4.0100 
  268.8750   243.2560   -80.9830   -44.7220   -19.3380    65.7870     3.9170     4.8170     4.0090 
  269.0000   243.3560   -81.0450   -44.7640   -19.3470    65.7870     3.9170     4.8170     4.0070 
