~V
VERS. 2.00: Ver 2.00
~W
STRT.M 32.0000:
STOP.M 275.0000:
STEP.M 0.1250:
NULL. -999.2500:
UWI. FD10902:
~C
DEPT.M :
TVD. :
DX. :
DY. :
SP.MV :
GR.API :
RI. :
RML.OHMM :
RXO.OHMM :
DEN.GM/CC :
~A
# ...
   50.2500    50.2330     0.7430    -0.1000    -6.4130    71.6370    12.1930    21.1370    21.5980     2.4090 
   50.3750    50.3580     0.7510    -0.1010    -7.3590    70.5250    15.0580    26.5200    29.3600     2.5160 
   50.5000    50.4830     0.7590    -0.1030    -8.3710    70.7550    16.2850    28.4250    32.4130     2.5930 
   50.6250    50.6070     0.7670    -0.1050    -9.2850    73.1660    15.5200    26.5900    25.8000     2.5980 
   50.7500    50.7320     0.7760    -0.1070    -9.8720    75.6570    12.9000    21.2510    14.3780     2.5020 
   50.8750    50.8570     0.7840    -0.1090   -10.2420    77.1710     9.8690    15.7350     7.8530     2.3530 
   51.0000    50.9810     0.7930    -0.1110   -10.4400    76.4350     7.6430    12.2600     6.6490     2.2240 
   51.1250    51.1060     0.8010    -0.1120   -10.5940    75.2360     6.2990    10.4490     6.5580     2.1570 
   51.2500    51.2310     0.8100    -0.1140   -10.8810    74.5880     5.7150     9.8910     6.3910     2.1330 
   51.3750    51.3550     0.8190    -0.1160   -11.2220    74.6460     5.5820     9.9820     6.2110     2.1230 
   51.5000    51.4800     0.8270    -0.1180   -11.5970    75.1510     5.6710    10.2270     6.1760     2.1200 
   51.6250    51.6050     0.8360    -0.1200   -12.0930    73.5160     5.7500    10.3270     6.2900     2.1280 
   51.7500    51.7290     0.8450    -0.1220   -12.5720    71.2650     5.8460    10.3630     6.5460     2.1370 
   51.8750    51.8540     0.8540    -0.1240   -12.9750    69.4680     6.0030    10.5000     6.7320     2.1450 
   52.0000    51.9790     0.8630    -0.1260   -13.2910    69.9110     6.2260    10.7870     6.9150     2.1470 
   52.1250    52.1030     0.8720    -0.1280   -13.6130    70.6980     6.4680    11.1340     7.0560     2.1370 
   52.2500    52.2280     0.8810    -0.1310   -14.0130    70.6490     6.6880    11.4540     6.8560     2.1220 
   52.3750    52.3530     0.8910    -0.1330   -14.2780    69.6830     6.8030    11.5590     6.7630     2.1040 
   52.5000    52.4770     0.9000    -0.1350   -14.3520    69.0610     6.7730    11.3660     6.8960     2.1050 
   52.6250    52.6020     0.9090    -0.1370   -14.3900    69.1300     6.6450    10.9400     6.9060     2.1140 
   52.7500    52.7270     0.9190    -0.1390   -14.4780    70.1590     6.4480    10.3450     6.9510     2.1220 
   52.8750    52.8510     0.9280    -0.1410   -14.5860    70.9660     6.2800     9.7550     7.0100     2.1230 
   53.0000    52.9760     0.9370    -0.1430   -14.6420    71.5970     6.1790     9.2780     6.9580     2.1250 
   53.1250    53.1000     0.9470    -0.1460   -14.6980    72.1010     6.1510     8.9440     6.9910     2.1320 
   53.2500    53.2250     0.9570    -0.1480   -14.6390    72.1810     6.1600     8.6970     7.0390     2.1450 
   53.3750    53.3500     0.9660    -0.1500   -14.6100    71.4540     6.1650     8.4910     6.9720     2.1550 
   53.5000    53.4740     0.9760    -0.1520   -14.5660    70.6660     6.1700     8.3260     6.9180     2.1630 
   53.6250    53.5990     0.9860    -0.1550   -14.5260    70.1680     6.1600     8.2040     6.9530     2.1590 
   53.7500    53.7230     0.9960    -0.1570   -14.4480    70.4220     6.1560     8.1160     7.0650     2.1510 
   53.8750    53.8480     1.0060    -0.1590   -14.4750    70.1510     6.1530     8.0530     7.2300     2.1450 
   54.0000    53.9730     1.0160    -0.1620   -14.5970    71.0210     6.1640     8.0320     7.4840     2.1500 
   54.1250    54.0970     1.0260    -0.1640   -14.6080    72.8140     6.1690     8.0000     7.6170     2.1510 
   54.2500    54.2220     1.0360    -0.1670   -14.4190    75.0060     6.1640     7.9860     7.3780     2.1430 
   54.3750    54.3460     1.0460    -0.1690   -14.1630    75.7910     6.1880     8.0120     7.0620     2.1330 
   54.5000    54.4710     1.0560    -0.1720   -13.8970    73.1990     6.1870     8.0010     7.1670     2.1420 
   54.6250    54.5950     1.0670    -0.1740   -13.6410    70.3480     6.1790     7.9850     7.6070     2.1580 
   54.7500    54.7200     1.0770    -0.1770   -13.3700    67.7330     6.1220     7.8950     7.7750     2.1660 
   54.8750    54.8440     1.0880    -0.1790   -12.9970    69.1690     6.0390     7.7760     7.4770     2.1540 
   55.0000    54.9690     1.0980    -0.1820   -12.6310    72.1240     5.8500     7.5020     7.0010     2.1370 
   55.1250    55.0930     1.1090    -0.1840   -12.3500    75.5350     5.6310     7.2040     6.6590     2.1270 
   55.2500    55.2180     1.1200    -0.1870   -12.6210    76.9150     5.4390     6.9300     6.3340     2.1340 
   55.3750    55.3430     1.1300    -0.1900   -13.1670    76.2710     5.2950     6.7200     5.9850     2.1440 
   55.5000    55.4670     1.1410    -0.1930   -13.4280    74.7600     5.2950     6.7180     6.0430     2.1460 
   55.6250    55.5920     1.1520    -0.1950   -13.2960    71.3720     5.3570     6.7820     6.3380     2.1330 
   55.7500    55.7160     1.1630    -0.1980   -12.8880    68.7440     5.4930     6.9350     6.5560     2.1220 
   55.8750    55.8400     1.1740    -0.2010   -12.2420    66.9120     5.6450     7.0760     6.7640     2.1150 
   56.0000    55.9650     1.1850    -0.2040   -11.4110    67.6000     5.7800     7.1500     6.9370     2.1140 
   56.1250    56.0890     1.1960    -0.2060   -10.4480    69.0150     5.8610     7.1710     7.0370     2.1130 
   56.2500    56.2140     1.2070    -0.2090    -9.2160    69.6700     5.8700     7.1530     6.9380     2.1100 
   56.3750    56.3380     1.2180    -0.2120    -7.7050    69.7420     5.8080     7.0860     6.6970     2.1170 
   56.5000    56.4630     1.2290    -0.2150    -5.9950    69.8180     5.6070     6.8540     6.5880     2.1310 
   56.6250    56.5870     1.2400    -0.2180    -4.7110    72.4240     5.2670     6.4300     6.3440     2.1600 
   56.7500    56.7120     1.2520    -0.2210    -4.0790    77.6040     4.8620     5.9110     5.5500     2.1860 
   56.8750    56.8360     1.2630    -0.2240    -4.0500    84.8400     4.4570     5.4200     4.7380     2.1960 
   57.0000    56.9610     1.2740    -0.2270    -4.3930    90.9210     4.1550     5.0860     4.3890     2.1910 
   57.1250    57.0850     1.2850    -0.2300    -4.9930    93.9790     3.9070     4.8070     4.3510     2.1780 
   57.2500    57.2100     1.2970    -0.2320    -6.0590    93.4660     3.7320     4.6080     4.4350     2.1780 
   57.3750    57.3340     1.3080    -0.2350    -7.8480    92.6080     3.6990     4.5670     4.2010     2.1870 
   57.5000    57.4590     1.3200    -0.2380   -10.0120    91.8350     3.8090     4.7060     4.0130     2.1900 
   57.6250    57.5830     1.3310    -0.2410   -11.4320    90.1530     4.0590     5.0400     4.8470     2.1710 
   57.7500    57.7070     1.3430    -0.2440   -11.7870    84.4140     4.4770     5.6150     6.1470     2.1370 
   57.8750    57.8320     1.3540    -0.2470   -11.7000    77.4620     4.9530     6.2640     6.7200     2.1170 
   58.0000    57.9560     1.3660    -0.2500   -11.5430    72.9940     5.3250     6.7590     6.7020     2.1220 
   58.1250    58.0810     1.3770    -0.2540   -11.6260    72.6050     5.5410     7.0270     6.4240     2.1400 
   58.2500    58.2050     1.3890    -0.2570   -11.9550    74.6370     5.5060     6.9630     6.0850     2.1490 
   58.3750    58.3290     1.4010    -0.2600   -12.0640    75.4840     5.3610     6.7880     6.2070     2.1400 
   58.5000    58.4540     1.4120    -0.2630   -12.0110    73.7320     5.2200     6.6360     6.6110     2.1290 
   58.6250    58.5780     1.4240    -0.2660   -11.8600    70.3500     5.1230     6.5370     6.9670     2.1270 
   58.7500    58.7030     1.4360    -0.2690   -11.5180    68.7330     5.1610     6.5860     7.3530     2.1380 
   58.8750    58.8270     1.4480    -0.2730   -11.0200    69.4410     5.4420     6.9490     8.6440     2.1480 
   59.0000    58.9510     1.4600    -0.2760   -10.7970    71.0370     6.1280     7.9030    13.8780     2.1540 
   59.1250    59.0760     1.4720    -0.2790   -10.9250    71.1060     7.0530     9.1750    22.8560     2.1620 
   59.2500    59.2000     1.4840    -0.2820   -11.2160    69.9810     7.8440    10.2030    29.6640     2.1680 
