~V
VERS. 2.00: Ver 2.00
~W
STRT.M 30.0000:
STOP.M 262.0000:
STEP.M 0.1250:
NULL. -999.2500:
UWI. FD10852:
~C
DEPT.M :
TVD. :
DX. :
DY. :
SP.MV :
GR.API :
RI. :
RML.OHMM :
RXO.OHMM :
DEN.GM/CC :
~A
# ...
  121.2500   117.7010   -21.7140    -1.8940    -7.5910    66.9170    52.3490    62.0190    56.3980     2.0580 
  121.3750   117.8110   -21.7720    -1.8970    -7.0660    65.0100    50.5670    59.7890    54.6740     2.0490 
  121.5000   117.9210   -21.8310    -1.9000    -6.6960    66.6570    48.9320    57.9010    53.8560     2.0420 
  121.6250   118.0320   -21.8900    -1.9030    -6.5320    68.4080    47.6390    56.5430    56.5500     2.0430 
  121.7500   118.1420   -21.9490    -1.9050    -6.5730    67.5700    46.6180    55.4760    64.2760     2.0510 
  121.8750   118.2520   -22.0080    -1.9080    -6.6810    67.4530    45.5160    54.2140    64.6280     2.0500 
  122.0000   118.3620   -22.0670    -1.9110    -6.8620    68.1350    44.4020    52.7400    55.8910     2.0450 
  122.1250   118.4720   -22.1260    -1.9140    -7.1070    67.9290    43.0190    50.6970    49.0700     2.0450 
  122.2500   118.5820   -22.1850    -1.9170    -7.3070    66.5920    41.8280    48.6830    47.2960     2.0470 
  122.3750   118.6920   -22.2440    -1.9200    -7.4300    66.4230    40.7270    46.6950    47.4910     2.0480 
  122.5000   118.8020   -22.3040    -1.9230    -7.3670    67.5860    40.2590    45.5470    44.8260     2.0520 
  122.6250   118.9120   -22.3630    -1.9250    -7.0250    67.3600    40.2400    44.9890    42.0640     2.0610 
  122.7500   119.0220   -22.4220    -1.9280    -6.7660    66.3570    40.4360    44.8090    40.2390     2.0630 
  122.8750   119.1320   -22.4820    -1.9310    -6.9430    66.8340    40.9280    44.9460    39.0720     2.0550 
  123.0000   119.2420   -22.5420    -1.9340    -7.1020    71.2300    41.3240    45.1000    40.7020     2.0500 
  123.1250   119.3520   -22.6010    -1.9370    -6.8460    76.3690    41.6270    45.2260    41.2430     2.0610 
  123.2500   119.4620   -22.6610    -1.9400    -6.1370    77.7700    41.6250    45.2740    39.0890     2.0810 
  123.3750   119.5710   -22.7210    -1.9430    -5.2760    75.7590    41.0630    44.6490    37.8010     2.0890 
  123.5000   119.6810   -22.7810    -1.9460    -4.6820    74.7310    37.7310    40.8740    37.1480     2.0830 
  123.6250   119.7910   -22.8410    -1.9490    -4.6950    76.6920    32.2900    34.7690    35.8540     2.0740 
  123.7500   119.9000   -22.9010    -1.9530    -5.2750    78.3300    26.4570    28.1700    31.8590     2.0760 
  123.8750   120.0100   -22.9610    -1.9560    -6.0260    78.5130    21.7630    23.0860    25.3600     2.0950 
  124.0000   120.1190   -23.0210    -1.9590    -6.6800    78.4240    20.5930    21.9920    20.2860     2.1160 
  124.1250   120.2290   -23.0810    -1.9620    -6.9280    76.9940    22.0400    23.8700    20.1810     2.1210 
  124.2500   120.3380   -23.1420    -1.9660    -6.5820    72.4890    26.8420    29.8380    29.9620     2.1060 
  124.3750   120.4470   -23.2020    -1.9690    -6.0620    66.7790    33.4430    37.5450    38.7890     2.0890 
  124.5000   120.5570   -23.2630    -1.9720    -5.6900    64.2340    39.7180    44.6580    35.7300     2.0800 
  124.6250   120.6660   -23.3240    -1.9750    -5.3890    64.3520    44.0150    49.1790    30.2220     2.0720 
  124.7500   120.7750   -23.3840    -1.9790    -5.0600    63.7240    45.3670    50.2900    27.5110     2.0610 
  124.8750   120.8840   -23.4450    -1.9820    -4.8320    62.6150    46.2000    51.1140    28.0930     2.0550 
  125.0000   120.9930   -23.5060    -1.9850    -4.7560    62.6430    47.6420    52.8900    34.7550     2.0610 
  125.1250   121.1020   -23.5670    -1.9890    -4.7100    64.4000    49.4840    55.2510    44.6370     2.0700 
  125.2500   121.2110   -23.6280    -1.9920    -4.6700    64.5800    51.1450    57.3940    53.5310     2.0680 
  125.3750   121.3200   -23.6900    -1.9960    -4.6280    63.7240    52.1320    58.5650    58.2530     2.0640 
  125.5000   121.4290   -23.7510    -1.9990    -4.5890    63.7180    51.7900    57.9930    56.8870     2.0680 
  125.6250   121.5380   -23.8120    -2.0020    -4.6190    64.2830    50.3770    56.1520    52.1540     2.0780 
  125.7500   121.6470   -23.8740    -2.0060    -4.6970    63.9050    48.6240    53.9960    48.2050     2.0780 
  125.8750   121.7560   -23.9350    -2.0090    -4.7930    63.9090    47.5280    52.6160    46.8960     2.0670 
  126.0000   121.8640   -23.9970    -2.0130    -4.9210    64.7100    47.6140    52.6190    45.7880     2.0560 
  126.1250   121.9730   -24.0580    -2.0160    -4.9370    65.7040    48.8750    54.0770    44.5640     2.0500 
  126.2500   122.0820   -24.1200    -2.0200    -4.5960    65.4940    50.9870    56.5850    45.5400     2.0530 
  126.3750   122.1900   -24.1820    -2.0230    -3.9040    64.6000    51.4410    57.2540    47.8880     2.0560 
  126.5000   122.2990   -24.2440    -2.0270    -3.0640    64.5660    50.3320    56.1870    50.0700     2.0550 
  126.6250   122.4070   -24.3060    -2.0310    -2.4110    66.7740    45.6450    50.7150    49.6380     2.0630 
  126.7500   122.5160   -24.3680    -2.0340    -2.2820    70.9370    37.2320    41.0280    42.1280     2.0920 
  126.8750   122.6240   -24.4300    -2.0380    -2.6610    73.6470    28.4360    30.9770    34.7120     2.1380 
  127.0000   122.7320   -24.4930    -2.0420    -3.2300    75.7920    20.3830    21.9400    40.5610     2.1810 
  127.1250   122.8410   -24.5550    -2.0450    -3.7340    78.3330    15.9970    17.1990    40.6330     2.2070 
  127.2500   122.9490   -24.6170    -2.0490    -3.9090    78.6160    14.5830    15.9370    23.6510     2.2100 
  127.3750   123.0570   -24.6800    -2.0520    -3.5320    75.7480    15.4640    17.2490    22.8670     2.1860 
  127.5000   123.1650   -24.7430    -2.0560    -2.7430    73.3160    18.7900    21.3720    37.5210     2.1470 
  127.6250   123.2730   -24.8050    -2.0600    -2.0380    72.4000    24.0990    27.5750    36.6050     2.1170 
  127.7500   123.3810   -24.8680    -2.0630    -1.5260    70.3750    29.1760    33.2180    26.9860     2.1080 
  127.8750   123.4890   -24.9310    -2.0670    -1.1360    68.3680    33.1550    37.5930    30.3570     2.1050 
  128.0000   123.5970   -24.9940    -2.0710    -0.9380    67.8530    35.7570    40.3110    51.0740     2.1000 
  128.1250   123.7050   -25.0570    -2.0740    -0.9560    68.5510    36.4860    40.7010    58.7440     2.1020 
  128.2500   123.8130   -25.1200    -2.0780    -1.1330    67.3390    34.3960    38.0110    49.0740     2.1160 
  128.3750   123.9210   -25.1830    -2.0820    -1.3240    64.8490    31.0330    34.1070    60.0130     2.1290 
  128.5000   124.0290   -25.2460    -2.0860    -1.3850    63.7090    27.9950    30.8090    67.8770     2.1380 
  128.6250   124.1360   -25.3090    -2.0900    -1.3760    64.6700    27.4950    30.8590    50.2890     2.1460 
  128.7500   124.2440   -25.3720    -2.0940    -1.4200    65.6440    29.1640    33.4090    35.4630     2.1730 
  128.8750   124.3520   -25.4360    -2.0980    -1.4880    63.3160    31.8330    37.6210    35.7020     2.2390 
  129.0000   124.4600   -25.4990    -2.1010    -1.4960    60.2810    34.3350    41.4410    72.4380     2.3160 
  129.1250   124.5670   -25.5620    -2.1050    -1.6020    60.5950    34.7930    42.2130   111.3480     2.3250 
  129.2500   124.6750   -25.6260    -2.1100    -1.7460    63.6700    32.6060    39.4050    90.5520     2.2460 
  129.3750   124.7820   -25.6900    -2.1140    -1.5380    67.7820    25.4060    29.9510    37.6130     2.1610 
  129.5000   124.8900   -25.7530    -2.1180    -1.0200    70.7190    21.2270    25.0760    24.3520     2.1310 
  129.6250   124.9970   -25.8170    -2.1220    -0.3110    72.6050    19.4340    23.0320    18.6600     2.1280 
  129.7500   125.1040   -25.8810    -2.1260     0.2790    72.0590    19.3130    23.0450    17.3730     2.1170 
  129.8750   125.2120   -25.9450    -2.1300     0.4390    69.7520    20.3830    24.4510    15.9960     2.1080 
  130.0000   125.3190   -26.0090    -2.1340     0.1470    68.4460    22.7010    27.4140    17.4010     2.1020 
  130.1250   125.4260   -26.0730    -2.1380    -0.3550    68.4340    25.7070    31.2210    20.7820     2.0940 
  130.2500   125.5330   -26.1370    -2.1420    -0.8840    68.0120    28.5150    34.8400    23.8680     2.0830 
