~V
VERS. 2.00: Ver 2.00
~W
STRT.M 50.0000:
STOP.M 287.0000:
STEP.M 0.1250:
NULL. -999.2500:
UWI. FD10894:
~C
DEPT.M :
TVD. :
DX. :
DY. :
SP.MV :
GR.API :
RI. :
RML.OHMM :
RXO.OHMM :
DEN.GM/CC :
~A
# ...
  259.8750   247.1940    61.7760    12.7580   -23.9970    82.6040     6.9220     9.0080     9.5370     2.2180 
  260.0000   247.3060    61.8300    12.7690   -24.0670    82.7520     6.9740     9.0880    10.1960     2.2250 
  260.1250   247.4190    61.8830    12.7810   -24.1550    84.0100     7.0440     9.1760    10.2650     2.2280 
  260.2500   247.5310    61.9360    12.7920   -24.2640    85.2300     7.1370     9.2990     9.9770     2.2250 
  260.3750   247.6440    61.9890    12.8040   -24.4060    84.4820     7.2560     9.4660     9.6340     2.2180 
  260.5000   247.7560    62.0430    12.8150   -24.5890    83.0090     7.4450     9.7130     9.4000     2.2110 
  260.6250   247.8690    62.0960    12.8260   -24.8240    82.8860     7.6140     9.9560     9.5690     2.2070 
  260.7500   247.9810    62.1490    12.8370   -25.1070    83.0640     7.7550    10.1660    10.3530     2.2060 
  260.8750   248.0940    62.2030    12.8480   -25.4250    82.5450     7.8060    10.2470    11.7410     2.2050 
  261.0000   248.2060    62.2560    12.8590   -25.7440    83.6240     7.7830    10.2010    12.7620     2.2030 
  261.1250   248.3190    62.3100    12.8700   -26.0280    86.1390     7.7410    10.0830    12.4410     2.2010 
  261.2500   248.4310    62.3630    12.8810   -26.2480    87.0260     7.7190    10.0010    11.3360     2.2010 
  261.3750   248.5440    62.4160    12.8920   -26.3860    86.3070     7.8090    10.0900    10.4990     2.2100 
  261.5000   248.6560    62.4700    12.9030   -26.4600    87.2790     8.1180    10.4810    10.2040     2.2280 
  261.6250   248.7690    62.5230    12.9140   -26.4970    89.5960     8.6430    11.1560    10.0060     2.2530 
  261.7500   248.8810    62.5760    12.9250   -26.5390    88.8220     9.2780    11.9700    10.3680     2.2780 
  261.8750   248.9940    62.6300    12.9370   -26.6140    84.1840     9.9150    12.7360    12.6380     2.2950 
  262.0000   249.1060    62.6830    12.9480   -26.7280    80.4120    10.2720    13.1640    16.9000     2.3010 
  262.1250   249.2190    62.7360    12.9590   -26.8590    80.3060    10.3340    13.2280    19.0350     2.2940 
  262.2500   249.3310    62.7890    12.9700   -26.9640    81.6170     9.9720    12.7120    16.6920     2.2780 
  262.3750   249.4440    62.8430    12.9810   -26.9800    81.5400     9.2130    11.7000    14.1710     2.2580 
  262.5000   249.5570    62.8960    12.9910   -26.8630    80.4090     8.3050    10.5160    13.3630     2.2390 
  262.6250   249.6690    62.9490    13.0020   -26.5690    80.4000     7.4430     9.3520    11.8840     2.2250 
  262.7500   249.7820    63.0020    13.0130   -26.1120    82.3420     6.8370     8.5760     9.2770     2.2190 
  262.8750   249.8950    63.0550    13.0240   -25.5240    84.8060     6.5530     8.2510     7.7590     2.2190 
  263.0000   250.0070    63.1080    13.0350   -24.8850    85.9240     6.5030     8.2390     8.0650     2.2230 
  263.1250   250.1200    63.1610    13.0460   -24.2760    86.0520     6.5920     8.3970     8.2060     2.2260 
  263.2500   250.2330    63.2130    13.0570   -23.7590    87.6100     6.7910     8.6920     7.9890     2.2280 
  263.3750   250.3460    63.2660    13.0680   -23.3740    89.2730     6.9450     8.8220     8.4850     2.2270 
  263.5000   250.4580    63.3190    13.0790   -23.1080    88.7790     6.9550     8.8310    10.1720     2.2270 
  263.6250   250.5710    63.3720    13.0900   -22.9340    86.9010     6.7690     8.5960    13.7910     2.2280 
  263.7500   250.6840    63.4250    13.1010   -22.8010    85.3440     6.3940     8.1030    15.1110     2.2320 
  263.8750   250.7960    63.4780    13.1120   -22.6580    84.8750     5.9450     7.5750    11.4600     2.2390 
  264.0000   250.9090    63.5310    13.1230   -22.4540    85.0350     5.4430     6.9410     8.1700     2.2470 
  264.1250   251.0220    63.5840    13.1330   -22.1330    83.4690     5.0120     6.3970     7.0770     2.2570 
  264.2500   251.1350    63.6360    13.1440   -21.6640    78.0480     4.5580     5.8680     6.4580     2.2680 
  264.3750   251.2470    63.6890    13.1550   -21.0170    68.5420     4.2470     5.5130     6.2060     2.2790 
  264.5000   251.3600    63.7420    13.1660   -20.2150    58.0840     3.9770     5.2400     6.0210     2.2890 
  264.6250   251.4730    63.7950    13.1770   -19.2990    48.5880     3.8020     5.1190     5.5860     2.2990 
  264.7500   251.5860    63.8480    13.1880   -18.3510    40.9230     3.7130     5.0790     5.0900     2.3100 
  264.8750   251.6990    63.9010    13.1980   -17.4580    36.2210     3.7570     5.2340     4.7490     2.3220 
  265.0000   251.8110    63.9530    13.2090   -16.6810    34.2870     3.8940     5.4600     4.4800     2.3360 
  265.1250   251.9240    64.0060    13.2200   -16.0660    33.8030     4.0060     5.6150     4.3500     2.3540 
  265.2500   252.0370    64.0590    13.2310   -15.5970    32.6150     4.0610     5.6570     4.5080     2.3740 
  265.3750   252.1500    64.1120    13.2410   -15.2540    30.5660     4.0160     5.5390     5.0720     2.3930 
  265.5000   252.2620    64.1650    13.2520   -14.9890    29.4540     3.8790     5.2940     5.4390     2.4030 
  265.6250   252.3750    64.2170    13.2630   -14.7730    30.2290     3.6900     5.0130     4.9190     2.3950 
  265.7500   252.4880    64.2700    13.2740   -14.5860    31.3610     3.5380     4.8270     4.3580     2.3780 
  265.8750   252.6010    64.3230    13.2850   -14.4310    32.6470     3.4560     4.7610     4.3680     2.3650 
  266.0000   252.7140    64.3760    13.2960   -14.3120    34.2420     3.4760     4.8490     4.4350     2.3660 
  266.1250   252.8260    64.4290    13.3070   -14.2440    35.9220     3.5300     4.9810     4.4200     2.3830 
  266.2500   252.9390    64.4820    13.3170   -14.2240    36.5870     3.5340     5.0170     4.5320     2.4040 
  266.3750   253.0520    64.5340    13.3280   -14.2530    36.1840     3.4930     4.9680     4.6730     2.4160 
  266.5000   253.1650    64.5870    13.3390   -14.3140    35.4310     3.4250     4.8610     4.6730     2.4120 
  266.6250   253.2770    64.6400    13.3500   -14.3950    34.4530     3.3460     4.7050     4.5950     2.3970 
  266.7500   253.3900    64.6930    13.3610   -14.4840    34.0170     3.2970     4.5840     4.4540     2.3830 
  266.8750   253.5030    64.7460    13.3710   -14.5700    34.3220     3.3590     4.6730     4.3750     2.3790 
  267.0000   253.6160    64.7990    13.3820   -14.6480    34.3560     3.5310     4.9430     4.5100     2.3900 
  267.1250   253.7280    64.8520    13.3930   -14.7090    33.9600     3.8260     5.3820     6.2690     2.4100 
  267.2500   253.8410    64.9050    13.4040   -14.7410    33.9660     4.0810     5.7810    10.1560     2.4280 
  267.3750   253.9540    64.9580    13.4140   -14.7290    34.4310     4.2360     6.0020    11.4570     2.4320 
  267.5000   254.0660    65.0110    13.4250   -14.6680    33.9440     4.1960     5.9030     8.4250     2.4200 
  267.6250   254.1790    65.0640    13.4360   -14.5590    32.7630     4.0100     5.6060     5.6600     2.3920 
  267.7500   254.2920    65.1170    13.4470   -14.4250    31.6940     3.7680     5.2320     4.6190     2.3590 
  267.8750   254.4040    65.1700    13.4580   -14.2940    30.7630     3.5450     4.9190     4.1480     2.3280 
  268.0000   254.5170    65.2240    13.4690   -14.1960    30.0850     3.4080     4.7560     4.2420     2.3050 
  268.1250   254.6290    65.2770    13.4800   -14.1490    30.2470     3.3520     4.6870     4.5310     2.2940 
  268.2500   254.7420    65.3300    13.4910   -14.1470    31.3680     3.3630     4.7030     4.5310     2.2940 
  268.3750   254.8540    65.3830    13.5020   -14.1700    33.1050     3.3900     4.7320     4.5180     2.3010 
  268.5000   254.9670    65.4370    13.5130   -14.1900    34.5930     3.4120     4.7360     4.8300     2.3100 
  268.6250   255.0790    65.4900    13.5240   -14.1850    34.3950     3.3930     4.7070     5.2220     2.3160 
  268.7500   255.1920    65.5440    13.5350   -14.1490    31.9830     3.3590     4.6410     5.2590     2.3180 
  268.8750   255.3040    65.5970    13.5460   -14.0860    29.0280     3.3040     4.5510     4.9320     2.3120 
