~V
VERS. 2.00: Ver 2.00
~W
STRT.M 24.0000:
STOP.M 309.0000:
STEP.M 0.1250:
NULL. -999.2500:
UWI. FD10911:
~C
DEPT.M :
TVD. :
DX. :
DY. :
SP.MV :
GR.API :
RI. :
RML.OHMM :
RXO.OHMM :
DEN.GM/CC :
~A
# ...
  224.7500   208.2850    28.7940   -60.2290   -19.9300    80.3510     3.5690     3.7410     5.0730     2.2590 
  224.8750   208.3880    28.8310   -60.2890   -19.9280    78.0720     3.6180     3.7640     5.3140     2.2530 
  225.0000   208.4910    28.8680   -60.3490   -19.9390    76.2120     3.6000     3.7300     5.4280     2.2450 
  225.1250   208.5950    28.9040   -60.4090   -19.9560    75.0520     3.5430     3.6740     5.3920     2.2380 
  225.2500   208.6980    28.9410   -60.4690   -19.9700    76.2550     3.4730     3.6280     5.3220     2.2400 
  225.3750   208.8020    28.9780   -60.5290   -19.9820    80.1550     3.4160     3.6100     5.2330     2.2480 
  225.5000   208.9050    29.0140   -60.5880   -20.0090    83.9370     3.3880     3.6260     4.9480     2.2610 
  225.6250   209.0090    29.0510   -60.6480   -20.0710    85.1000     3.3880     3.6700     4.5880     2.2730 
  225.7500   209.1120    29.0870   -60.7080   -20.1840    83.3590     3.4110     3.7340     4.4730     2.2820 
  225.8750   209.2160    29.1240   -60.7680   -20.3440    81.5570     3.4430     3.7980     4.5630     2.2850 
  226.0000   209.3190    29.1610   -60.8280   -20.5490    80.8230     3.4800     3.8490     4.7540     2.2830 
  226.1250   209.4220    29.1970   -60.8880   -20.7880    80.8520     3.5700     3.9400     5.0980     2.2820 
  226.2500   209.5260    29.2340   -60.9470   -21.0630    78.8230     3.8620     4.2510     5.4370     2.2900 
  226.3750   209.6290    29.2710   -61.0070   -21.3740    75.2050     4.5010     4.9670     5.8980     2.3170 
  226.5000   209.7330    29.3070   -61.0670   -21.7270    69.0150     5.6920     6.3270     9.0120     2.3770 
  226.6250   209.8360    29.3440   -61.1270   -22.1110    62.4350     7.6060     8.4950    17.9020     2.4600 
  226.7500   209.9400    29.3810   -61.1870   -22.4930    56.5680    10.2850    11.4480    30.9240     2.5250 
  226.8750   210.0430    29.4180   -61.2460   -22.8400    54.0990    13.0560    14.4170    41.0900     2.5350 
  227.0000   210.1470    29.4550   -61.3060   -23.1310    54.4560    14.9810    16.3900    45.1150     2.4860 
  227.1250   210.2500    29.4920   -61.3660   -23.3880    57.8260    15.6020    16.9100    44.1580     2.4090 
  227.2500   210.3530    29.5290   -61.4250   -23.6430    61.7530    14.9860    16.1100    37.5230     2.3320 
  227.3750   210.4570    29.5650   -61.4850   -23.9210    65.8930    13.9280    14.9060    27.6550     2.2670 
  227.5000   210.5600    29.6020   -61.5450   -24.2220    67.2600    12.9410    13.8370    19.3690     2.2200 
  227.6250   210.6640    29.6390   -61.6050   -24.5260    67.4850    12.1070    12.9410    14.7440     2.1910 
  227.7500   210.7670    29.6760   -61.6650   -24.8130    68.1980    11.4290    12.1990    13.1510     2.1800 
  227.8750   210.8710    29.7120   -61.7250   -25.0740    70.5480    10.9310    11.6350    13.0360     2.1830 
  228.0000   210.9740    29.7490   -61.7840   -25.2960    72.9960    10.6990    11.3370    13.3090     2.1920 
  228.1250   211.0770    29.7850   -61.8440   -25.4700    72.1130    10.7200    11.3040    13.2450     2.2020 
  228.2500   211.1810    29.8220   -61.9040   -25.5780    69.8980    10.9430    11.5070    12.8080     2.2060 
  228.3750   211.2840    29.8580   -61.9640   -25.6190    67.6680    11.2550    11.8370    12.3410     2.2010 
  228.5000   211.3880    29.8950   -62.0240   -25.5830    67.6170    11.4710    12.0990    12.0710     2.1930 
  228.6250   211.4910    29.9310   -62.0840   -25.4710    67.4410    11.3040    11.9500    12.0100     2.1860 
  228.7500   211.5940    29.9680   -62.1450   -25.2660    68.0510    10.4410    11.0420    12.1940     2.1830 
  228.8750   211.6980    30.0040   -62.2050   -24.9690    68.8450     8.9560     9.4610    12.6200     2.1830 
  229.0000   211.8010    30.0410   -62.2650   -24.5640    69.8060     7.1520     7.5470    12.8630     2.1920 
  229.1250   211.9050    30.0770   -62.3250   -24.0400    72.9800     5.4980     5.8080    12.1900     2.2160 
  229.2500   212.0080    30.1130   -62.3850   -23.3810    77.1530     4.3040     4.5720    10.1110     2.2560 
  229.3750   212.1110    30.1500   -62.4450   -22.6260    82.9060     3.5600     3.8240     7.2230     2.3040 
  229.5000   212.2150    30.1860   -62.5050   -21.8720    86.8190     3.2000     3.4960     4.8460     2.3440 
  229.6250   212.3180    30.2230   -62.5650   -21.2330    89.2590     3.1310     3.4900     3.7420     2.3690 
  229.7500   212.4210    30.2590   -62.6250   -20.8050    88.7300     3.3560     3.8020     3.6060     2.3730 
  229.8750   212.5250    30.2960   -62.6850   -20.5760    86.0000     3.8250     4.3740     3.8480     2.3590 
  230.0000   212.6280    30.3320   -62.7450   -20.5010    81.4070     4.4970     5.1590     4.5120     2.3290 
  230.1250   212.7320    30.3690   -62.8050   -20.5090    75.7760     5.2460     6.0110     5.5820     2.2950 
  230.2500   212.8350    30.4050   -62.8650   -20.5640    69.8720     5.9010     6.7300     6.7020     2.2750 
  230.3750   212.9380    30.4420   -62.9260   -20.6450    65.9320     6.3130     7.1510     7.6840     2.2770 
  230.5000   213.0420    30.4780   -62.9860   -20.7270    64.5160     6.4060     7.2050     8.4990     2.3030 
  230.6250   213.1450    30.5150   -63.0460   -20.7850    64.9340     6.2630     7.0170     8.7960     2.3340 
  230.7500   213.2480    30.5510   -63.1060   -20.8030    65.6910     5.9780     6.7190     8.5890     2.3520 
  230.8750   213.3520    30.5880   -63.1660   -20.7880    68.0250     5.6610     6.4230     8.4050     2.3470 
  231.0000   213.4550    30.6240   -63.2260   -20.7560    71.3680     5.3550     6.1680     8.0350     2.3210 
  231.1250   213.5590    30.6610   -63.2860   -20.7130    73.9310     5.0520     5.9170     7.3140     2.2890 
  231.2500   213.6620    30.6970   -63.3460   -20.6630    74.8810     4.7320     5.6250     6.7760     2.2720 
  231.3750   213.7650    30.7340   -63.4060   -20.5980    76.0790     4.3840     5.2710     6.6290     2.2820 
  231.5000   213.8690    30.7700   -63.4660   -20.5030    78.8690     4.0130     4.8560     6.6170     2.3220 
  231.6250   213.9720    30.8060   -63.5260   -20.3740    80.9950     3.6570     4.4420     6.4070     2.3700 
  231.7500   214.0760    30.8430   -63.5860   -20.2270    81.7220     3.3650     4.1080     5.7360     2.4050 
  231.8750   214.1790    30.8790   -63.6460   -20.1080    81.0600     3.1650     3.8990     4.8960     2.4160 
  232.0000   214.2820    30.9160   -63.7060   -20.0770    81.7970     3.0710     3.8270     4.4940     2.4110 
  232.1250   214.3860    30.9520   -63.7660   -20.1480    84.2100     3.0500     3.8350     4.5570     2.4030 
  232.2500   214.4890    30.9890   -63.8260   -20.3000    87.4940     3.0670     3.8730     4.6180     2.4000 
  232.3750   214.5920    31.0250   -63.8860   -20.4750    88.9790     3.0920     3.9060     4.4290     2.4020 
  232.5000   214.6960    31.0620   -63.9460   -20.6170    89.0920     3.1130     3.9250     4.2050     2.4110 
  232.6250   214.7990    31.0980   -64.0060   -20.7020    89.6540     3.1250     3.9280     4.2400     2.4220 
  232.7500   214.9030    31.1350   -64.0660   -20.7270    90.2150     3.1250     3.9150     4.5410     2.4240 
  232.8750   215.0060    31.1710   -64.1260   -20.7150    90.4870     3.1270     3.9110     4.7380     2.4160 
  233.0000   215.1090    31.2080   -64.1860   -20.6870    89.9290     3.1510     3.9500     4.5810     2.4060 
  233.1250   215.2130    31.2440   -64.2460   -20.6510    89.1640     3.2030     4.0440     4.3670     2.4020 
  233.2500   215.3160    31.2810   -64.3060   -20.6010    87.1870     3.2800     4.1790     4.4310     2.4070 
  233.3750   215.4200    31.3180   -64.3660   -20.5220    82.8370     3.3590     4.3140     4.6590     2.4220 
  233.5000   215.5230    31.3540   -64.4260   -20.4050    80.4730     3.4230     4.4240     4.9400     2.4460 
  233.6250   215.6260    31.3910   -64.4860   -20.2630    80.2380     3.4670     4.5060     5.2880     2.4740 
  233.7500   215.7300    31.4280   -64.5460   -20.1080    82.6200     3.4850     4.5540     5.4400     2.4980 
