~V
VERS. 2.00: Ver 2.00
~W
STRT.M 33.0000:
STOP.M 287.0000:
STEP.M 0.1250:
NULL. -999.2500:
UWI. FD10889:
~C
DEPT.M :
TVD. :
DX. :
DY. :
SP.MV :
GR.API :
RI. :
RML.OHMM :
RXO.OHMM :
DEN.GM/CC :
~A
# ...
  133.3750   130.4880   -17.4260   -10.2730   -12.5680    57.9420    13.9960    14.4930    19.0360     2.0940 
  133.5000   130.6030   -17.4660   -10.3020   -13.1260    56.4200    13.0600    13.4020    18.1860     2.0950 
  133.6250   130.7180   -17.5050   -10.3310   -13.7650    57.9530    12.0450    12.3850    15.0730     2.0940 
  133.7500   130.8330   -17.5450   -10.3610   -14.3670    62.6830    11.1280    11.5500    11.9980     2.0920 
  133.8750   130.9470   -17.5850   -10.3900   -14.8500    67.0610    10.4480    10.8870    10.5010     2.0950 
  134.0000   131.0620   -17.6240   -10.4200   -15.1150    65.3700     9.9380    10.3760    10.3500     2.1030 
  134.1250   131.1770   -17.6640   -10.4490   -15.3120    59.9590     9.6580    10.0980    10.5370     2.1130 
  134.2500   131.2920   -17.7030   -10.4790   -15.5470    57.3300     9.5130     9.9520    10.0430     2.1180 
  134.3750   131.4070   -17.7430   -10.5090   -15.5120    60.4260     9.5320     9.9780     9.0220     2.1160 
  134.5000   131.5220   -17.7820   -10.5390   -15.1060    63.4380     9.7570    10.1960     9.0490     2.1090 
  134.6250   131.6360   -17.8220   -10.5690   -14.5280    61.9060    10.1940    10.5740    10.2680     2.1030 
  134.7500   131.7510   -17.8610   -10.5980   -14.0110    60.9210    10.7880    11.0950    11.2840     2.1060 
  134.8750   131.8660   -17.9000   -10.6280   -13.6700    63.5180    11.5460    11.7920    11.3990     2.1260 
  135.0000   131.9810   -17.9400   -10.6580   -13.3330    64.5050    12.6270    12.9110    10.9020     2.1680 
  135.1250   132.0950   -17.9800   -10.6880   -13.0230    59.1000    14.3020    14.7820    10.7340     2.2240 
  135.2500   132.2100   -18.0190   -10.7180   -12.4500    53.0580    16.5040    17.2070    12.1150     2.2760 
  135.3750   132.3250   -18.0590   -10.7480   -11.7140    50.8580    18.5990    19.4690    15.7350     2.2980 
  135.5000   132.4390   -18.0990   -10.7780   -11.0750    50.2100    19.7580    20.7060    18.6970     2.2770 
  135.6250   132.5540   -18.1380   -10.8080   -10.3340    50.4100    19.8730    20.7930    19.1410     2.2210 
  135.7500   132.6690   -18.1780   -10.8380    -9.5570    54.0120    18.7660    19.5880    17.3780     2.1520 
  135.8750   132.7830   -18.2180   -10.8680    -8.9610    57.8680    17.3280    18.1040    15.8240     2.0940 
  136.0000   132.8980   -18.2580   -10.8980    -8.4650    58.5290    16.0450    16.7810    15.7030     2.0600 
  136.1250   133.0130   -18.2980   -10.9270    -8.1130    55.0540    15.0820    15.8140    16.3020     2.0470 
  136.2500   133.1270   -18.3380   -10.9570    -7.9470    50.0110    14.7570    15.4870    16.3880     2.0490 
  136.3750   133.2420   -18.3780   -10.9870    -7.9160    46.0780    14.8000    15.5470    15.6740     2.0630 
  136.5000   133.3560   -18.4180   -11.0180    -7.8860    45.9000    15.4790    16.2990    15.5650     2.1020 
  136.6250   133.4710   -18.4580   -11.0480    -7.9090    48.2260    17.4210    18.4770    16.6540     2.1740 
  136.7500   133.5850   -18.4980   -11.0780    -7.9860    49.5310    20.9240    22.3120    16.9170     2.2800 
  136.8750   133.6990   -18.5390   -11.1090    -8.1230    48.6700    25.4190    27.1490    19.6090     2.3890 
  137.0000   133.8140   -18.5790   -11.1390    -8.3500    47.3160    29.0560    30.8460    35.2630     2.4570 
  137.1250   133.9280   -18.6190   -11.1700    -8.5570    48.1260    29.5010    31.0150    64.9670     2.4580 
  137.2500   134.0420   -18.6590   -11.2010    -8.6880    51.5120    26.5540    27.3070    71.3550     2.3950 
  137.3750   134.1570   -18.7000   -11.2310    -8.7440    55.8030    21.6010    21.5360    40.7550     2.3100 
  137.5000   134.2710   -18.7400   -11.2620    -8.6200    57.9790    16.3290    15.9760    16.4940     2.2420 
  137.6250   134.3850   -18.7800   -11.2930    -8.3910    60.4300    12.6400    12.2370    12.1820     2.2040 
  137.7500   134.4990   -18.8210   -11.3240    -8.2130    62.2740     9.9600     9.9770    11.3610     2.1960 
  137.8750   134.6130   -18.8610   -11.3550    -8.0720    64.1120     8.7840     9.0430     9.6050     2.2040 
  138.0000   134.7270   -18.9020   -11.3860    -7.7970    64.8060     8.6750     9.0190     7.5520     2.2140 
  138.1250   134.8420   -18.9420   -11.4170    -7.3570    64.0700     9.3700     9.7940     7.0790     2.2130 
  138.2500   134.9560   -18.9830   -11.4490    -6.6840    63.1700    10.8690    11.5270     9.0800     2.1960 
  138.3750   135.0690   -19.0240   -11.4800    -5.8440    62.3640    12.7350    13.7070    12.1680     2.1750 
  138.5000   135.1830   -19.0640   -11.5110    -5.0640    60.6340    14.2420    15.5280    16.5430     2.1610 
  138.6250   135.2970   -19.1050   -11.5430    -4.5970    57.0930    14.8460    16.1210    30.1720     2.1550 
  138.7500   135.4110   -19.1460   -11.5740    -4.2170    55.7310    14.3230    15.3670    44.1730     2.1460 
  138.8750   135.5250   -19.1870   -11.6060    -3.7960    57.4750    13.2210    14.0910    36.5990     2.1270 
  139.0000   135.6390   -19.2280   -11.6380    -3.3660    59.9470    12.5740    13.4740    18.8430     2.0980 
  139.1250   135.7520   -19.2690   -11.6690    -2.7350    60.4890    12.6980    14.0220    12.8160     2.0670 
  139.2500   135.8660   -19.3110   -11.7010    -2.1230    59.5780    14.1820    16.1470    21.1560     2.0450 
  139.3750   135.9800   -19.3520   -11.7330    -1.6260    57.7980    16.3950    19.0890    29.7550     2.0330 
  139.5000   136.0930   -19.3930   -11.7640    -1.3840    54.6210    18.6950    21.9990    25.2490     2.0320 
  139.6250   136.2070   -19.4350   -11.7960    -1.2260    51.5420    20.5320    24.2580    19.3170     2.0380 
  139.7500   136.3200   -19.4760   -11.8280    -1.2790    50.1540    21.5660    25.4650    20.4660     2.0500 
  139.8750   136.4340   -19.5180   -11.8610    -1.7180    51.8340    21.9700    25.9460    25.0250     2.0690 
  140.0000   136.5470   -19.5590   -11.8930    -2.3890    53.3410    21.7450    25.6740    32.9250     2.0890 
  140.1250   136.6600   -19.6010   -11.9250    -3.2840    52.7360    20.8290    24.6420    43.5510     2.1040 
  140.2500   136.7740   -19.6430   -11.9570    -4.4240    50.8910    19.2100    22.7050    46.7820     2.1090 
  140.3750   136.8870   -19.6850   -11.9890    -5.7150    49.0330    17.4690    20.4190    33.0470     2.1070 
  140.5000   137.0000   -19.7270   -12.0220    -6.9600    45.8620    15.5450    18.0560    17.2720     2.1090 
  140.6250   137.1130   -19.7690   -12.0540    -7.8750    45.0590    13.7080    15.8510    13.3720     2.1170 
  140.7500   137.2260   -19.8110   -12.0870    -8.3300    48.8340    12.1670    14.2310    12.2880     2.1270 
  140.8750   137.3400   -19.8530   -12.1190    -8.3810    52.6390    10.8830    13.0390    10.9770     2.1290 
  141.0000   137.4530   -19.8950   -12.1520    -8.1810    54.5700    10.3960    12.5190     9.8900     2.1230 
  141.1250   137.5660   -19.9380   -12.1850    -7.8010    55.5310    10.3580    12.4960     9.5330     2.1140 
  141.2500   137.6780   -19.9800   -12.2180    -7.3620    55.2220    10.7710    13.0180    10.3940     2.1110 
  141.3750   137.7910   -20.0220   -12.2510    -6.9600    52.5750    11.5290    13.9650    12.1780     2.1140 
  141.5000   137.9040   -20.0650   -12.2840    -6.7730    51.2590    12.3790    14.9810    13.7740     2.1160 
  141.6250   138.0170   -20.1070   -12.3170    -6.7260    52.3200    13.0800    15.8490    14.1080     2.1090 
  141.7500   138.1300   -20.1490   -12.3500    -6.6060    52.3880    13.5940    16.4500    14.1930     2.0950 
  141.8750   138.2420   -20.1920   -12.3840    -6.4950    51.1120    13.9390    16.8780    14.6250     2.0810 
  142.0000   138.3550   -20.2340   -12.4170    -6.2870    49.6620    14.1650    17.1760    14.8020     2.0720 
  142.1250   138.4680   -20.2770   -12.4510    -6.0070    50.1390    14.2070    17.2750    15.0870     2.0680 
  142.2500   138.5800   -20.3190   -12.4850    -5.5430    53.1060    14.1300    17.2120    15.3030     2.0680 
  142.3750   138.6930   -20.3620   -12.5190    -5.0310    53.8230    13.9490    16.9910    14.8390     2.0700 
