~V
VERS. 2.00: Ver 2.00
~W
STRT.M 62.0000:
STOP.M 282.0000:
STEP.M 0.1250:
NULL. -999.2500:
UWI. FD10887:
~C
DEPT.M :
TVD. :
DX. :
DY. :
SP.MV :
GR.API :
RI. :
RML.OHMM :
RXO.OHMM :
DEN.GM/CC :
~A
# ...
  226.2500   215.6510    -1.3310    50.4940   -13.4310    62.2100    13.9060    14.7750    13.2590     2.2160 
  226.3750   215.7600    -1.3300    50.5560   -13.3320    61.9060    15.1450    16.2070    13.6200     2.2090 
  226.5000   215.8680    -1.3280    50.6180   -13.3370    62.3080    16.4680    17.7010    13.9290     2.1990 
  226.6250   215.9770    -1.3270    50.6800   -13.4050    62.1850    17.4190    18.7120    14.2340     2.1890 
  226.7500   216.0850    -1.3250    50.7430   -13.4590    59.9360    17.7830    19.0600    14.5270     2.1850 
  226.8750   216.1930    -1.3240    50.8050   -13.4610    57.3580    17.7710    19.0020    14.6390     2.1870 
  227.0000   216.3020    -1.3230    50.8670   -13.4390    56.5030    17.8020    19.0450    14.8130     2.1910 
  227.1250   216.4100    -1.3210    50.9300   -13.4550    57.2930    18.0100    19.3170    14.8650     2.1920 
  227.2500   216.5180    -1.3200    50.9920   -13.5380    57.9380    18.4650    19.9060    14.5200     2.1920 
  227.3750   216.6270    -1.3190    51.0540   -13.6710    57.6570    19.0830    20.6790    14.6520     2.1910 
  227.5000   216.7350    -1.3180    51.1170   -13.8050    56.9870    19.7650    21.5220    15.3420     2.1910 
  227.6250   216.8430    -1.3170    51.1790   -13.9090    56.5910    20.3230    22.1980    15.0870     2.1900 
  227.7500   216.9520    -1.3150    51.2420   -13.9840    56.5100    20.6690    22.6180    14.0560     2.1870 
  227.8750   217.0600    -1.3140    51.3040   -14.0330    56.1940    20.7920    22.7500    13.2260     2.1800 
  228.0000   217.1680    -1.3130    51.3660   -14.0410    55.7400    20.6710    22.5870    12.5590     2.1730 
  228.1250   217.2760    -1.3120    51.4290   -13.9760    54.9070    20.3890    22.0860    12.0530     2.1720 
  228.2500   217.3850    -1.3110    51.4910   -13.8360    54.6130    19.6580    21.1970    11.9590     2.1790 
  228.3750   217.4930    -1.3100    51.5540   -13.6520    56.4670    18.6480    20.0230    12.5410     2.1920 
  228.5000   217.6010    -1.3090    51.6160   -13.4860    58.5600    17.5260    18.7760    13.3000     2.2050 
  228.6250   217.7100    -1.3080    51.6790   -13.4070    59.0130    16.7320    17.9220    13.4350     2.2120 
  228.7500   217.8180    -1.3070    51.7410   -13.4530    58.4270    16.4400    17.5570    13.2780     2.2160 
  228.8750   217.9260    -1.3060    51.8030   -13.6410    58.1920    16.7780    17.9020    13.7260     2.2150 
  229.0000   218.0340    -1.3050    51.8660   -13.9160    58.1970    17.6140    18.8290    14.8720     2.2110 
  229.1250   218.1430    -1.3040    51.9280   -14.1860    57.2440    18.8950    20.2010    16.1010     2.2050 
  229.2500   218.2510    -1.3040    51.9910   -14.3450    56.1820    20.2610    21.6130    16.8780     2.1960 
  229.3750   218.3590    -1.3030    52.0530   -14.3200    56.2740    21.2720    22.6000    16.8610     2.1880 
  229.5000   218.4680    -1.3020    52.1150   -14.1400    57.0060    21.6270    22.8550    16.2320     2.1830 
  229.6250   218.5760    -1.3010    52.1780   -13.8730    58.1130    21.3330    22.4680    15.7750     2.1830 
  229.7500   218.6840    -1.3000    52.2400   -13.6180    59.2670    20.7830    21.8590    15.9880     2.1880 
  229.8750   218.7920    -1.2990    52.3030   -13.4480    59.9660    20.3450    21.4370    17.1510     2.1960 
  230.0000   218.9010    -1.2970    52.3650   -13.3830    60.2330    20.2010    21.3380    18.9730     2.2050 
  230.1250   219.0090    -1.2960    52.4280   -13.4210    60.6810    20.3850    21.6020    20.9710     2.2120 
  230.2500   219.1170    -1.2950    52.4900   -13.5210    62.7810    20.6470    21.8770    22.6380     2.2170 
  230.3750   219.2260    -1.2940    52.5530   -13.6490    65.6080    20.7910    22.0050    23.0250     2.2200 
  230.5000   219.3340    -1.2920    52.6150   -13.7880    67.4420    20.7410    21.9040    22.0290     2.2220 
  230.6250   219.4420    -1.2910    52.6770   -13.9540    67.9590    20.5590    21.6790    20.3660     2.2230 
  230.7500   219.5500    -1.2900    52.7400   -14.1730    68.2960    20.5200    21.6220    18.1760     2.2190 
  230.8750   219.6590    -1.2890    52.8020   -14.4580    67.2040    20.8690    22.0240    15.8420     2.2080 
  231.0000   219.7670    -1.2880    52.8650   -14.7800    63.1620    21.6950    22.9790    14.8280     2.1940 
  231.1250   219.8750    -1.2860    52.9270   -15.1000    58.6910    22.7430    24.1710    15.4850     2.1850 
  231.2500   219.9830    -1.2850    52.9900   -15.3860    57.4680    23.5670    25.0820    16.0820     2.1840 
  231.3750   220.0920    -1.2840    53.0520   -15.6280    58.8150    23.9160    25.4330    15.6870     2.1870 
  231.5000   220.2000    -1.2830    53.1150   -15.8380    59.5740    23.8270    25.3000    15.2400     2.1910 
  231.6250   220.3080    -1.2820    53.1780   -16.0200    58.6030    23.5450    24.9740    14.8810     2.1910 
  231.7500   220.4160    -1.2800    53.2400   -16.1770    57.1040    23.4980    24.8880    14.5860     2.1880 
  231.8750   220.5250    -1.2790    53.3030   -16.3060    56.2620    23.6370    25.1270    14.7020     2.1850 
  232.0000   220.6330    -1.2780    53.3650   -16.4180    57.7460    23.9480    25.4890    15.1360     2.1820 
  232.1250   220.7410    -1.2770    53.4280   -16.5250    59.9400    24.1920    25.8450    15.7400     2.1810 
  232.2500   220.8490    -1.2760    53.4900   -16.6290    60.7860    24.3520    26.0270    15.9690     2.1790 
  232.3750   220.9570    -1.2750    53.5530   -16.7190    60.3610    24.2550    25.9470    15.6610     2.1750 
  232.5000   221.0660    -1.2740    53.6150   -16.7870    60.2760    24.0990    25.8840    15.2050     2.1720 
  232.6250   221.1740    -1.2720    53.6780   -16.8370    59.8520    23.9320    25.8360    14.8140     2.1700 
  232.7500   221.2820    -1.2710    53.7400   -16.8860    58.2770    23.6530    25.6090    14.9120     2.1720 
  232.8750   221.3910    -1.2700    53.8020   -16.9450    57.9830    23.3460    25.3180    15.4260     2.1790 
  233.0000   221.4990    -1.2690    53.8650   -17.0130    59.2590    23.2630    25.2490    15.5290     2.1910 
  233.1250   221.6070    -1.2680    53.9270   -17.0800    60.6600    23.6660    25.7060    15.1150     2.2150 
  233.2500   221.7150    -1.2660    53.9900   -17.1350    62.0870    24.5750    26.7290    20.2980     2.2530 
  233.3750   221.8240    -1.2650    54.0520   -17.1620    65.3290    25.9320    28.2470    36.5980     2.3000 
  233.5000   221.9320    -1.2640    54.1150   -17.1540    69.2930    27.5410    30.0150    49.6490     2.3410 
  233.6250   222.0400    -1.2630    54.1770   -17.1090    70.3910    28.7870    31.2990    45.2280     2.3630 
  233.7500   222.1490    -1.2620    54.2390   -17.0360    68.1150    29.2820    31.7350    33.0980     2.3720 
  233.8750   222.2570    -1.2600    54.3020   -16.9510    66.5580    28.6050    30.8700    25.9850     2.3800 
  234.0000   222.3650    -1.2590    54.3640   -16.8700    67.6020    27.0650    29.1390    26.5390     2.3920 
  234.1250   222.4730    -1.2580    54.4270   -16.7980    70.0520    25.0540    26.9530    29.1530     2.4080 
  234.2500   222.5820    -1.2570    54.4890   -16.7100    71.0180    23.1300    24.8780    26.2760     2.4220 
  234.3750   222.6900    -1.2550    54.5520   -16.5570    69.3420    21.4880    23.0920    22.5860     2.4240 
  234.5000   222.7980    -1.2540    54.6140   -16.3120    67.0180    20.1770    21.7000    22.4570     2.4090 
  234.6250   222.9060    -1.2530    54.6770   -15.9730    65.7550    19.5630    21.1170    22.1450     2.3720 
  234.7500   223.0150    -1.2520    54.7390   -15.5800    65.0470    19.3930    21.0820    21.6180     2.3250 
  234.8750   223.1230    -1.2500    54.8020   -15.1710    62.5670    19.8880    21.8900    20.7250     2.2880 
  235.0000   223.2310    -1.2490    54.8640   -14.7770    59.8830    21.2290    23.6860    19.8570     2.2780 
  235.1250   223.3390    -1.2480    54.9270   -14.4280    59.8520    23.2220    26.2880    19.6700     2.3120 
  235.2500   223.4480    -1.2470    54.9890   -14.1520    61.7080    25.9520    29.6490    25.5210     2.3830 
