~V
VERS. 2.00: Ver 2.00
~W
STRT.M 27.0000:
STOP.M 267.0000:
STEP.M 0.1250:
NULL. -999.2500:
UWI. FD10204:
~C
DEPT.M :
TVD. :
DX. :
DY. :
GR.API :
RML.OHMM :
RI. :
RXO.OHMM :
CALI.CM :
SP.MV :
DEN.GM/CC :
~A
# ...
  241.5000   232.4340   -19.2360   -49.4660    68.1350    23.9730    22.2600    15.6660    23.3030   -22.2280     2.3930 
  241.6250   232.5500   -19.2540   -49.5100    72.1610    24.1390    22.4940    15.2440    23.3040   -22.2190     2.3980 
  241.7500   232.6660   -19.2720   -49.5530    75.6610    24.3380    22.7320    14.5940    23.3060   -22.1760     2.4020 
  241.8750   232.7820   -19.2900   -49.5970    77.1930    24.6670    23.0520    14.4210    23.3080   -22.0730     2.4020 
  242.0000   232.8970   -19.3080   -49.6410    76.6960    25.1590    23.4930    14.8390    23.3110   -21.9160     2.3960 
  242.1250   233.0130   -19.3250   -49.6840    72.8250    25.7780    24.0510    15.8580    23.3110   -21.7820     2.3860 
  242.2500   233.1290   -19.3430   -49.7280    66.9080    26.4090    24.6410    16.8610    23.3090   -21.7010     2.3750 
  242.3750   233.2450   -19.3610   -49.7710    62.9410    27.0050    25.2150    17.6450    23.3070   -21.6570     2.3660 
  242.5000   233.3610   -19.3790   -49.8150    64.3190    27.5860    25.7700    18.1490    23.3070   -21.6340     2.3590 
  242.6250   233.4760   -19.3970   -49.8580    68.3720    28.2230    26.3430    18.6260    23.3070   -21.5920     2.3530 
  242.7500   233.5920   -19.4140   -49.9020    69.5620    28.9490    26.9650    18.8320    23.3060   -21.5170     2.3490 
  242.8750   233.7080   -19.4320   -49.9460    67.8790    29.7790    27.6560    18.9120    23.3060   -21.4510     2.3470 
  243.0000   233.8240   -19.4500   -49.9890    67.1230    30.7530    28.4530    20.0360    23.3060   -21.4550     2.3480 
  243.1250   233.9400   -19.4680   -50.0330    70.0450    32.0090    29.4740    20.9910    23.3070   -21.4990     2.3540 
  243.2500   234.0560   -19.4850   -50.0760    73.7520    33.6170    30.7750    21.3060    23.3110   -21.5100     2.3590 
  243.3750   234.1710   -19.5030   -50.1200    73.6830    35.6120    32.3890    21.3940    23.3140   -21.4560     2.3610 
  243.5000   234.2870   -19.5210   -50.1630    70.6340    37.9390    34.2770    22.5260    23.3120   -21.3260     2.3550 
  243.6250   234.4030   -19.5390   -50.2070    68.3230    40.4960    36.3700    23.3030    23.3070   -21.2050     2.3430 
  243.7500   234.5190   -19.5570   -50.2510    67.4170    43.1480    38.5620    22.9130    23.3040   -21.1240     2.3300 
  243.8750   234.6350   -19.5740   -50.2940    67.1840    45.8560    40.8230    21.7870    23.3020   -21.0800     2.3200 
  244.0000   234.7500   -19.5920   -50.3380    67.0360    48.5300    43.0910    21.8890    23.3030   -21.0320     2.3130 
  244.1250   234.8660   -19.6100   -50.3810    66.8160    50.7710    45.0970    24.0960    23.3070   -20.9290     2.3070 
  244.2500   234.9820   -19.6280   -50.4250    65.9960    52.0960    46.4990    27.2200    23.3110   -20.8060     2.3030 
  244.3750   235.0980   -19.6460   -50.4680    65.3880    52.1070    46.9930    30.9510    23.3160   -20.7180     2.3000 
  244.5000   235.2140   -19.6630   -50.5120    66.1100    50.7790    46.4950    33.2390    23.3160   -20.6890     2.2990 
  244.6250   235.3290   -19.6810   -50.5550    66.5720    48.5350    45.1890    33.2410    23.3120   -20.6890     2.2980 
  244.7500   235.4450   -19.6990   -50.5990    66.5020    46.3490    43.7620    32.3560    23.3110   -20.7130     2.2990 
  244.8750   235.5610   -19.7170   -50.6430    66.3380    44.8580    42.7280    31.9150    23.3100   -20.7320     2.3030 
  245.0000   235.6770   -19.7350   -50.6860    65.9440    44.3600    42.4090    31.6880    23.3070   -20.7060     2.3100 
  245.1250   235.7930   -19.7520   -50.7300    63.8600    44.8110    42.9070    31.9080    23.3060   -20.6650     2.3190 
  245.2500   235.9080   -19.7700   -50.7730    62.7130    45.5150    43.7320    31.9430    23.3080   -20.6350     2.3270 
  245.3750   236.0240   -19.7880   -50.8170    64.2230    45.8910    44.4140    32.6600    23.3130   -20.6430     2.3320 
  245.5000   236.1400   -19.8060   -50.8600    66.9230    45.5130    44.5450    34.4150    23.3230   -20.7050     2.3340 
  245.6250   236.2560   -19.8240   -50.9040    67.3910    44.2200    43.8760    33.8100    23.3570   -20.7920     2.3330 
  245.7500   236.3720   -19.8410   -50.9480    67.4160    42.6140    42.8110    30.7250    23.4500   -20.8780     2.3310 
  245.8750   236.4870   -19.8590   -50.9910    68.1890    41.2780    41.8170    27.4700    23.6440   -20.9700     2.3290 
  246.0000   236.6030   -19.8770   -51.0350    68.0410    40.5900    41.2720    25.9910    23.9140   -21.0880     2.3250 
  246.1250   236.7190   -19.8950   -51.0780    66.2440    40.6360    41.3520    26.2090    24.1320   -21.2740     2.3220 
  246.2500   236.8350   -19.9120   -51.1220    65.6170    40.9800    41.7600    25.7510    24.2280   -21.4940     2.3230 
  246.3750   236.9510   -19.9300   -51.1650    67.5100    41.3210    42.2430    25.3140    24.2480   -21.7080     2.3320 
  246.5000   237.0660   -19.9480   -51.2090    70.6710    41.5780    42.6760    26.0560    24.2640   -21.9110     2.3510 
  246.6250   237.1820   -19.9660   -51.2530    71.7250    42.1140    43.2440    24.9250    24.3180   -22.1200     2.3710 
  246.7500   237.2980   -19.9840   -51.2960    70.0710    43.4300    44.3320    24.4710    24.4040   -22.3290     2.3840 
  246.8750   237.4140   -20.0010   -51.3400    67.0930    45.7780    46.2000    25.3350    24.5270   -22.5370     2.3840 
  247.0000   237.5300   -20.0190   -51.3830    64.6070    48.8990    48.7180    27.3960    24.6680   -22.7340     2.3750 
  247.1250   237.6450   -20.0370   -51.4270    63.4240    51.7940    51.1570    28.9450    24.7690   -22.9060     2.3610 
  247.2500   237.7610   -20.0550   -51.4700    62.7940    53.2690    52.5350    29.9640    24.8080   -23.0840     2.3490 
  247.3750   237.8770   -20.0730   -51.5140    62.9060    52.7420    52.2980    30.4680    24.8090   -23.2530     2.3380 
  247.5000   237.9930   -20.0900   -51.5570    64.1260    50.6510    50.6660    29.7310    24.8090   -23.4100     2.3270 
  247.6250   238.1090   -20.1080   -51.6010    65.2320    48.5020    48.7410    27.9560    24.8150   -23.5520     2.3190 
  247.7500   238.2240   -20.1260   -51.6450    64.7650    47.7730    47.8220    27.3120    24.8160   -23.7060     2.3170 
  247.8750   238.3400   -20.1440   -51.6880    62.7950    49.0340    48.5050    27.6510    24.8160   -23.8730     2.3220 
  248.0000   238.4560   -20.1620   -51.7320    61.3500    52.1340    50.7940    28.1630    24.8110   -24.0740     2.3330 
  248.1250   238.5720   -20.1790   -51.7750    61.3710    56.1920    54.1120    28.0590    24.8280   -24.3300     2.3430 
  248.2500   238.6880   -20.1970   -51.8190    60.6560    59.3390    56.9530    27.4260    24.8320   -24.6050     2.3480 
  248.3750   238.8030   -20.2150   -51.8620    59.9350    60.0170    58.0110    26.1800    24.6310   -24.9290     2.3450 
  248.5000   238.9190   -20.2330   -51.9060    61.2270    57.5620    56.5840    26.7590    24.1280   -25.2880     2.3320 
  248.6250   239.0350   -20.2510   -51.9500    63.6100    52.5270    52.8200    29.8280    23.6470   -25.6550     2.3150 
  248.7500   239.1510   -20.2680   -51.9930    63.3960    47.0260    48.3420    31.6740    23.6500   -26.0100     2.3050 
  248.8750   239.2670   -20.2860   -52.0370    60.6180    42.2560    44.2010    29.4170    24.1330   -26.3660     2.3120 
  249.0000   239.3820   -20.3040   -52.0800    58.8010    38.7060    40.9430    24.2610    24.7150   -26.7210     2.3380 
  249.1250   239.4980   -20.3220   -52.1240    60.3290    36.3450    38.6670    21.8390    25.0350   -27.0410     2.3650 
  249.2500   239.6140   -20.3390   -52.1670    63.0780    34.4540    36.8130    21.1520    25.1350   -27.3400     2.3720 
  249.3750   239.7300   -20.3570   -52.2110    65.7490    32.6300    35.0150    20.6030    25.1870   -27.6020     2.3560 
  249.5000   239.8460   -20.3750   -52.2550    67.7670    30.7720    33.1540    19.8770    25.2830   -27.8310     2.3290 
  249.6250   239.9610   -20.3930   -52.2980    67.6110    29.1220    31.4400    19.4540    25.3970   -28.0670     2.3110 
