~V
VERS. 2.00: Ver 2.00
~W
STRT.M 22.0000:
STOP.M 238.0000:
STEP.M 0.1250:
NULL. -999.2500:
UWI. FD10612:
~C
DEPT.M :
TVD. :
DX. :
DY. :
GR.API :
RML.OHMM :
RI. :
RXO.OHMM :
CALI.CM :
DEN.GM/CC :
SP.MV :
~A
# ...
  211.7500   194.0200    53.5960    35.7590    34.1440     4.7950     4.0240     4.0690    21.4710     2.4400   -14.7780 
  211.8750   194.1140    53.6630    35.8080    32.6100     4.6310     3.8330     4.0300    21.3670     2.3920   -14.6040 
  212.0000   194.2070    53.7300    35.8580    30.9100     4.5540     3.7200     3.9390    21.1010     2.3760   -14.4720 
  212.1250   194.3000    53.7970    35.9070    30.7020     4.5470     3.6880     3.9170    20.9590     2.3860   -14.3160 
  212.2500   194.3940    53.8640    35.9560    31.1760     4.5690     3.7010     3.9470    20.9280     2.4020   -14.1070 
  212.3750   194.4870    53.9310    36.0060    30.6590     4.6000     3.7350     4.0150    20.9910     2.4130   -13.8670 
  212.5000   194.5800    53.9980    36.0550    30.1030     4.6310     3.7760     4.0740    21.1490     2.4130   -13.5940 
  212.6250   194.6740    54.0650    36.1040    31.9240     4.6530     3.8110     4.0460    21.5050     2.4000   -13.2530 
  212.7500   194.7670    54.1320    36.1530    33.9910     4.6680     3.8350     3.9720    21.8730     2.3810   -12.9070 
  212.8750   194.8600    54.1990    36.2030    34.7230     4.6770     3.8460     3.9330    21.9840     2.3640   -12.5490 
  213.0000   194.9540    54.2660    36.2520    33.8470     4.6790     3.8440     3.9390    21.7470     2.3560   -12.2040 
  213.1250   195.0470    54.3330    36.3010    32.0190     4.6720     3.8290     3.9440    21.5360     2.3620   -11.9520 
  213.2500   195.1400    54.3990    36.3510    31.4460     4.6610     3.8080     3.9320    21.4950     2.3750   -11.8230 
  213.3750   195.2340    54.4660    36.4000    32.1990     4.6470     3.7840     3.8970    21.5020     2.3880   -11.6950 
  213.5000   195.3270    54.5330    36.4490    32.6810     4.6350     3.7650     3.8720    21.4000     2.3950   -11.5750 
  213.6250   195.4200    54.6000    36.4980    31.5350     4.6260     3.7530     3.8850    21.1320     2.3970   -11.5210 
  213.7500   195.5140    54.6670    36.5480    30.8580     4.6180     3.7460     3.9140    20.9080     2.4020   -11.4590 
  213.8750   195.6070    54.7340    36.5970    31.3110     4.6150     3.7450     3.8880    20.8370     2.4180   -11.3850 
  214.0000   195.7000    54.8010    36.6460    31.2110     4.6220     3.7530     3.8120    20.9000     2.4410   -11.2770 
  214.1250   195.7940    54.8680    36.6960    30.3750     4.6520     3.7790     3.8080    20.9890     2.4580   -11.2000 
  214.2500   195.8870    54.9350    36.7450    31.7860     4.7060     3.8230     3.8690    21.0350     2.4540   -11.0910 
  214.3750   195.9800    55.0020    36.7940    35.3060     4.7760     3.8810     4.0130    21.0690     2.4250   -10.9690 
  214.5000   196.0740    55.0690    36.8430    38.1000     4.8480     3.9380     4.2370    21.1280     2.3810   -10.8710 
  214.6250   196.1670    55.1360    36.8930    37.8530     4.8950     3.9720     4.2450    21.2800     2.3430   -10.8030 
  214.7500   196.2600    55.2030    36.9420    35.6320     4.9040     3.9740     4.0820    21.3900     2.3250   -10.7390 
  214.8750   196.3540    55.2700    36.9910    33.0440     4.8720     3.9430     3.9440    21.3280     2.3310   -10.6440 
  215.0000   196.4470    55.3370    37.0410    30.4990     4.8140     3.8950     3.9180    21.0930     2.3500   -10.5980 
  215.1250   196.5400    55.4040    37.0900    29.0560     4.7600     3.8520     3.9340    20.8670     2.3670   -10.6070 
  215.2500   196.6340    55.4710    37.1390    30.1860     4.7370     3.8360     3.8870    20.7150     2.3760   -10.6070 
  215.3750   196.7270    55.5380    37.1880    32.8300     4.7620     3.8560     3.8790    20.6220     2.3820   -10.6380 
  215.5000   196.8200    55.6050    37.2380    34.9220     4.8370     3.9170     3.9620    20.5890     2.3920   -10.7310 
  215.6250   196.9140    55.6720    37.2870    34.8390     4.9570     4.0170     4.1660    20.6550     2.4150   -10.8530 
  215.7500   197.0070    55.7390    37.3360    34.1660     5.0960     4.1400     4.4130    20.8420     2.4450   -11.0450 
  215.8750   197.1000    55.8060    37.3860    34.3910     5.2310     4.2640     4.7000    21.1170     2.4730   -11.3310 
  216.0000   197.1940    55.8730    37.4350    34.6680     5.3370     4.3660     5.0880    21.4020     2.4880   -11.5750 
  216.1250   197.2870    55.9400    37.4840    34.6520     5.3760     4.4100     5.2410    21.7170     2.4850   -11.6700 
  216.2500   197.3800    56.0070    37.5330    35.0820     5.3450     4.3910     4.8730    21.8690     2.4690   -11.7240 
  216.3750   197.4740    56.0740    37.5830    36.3560     5.2500     4.3130     4.3860    21.6580     2.4460   -11.7090 
  216.5000   197.5670    56.1410    37.6320    37.4600     5.1070     4.1950     4.1460    21.3050     2.4230   -11.6160 
  216.6250   197.6600    56.2080    37.6810    37.3950     4.9460     4.0640     4.1490    21.1270     2.4050   -11.5400 
  216.7500   197.7540    56.2750    37.7310    37.1450     4.7980     3.9470     4.0810    21.1900     2.3940   -11.4430 
  216.8750   197.8470    56.3420    37.7800    35.2350     4.6830     3.8620     3.9700    21.2360     2.3930   -11.3390 
  217.0000   197.9400    56.4090    37.8290    31.5200     4.6070     3.8130     3.9400    21.2310     2.3990   -11.2770 
  217.1250   198.0340    56.4760    37.8780    29.2780     4.5720     3.8010     3.9890    21.2040     2.4090   -11.3390 
  217.2500   198.1270    56.5430    37.9280    29.1430     4.5600     3.8080     3.9940    21.1800     2.4210   -11.4590 
  217.3750   198.2200    56.6100    37.9770    28.8270     4.5580     3.8250     4.0060    21.1980     2.4320   -11.6410 
  217.5000   198.3140    56.6770    38.0260    28.2310     4.5600     3.8450     4.0860    21.2710     2.4420   -11.8730 
  217.6250   198.4070    56.7440    38.0760    29.9300     4.5650     3.8660     4.1820    21.2840     2.4510   -12.1000 
  217.7500   198.5000    56.8100    38.1250    31.3130     4.5760     3.8870     4.2410    21.1370     2.4580   -12.2990 
  217.8750   198.5940    56.8770    38.1740    30.3100     4.5960     3.9090     4.2800    20.9320     2.4600   -12.3920 
  218.0000   198.6870    56.9440    38.2230    29.6070     4.6210     3.9320     4.2010    20.7840     2.4570   -12.3690 
  218.1250   198.7800    57.0110    38.2730    31.7850     4.6430     3.9510     4.0820    20.6940     2.4470   -12.3300 
  218.2500   198.8740    57.0780    38.3220    34.3390     4.6540     3.9580     4.0220    20.5180     2.4310   -12.3940 
  218.3750   198.9670    57.1450    38.3710    34.9570     4.6470     3.9500     4.0690    20.4490     2.4140   -12.4270 
  218.5000   199.0600    57.2120    38.4210    33.7270     4.6180     3.9200     4.1090    20.4780     2.3990   -12.4360 
  218.6250   199.1540    57.2790    38.4700    30.6780     4.5630     3.8680     3.9540    20.5010     2.3910   -12.5160 
  218.7500   199.2470    57.3460    38.5190    26.8890     4.4900     3.8090     3.8430    20.5080     2.3910   -12.5680 
  218.8750   199.3400    57.4130    38.5680    24.7280     4.4120     3.7530     3.7920    20.5080     2.3970   -12.5950 
  219.0000   199.4340    57.4800    38.6180    25.1710     4.3430     3.7110     3.7610    20.5080     2.4080   -12.7250 
  219.1250   199.5270    57.5470    38.6670    26.4840     4.3060     3.6880     3.7440    20.5080     2.4230   -12.8540 
  219.2500   199.6200    57.6140    38.7160    27.3140     4.3030     3.6760     3.7780    20.5040     2.4370   -12.8040 
  219.3750   199.7140    57.6810    38.7660    28.2990     4.3220     3.6700     3.8460    20.4800     2.4450   -12.7360 
  219.5000   199.8070    57.7480    38.8150    29.7500     4.3480     3.6640     3.8640    20.4180     2.4450   -12.6430 
  219.6250   199.9000    57.8150    38.8640    29.8140     4.3670     3.6630     3.8860    20.3470     2.4380   -12.4890 
  219.7500   199.9940    57.8820    38.9130    29.3890     4.3840     3.6740     3.9260    20.3180     2.4280   -12.4270 
  219.8750   200.0870    57.9490    38.9630    29.9450     4.4140     3.7100     3.9620    20.3120     2.4160   -12.4580 
