~V
VERS. 2.00: Ver 2.00
~W
STRT.M 43.0000:
STOP.M 257.0000:
STEP.M 0.1250:
NULL. -999.2500:
UWI. FD10872:
~C
DEPT.M :
TVD. :
DX. :
DY. :
SP.MV :
GR.API :
RI. :
RML.OHMM :
RXO.OHMM :
DEN.GM/CC :
~A
# ...
  216.3750   207.1810    42.1380   -28.0590     6.0730    62.0920   112.6110   113.6540   128.4200     2.1530 
  216.5000   207.2950    42.1830   -28.0860     6.2930    60.4030   119.9950   121.9330   157.9840     2.1560 
  216.6250   207.4080    42.2280   -28.1120     6.5530    58.4270   129.8750   132.2490   177.3590     2.1590 
  216.7500   207.5220    42.2730   -28.1380     6.7520    58.0480   138.5750   140.9700   173.9970     2.1620 
  216.8750   207.6350    42.3190   -28.1650     6.8560    60.0110   144.0880   145.7820   166.5900     2.1640 
  217.0000   207.7490    42.3640   -28.1910     6.8990    61.5180   146.1930   146.9890   155.5500     2.1650 
  217.1250   207.8620    42.4090   -28.2180     6.8990    61.5050   150.3160   150.6990   135.0010     2.1670 
  217.2500   207.9760    42.4540   -28.2440     6.8830    61.1730   158.9080   159.1130   124.5270     2.1680 
  217.3750   208.0890    42.5000   -28.2700     6.8570    61.2900   169.8430   169.6060   146.8240     2.1680 
  217.5000   208.2020    42.5450   -28.2970     6.8080    62.4010   169.8990   166.6380   167.1090     2.1660 
  217.6250   208.3160    42.5900   -28.3230     6.7160    65.6120   152.3880   146.5600   159.9200     2.1660 
  217.7500   208.4290    42.6360   -28.3490     6.5730    69.7270   123.1680   115.3090   153.8070     2.1680 
  217.8750   208.5430    42.6810   -28.3760     6.3990    72.4820    90.2230    81.9430   143.9850     2.1740 
  218.0000   208.6560    42.7270   -28.4020     6.2620    74.2670    69.3190    62.5110   102.9640     2.1830 
  218.1250   208.7700    42.7720   -28.4280     6.2720    76.4140    57.7550    51.7140    57.3630     2.1940 
  218.2500   208.8830    42.8180   -28.4550     6.5010    77.2130    51.6970    46.1090    46.1550     2.2020 
  218.3750   208.9960    42.8630   -28.4810     6.9660    75.4060    48.5740    43.2260    56.4930     2.2050 
  218.5000   209.1100    42.9090   -28.5070     7.5480    71.5390    47.0270    41.7700    61.2340     2.2040 
  218.6250   209.2230    42.9540   -28.5340     8.0770    67.3530    46.9310    41.5940    55.3740     2.2020 
  218.7500   209.3370    43.0000   -28.5600     8.4010    64.9270    47.6320    42.1700    46.5960     2.2010 
  218.8750   209.4500    43.0460   -28.5860     8.4520    64.3320    50.7960    45.2620    42.9210     2.2010 
  219.0000   209.5630    43.0920   -28.6120     8.3370    65.7720    56.1160    50.3830    43.2650     2.2000 
  219.1250   209.6770    43.1370   -28.6380     8.2180    66.6990    66.1970    59.9840    55.4990     2.1970 
  219.2500   209.7900    43.1830   -28.6640     8.2440    66.2550    80.5010    74.0490    84.1290     2.1900 
  219.3750   209.9030    43.2290   -28.6900     8.4740    65.2550    96.4530    89.9460   113.2370     2.1810 
  219.5000   210.0170    43.2750   -28.7160     8.8190    64.4070   111.0590   104.9120   129.1540     2.1720 
  219.6250   210.1300    43.3200   -28.7430     9.1430    63.2690   118.0250   112.5340   132.6740     2.1650 
  219.7500   210.2430    43.3660   -28.7690     9.3410    62.2450   116.5740   112.0050   134.7070     2.1610 
  219.8750   210.3570    43.4110   -28.7960     9.3600    63.4370   110.9810   107.6770   137.5430     2.1600 
  220.0000   210.4700    43.4570   -28.8230     9.2400    65.7680   105.0130   103.0610   132.1570     2.1630 
  220.1250   210.5830    43.5030   -28.8490     9.0250    66.9840   101.9660   101.4770   112.7780     2.1670 
  220.2500   210.6970    43.5480   -28.8760     8.7530    67.6240   102.9850   104.1320    95.5710     2.1710 
  220.3750   210.8100    43.5940   -28.9030     8.4030    65.9470   107.3910   110.2400   106.9260     2.1720 
  220.5000   210.9230    43.6390   -28.9300     7.9090    62.2300   112.1260   116.1220   134.3310     2.1710 
  220.6250   211.0360    43.6850   -28.9560     7.1530    59.6760   116.0540   120.6830   153.9060     2.1670 
  220.7500   211.1500    43.7310   -28.9830     6.0920    60.1750   119.6850   124.3090   157.1910     2.1640 
  220.8750   211.2630    43.7760   -29.0100     4.7310    60.2970   122.3280   126.6620   131.9620     2.1630 
  221.0000   211.3760    43.8220   -29.0370     3.2470    58.5180   127.7670   132.4640   100.8910     2.1660 
  221.1250   211.4900    43.8670   -29.0630     1.9160    58.0490   142.4180   148.7030   104.8740     2.1710 
  221.2500   211.6030    43.9130   -29.0900     0.9840    58.8440   165.1110   173.3430   125.3800     2.1780 
  221.3750   211.7160    43.9590   -29.1160     0.6480    59.0290   187.3500   197.2760   107.0110     2.1900 
  221.5000   211.8290    44.0040   -29.1430     0.8590    58.7300   204.5510   215.2060    85.2090     2.2080 
  221.6250   211.9430    44.0500   -29.1690     1.5000    58.7030   208.7020   218.1880   109.3530     2.2290 
  221.7500   212.0560    44.0950   -29.1960     2.3330    58.6170   206.2180   214.4050   118.6410     2.2450 
  221.8750   212.1690    44.1410   -29.2230     3.1540    59.7610   202.8870   209.8510    90.2750     2.2440 
  222.0000   212.2830    44.1860   -29.2490     3.8240    63.2540   197.6620   203.2170    64.6910     2.2280 
  222.1250   212.3960    44.2320   -29.2760     4.2670    65.7550   183.4790   186.8550    49.0710     2.2060 
  222.2500   212.5090    44.2780   -29.3030     4.5160    63.7410   161.6470   162.7650    68.0760     2.1930 
  222.3750   212.6230    44.3230   -29.3290     4.6320    60.3990   136.0660   135.3320   130.7390     2.1980 
  222.5000   212.7360    44.3690   -29.3560     4.7100    60.4510   112.6010   110.9030   160.6540     2.2170 
  222.6250   212.8490    44.4140   -29.3820     4.8050    64.8100    98.4890    97.2180   128.3320     2.2380 
  222.7500   212.9630    44.4600   -29.4090     4.9400    69.3470    93.1880    92.4350    88.6290     2.2520 
  222.8750   213.0760    44.5050   -29.4360     5.1230    71.0680    92.2710    91.8680    69.9760     2.2510 
  223.0000   213.1890    44.5510   -29.4620     5.3450    71.0750    93.9930    93.9590    60.5300     2.2430 
  223.1250   213.3030    44.5960   -29.4890     5.5910    71.4600    98.0420    98.2870    57.4260     2.2360 
  223.2500   213.4160    44.6420   -29.5160     5.8300    73.2300   103.4480   103.3980    64.5610     2.2380 
  223.3750   213.5290    44.6870   -29.5430     6.0370    75.1010   110.0700   110.8150    68.7420     2.2560 
  223.5000   213.6430    44.7320   -29.5700     6.1940    75.8180   115.6750   117.5520    68.0440     2.2920 
  223.6250   213.7560    44.7780   -29.5970     6.2760    74.1920   117.4570   120.5950   102.1080     2.3420 
  223.7500   213.8690    44.8230   -29.6230     6.2690    70.8360   114.5370   118.5780   157.3870     2.3930 
  223.8750   213.9830    44.8690   -29.6500     6.1400    68.6400   106.0390   109.4870   156.2180     2.4250 
  224.0000   214.0960    44.9140   -29.6770     5.8770    68.9990    96.1690    98.9220   112.1970     2.4270 
  224.1250   214.2090    44.9600   -29.7040     5.4910    71.0010    88.9170    91.5850    78.7320     2.3990 
  224.2500   214.3230    45.0050   -29.7300     5.0450    72.9620    88.2040    91.8480    68.0830     2.3600 
  224.3750   214.4360    45.0500   -29.7570     4.6320    73.3630    89.6420    93.8820    74.2140     2.3370 
  224.5000   214.5490    45.0960   -29.7830     4.3340    71.1170    87.5890    92.8440   110.7090     2.3440 
  224.6250   214.6630    45.1420   -29.8100     4.1890    66.2520    83.0710    89.6450   173.3210     2.3810 
  224.7500   214.7760    45.1870   -29.8360     4.1080    62.3750    70.9570    75.6250   173.1770     2.4300 
  224.8750   214.8890    45.2330   -29.8630     3.9290    60.7910    54.3970    57.6330   101.1780     2.4720 
  225.0000   215.0030    45.2790   -29.8890     3.5270    61.7000    37.3260    38.2780    51.4580     2.4940 
  225.1250   215.1160    45.3240   -29.9160     2.8300    68.2540    19.9710    19.1010    38.5260     2.4930 
  225.2500   215.2290    45.3700   -29.9420     1.9370    79.1550    10.6420    10.4580    26.6020     2.4720 
  225.3750   215.3430    45.4160   -29.9680     1.0250    87.1200     7.5330     7.4500    14.2270     2.4370 
