~V
VERS. 2.00: Ver 2.00
~W
STRT.M 34.0000:
STOP.M 260.0000:
STEP.M 0.1250:
NULL. -999.2500:
UWI. FD10858:
~C
DEPT.M :
TVD. :
DX. :
DY. :
SP.MV :
GR.API :
RI. :
RML.OHMM :
RXO.OHMM :
DEN.GM/CC :
~A
# ...
   88.7500    88.1110    -4.1270    -5.1570   -13.5320    56.7970    13.3880    14.8000    10.0630     2.1350 
   88.8750    88.2300    -4.1520    -5.1850   -13.3320    57.0700    13.5630    15.0960     8.9230     2.1310 
   89.0000    88.3490    -4.1760    -5.2140   -13.1500    57.5090    14.7010    16.6050     9.6730     2.1160 
   89.1250    88.4680    -4.2010    -5.2430   -12.9690    58.4550    16.8970    19.4510    13.1710     2.1010 
   89.2500    88.5870    -4.2260    -5.2720   -12.7770    58.5660    19.5270    22.8550    17.6120     2.0910 
   89.3750    88.7060    -4.2500    -5.3010   -12.5810    57.3910    21.0830    24.8800    20.2030     2.0910 
   89.5000    88.8250    -4.2750    -5.3310   -12.4020    56.4850    20.0340    23.5540    20.1040     2.0980 
   89.6250    88.9440    -4.3000    -5.3600   -12.2720    55.6370    16.8340    19.5710    18.3080     2.1160 
   89.7500    89.0630    -4.3250    -5.3900   -12.2170    56.4680    12.5250    14.2810    17.1110     2.1450 
   89.8750    89.1820    -4.3500    -5.4200   -12.2630    61.0270     9.1720    10.2530    14.6690     2.1810 
   90.0000    89.3000    -4.3750    -5.4500   -12.4040    68.1010     7.5720     8.4600     9.4330     2.2110 
   90.1250    89.4190    -4.4000    -5.4800   -12.6220    73.1980     7.3200     8.3190     5.8110     2.2210 
   90.2500    89.5380    -4.4250    -5.5100   -12.8600    73.2090     8.2170     9.6410     6.7500     2.2100 
   90.3750    89.6560    -4.4510    -5.5400   -13.0560    70.0550    10.0920    12.1180    10.1760     2.1870 
   90.5000    89.7750    -4.4760    -5.5710   -13.1680    66.3990    12.4340    15.0710    12.5540     2.1620 
   90.6250    89.8930    -4.5010    -5.6010   -13.1700    64.8000    14.6860    17.7510    13.1770     2.1450 
   90.7500    90.0120    -4.5270    -5.6320   -13.0900    64.6090    15.7280    18.7540    12.8740     2.1380 
   90.8750    90.1300    -4.5520    -5.6620   -12.9710    62.8270    15.2370    17.9240    12.4060     2.1400 
   91.0000    90.2490    -4.5780    -5.6930   -12.8690    60.3040    13.5320    15.7720    12.6250     2.1540 
   91.1250    90.3670    -4.6030    -5.7240   -12.8350    59.7800    11.4310    13.1400    12.5970     2.1830 
   91.2500    90.4860    -4.6280    -5.7550   -12.8950    62.2910     9.4350    10.7580    10.5040     2.2280 
   91.3750    90.6040    -4.6540    -5.7860   -13.0600    66.4800     7.8710     8.9740     7.4910     2.2780 
   91.5000    90.7220    -4.6800    -5.8170   -13.3000    71.1770     6.7020     7.6520     7.1930     2.3150 
   91.6250    90.8410    -4.7050    -5.8480   -13.5730    75.3670     5.9020     6.7840     7.6810     2.3280 
   91.7500    90.9590    -4.7310    -5.8800   -13.8300    77.2820     5.4360     6.2920     6.0480     2.3220 
   91.8750    91.0770    -4.7570    -5.9110   -14.0350    78.0390     5.1980     6.0150     4.7720     2.3120 
   92.0000    91.1950    -4.7830    -5.9420   -14.1830    79.8270     5.0790     5.8560     4.7620     2.3080 
   92.1250    91.3130    -4.8090    -5.9740   -14.2830    82.0380     5.1400     5.9440     4.9330     2.3080 
   92.2500    91.4320    -4.8350    -6.0060   -14.3600    84.3800     5.3790     6.2510     4.7580     2.3030 
   92.3750    91.5500    -4.8610    -6.0370   -14.4410    85.7650     5.6920     6.6300     4.4720     2.2910 
   92.5000    91.6680    -4.8870    -6.0690   -14.5450    84.3670     5.9730     6.9540     4.7970     2.2780 
   92.6250    91.7860    -4.9130    -6.1010   -14.6830    79.4440     6.0720     7.0590     5.2790     2.2700 
   92.7500    91.9040    -4.9390    -6.1330   -14.8430    75.4430     5.9280     6.9000     5.1640     2.2670 
   92.8750    92.0220    -4.9650    -6.1640   -14.9950    74.1740     5.5510     6.4800     4.8130     2.2650 
   93.0000    92.1400    -4.9920    -6.1960   -15.1080    73.3080     5.0580     5.9160     4.6070     2.2640 
   93.1250    92.2580    -5.0180    -6.2280   -15.1480    72.6100     4.6570     5.4260     4.2670     2.2660 
   93.2500    92.3750    -5.0450    -6.2600   -15.1140    74.7950     4.5140     5.2540     3.9740     2.2710 
   93.3750    92.4930    -5.0710    -6.2930   -15.0130    79.5450     4.7660     5.6360     3.9170     2.2810 
   93.5000    92.6110    -5.0980    -6.3250   -14.8710    82.1020     5.6770     6.9400     4.1140     2.3050 
   93.6250    92.7290    -5.1240    -6.3570   -14.7130    79.3030     7.3160     9.2700     5.3180     2.3500 
   93.7500    92.8470    -5.1510    -6.3890   -14.5630    74.1040     9.1400    11.8170     7.5280     2.4000 
   93.8750    92.9640    -5.1780    -6.4220   -14.4510    68.9260    10.1550    13.1490     9.5080     2.4270 
   94.0000    93.0820    -5.2050    -6.4540   -14.3940    65.1720     9.8450    12.5960    10.0000     2.4150 
   94.1250    93.2000    -5.2320    -6.4860   -14.4010    65.1550     8.2780    10.3680     8.5840     2.3690 
   94.2500    93.3170    -5.2590    -6.5190   -14.4510    69.9170     6.5300     7.9530     6.4720     2.3180 
   94.3750    93.4350    -5.2860    -6.5510   -14.5150    76.3570     5.2620     6.3440     4.9650     2.2810 
   94.5000    93.5530    -5.3130    -6.5840   -14.5600    79.4650     4.8240     5.9110     4.4850     2.2570 
   94.6250    93.6700    -5.3410    -6.6160   -14.5640    79.5230     4.8760     6.1340     4.6170     2.2360 
   94.7500    93.7880    -5.3680    -6.6490   -14.5290    78.8440     5.2620     6.7470     4.7180     2.2130 
   94.8750    93.9050    -5.3960    -6.6810   -14.4690    78.2240     5.7780     7.4910     4.9880     2.1920 
   95.0000    94.0230    -5.4240    -6.7140   -14.4110    76.7570     6.2720     8.1830     5.3810     2.1770 
   95.1250    94.1400    -5.4510    -6.7470   -14.3820    75.4920     6.6610     8.6930     5.6840     2.1680 
   95.2500    94.2570    -5.4790    -6.7800   -14.3980    74.4460     6.8720     8.9580     6.0450     2.1660 
   95.3750    94.3750    -5.5060    -6.8130   -14.4620    73.6200     6.9100     8.9440     6.2460     2.1700 
   95.5000    94.4920    -5.5340    -6.8460   -14.5570    72.8620     6.7340     8.6160     6.2230     2.1800 
   95.6250    94.6090    -5.5620    -6.8790   -14.6550    72.2800     6.4020     8.1140     6.1380     2.1920 
   95.7500    94.7260    -5.5900    -6.9130   -14.7320    72.3700     6.1010     7.6600     6.1320     2.2030 
   95.8750    94.8440    -5.6180    -6.9460   -14.7720    74.3200     5.9390     7.4600     6.0610     2.2070 
   96.0000    94.9610    -5.6460    -6.9790   -14.7760    78.1890     6.0020     7.5900     5.6970     2.2030 
   96.1250    95.0780    -5.6740    -7.0130   -14.7480    80.6760     6.2950     8.0590     5.8230     2.1920 
   96.2500    95.1950    -5.7020    -7.0470   -14.7030    79.0860     6.7340     8.7370     7.0320     2.1800 
   96.3750    95.3120    -5.7310    -7.0800   -14.6540    76.2510     7.1420     9.3520     8.2080     2.1720 
   96.5000    95.4290    -5.7590    -7.1140   -14.6140    74.4340     7.3150     9.5840     8.0450     2.1680 
   96.6250    95.5460    -5.7870    -7.1480   -14.5910    74.8710     7.0600     9.2080     7.3320     2.1740 
   96.7500    95.6630    -5.8160    -7.1820   -14.5750    75.2650     6.5190     8.4100     7.1590     2.1890 
   96.8750    95.7790    -5.8440    -7.2160   -14.5530    75.2260     5.9280     7.5500     6.9110     2.2120 
   97.0000    95.8960    -5.8730    -7.2510   -14.5080    76.6860     5.4270     6.8490     6.1720     2.2320 
   97.1250    96.0130    -5.9010    -7.2850   -14.4370    80.4450     5.1550     6.4850     5.3870     2.2470 
   97.2500    96.1300    -5.9300    -7.3190   -14.3510    84.0570     5.0830     6.4510     4.9580     2.2600 
   97.3750    96.2460    -5.9590    -7.3540   -14.2660    85.9890     5.2820     6.7810     4.8880     2.2730 
   97.5000    96.3630    -5.9870    -7.3890   -14.1940    87.2740     5.6640     7.3390     5.0920     2.2780 
   97.6250    96.4790    -6.0160    -7.4230   -14.1450    86.3450     6.0930     7.9230     5.4910     2.2670 
   97.7500    96.5960    -6.0450    -7.4580   -14.1150    82.1360     6.4070     8.2920     5.8550     2.2440 
