~V
VERS. 2.00: Ver 2.00
~W
STRT.M 32.0000:
STOP.M 275.0000:
STEP.M 0.1250:
NULL. -999.2500:
UWI. FD10902:
~C
DEPT.M :
TVD. :
DX. :
DY. :
SP.MV :
GR.API :
RI. :
RML.OHMM :
RXO.OHMM :
DEN.GM/CC :
~A
# ...
  269.2500   251.5660    78.1470   -24.0930    -1.4770    30.7760     2.9570     3.5680     3.1260     2.2770 
  269.3750   251.6760    78.2020   -24.1120    -1.4770    30.7760     2.9570     3.5630     3.1470     2.2820 
  269.5000   251.7860    78.2580   -24.1310    -1.4770    30.7760     2.9570     3.5610     3.2110     2.2820 
  269.6250   251.8970    78.3140   -24.1490    -1.4770    30.7760     2.9540     3.5600     3.3050     2.2800 
  269.7500   252.0070    78.3700   -24.1680    -1.4770    30.7760     2.9540     3.5620     3.3160     2.2810 
  269.8750   252.1170    78.4260   -24.1870    -1.4770    30.7760     2.9540     3.5630     3.2750     2.2820 
  270.0000   252.2270    78.4820   -24.2060    -1.4770    30.7760     2.9540     3.5630     3.2570     2.2850 
  270.1250   252.3370    78.5380   -24.2250    -1.4770    30.7760     2.9570     3.5630     3.2260     2.2780 
  270.2500   252.4470    78.5940   -24.2440    -1.4770    30.7760     2.9570     3.5630     3.1840     2.2740 
  270.3750   252.5580    78.6500   -24.2630    -1.4770    30.7760     2.9570     3.5630     3.2020     2.2750 
  270.5000   252.6680    78.7060   -24.2810    -1.4770    30.7760     2.9570     3.5630     3.2560     2.2840 
  270.6250   252.7780    78.7620   -24.3000    -1.4770    30.7760     2.9570     3.5630     3.2580     2.2890 
  270.7500   252.8880    78.8180   -24.3190    -1.4770    30.7760     2.9570     3.5630     3.2230     2.2860 
  270.8750   252.9980    78.8730   -24.3380    -1.4770    30.7760     2.9570     3.5630     3.2210     2.2780 
  271.0000   253.1090    78.9290   -24.3570    -1.4770    30.7760     2.9570     3.5630     3.2500     2.2750 
  271.1250   253.2190    78.9850   -24.3760    -1.4770    30.7760     2.9570     3.5630     3.2690     2.2810 
  271.2500   253.3290    79.0410   -24.3940    -1.4770    30.7760     2.9570     3.5630     3.2750     2.2940 
  271.3750   253.4390    79.0970   -24.4130    -1.4770    30.7760     2.9570     3.5630     3.2570     2.3000 
  271.5000   253.5490    79.1530   -24.4320    -1.4770    30.7760     2.9570     3.5630     3.1890     2.2930 
  271.6250   253.6600    79.2090   -24.4510    -1.4770    30.7760     2.9570     3.5630     3.1440     2.2880 
  271.7500   253.7700    79.2650   -24.4700    -1.4770    30.7760     2.9570     3.5630     3.2090     2.2910 
  271.8750   253.8800    79.3210   -24.4890    -1.4770    30.7760     2.9570     3.5630     3.3450     2.3020 
  272.0000   253.9900    79.3770   -24.5080    -1.4770    30.7760     2.9570     3.5630     3.4520     2.3110 
  272.1250   254.1000    79.4330   -24.5260    -1.4770    30.7760     2.9570     3.5630     3.4260     2.3080 
  272.2500   254.2110    79.4890   -24.5450    -1.4770    30.7760     2.9570     3.5630     3.2530     2.2880 
  272.3750   254.3210    79.5440   -24.5640    -1.4770    30.7760     2.9570     3.5630     3.0840     2.2670 
  272.5000   254.4310    79.6000   -24.5830    -1.4770    30.7760     2.9570     3.5630     3.0070     2.2560 
  272.6250   254.5410    79.6560   -24.6020    -1.4770    30.7760     2.9570     3.5630     2.9940     2.2580 
  272.7500   254.6510    79.7120   -24.6210    -1.4770    30.7760     2.9570     3.5630     3.0090     2.2570 
  272.8750   254.7620    79.7680   -24.6400    -1.4770    30.7760     2.9570     3.5630     3.0160     2.2380 
  273.0000   254.8720    79.8240   -24.6580    -1.4770    30.7760     2.9570     3.5630     3.0140     2.1900 
  273.1250   254.9820    79.8800   -24.6770    -1.4770    30.7760     2.9570     3.5630     3.0140     2.1390 
  273.2500   255.0920    79.9360   -24.6960    -1.4770    30.7760     2.9570     3.5630     3.0140     2.1060 
  273.3750   255.2020    79.9920   -24.7150    -1.4770    30.7760     2.9570     3.5630     3.0140     2.0980 
  273.5000   255.3130    80.0480   -24.7340    -1.4770    30.7760     2.9570     3.5630     3.0140     2.0970 
  273.6250   255.4230    80.1040   -24.7530    -1.4770    30.7760     2.9570     3.5630     3.0140     2.0940 
  273.7500   255.5330    80.1600   -24.7720    -1.4770    30.7760     2.9570     3.5630     3.0140     2.0880 
  273.8750   255.6430    80.2150   -24.7900    -1.4770    30.7760     2.9570     3.5630     3.0140     2.0890 
  274.0000   255.7530    80.2710   -24.8090    -1.4770    30.7760     2.9570     3.5630     3.0140     2.0940 
  274.1250   255.8640    80.3270   -24.8280    -1.4770    30.7760     2.9570     3.5630     3.0140     2.1010 
  274.2500   255.9740    80.3830   -24.8470    -1.4770    30.7760     2.9570     3.5630     3.0140     2.0990 
  274.3750   256.0840    80.4390   -24.8660    -1.4770    30.7760     2.9570     3.5630     3.0140     2.0940 
  274.5000   256.1940    80.4950   -24.8850    -1.4770    30.7760     2.9570     3.5630     3.0140     2.0920 
  274.6250   256.3040    80.5510   -24.9040    -1.4770    30.7760     2.9570     3.5630     3.0140     2.0960 
  274.7500   256.4140    80.6070   -24.9220    -1.4770    30.7760     2.9570     3.5630     3.0140     2.1030 
  274.8750   256.5250    80.6630   -24.9410    -1.4770    30.7760     2.9570     3.5630     3.0140     2.1080 
  275.0000   256.6350    80.7190   -24.9600    -1.4770    30.7760     2.9570     3.5630     3.0140     2.1090 
