~V
VERS. 2.00: Ver 2.00
~W
STRT.M 33.0000:
STOP.M 273.0000:
STEP.M 0.1250:
NULL. -999.2500:
UWI. FD10880:
~C
DEPT.M :
TVD. :
DX. :
DY. :
SP.MV :
GR.API :
RI. :
RML.OHMM :
RXO.OHMM :
DEN.GM/CC :
~A
# ...
  151.6250   145.2920    32.7370     6.2720     1.3560    70.9270    10.8680    13.4540    10.8660     2.1010 
  151.7500   145.4020    32.7950     6.2830     0.0850    71.5290    10.9680    13.7100    10.7020     2.0990 
  151.8750   145.5120    32.8540     6.2940    -1.1730    69.3370    11.4040    14.4030    10.0140     2.0870 
  152.0000   145.6220    32.9120     6.3060    -1.9500    68.6390    12.0280    15.2880     9.9450     2.0730 
  152.1250   145.7320    32.9700     6.3170    -2.1060    69.1890    12.6530    16.0570    10.3450     2.0650 
  152.2500   145.8420    33.0280     6.3290    -1.7080    67.1830    13.1950    16.6180    12.7020     2.0670 
  152.3750   145.9520    33.0860     6.3400    -1.2820    63.9080    13.7010    17.1300    13.9920     2.0740 
  152.5000   146.0620    33.1440     6.3520    -1.0550    62.4750    14.2100    17.7220    16.6090     2.0810 
  152.6250   146.1730    33.2020     6.3630    -1.0210    63.0360    14.7450    18.4270    24.7780     2.0830 
  152.7500   146.2830    33.2600     6.3750    -1.3160    62.9370    15.0580    18.7860    27.3280     2.0810 
  152.8750   146.3930    33.3180     6.3860    -1.8350    61.9130    14.5230    17.9150    32.5920     2.0800 
  153.0000   146.5030    33.3760     6.3980    -2.5590    63.0580    13.0960    15.8510    37.7840     2.0860 
  153.1250   146.6130    33.4340     6.4090    -3.7270    65.4020    10.9020    12.8120    10.7320     2.1010 
  153.2500   146.7230    33.4920     6.4200    -5.3560    67.9180     8.6900     9.9200    10.5880     2.1290 
  153.3750   146.8340    33.5500     6.4320    -7.2160    70.5110     7.0350     7.8750    10.1860     2.1650 
  153.5000   146.9440    33.6080     6.4430    -9.2830    74.6610     5.9600     6.6400     8.7760     2.2000 
  153.6250   147.0540    33.6650     6.4550   -11.3630    80.4120     5.2800     5.9100     7.4890     2.2250 
  153.7500   147.1640    33.7230     6.4660   -12.8480    85.3000     4.8530     5.4810     7.2580     2.2390 
  153.8750   147.2740    33.7810     6.4770   -13.8420    89.7410     4.5540     5.1710     7.4140     2.2500 
  154.0000   147.3840    33.8390     6.4890   -14.6280    92.8520     4.3300     4.9220     6.6570     2.2610 
  154.1250   147.4950    33.8970     6.5000   -15.0520    93.8980     4.1400     4.7230     5.5060     2.2700 
  154.2500   147.6050    33.9550     6.5110   -14.8050    94.0770     4.0310     4.6350     5.0190     2.2750 
  154.3750   147.7150    34.0130     6.5220   -14.1740    93.5510     3.9920     4.6250     4.9090     2.2750 
  154.5000   147.8250    34.0710     6.5340   -13.5300    91.9770     3.9680     4.5990     4.8600     2.2740 
  154.6250   147.9350    34.1290     6.5450   -13.1430    90.8450     3.9740     4.5830     4.8640     2.2740 
  154.7500   148.0460    34.1870     6.5560   -13.2920    91.5090     4.1130     4.7020     4.9450     2.2750 
  154.8750   148.1560    34.2450     6.5670   -13.8990    90.3380     4.7440     5.4010     5.0610     2.2790 
  155.0000   148.2660    34.3030     6.5790   -14.5840    85.0930     6.1020     7.0960     5.1640     2.2970 
  155.1250   148.3760    34.3610     6.5900   -15.0730    77.4930     8.5520    10.2490    10.9580     2.3380 
  155.2500   148.4860    34.4190     6.6010   -15.0880    69.0450    12.5300    15.1340    26.4690     2.4020 
  155.3750   148.5960    34.4780     6.6130   -14.4620    60.8310    16.6800    20.1740    41.9870     2.4680 
  155.5000   148.7060    34.5360     6.6240   -13.4180    56.1820    19.6530    23.4750    50.2330     2.5030 
  155.6250   148.8160    34.5940     6.6350   -12.2950    55.1290    20.5310    24.1760    50.3890     2.4990 
  155.7500   148.9260    34.6520     6.6460   -11.1660    54.5160    19.4230    22.5900    41.8700     2.4660 
  155.8750   149.0360    34.7100     6.6580   -10.3080    54.0950    17.9000    20.5790    30.1690     2.4240 
  156.0000   149.1460    34.7680     6.6690    -9.8880    54.7730    17.0950    19.6830    23.3190     2.3880 
  156.1250   149.2560    34.8260     6.6810    -9.8000    56.6570    17.3330    20.1330    23.5970     2.3710 
  156.2500   149.3670    34.8840     6.6930    -9.9690    57.7550    18.5970    21.8300    24.1120     2.3860 
  156.3750   149.4770    34.9430     6.7040   -10.2300    56.3730    20.7350    24.6290    23.3510     2.4290 
  156.5000   149.5870    35.0010     6.7160   -10.3540    52.6360    23.3530    27.9030    28.2420     2.4810 
  156.6250   149.6970    35.0590     6.7280   -10.3560    49.4890    25.4350    30.3270    35.4890     2.5190 
  156.7500   149.8070    35.1170     6.7400   -10.4140    48.7300    26.1310    30.9880    40.3430     2.5320 
  156.8750   149.9170    35.1750     6.7510   -10.6240    50.2990    25.2730    29.5610    54.5380     2.5250 
  157.0000   150.0270    35.2330     6.7630   -10.9650    53.8130    23.0850    26.5490    86.6310     2.5000 
  157.1250   150.1370    35.2910     6.7740   -11.3800    56.9030    20.6130    23.3730   157.8220     2.4630 
  157.2500   150.2470    35.3490     6.7860   -11.7440    57.8750    18.5730    20.8560   234.9430     2.4270 
  157.3750   150.3570    35.4070     6.7970   -11.8140    56.8060    17.3840    19.5360   200.5640     2.4080 
  157.5000   150.4680    35.4650     6.8090   -11.4310    55.3100    17.1780    19.3990    94.0880     2.4140 
  157.6250   150.5780    35.5220     6.8200   -10.8040    53.9280    17.5850    19.9130    41.2600     2.4390 
  157.7500   150.6880    35.5800     6.8320   -10.1250    51.6900    18.1760    20.5570    30.8620     2.4680 
  157.8750   150.7980    35.6380     6.8430    -9.8070    50.4920    18.7300    21.0870    28.5470     2.4910 
  158.0000   150.9080    35.6960     6.8540   -10.0510    51.5920    19.2020    21.4530    28.1810     2.5020 
  158.1250   151.0190    35.7540     6.8660   -10.5290    53.3110    19.4900    21.5930    26.0860     2.5080 
  158.2500   151.1290    35.8120     6.8770   -11.0370    53.4740    19.7530    21.7260    26.7180     2.5150 
  158.3750   151.2390    35.8700     6.8890   -11.3700    52.3780    19.9710    21.8660    28.8880     2.5280 
  158.5000   151.3490    35.9280     6.9000   -11.1900    51.1380    20.2820    22.1370    29.2000     2.5390 
  158.6250   151.4590    35.9860     6.9120   -10.5760    49.9960    20.6830    22.5330    28.5460     2.5430 
  158.7500   151.5690    36.0440     6.9230    -9.9150    50.1220    21.0150    22.8500    32.4650     2.5390 
  158.8750   151.6800    36.1020     6.9350    -9.2170    51.3970    21.0900    22.9060    37.7170     2.5350 
  159.0000   151.7900    36.1590     6.9460    -8.5740    52.3260    20.7080    22.4380    36.7210     2.5340 
  159.1250   151.9000    36.2170     6.9580    -8.3080    51.8830    19.8840    21.4830    32.1420     2.5350 
  159.2500   152.0100    36.2750     6.9690    -8.2380    51.6310    18.6490    20.0630    29.1230     2.5370 
  159.3750   152.1200    36.3330     6.9800    -8.2540    52.4530    17.3390    18.6040    27.0370     2.5400 
  159.5000   152.2300    36.3910     6.9920    -8.3540    52.9660    16.1210    17.2990    24.0810     2.5390 
  159.6250   152.3400    36.4490     7.0040    -8.4670    52.3120    15.1440    16.2590    22.4820     2.5260 
  159.7500   152.4510    36.5080     7.0150    -8.5980    52.2480    14.5410    15.6340    22.7370     2.4990 
  159.8750   152.5610    36.5660     7.0270    -8.8640    53.6480    14.2340    15.3180    23.1120     2.4690 
  160.0000   152.6710    36.6240     7.0380    -9.3030    54.0380    14.1990    15.2900    23.7550     2.4520 
  160.1250   152.7810    36.6820     7.0490    -9.7900    52.8650    14.5130    15.6870    21.6770     2.4530 
  160.2500   152.8910    36.7400     7.0610   -10.2970    53.2420    15.0710    16.3450    19.9050     2.4630 
  160.3750   153.0010    36.7990     7.0730   -10.7660    53.9200    15.6490    16.9870    22.6230     2.4680 
  160.5000   153.1110    36.8570     7.0850   -10.9260    52.5690    15.9970    17.3350    25.8820     2.4630 
  160.6250   153.2210    36.9150     7.0960   -10.6240    51.3340    16.0310    17.2830    29.6600     2.4570 
