~V
VERS. 2.00: Ver 2.00
~W
STRT.M 25.0000:
STOP.M 295.0000:
STEP.M 0.1250:
NULL. -999.2500:
UWI. FD10906:
~C
DEPT.M :
TVD. :
DX. :
DY. :
SP.MV :
GR.API :
RI. :
RML.OHMM :
RXO.OHMM :
DEN.GM/CC :
~A
   25.0000    25.0000     0.0000     0.0000    77.4000    63.0690     0.2490     0.2430     0.3080     2.3300 
   25.1250    25.1250    -0.0040     0.0050    68.9270    70.0260     0.5820     0.7120     1.7350     2.3570 
   25.2500    25.2500    -0.0080     0.0100    58.5740    76.6340     1.1740     1.5790     2.8930     2.3490 
   25.3750    25.3750    -0.0120     0.0150    46.4630    83.8920     1.9910     2.6230     3.6610     2.3270 
   25.5000    25.4990    -0.0160     0.0200    33.4850    88.4980     2.9510     3.5200     5.2160     2.3100 
   25.6250    25.6240    -0.0200     0.0250    21.2760    88.9900     3.9410     4.1180     7.6420     2.2890 
   25.7500    25.7490    -0.0240     0.0310    11.3270    82.5360     4.8460     4.4690     9.0720     2.2360 
   25.8750    25.8740    -0.0280     0.0360     3.7600    74.3140     5.5670     4.7990     8.8500     2.1580 
   26.0000    25.9990    -0.0320     0.0410    -1.7710    67.8450     6.0350     5.1870     8.0160     2.0880 
   26.1250    26.1230    -0.0360     0.0470    -6.0840    66.4850     6.3130     5.5660     7.5720     2.0450 
   26.2500    26.2480    -0.0400     0.0520    -9.4600    68.2100     6.5320     5.9180     7.9050     2.0270 
   26.3750    26.3730    -0.0440     0.0570   -12.0210    70.0220     6.8200     6.2740     9.4440     2.0210 
   26.5000    26.4980    -0.0480     0.0630   -13.7440    70.1520     7.1620     6.6040    12.3650     2.0250 
   26.6250    26.6230    -0.0520     0.0680   -14.8170    69.8360     7.3960     6.8720    14.1530     2.0390 
   26.7500    26.7480    -0.0560     0.0740   -15.3550    70.8410     7.3420     7.0830    12.5120     2.0560 
   26.8750    26.8720    -0.0600     0.0790   -15.5200    72.8590     6.9790     7.1160     9.6610     2.0730 
   27.0000    26.9970    -0.0640     0.0850   -15.3450    75.6110     6.3870     6.8130     7.6820     2.0930 
   27.1250    27.1220    -0.0690     0.0900   -14.8780    81.3470     5.7500     6.3580     6.3520     2.1200 
   27.2500    27.2470    -0.0730     0.0960   -14.1410    89.6180     5.2190     6.0080     5.6650     2.1530 
   27.3750    27.3720    -0.0770     0.1010   -13.2650    98.3000     4.8600     5.8110     5.4680     2.1800 
   27.5000    27.4960    -0.0820     0.1070   -12.4360   102.7060     4.7090     5.7590     5.2540     2.2020 
   27.6250    27.6210    -0.0860     0.1120   -11.8330   105.0610     4.7660     5.9010     4.9980     2.2230 
   27.7500    27.7460    -0.0900     0.1180   -11.6050   105.2240     5.0580     6.3400     5.2310     2.2420 
   27.8750    27.8710    -0.0950     0.1240   -11.7670   101.6450     5.5440     7.0370     6.4700     2.2490 
   28.0000    27.9960    -0.0990     0.1300   -12.3850    93.1370     6.1630     7.8490     8.4210     2.2380 
   28.1250    28.1200    -0.1040     0.1350   -13.4480    82.2640     6.7760     8.5830     9.6940     2.2110 
   28.2500    28.2450    -0.1080     0.1410   -14.9590    73.4180     7.2260     9.0930     9.6030     2.1730 
   28.3750    28.3700    -0.1130     0.1470   -16.7460    67.7800     7.4310     9.3230     9.1270     2.1350 
   28.5000    28.4950    -0.1180     0.1530   -18.5680    65.0640     7.3880     9.2750     8.9430     2.1070 
   28.6250    28.6190    -0.1220     0.1590   -20.1780    63.9870     7.2140     9.0800     8.8660     2.0930 
   28.7500    28.7440    -0.1270     0.1650   -21.3950    63.5380     7.0250     8.8680     8.7360     2.0890 
   28.8750    28.8690    -0.1320     0.1710   -22.2310    63.7720     6.8970     8.7250     8.6170     2.0890 
   29.0000    28.9940    -0.1360     0.1770   -22.7400    64.6660     6.8550     8.6780     8.6100     2.0920 
   29.1250    29.1190    -0.1410     0.1830   -23.0430    65.6880     6.8780     8.7040     8.6950     2.0960 
   29.2500    29.2430    -0.1460     0.1890   -23.1930    66.3830     6.9370     8.7690     8.7730     2.0990 
   29.3750    29.3680    -0.1510     0.1950   -23.2220    67.4540     6.9850     8.8230     8.7540     2.1000 
   29.5000    29.4930    -0.1560     0.2010   -23.1100    70.2660     6.9710     8.8080     8.6140     2.0990 
   29.6250    29.6180    -0.1610     0.2080   -22.8520    72.8110     6.8610     8.6850     8.4270     2.0980 
   29.7500    29.7420    -0.1660     0.2140   -22.4070    75.6610     6.6270     8.4230     8.2170     2.1000 
   29.8750    29.8670    -0.1710     0.2200   -21.7780    78.1440     6.2940     8.0490     7.8590     2.1080 
   30.0000    29.9920    -0.1760     0.2270   -20.9540    82.8540     5.9070     7.6160     7.2040     2.1280 
   30.1250    30.1160    -0.1810     0.2330   -19.9860    87.8460     5.5380     7.2030     6.4780     2.1600 
   30.2500    30.2410    -0.1860     0.2390   -18.9470    92.5510     5.2750     6.9080     6.0630     2.1950 
   30.3750    30.3660    -0.1920     0.2460   -17.9720    97.2160     5.1810     6.8030     5.9170     2.2200 
   30.5000    30.4910    -0.1970     0.2520   -17.2380    97.9440     5.2960     6.9310     5.8550     2.2270 
   30.6250    30.6150    -0.2020     0.2590   -16.8590    94.7820     5.5620     7.2300     6.1490     2.2170 
   30.7500    30.7400    -0.2080     0.2650   -16.9170    86.5110     5.9080     7.6170     7.1690     2.1990 
   30.8750    30.8650    -0.2130     0.2720   -17.3330    81.5900     6.2490     7.9990     8.1540     2.1820 
   31.0000    30.9890    -0.2190     0.2790   -18.0080    81.7620     6.5380     8.3230     8.1820     2.1750 
   31.1250    31.1140    -0.2240     0.2850   -18.7850    86.0710     6.7840     8.5980     7.9740     2.1800 
   31.2500    31.2390    -0.2300     0.2920   -19.5520    87.2790     7.0190     8.8620     8.4780     2.1890 
   31.3750    31.3640    -0.2360     0.2990   -20.2520    84.5800     7.2790     9.1530     9.1610     2.1920 
   31.5000    31.4880    -0.2410     0.3060   -20.8760    78.5200     7.5630     9.4710     9.3600     2.1840 
   31.6250    31.6130    -0.2470     0.3130   -21.4540    72.4090     7.8130     9.7510     9.3720     2.1700 
   31.7500    31.7380    -0.2530     0.3200   -21.9890    67.7230     7.9460     9.9000     9.5240     2.1570 
   31.8750    31.8620    -0.2590     0.3270   -22.4650    64.6870     7.9420     9.8950     9.6810     2.1450 
   32.0000    31.9870    -0.2650     0.3340   -22.8500    64.1080     7.8270     9.7660     9.6300     2.1370 
   32.1250    32.1120    -0.2710     0.3410   -23.1420    65.2740     7.6720     9.5930     9.4040     2.1330 
   32.2500    32.2360    -0.2770     0.3480   -23.3470    66.8480     7.5260     9.4290     9.2800     2.1300 
   32.3750    32.3610    -0.2830     0.3560   -23.4950    67.0320     7.4130     9.3020     9.4470     2.1260 
   32.5000    32.4850    -0.2890     0.3630   -23.6080    65.8340     7.3430     9.2240     9.6820     2.1210 
   32.6250    32.6100    -0.2950     0.3700   -23.7060    65.1030     7.3120     9.1900     9.7120     2.1170 
   32.7500    32.7350    -0.3010     0.3780   -23.7990    65.3720     7.3150     9.1930     9.6620     2.1180 
   32.8750    32.8590    -0.3080     0.3850   -23.8900    66.1840     7.3420     9.2230     9.7070     2.1270 
   33.0000    32.9840    -0.3140     0.3920   -23.9700    66.0230     7.3850     9.2710     9.7810     2.1430 
   33.1250    33.1080    -0.3210     0.4000   -24.0360    66.0710     7.4310     9.3220     9.8610     2.1570 
   33.2500    33.2330    -0.3280     0.4080   -24.0860    65.8480     7.4660     9.3620     9.9530     2.1620 
   33.3750    33.3580    -0.3350     0.4150   -24.1320    66.9970     7.4880     9.3870     9.9560     2.1610 
   33.5000    33.4820    -0.3410     0.4230   -24.1860    66.7840     7.5030     9.4030     9.8450     2.1560 
   33.6250    33.6070    -0.3480     0.4310   -24.2620    66.8520     7.5120     9.4140     9.7610     2.1490 
   33.7500    33.7310    -0.3550     0.4390   -24.3700    65.5250     7.5060     9.4070     9.8660     2.1360 
   33.8750    33.8560    -0.3620     0.4470   -24.5070    63.6690     7.4720     9.3690    10.1040     2.1230 
   34.0000    33.9800    -0.3700     0.4550   -24.6650    62.0250     7.3980     9.2860    10.1090     2.1140 
