~V
VERS. 2.00: Ver 2.00
~W
STRT.M 27.0000:
STOP.M 267.0000:
STEP.M 0.1250:
NULL. -999.2500:
UWI. FD10204:
~C
DEPT.M :
TVD. :
DX. :
DY. :
GR.API :
RML.OHMM :
RI. :
RXO.OHMM :
CALI.CM :
SP.MV :
DEN.GM/CC :
~A
# ...
  225.0000   217.1150   -16.8470   -43.8230    58.0490    86.3640    74.7960    12.4300    23.0840   -29.7430     2.2370 
  225.1250   217.2310   -16.8650   -43.8660    54.7220    95.8230    81.5920    13.7000    23.0850   -29.6610     2.2450 
  225.2500   217.3470   -16.8830   -43.9080    54.5750   104.8420    88.2380    15.6560    23.0830   -29.5410     2.2510 
  225.3750   217.4630   -16.9010   -43.9500    55.7710   110.8250    93.1890    17.3700    23.0850   -29.4360     2.2510 
  225.5000   217.5790   -16.9200   -43.9930    57.2110   110.9690    94.7420    18.9220    23.0880   -29.3580     2.2430 
  225.6250   217.6950   -16.9380   -44.0350    59.3100   103.5370    91.3260    19.9730    23.0860   -29.2900     2.2380 
  225.7500   217.8120   -16.9560   -44.0780    62.3230    92.6730    84.7760    20.0470    23.0820   -29.2110     2.2450 
  225.8750   217.9280   -16.9740   -44.1200    63.8870    82.0310    77.2330    19.2350    23.0810   -29.1080     2.2600 
  226.0000   218.0440   -16.9930   -44.1620    61.4340    73.7840    70.6200    18.1000    23.0840   -28.9960     2.2740 
  226.1250   218.1600   -17.0110   -44.2050    58.6370    68.7380    66.3100    17.3170    23.0890   -28.9140     2.2720 
  226.2500   218.2760   -17.0290   -44.2470    60.2710    65.6840    63.9190    17.6820    23.0900   -28.8680     2.2580 
  226.3750   218.3920   -17.0480   -44.2900    63.1640    63.8180    62.8580    17.6700    23.0850   -28.8490     2.2400 
  226.5000   218.5090   -17.0660   -44.3320    62.9340    62.5240    62.4490    17.7550    23.0810   -28.8550     2.2230 
  226.6250   218.6250   -17.0840   -44.3740    59.9100    61.4130    62.0810    18.4570    23.0860   -28.9080     2.2110 
  226.7500   218.7410   -17.1020   -44.4170    58.4800    60.4090    61.5300    19.4750    23.0880   -28.9730     2.2040 
  226.8750   218.8570   -17.1210   -44.4590    58.6400    59.7700    61.0130    20.4490    23.0810   -29.0200     2.2050 
  227.0000   218.9730   -17.1390   -44.5010    58.9550    59.8460    60.9440    20.9900    23.0990   -29.0430     2.2200 
  227.1250   219.0890   -17.1570   -44.5440    58.8270    60.9660    61.7490    21.2390    23.1870   -29.0150     2.2490 
  227.2500   219.2060   -17.1750   -44.5860    60.4620    62.8370    63.2290    21.8450    23.2970   -28.9570     2.2850 
  227.3750   219.3220   -17.1940   -44.6290    63.9960    65.1390    65.0810    22.4190    23.3700   -28.9170     2.3170 
  227.5000   219.4380   -17.2120   -44.6710    66.0370    67.5290    66.9770    22.9040    23.3900   -28.8950     2.3360 
  227.6250   219.5540   -17.2300   -44.7130    65.7220    69.7980    68.6960    23.5220    23.3840   -28.8190     2.3300 
  227.7500   219.6700   -17.2480   -44.7560    65.4220    72.1910    70.4070    23.8160    23.3800   -28.6480     2.3060 
  227.8750   219.7860   -17.2670   -44.7980    64.4850    75.2040    72.4990    23.1380    23.3800   -28.4580     2.2710 
  228.0000   219.9030   -17.2850   -44.8400    62.0460    79.1870    75.3040    22.5720    23.3810   -28.3140     2.2370 
  228.1250   220.0190   -17.3030   -44.8830    60.0710    83.7460    78.6370    22.9670    23.3780   -28.2360     2.2180 
  228.2500   220.1350   -17.3210   -44.9250    59.3670    87.2200    81.3060    23.8640    23.3630   -28.2100     2.2120 
  228.3750   220.2510   -17.3400   -44.9680    58.7180    87.9480    82.0580    24.9420    23.3420   -28.1790     2.2170 
  228.5000   220.3670   -17.3580   -45.0100    58.9790    85.2710    80.2530    25.3640    23.3300   -28.0870     2.2260 
  228.6250   220.4830   -17.3760   -45.0520    60.3090    80.1810    76.3290    24.7670    23.2630   -27.9700     2.2340 
  228.7500   220.6000   -17.3940   -45.0950    60.0160    75.4380    72.3090    24.9830    23.0670   -27.9040     2.2310 
  228.8750   220.7160   -17.4130   -45.1370    58.4490    72.6800    69.5830    27.5670    22.8070   -27.8790     2.2090 
  229.0000   220.8320   -17.4310   -45.1800    58.3500    72.5670    68.8880    31.6680    22.7660   -27.8850     2.1750 
  229.1250   220.9480   -17.4490   -45.2220    60.2980    75.3690    70.6270    30.3770    23.2730   -27.8740     2.1700 
  229.2500   221.0640   -17.4670   -45.2640    61.6270    80.0840    74.0330    28.3980    24.0080   -27.8260     2.2290 
  229.3750   221.1810   -17.4860   -45.3070    62.3100    86.0490    78.5270    28.0750    24.5420   -27.7650     2.3420 
  229.5000   221.2970   -17.5040   -45.3490    62.3410    92.5170    83.4300    29.6970    24.7110   -27.7610     2.4390 
  229.6250   221.4130   -17.5220   -45.3910    60.8940    98.4560    87.8720    32.5030    24.6820   -27.8220     2.4320 
  229.7500   221.5290   -17.5400   -45.4340    58.4880   102.7830    91.1130    34.5880    24.6740   -27.9170     2.3490 
  229.8750   221.6450   -17.5590   -45.4760    57.6730   104.1880    92.3520    35.4030    24.6750   -28.0340     2.2480 
  230.0000   221.7610   -17.5770   -45.5190    59.1010   101.4100    90.7680    36.6720    24.6710   -28.1450     2.1740 
  230.1250   221.8780   -17.5950   -45.5610    60.1330    93.6820    85.6070    33.8370    24.6580   -28.2640     2.1470 
  230.2500   221.9940   -17.6130   -45.6030    60.4870    83.6720    78.4190    30.2180    24.6190   -28.3880     2.1470 
  230.3750   222.1100   -17.6320   -45.6460    60.7700    73.8760    70.8850    27.7750    24.5440   -28.5130     2.1560 
  230.5000   222.2260   -17.6500   -45.6880    61.2090    66.0180    64.4330    28.1200    24.4630   -28.6380     2.1670 
  230.6250   222.3420   -17.6680   -45.7300    61.3060    60.7660    59.8630    29.2700    24.4330   -28.7550     2.1800 
  230.7500   222.4580   -17.6870   -45.7730    60.3360    56.8360    56.4100    30.3500    24.4440   -28.8540     2.1940 
  230.8750   222.5750   -17.7050   -45.8150    60.2050    53.2250    53.3320    30.8520    24.4560   -28.8660     2.2090 
  231.0000   222.6910   -17.7230   -45.8580    62.9820    49.3450    50.1280    31.6190    24.4510   -28.7710     2.2230 
  231.1250   222.8070   -17.7410   -45.9000    68.2730    45.1750    46.6800    30.2290    24.4310   -28.6560     2.2310 
  231.2500   222.9230   -17.7600   -45.9420    70.5680    41.1460    43.2490    27.9210    24.4520   -28.5660     2.2340 
  231.3750   223.0390   -17.7780   -45.9850    69.1730    37.5920    40.0880    25.6670    24.5730   -28.4760     2.2380 
  231.5000   223.1550   -17.7960   -46.0270    67.3020    34.6710    37.3620    23.4860    24.7690   -28.3370     2.2460 
  231.6250   223.2720   -17.8140   -46.0700    67.4040    32.4800    35.2170    21.9940    24.9160   -28.1500     2.2600 
  231.7500   223.3880   -17.8320   -46.1120    68.6390    30.9040    33.6040    21.4220    24.9480   -27.9390     2.2780 
  231.8750   223.5040   -17.8500   -46.1550    69.7450    30.0160    32.5960    21.0100    24.8770   -27.7600     2.2970 
  232.0000   223.6200   -17.8690   -46.1980    70.7700    29.9090    32.2800    21.8740    24.7320   -27.6460     2.3150 
  232.1250   223.7360   -17.8870   -46.2410    69.5110    30.6180    32.7420    23.2960    24.5820   -27.5650     2.3350 
  232.2500   223.8520   -17.9050   -46.2840    66.4740    31.6470    33.5700    23.1970    24.5280   -27.4830     2.3570 
  232.3750   223.9680   -17.9230   -46.3270    64.2860    32.4480    34.2660    23.0140    24.5750   -27.4210     2.3740 
  232.5000   224.0840   -17.9410   -46.3700    64.8050    32.5220    34.3490    23.3150    24.6360   -27.3940     2.3810 
  232.6250   224.2000   -17.9590   -46.4130    66.0180    31.8230    33.6630    23.3820    24.6200   -27.3960     2.3730 
  232.7500   224.3160   -17.9770   -46.4560    65.5800    31.2870    32.8760    23.1300    24.5830   -27.4300     2.3540 
  232.8750   224.4320   -17.9950   -46.4990    64.6090    31.8050    32.7070    22.1670    24.5930   -27.4830     2.3320 
  233.0000   224.5480   -18.0130   -46.5420    63.8880    34.0350    33.7620    21.3200    24.6450   -27.5270     2.3140 
  233.1250   224.6640   -18.0310   -46.5850    61.6870    38.8320    36.7560    24.5420    24.6750   -27.5320     2.3090 
