~V
VERS. 2.00: Ver 2.00
~W
STRT.M 30.0000:
STOP.M 223.0000:
STEP.M 0.1250:
NULL. -999.2500:
UWI. FD10814:
~C
DEPT.M :
TVD. :
DX. :
DY. :
SP.MV :
GR.API :
RI. :
RML.OHMM :
RXO.OHMM :
DEN.GM/CC :
~A
# ...
  212.5000   198.0020    -2.4410    61.5980    -1.3110    60.3440     6.0460     7.3240     9.5870     2.3650 
  212.6250   198.1100    -2.4460    61.6610    -1.3110    60.8020     6.0500     7.3300     8.5380     2.3750 
  212.7500   198.2180    -2.4510    61.7230    -1.3110    60.9350     6.0510     7.3410     7.8160     2.3770 
  212.8750   198.3260    -2.4560    61.7860    -1.3110    60.7700     6.0800     7.3760     7.1150     2.3680 
  213.0000   198.4340    -2.4610    61.8480    -1.3110    60.4830     6.1250     7.4350     6.6690     2.3580 
  213.1250   198.5420    -2.4660    61.9110    -1.3110    60.0400     6.2000     7.5130     7.9240     2.3510 
  213.2500   198.6510    -2.4710    61.9730    -1.3110    60.0550     6.2440     7.5840     8.5230     2.3510 
  213.3750   198.7590    -2.4760    62.0360    -1.3110    60.1780     6.3250     7.6540     7.2690     2.3510 
  213.5000   198.8670    -2.4810    62.0980    -1.3110    60.2210     6.3720     7.7020     6.6070     2.3530 
  213.6250   198.9750    -2.4860    62.1610    -1.3110    60.7010     6.4170     7.7490     6.6510     2.3570 
  213.7500   199.0830    -2.4910    62.2230    -1.3110    61.2230     6.4580     7.7760     6.7280     2.3640 
  213.8750   199.1910    -2.4970    62.2860    -1.3110    61.4230     6.4620     7.7790     7.1850     2.3670 
  214.0000   199.2990    -2.5020    62.3480    -1.3110    60.2700     6.4710     7.7760     7.7800     2.3670 
  214.1250   199.4080    -2.5070    62.4110    -1.3110    58.6630     6.4780     7.7740    12.5640     2.3600 
  214.2500   199.5160    -2.5120    62.4730    -1.3110    57.3850     6.4790     7.7740    16.7500     2.3540 
  214.3750   199.6240    -2.5170    62.5360    -1.3110    57.7620     6.4790     7.7690    11.4580     2.3460 
  214.5000   199.7320    -2.5220    62.5980    -1.3110    59.6050     6.4790     7.7650     6.5470     2.3430 
  214.6250   199.8400    -2.5270    62.6610    -1.3110    61.8300     6.4790     7.7590     6.6450     2.3410 
  214.7500   199.9480    -2.5320    62.7230    -1.3110    63.7010     6.4790     7.7530     6.7950     2.3420 
  214.8750   200.0560    -2.5370    62.7860    -1.3110    64.7800     6.4790     7.7520     6.7570     2.3490 
  215.0000   200.1650    -2.5420    62.8480    -1.3110    65.4840     6.4790     7.7550     6.3950     2.3610 
  215.1250   200.2730    -2.5470    62.9100    -1.3110    65.6430     6.4790     7.7600     6.7200     2.3740 
  215.2500   200.3810    -2.5530    62.9730    -1.3110    65.6430     6.4800     7.7660     7.7840     2.3760 
  215.3750   200.4890    -2.5580    63.0350    -1.3110    65.6430     6.4810     7.7700     8.2780     2.3670 
  215.5000   200.5970    -2.5630    63.0980    -1.3110    65.6430     6.4810     7.7740     7.8610     2.3540 
  215.6250   200.7050    -2.5680    63.1600    -1.3110    65.6430     6.4820     7.7810     7.4200     2.3420 
  215.7500   200.8130    -2.5730    63.2230    -1.3110    65.6430     6.4810     7.7870     7.5120     2.3350 
  215.8750   200.9220    -2.5780    63.2850    -1.3110    65.6430     6.4810     7.7910     7.0860     2.3400 
  216.0000   201.0300    -2.5830    63.3480    -1.3110    65.6430     6.4800     7.7920     6.2660     2.3590 
  216.1250   201.1380    -2.5880    63.4100    -1.3110    65.6430     6.4800     7.7910     6.5370     2.3780 
  216.2500   201.2460    -2.5930    63.4730    -1.3110    65.6430     6.4800     7.7930     6.5690     2.3760 
  216.3750   201.3540    -2.5980    63.5350    -1.3110    65.6430     6.4800     7.7990     5.5560     2.3520 
  216.5000   201.4620    -2.6030    63.5980    -1.3110    65.6430     6.4800     7.8040     5.3350     2.3270 
  216.6250   201.5700    -2.6090    63.6600    -1.3110    65.6430     6.4800     7.8100     5.9780     2.3240 
  216.7500   201.6790    -2.6140    63.7230    -1.3110    65.6430     6.4800     7.8130     6.0590     2.3380 
  216.8750   201.7870    -2.6190    63.7850    -1.3110    65.6430     6.4800     7.8140     5.7670     2.3610 
  217.0000   201.8950    -2.6240    63.8480    -1.3110    65.6430     6.4800     7.8150     5.7880     2.3810 
  217.1250   202.0030    -2.6290    63.9100    -1.3110    65.6430     6.4800     7.8150     5.4930     2.3880 
  217.2500   202.1110    -2.6340    63.9730    -1.3110    65.6430     6.4800     7.8150     5.0140     2.3850 
  217.3750   202.2190    -2.6390    64.0350    -1.3110    65.6430     6.4790     7.8160     4.9790     2.3800 
  217.5000   202.3270    -2.6440    64.0980    -1.3110    65.6430     6.4790     7.8160     5.0870     2.3790 
  217.6250   202.4360    -2.6490    64.1600    -1.3110    65.6430     6.4790     7.8160     5.3560     2.3730 
  217.7500   202.5440    -2.6540    64.2230    -1.3110    65.6430     6.4790     7.8160     5.3560     2.3620 
  217.8750   202.6520    -2.6590    64.2850    -1.3110    65.6430     6.4790     7.8160     6.1740     2.3550 
  218.0000   202.7600    -2.6650    64.3480    -1.3110    65.6430     6.4790     7.8160    12.2210     2.3500 
  218.1250   202.8680    -2.6700    64.4100    -1.3110    65.6430     6.4790     7.8160    16.5230     2.3370 
  218.2500   202.9760    -2.6750    64.4720    -1.3110    65.6430     6.4790     7.8160    10.5170     2.3110 
  218.3750   203.0850    -2.6800    64.5350    -1.3110    65.6430     6.4790     7.8160     4.8880     2.2880 
  218.5000   203.1930    -2.6850    64.5970    -1.3110    65.6430     6.4790     7.8160     4.3190     2.2720 
  218.6250   203.3010    -2.6900    64.6600    -1.3110    65.6430     6.4790     7.8160     4.0710     2.2490 
  218.7500   203.4090    -2.6950    64.7220    -1.3110    65.6430     6.4790     7.8160     4.0360     2.2070 
  218.8750   203.5170    -2.7000    64.7850    -1.3110    65.6430     6.4790     7.8160     4.1520     2.1520 
  219.0000   203.6250    -2.7050    64.8470    -1.3110    65.6430     6.4790     7.8160     4.0090     2.1070 
  219.1250   203.7330    -2.7100    64.9100    -1.3110    65.6430     6.4790     7.8160     3.7290     2.0800 
  219.2500   203.8420    -2.7150    64.9720    -1.3110    65.6430     6.4790     7.8160     3.6180     2.0710 
  219.3750   203.9500    -2.7210    65.0350    -1.3110    65.6430     6.4790     7.8160     3.6180     2.0780 
  219.5000   204.0580    -2.7260    65.0970    -1.3110    65.6430     6.4790     7.8160     3.6180     2.0910 
  219.6250   204.1660    -2.7310    65.1600    -1.3110    65.6430     6.4790     7.8160     3.6170     2.0950 
  219.7500   204.2740    -2.7360    65.2220    -1.3110    65.6430     6.4790     7.8160     3.6170     2.0870 
  219.8750   204.3820    -2.7410    65.2850    -1.3110    65.6430     6.4790     7.8160     3.6170     2.0760 
  220.0000   204.4900    -2.7460    65.3470    -1.3110    65.6430     6.4790     7.8160     3.6170     2.0770 
  220.1250   204.5990    -2.7510    65.4100    -1.3110    65.6430     6.4790     7.8160     3.6170     2.0870 
  220.2500   204.7070    -2.7560    65.4720    -1.3110    65.6430     6.4790     7.8160     3.6170     2.0940 
  220.3750   204.8150    -2.7610    65.5350    -1.3110    65.6430     6.4790     7.8160     3.6170     2.0950 
  220.5000   204.9230    -2.7660    65.5970    -1.3110    65.6430     6.4790     7.8160     3.6160     2.0930 
  220.6250   205.0310    -2.7710    65.6600    -1.3110    65.6430     6.4790     7.8160     3.6160     2.0940 
  220.7500   205.1390    -2.7770    65.7220    -1.3110    65.6430     6.4790     7.8160     3.6160     2.0900 
  220.8750   205.2470    -2.7820    65.7850    -1.3110    65.6430     6.4790     7.8160     3.6160     2.0860 
  221.0000   205.3560    -2.7870    65.8470    -1.3110    65.6430     6.4790     7.8160     3.6160     2.0850 
  221.1250   205.4640    -2.7920    65.9100    -1.3110    65.6430     6.4790     7.8160     3.6160     2.0910 
  221.2500   205.5720    -2.7970    65.9720    -1.3110    65.6430     6.4790     7.8160     3.6160     2.0910 
  221.3750   205.6800    -2.8020    66.0340    -1.3110    65.6430     6.4790     7.8160     3.6160     2.0880 
  221.5000   205.7880    -2.8070    66.0970    -1.3110    65.6430     6.4790     7.8160     3.6160     2.0850 
