~V
VERS. 2.00: Ver 2.00
~W
STRT.M 63.0000:
STOP.M 266.0000:
STEP.M 0.1250:
NULL. -999.2500:
UWI. FD10888:
~C
DEPT.M :
TVD. :
DX. :
DY. :
SP.MV :
GR.API :
RI. :
RML.OHMM :
RXO.OHMM :
DEN.GM/CC :
~A
# ...
  181.6250   180.9490    -5.8700    -7.1160   -22.6850    75.2110     1.8540     2.1860     1.9230     2.3690 
  181.7500   181.0700    -5.8870    -7.1380   -22.7000    73.8490     1.7920     2.1410     1.9250     2.3790 
  181.8750   181.1920    -5.9040    -7.1590   -22.7870    74.9130     1.7680     2.1330     1.9410     2.3830 
  182.0000   181.3140    -5.9210    -7.1810   -22.9110    75.2600     1.7910     2.1640     1.9640     2.3860 
  182.1250   181.4360    -5.9380    -7.2030   -23.0970    74.6020     1.8790     2.2750     2.0600     2.3920 
  182.2500   181.5580    -5.9550    -7.2250   -23.3640    74.8880     2.0560     2.4910     2.3620     2.4040 
  182.3750   181.6800    -5.9720    -7.2470   -23.6870    75.4190     2.4110     2.9830     2.8750     2.4190 
  182.5000   181.8020    -5.9900    -7.2690   -23.9830    73.9980     3.0860     3.9430     3.5160     2.4350 
  182.6250   181.9240    -6.0070    -7.2910   -24.1730    72.1520     4.1530     5.3170     4.5730     2.4540 
  182.7500   182.0450    -6.0240    -7.3130   -24.2250    68.1250     5.6430     7.1930     6.5120     2.4740 
  182.8750   182.1670    -6.0410    -7.3350   -24.2090    61.9900     7.4250     9.3120     9.4400     2.4880 
  183.0000   182.2890    -6.0590    -7.3570   -24.1010    57.8540     9.1330    11.2430    12.2220     2.4860 
  183.1250   182.4110    -6.0760    -7.3790   -23.9020    57.2350    10.3740    12.5780    13.8540     2.4600 
  183.2500   182.5330    -6.0940    -7.4010   -23.7030    58.4350    10.9620    13.0730    14.4690     2.4100 
  183.3750   182.6540    -6.1110    -7.4230   -23.5660    59.7530    10.9490    12.8710    13.8820     2.3480 
  183.5000   182.7760    -6.1290    -7.4450   -23.5350    60.3740    10.6490    12.4200    12.6050     2.2870 
  183.6250   182.8980    -6.1460    -7.4670   -23.5780    58.4860    10.3470    12.0520    11.9790     2.2360 
  183.7500   183.0200    -6.1640    -7.4900   -23.6110    57.4600    10.1580    11.8650    12.2940     2.1940 
  183.8750   183.1410    -6.1820    -7.5120   -23.6130    59.7670    10.0790    11.8190    12.8510     2.1650 
  184.0000   183.2630    -6.2000    -7.5340   -23.5690    64.0440    10.0000    11.6890    12.8260     2.1490 
  184.1250   183.3850    -6.2180    -7.5560   -23.5050    65.9490     9.7600    11.3420    11.8500     2.1440 
  184.2500   183.5060    -6.2360    -7.5780   -23.3700    64.3330     9.2710    10.7290    10.7480     2.1410 
  184.3750   183.6280    -6.2530    -7.6010   -23.2220    64.8380     8.6010     9.8900    10.2490     2.1350 
  184.5000   183.7500    -6.2710    -7.6230   -23.1210    68.7800     7.9200     9.0600     9.8030     2.1340 
  184.6250   183.8710    -6.2890    -7.6460   -23.0940    72.6180     7.3110     8.2910     8.8300     2.1410 
  184.7500   183.9930    -6.3070    -7.6680   -23.1730    73.7640     6.8130     7.6180     7.7490     2.1550 
  184.8750   184.1150    -6.3250    -7.6900   -23.3230    71.4200     6.4210     7.0890     7.1190     2.1730 
  185.0000   184.2360    -6.3440    -7.7130   -23.4660    68.2760     6.1340     6.7150     6.8530     2.1980 
  185.1250   184.3580    -6.3620    -7.7350   -23.5370    66.2680     5.9590     6.5180     6.5950     2.2340 
  185.2500   184.4800    -6.3800    -7.7570   -23.6440    66.3740     5.7910     6.3780     6.2850     2.2750 
  185.3750   184.6010    -6.3990    -7.7790   -23.8130    68.1010     5.5150     6.1410     6.1250     2.3050 
  185.5000   184.7230    -6.4170    -7.8010   -23.9580    69.1170     5.1210     5.7390     5.9340     2.3160 
  185.6250   184.8450    -6.4350    -7.8240   -24.0930    69.9780     4.6930     5.2430     5.3590     2.3070 
  185.7500   184.9660    -6.4540    -7.8460   -24.2040    68.8310     4.3680     4.8820     4.6250     2.2930 
  185.8750   185.0880    -6.4720    -7.8680   -24.3440    68.4190     4.2660     4.8170     4.1920     2.2800 
  186.0000   185.2100    -6.4900    -7.8900   -24.5850    69.3280     4.4140     5.0820     4.2430     2.2700 
  186.1250   185.3310    -6.5080    -7.9120   -24.8940    69.9470     4.8690     5.6940     4.8940     2.2590 
  186.2500   185.4530    -6.5270    -7.9350   -25.2170    69.9940     5.5570     6.4600     5.9650     2.2440 
  186.3750   185.5740    -6.5450    -7.9570   -25.4860    70.6050     6.2610     7.0700     6.9010     2.2240 
  186.5000   185.6960    -6.5630    -7.9790   -25.7070    72.1950     6.6680     7.2710     7.2570     2.2050 
  186.6250   185.8180    -6.5820    -8.0010   -25.9060    72.6910     6.5830     7.0030     7.1900     2.1910 
  186.7500   185.9390    -6.6000    -8.0230   -26.1090    72.0830     6.1300     6.4310     7.1730     2.1830 
  186.8750   186.0610    -6.6180    -8.0460   -26.3370    69.5570     5.6400     5.8900     7.0750     2.1800 
  187.0000   186.1830    -6.6360    -8.0680   -26.5680    67.4170     5.4000     5.6990     6.4450     2.1860 
  187.1250   186.3040    -6.6540    -8.0900   -26.8290    67.7550     5.5140     5.9280     5.6220     2.1970 
  187.2500   186.4260    -6.6730    -8.1130   -27.1020    67.6520     5.9390     6.4690     5.5830     2.2080 
  187.3750   186.5480    -6.6910    -8.1350   -27.2900    66.3340     6.5780     7.1620     6.5780     2.2080 
  187.5000   186.6690    -6.7090    -8.1570   -27.2970    65.2280     7.1650     7.7090     7.6220     2.2000 
  187.6250   186.7910    -6.7280    -8.1800   -27.1910    64.4220     7.3080     7.7300     7.9090     2.1960 
  187.7500   186.9120    -6.7460    -8.2020   -26.8480    64.1530     6.9450     7.2870     7.7920     2.2040 
  187.8750   187.0340    -6.7650    -8.2240   -26.4500    63.7960     6.1810     6.4550     7.6200     2.2220 
  188.0000   187.1560    -6.7830    -8.2470   -26.2120    63.7120     5.4070     5.5370     7.0940     2.2390 
  188.1250   187.2770    -6.8010    -8.2690   -26.0140    64.0280     4.8990     4.9260     6.4050     2.2460 
  188.2500   187.3990    -6.8200    -8.2920   -25.8370    66.8750     4.6910     4.7170     6.2290     2.2500 
  188.3750   187.5200    -6.8380    -8.3140   -25.6720    70.9360     4.7810     4.8870     6.2410     2.2600 
  188.5000   187.6420    -6.8570    -8.3370   -25.5810    72.1580     5.0270     5.2670     5.8920     2.2780 
  188.6250   187.7630    -6.8750    -8.3590   -25.5040    68.3340     5.2810     5.6010     5.5560     2.2950 
  188.7500   187.8850    -6.8940    -8.3820   -25.3390    63.5590     5.4440     5.7600     5.5770     2.2990 
  188.8750   188.0060    -6.9120    -8.4050   -24.9340    61.8420     5.4800     5.7730     5.7130     2.2840 
  189.0000   188.1280    -6.9310    -8.4270   -24.2620    63.6390     5.4740     5.7530     5.6780     2.2570 
  189.1250   188.2490    -6.9500    -8.4500   -23.4520    67.4150     5.4520     5.7200     5.5680     2.2310 
  189.2500   188.3710    -6.9680    -8.4720   -22.5440    71.8890     5.4090     5.6680     5.5670     2.2120 
  189.3750   188.4920    -6.9870    -8.4950   -21.9040    74.7760     5.3440     5.6110     5.6340     2.2030 
  189.5000   188.6140    -7.0060    -8.5180   -21.6270    74.5540     5.2710     5.5550     5.5990     2.2040 
  189.6250   188.7350    -7.0250    -8.5400   -21.5040    74.5410     5.1880     5.4890     5.3550     2.2140 
  189.7500   188.8570    -7.0440    -8.5630   -21.5440    76.1560     5.0930     5.4070     5.0920     2.2300 
  189.8750   188.9780    -7.0620    -8.5860   -21.6580    76.9290     5.0040     5.3110     4.9450     2.2570 
  190.0000   189.1000    -7.0810    -8.6080   -21.8130    76.6050     4.9590     5.2460     4.7420     2.2950 
  190.1250   189.2210    -7.1000    -8.6310   -22.0360    73.0690     5.0440     5.2690     4.6440     2.3360 
  190.2500   189.3430    -7.1190    -8.6540   -22.3510    67.3120     5.3330     5.5780     5.0780     2.3670 
  190.3750   189.4640    -7.1380    -8.6770   -22.7550    63.5680     5.8730     6.2460     5.9350     2.3750 
  190.5000   189.5860    -7.1560    -8.7000   -23.3090    63.5070     6.5770     7.1270     7.1180     2.3630 
  190.6250   189.7070    -7.1750    -8.7220   -23.8940    63.4210     7.3070     8.0800     9.1370     2.3440 
