~V
VERS. 2.00: Ver 2.00
~W
STRT.M 44.0000:
STOP.M 206.0000:
STEP.M 0.1250:
NULL. -999.2500:
UWI. FD10808:
~C
DEPT.M :
TVD. :
DX. :
DY. :
SP.MV :
GR.API :
RI. :
RML.OHMM :
RXO.OHMM :
DEN.GM/CC :
~A
# ...
  180.8750   168.5390   -21.1980    44.9500    -0.2060    94.0160     6.3610     8.2870     6.2920     2.2430 
  181.0000   168.6420   -21.2300    45.0130    -0.2200    93.2080     6.3170     8.2330     7.0930     2.2390 
  181.1250   168.7450   -21.2620    45.0760    -0.3570    91.4130     6.2180     8.0980     7.4700     2.2310 
  181.2500   168.8480   -21.2940    45.1390    -0.6330    90.1720     6.1020     7.9420     6.9120     2.2170 
  181.3750   168.9510   -21.3260    45.2010    -0.8690    87.7750     6.0000     7.8300     6.3170     2.2080 
  181.5000   169.0550   -21.3580    45.2640    -1.0940    86.7230     5.9470     7.7890     5.9040     2.1990 
  181.6250   169.1580   -21.3890    45.3270    -1.1540    85.7170     5.9390     7.8100     5.6590     2.1960 
  181.7500   169.2610   -21.4210    45.3900    -1.2810    86.0700     5.9930     7.8710     5.9290     2.1920 
  181.8750   169.3640   -21.4530    45.4530    -1.4100    85.6590     6.0600     7.9250     6.1260     2.2000 
  182.0000   169.4670   -21.4850    45.5160    -1.4610    85.1800     6.1170     7.9530     5.9650     2.2080 
  182.1250   169.5700   -21.5170    45.5790    -1.4640    84.9470     6.1840     7.9920     5.9880     2.2160 
  182.2500   169.6740   -21.5500    45.6420    -1.5320    84.9510     6.2760     8.0600     6.3930     2.2150 
  182.3750   169.7770   -21.5810    45.7050    -1.7300    87.0910     6.4180     8.1520     7.8420     2.2080 
  182.5000   169.8800   -21.6140    45.7680    -1.9660    89.6050     6.5650     8.2600    26.5100     2.2010 
  182.6250   169.9830   -21.6460    45.8310    -2.1730    91.8230     6.6880     8.3650    53.2780     2.1960 
  182.7500   170.0860   -21.6780    45.8940    -2.3460    92.1440     6.7450     8.4240    47.0460     2.1970 
  182.8750   170.1890   -21.7090    45.9570    -2.5190    91.4930     6.7180     8.3930    28.0690     2.2020 
  183.0000   170.2920   -21.7410    46.0200    -2.5630    90.4290     6.5960     8.2530    24.7420     2.2060 
  183.1250   170.3950   -21.7730    46.0830    -2.4460    89.3670     6.4400     8.0490    19.0190     2.2020 
  183.2500   170.4990   -21.8050    46.1460    -2.1800    88.1760     6.2970     7.8760    11.3330     2.1970 
  183.3750   170.6020   -21.8370    46.2090    -1.9350    86.0620     6.2170     7.7870     9.0270     2.1960 
  183.5000   170.7050   -21.8690    46.2720    -1.7730    83.7930     6.1950     7.7600     8.7270     2.1980 
  183.6250   170.8080   -21.9010    46.3350    -1.6780    81.9520     6.1900     7.7560     8.6780     2.1940 
  183.7500   170.9110   -21.9320    46.3980    -1.6340    81.9740     6.1870     7.7530     7.9630     2.1870 
  183.8750   171.0140   -21.9640    46.4610    -1.7120    82.9930     6.1980     7.7500     7.1400     2.1840 
  184.0000   171.1180   -21.9960    46.5240    -1.7590    83.5350     6.2130     7.7470     6.6240     2.1910 
  184.1250   171.2210   -22.0280    46.5870    -1.6130    83.7510     6.2290     7.7510     6.7190     2.2030 
  184.2500   171.3240   -22.0600    46.6490    -1.4500    84.3110     6.2670     7.7680     7.1110     2.2120 
  184.3750   171.4270   -22.0920    46.7120    -1.2930    84.5260     6.3090     7.7970     6.9770     2.2200 
  184.5000   171.5300   -22.1240    46.7750    -1.0840    83.5180     6.3520     7.8330     6.7880     2.2250 
  184.6250   171.6340   -22.1560    46.8380    -0.8370    81.9730     6.3770     7.8600     7.2360     2.2260 
  184.7500   171.7370   -22.1880    46.9010    -0.6740    81.6870     6.3790     7.8710     7.6990     2.2270 
  184.8750   171.8400   -22.2200    46.9640    -0.6980    83.2810     6.3730     7.8660     7.6710     2.2240 
  185.0000   171.9440   -22.2510    47.0260    -0.8770    85.6600     6.3690     7.8520     7.4080     2.2220 
  185.1250   172.0470   -22.2830    47.0890    -0.9910    86.6760     6.3700     7.8330     7.0180     2.2140 
  185.2500   172.1500   -22.3150    47.1520    -1.0640    87.4940     6.3710     7.8140     6.7900     2.2120 
  185.3750   172.2530   -22.3460    47.2150    -1.0490    88.8400     6.3630     7.7860     6.7860     2.2160 
  185.5000   172.3570   -22.3780    47.2780    -0.9720    90.4110     6.3380     7.7470     6.5750     2.2260 
  185.6250   172.4600   -22.4100    47.3410    -0.9420    90.5610     6.2990     7.7120     6.4440     2.2310 
  185.7500   172.5630   -22.4410    47.4040    -0.8810    89.2760     6.2780     7.7020     6.6530     2.2310 
  185.8750   172.6670   -22.4730    47.4670    -0.8130    87.7240     6.2970     7.7410     6.8230     2.2310 
  186.0000   172.7700   -22.5050    47.5290    -0.7720    86.8130     6.3760     7.8320     7.5750     2.2360 
  186.1250   172.8730   -22.5360    47.5920    -0.8030    87.6540     6.4890     7.9590     8.6030     2.2450 
  186.2500   172.9770   -22.5680    47.6550    -0.7930    89.1870     6.6020     8.0730     9.0450     2.2520 
  186.3750   173.0800   -22.6000    47.7180    -0.8400    90.3220     6.6570     8.1200     9.8010     2.2630 
  186.5000   173.1830   -22.6310    47.7810    -1.0330    90.9340     6.6470     8.0830     9.2200     2.2720 
  186.6250   173.2870   -22.6630    47.8430    -1.4420    91.5250     6.5890     7.9840     6.7080     2.2750 
  186.7500   173.3900   -22.6940    47.9060    -1.8840    92.7190     6.5180     7.8990     5.4560     2.2730 
  186.8750   173.4930   -22.7260    47.9690    -2.2810    92.7860     6.5280     7.9050     6.3170     2.2690 
  187.0000   173.5970   -22.7580    48.0320    -2.5830    91.2550     6.6100     8.0150     8.3060     2.2580 
  187.1250   173.7000   -22.7890    48.0950    -2.8540    89.0590     6.7600     8.1850     9.4920     2.2380 
  187.2500   173.8030   -22.8210    48.1570    -2.9530    87.0660     6.8840     8.3240     8.6820     2.2210 
  187.3750   173.9070   -22.8530    48.2200    -2.7460    86.8000     6.9130     8.3330     9.9320     2.2160 
  187.5000   174.0100   -22.8840    48.2830    -2.5190    87.2960     6.8160     8.1840    14.1230     2.2250 
  187.6250   174.1130   -22.9160    48.3460    -2.2240    87.0850     6.5970     7.9020    13.9150     2.2340 
  187.7500   174.2170   -22.9480    48.4080    -2.1460    86.1590     6.3470     7.5760     9.2310     2.2340 
  187.8750   174.3200   -22.9800    48.4710    -2.2350    83.7370     6.1110     7.2910     7.4970     2.2300 
  188.0000   174.4230   -23.0120    48.5340    -2.3050    82.2330     5.9580     7.1060     8.0530     2.2210 
  188.1250   174.5270   -23.0440    48.5960    -2.3710    80.1180     5.9130     7.0540     7.2440     2.2150 
  188.2500   174.6300   -23.0750    48.6590    -2.5050    79.9240     5.9730     7.1190     6.2810     2.2040 
  188.3750   174.7330   -23.1070    48.7220    -2.7470    79.8730     6.1190     7.2730     6.8970     2.1990 
  188.5000   174.8370   -23.1390    48.7850    -2.7860    81.3630     6.2800     7.4400     8.5000     2.2000 
  188.6250   174.9400   -23.1710    48.8470    -2.7630    80.5980     6.3840     7.5350     8.4120     2.2070 
  188.7500   175.0430   -23.2040    48.9100    -2.7290    79.4820     6.3850     7.5190     6.8220     2.2110 
  188.8750   175.1460   -23.2360    48.9730    -2.5520    78.7420     6.2930     7.3890     6.6730     2.2140 
  189.0000   175.2500   -23.2680    49.0360    -2.4240    79.5900     6.1250     7.2040     7.4180     2.2150 
  189.1250   175.3530   -23.3000    49.0980    -2.5690    81.7620     5.9740     7.0410     8.3140     2.2070 
  189.2500   175.4560   -23.3320    49.1610    -2.7630    83.2430     5.8760     6.9570     9.7410     2.1850 
  189.3750   175.5590   -23.3640    49.2240    -2.9320    83.7480     5.8910     6.9930    11.1880     2.1610 
  189.5000   175.6620   -23.3970    49.2870    -2.6410    84.2480     5.9980     7.1300    14.6180     2.1590 
  189.6250   175.7650   -23.4290    49.3500    -1.7450    85.7710     6.1750     7.3110    16.2660     2.1850 
  189.7500   175.8680   -23.4610    49.4130    -0.8770    88.0660     6.3240     7.4690    12.5720     2.2160 
  189.8750   175.9720   -23.4930    49.4760    -0.1770    88.8820     6.4400     7.5870    10.4430     2.2340 
