~V
VERS. 2.00: Ver 2.00
~W
STRT.M 1.0000:
STOP.M 198.0000:
STEP.M 0.1250:
NULL. -999.2500:
UWI. FD10802:
~C
DEPT.M :
TVD. :
DX. :
DY. :
SP.MV :
GR.API :
RI. :
RML.OHMM :
RXO.OHMM :
DEN.GM/CC :
~A
# ...
   64.8750    64.8720     0.0210     0.0800   -20.5410    64.1960     5.1240     6.8400     4.7900     1.9980 
   65.0000    64.9970     0.0190     0.0840   -20.7710    64.1410     5.1900     6.9770     5.0000     2.0000 
   65.1250    65.1220     0.0170     0.0890   -20.9000    63.3090     5.2230     7.0540     5.1690     2.0030 
   65.2500    65.2470     0.0150     0.0930   -20.8840    62.6910     5.1990     7.0400     5.1040     2.0010 
   65.3750    65.3720     0.0130     0.0980   -20.7770    62.8200     5.1380     6.9660     5.0350     1.9920 
   65.5000    65.4960     0.0120     0.1020   -20.7210    62.4930     5.0600     6.8880     5.1590     1.9820 
   65.6250    65.6210     0.0100     0.1070   -20.7930    62.0900     4.9970     6.8300     5.3340     1.9790 
   65.7500    65.7460     0.0080     0.1120   -20.9830    61.5000     4.9690     6.8290     5.3930     1.9790 
   65.8750    65.8710     0.0060     0.1160   -21.0710    61.7170     4.9600     6.8650     5.3220     1.9750 
   66.0000    65.9960     0.0040     0.1210   -21.1040    62.1330     4.9520     6.8760     5.1700     1.9650 
   66.1250    66.1210     0.0020     0.1260   -20.9990    61.9050     4.9270     6.8630     5.0710     1.9560 
   66.2500    66.2460    -0.0010     0.1310   -20.7480    61.1900     4.9180     6.8600     5.0990     1.9550 
   66.3750    66.3710    -0.0030     0.1360   -20.4520    62.1810     4.9360     6.8880     5.1170     1.9620 
   66.5000    66.4960    -0.0050     0.1410   -20.1600    64.1780     4.9690     6.9370     5.1090     1.9730 
   66.6250    66.6200    -0.0070     0.1470   -19.9260    65.1440     5.0200     6.9830     5.2410     1.9860 
   66.7500    66.7450    -0.0100     0.1520   -19.4830    63.3010     5.0800     7.0130     5.4830     1.9970 
   66.8750    66.8700    -0.0120     0.1570   -18.7860    61.0910     5.1470     7.0260     5.7330     2.0070 
   67.0000    66.9950    -0.0140     0.1630   -17.7950    61.4180     5.2130     7.0980     6.1850     2.0160 
   67.1250    67.1200    -0.0170     0.1680   -16.7880    63.0210     5.2780     7.3740     6.6750     2.0240 
   67.2500    67.2450    -0.0190     0.1740   -15.7430    64.2240     5.2980     7.6880     6.7530     2.0280 
   67.3750    67.3700    -0.0220     0.1790   -14.4170    64.6250     5.1610     7.7690     6.4480     2.0270 
   67.5000    67.4940    -0.0240     0.1850   -12.7280    66.2120     4.8970     7.5490     6.2690     2.0220 
   67.6250    67.6190    -0.0270     0.1910   -10.7950    71.8950     4.5330     6.9960     5.9800     2.0210 
   67.7500    67.7440    -0.0290     0.1970    -8.7580    80.6640     4.1550     6.4070     5.0200     2.0260 
   67.8750    67.8690    -0.0320     0.2030    -6.9890    90.5430     3.8460     5.9110     4.4690     2.0430 
   68.0000    67.9940    -0.0350     0.2090    -6.0920    96.3480     3.6330     5.5490     4.6480     2.0770 
   68.1250    68.1190    -0.0370     0.2150    -5.8090    97.9220     3.5520     5.3660     4.5640     2.1160 
   68.2500    68.2430    -0.0400     0.2210    -5.8510    95.9230     3.7080     5.5710     4.4710     2.1380 
   68.3750    68.3680    -0.0430     0.2270    -6.1940    94.1350     4.1490     6.2360     4.7970     2.1510 
   68.5000    68.4930    -0.0460     0.2340    -6.7600    90.6690     4.7960     7.2550     7.6770     2.1510 
   68.6250    68.6180    -0.0490     0.2400    -7.3030    84.7870     5.4850     8.3610    14.6250     2.1390 
   68.7500    68.7430    -0.0520     0.2470    -7.6680    79.2370     6.0280     9.1860    17.3210     2.1260 
   68.8750    68.8670    -0.0550     0.2530    -7.7490    77.8690     6.0170     9.0530    11.5310     2.1150 
   69.0000    68.9920    -0.0580     0.2600    -7.3690    82.2160     5.4290     8.0470     6.8300     2.1140 
   69.1250    69.1170    -0.0610     0.2670    -6.5280    89.8420     4.5810     6.6690     6.0210     2.1280 
   69.2500    69.2420    -0.0640     0.2740    -5.3260    98.8500     3.7300     5.4020     4.8590     2.1570 
   69.3750    69.3660    -0.0670     0.2810    -4.0690   106.0670     3.2390     4.7470     3.7830     2.1860 
   69.5000    69.4910    -0.0710     0.2880    -3.1260   108.6610     3.0180     4.4980     3.6500     2.2050 
   69.6250    69.6160    -0.0740     0.2960    -2.7830   107.7920     3.0040     4.5550     3.7350     2.2180 
   69.7500    69.7410    -0.0780     0.3030    -2.9610   107.5940     3.2230     4.9680     3.7670     2.2290 
   69.8750    69.8650    -0.0810     0.3110    -3.4770   106.6680     3.6000     5.6260     3.8840     2.2460 
   70.0000    69.9900    -0.0850     0.3180    -4.4030   103.3970     3.9920     6.2690     4.7730     2.2570 
   70.1250    70.1150    -0.0880     0.3260    -5.7320    97.0620     4.3240     6.7890     5.8980     2.2550 
   70.2500    70.2390    -0.0920     0.3340    -7.0230    92.2890     4.4910     6.9660     5.6250     2.2380 
   70.3750    70.3640    -0.0960     0.3420    -7.8370    90.5190     4.4640     6.7980     4.6900     2.2180 
   70.5000    70.4890    -0.1000     0.3510    -8.3280    91.1590     4.3630     6.5260     4.6400     2.2060 
   70.6250    70.6130    -0.1040     0.3590    -8.9650    91.3360     4.2470     6.2680     5.1340     2.1940 
   70.7500    70.7380    -0.1080     0.3670    -9.8730    89.4960     4.3070     6.3590     5.3090     2.1750 
   70.8750    70.8630    -0.1120     0.3760   -10.8430    86.1460     4.5300     6.7360     5.2760     2.1520 
   71.0000    70.9870    -0.1160     0.3850   -11.7710    82.9400     4.8740     7.3230     5.6010     2.1320 
   71.1250    71.1120    -0.1200     0.3940   -12.6730    78.1340     5.2480     7.9590     6.4630     2.1070 
   71.2500    71.2370    -0.1250     0.4030   -13.5000    73.1900     5.6060     8.5560     7.2830     2.0910 
   71.3750    71.3610    -0.1290     0.4120   -14.1410    67.5060     5.9070     9.0520     7.4920     2.0810 
   71.5000    71.4860    -0.1340     0.4210   -14.6980    64.0850     6.0710     9.3130     7.4390     2.0830 
   71.6250    71.6100    -0.1380     0.4310   -15.2210    62.8820     6.1320     9.4190     7.4760     2.0860 
   71.7500    71.7350    -0.1430     0.4400   -15.7330    63.3590     6.0770     9.3410     7.5140     2.0860 
   71.8750    71.8590    -0.1470     0.4500   -16.2750    65.6650     5.9560     9.1570     7.5330     2.0800 
   72.0000    71.9840    -0.1520     0.4600   -16.7430    67.5380     5.8090     8.9330     7.5290     2.0770 
   72.1250    72.1080    -0.1570     0.4700   -17.0610    68.1250     5.6790     8.7360     7.3950     2.0750 
   72.2500    72.2330    -0.1620     0.4800   -17.1780    65.5920     5.6230     8.6870     7.1980     2.0760 
   72.3750    72.3570    -0.1670     0.4900   -17.1490    63.2740     5.7160     8.8880     7.0700     2.0750 
   72.5000    72.4820    -0.1720     0.5000   -17.1910    62.8560     5.9110     9.2470     7.0620     2.0750 
   72.6250    72.6060    -0.1770     0.5110   -17.3890    64.5350     6.1580     9.7020     7.7600     2.0840 
   72.7500    72.7310    -0.1820     0.5210   -17.6050    65.6000     6.3900    10.0940     8.9370     2.0940 
   72.8750    72.8550    -0.1880     0.5320   -17.7510    66.7070     6.5380    10.2900     9.0350     2.1000 
   73.0000    72.9800    -0.1930     0.5430   -17.8110    67.7400     6.5510    10.2220     8.1130     2.0960 
   73.1250    73.1040    -0.1980     0.5540   -17.7940    68.7040     6.4570     9.9760     7.5020     2.0950 
   73.2500    73.2280    -0.2040     0.5650   -17.7090    67.4350     6.3300     9.6950     7.4870     2.0990 
   73.3750    73.3530    -0.2090     0.5760   -17.8140    65.8460     6.2280     9.5180     7.7230     2.1040 
   73.5000    73.4770    -0.2150     0.5870   -18.0630    65.2970     6.2210     9.5300     7.9820     2.1030 
   73.6250    73.6010    -0.2210     0.5990   -18.3250    66.0400     6.2420     9.5950     8.1860     2.0960 
   73.7500    73.7260    -0.2260     0.6100   -18.6650    65.2190     6.2520     9.6300     8.1140     2.0920 
   73.8750    73.8500    -0.2320     0.6210   -18.9620    63.5420     6.2430     9.5710     7.6880     2.0900 
