~V
VERS. 2.00: Ver 2.00
~W
STRT.M 20.0000:
STOP.M 242.0000:
STEP.M 0.1250:
NULL. -999.2500:
UWI. FD10624:
~C
DEPT.M :
TVD. :
DX. :
DY. :
GR.API :
RML.OHMM :
RI. :
RXO.OHMM :
CALI.CM :
DEN.GM/CC :
SP.MV :
~A
# ...
  193.2500   184.5400    30.7390    30.9760   105.6000     7.2840     7.1850    10.0260    19.9000     2.4420   -20.8530 
  193.3750   184.6490    30.7810    31.0200   112.0090     7.2030     7.0860     9.9500    19.9060     2.4420   -20.8960 
  193.5000   184.7580    30.8230    31.0640   116.2880     7.1540     6.9960     9.5980    20.0000     2.4430   -20.9970 
  193.6250   184.8680    30.8640    31.1090   115.5750     7.1150     6.9180     9.1250    20.0660     2.4450   -21.0920 
  193.7500   184.9770    30.9060    31.1530   114.2000     7.0550     6.8400     9.0040    20.1080     2.4470   -21.2380 
  193.8750   185.0860    30.9480    31.1970   115.2800     6.9610     6.7440     8.8640    20.1190     2.4480   -21.4980 
  194.0000   185.1950    30.9900    31.2420   116.9070     6.8420     6.6260     8.7560    20.1190     2.4480   -21.7590 
  194.1250   185.3040    31.0310    31.2860   114.3910     6.7760     6.5350     8.3720    20.1090     2.4440   -21.9070 
  194.2500   185.4130    31.0730    31.3300   108.7940     6.9010     6.5850     8.1400    20.0860     2.4340   -22.0170 
  194.3750   185.5230    31.1150    31.3740   103.1590     7.4080     6.9420     8.2260    20.0660     2.4170   -22.0550 
  194.5000   185.6320    31.1570    31.4190    96.8510     8.5370     7.8250     8.4640    20.0580     2.4030   -21.9940 
  194.6250   185.7410    31.1990    31.4630    87.4980    10.7480     9.7230     9.7480    20.0580     2.4140   -21.9530 
  194.7500   185.8500    31.2400    31.5070    76.3930    14.1480    12.9140    13.1840    20.0610     2.4480   -21.9500 
  194.8750   185.9590    31.2820    31.5510    67.2500    18.7640    17.6540    20.2440    20.0800     2.4890   -21.9840 
  195.0000   186.0680    31.3240    31.5960    62.8760    24.2850    23.7510    27.0820    20.1340     2.5080   -22.0670 
  195.1250   186.1780    31.3660    31.6400    62.4840    29.9930    30.2310    26.5320    20.2350     2.4780   -22.2570 
  195.2500   186.2870    31.4080    31.6840    61.9330    35.1790    35.8960    23.4230    20.3840     2.4140   -22.4660 
  195.3750   186.3960    31.4490    31.7280    60.0550    39.7480    40.5630    21.2520    20.5500     2.3460   -22.6640 
  195.5000   186.5050    31.4910    31.7730    58.1590    44.0470    44.7990    19.9590    20.6130     2.3020   -22.9240 
  195.6250   186.6140    31.5330    31.8170    58.1070    48.3660    49.1730    19.7080    20.5550     2.2950   -23.2530 
  195.7500   186.7230    31.5750    31.8610    59.4810    52.1710    53.1910    21.0790    20.4900     2.3050   -23.5130 
  195.8750   186.8330    31.6170    31.9060    60.7420    54.3300    55.5190    22.6190    20.5760     2.3100   -23.7180 
  196.0000   186.9420    31.6580    31.9500    61.7030    53.8630    54.9350    23.0960    20.6170     2.2980   -23.9490 
  196.1250   187.0510    31.7000    31.9940    63.6810    50.4560    51.0560    22.6700    20.3630     2.2740   -24.1270 
  196.2500   187.1600    31.7420    32.0380    66.5180    45.9330    45.9520    22.6920    19.9300     2.2600   -24.2570 
  196.3750   187.2690    31.7840    32.0830    68.4200    41.9280    41.3910    21.0460    19.6460     2.2710   -24.4310 
  196.5000   187.3780    31.8250    32.1270    69.6070    39.7570    38.7040    19.2480    19.5700     2.3080   -24.5790 
  196.6250   187.4880    31.8670    32.1710    71.3180    40.7760    39.2100    19.5580    19.6220     2.3490   -24.6740 
  196.7500   187.5970    31.9090    32.2150    70.7780    45.0430    43.0350    21.4040    19.6970     2.3650   -24.8390 
  196.8750   187.7060    31.9510    32.2600    66.6530    52.7350    50.4630    23.2310    19.7860     2.3380   -25.0200 
  197.0000   187.8150    31.9930    32.3040    62.0180    63.5110    61.1580    24.8730    19.8650     2.2690   -25.1870 
  197.1250   187.9240    32.0340    32.3480    60.4010    76.0510    73.5360    25.3100    19.8370     2.1750   -25.4270 
  197.2500   188.0330    32.0760    32.3930    60.6660    87.5890    84.4330    24.2250    19.6990     2.0900   -25.6890 
  197.3750   188.1430    32.1180    32.4370    61.0370    96.2780    91.8700    22.3920    19.6020     2.0350   -25.8900 
  197.5000   188.2520    32.1600    32.4810    60.9920   101.7270    95.7100    20.7890    19.5250     2.0220   -26.1320 
  197.6250   188.3610    32.2020    32.5250    61.7670   104.9850    97.4380    21.3500    19.4510     2.0510   -26.4280 
  197.7500   188.4700    32.2430    32.5700    63.3780   108.0960    99.3380    22.8090    19.4130     2.0940   -26.6480 
  197.8750   188.5790    32.2850    32.6140    63.6060   111.6410   102.0350    21.9270    19.4160     2.1360   -26.8510 
  198.0000   188.6880    32.3270    32.6580    62.2310   115.0620   105.0390    18.9230    19.3600     2.1710   -27.0550 
  198.1250   188.7980    32.3690    32.7020    61.2170   116.7390   106.8510    16.1480    19.1470     2.2090   -27.1990 
  198.2500   188.9070    32.4110    32.7470    60.6070   115.9600   106.5540    17.1890    18.9220     2.2510   -27.2930 
  198.3750   189.0160    32.4520    32.7910    60.6430   112.9710   104.1610    21.9030    18.7600     2.2890   -27.3970 
  198.5000   189.1250    32.4940    32.8350    63.1650   108.9500   100.6410    25.0050    18.6860     2.3100   -27.5090 
  198.6250   189.2340    32.5360    32.8790    67.7750   105.7150    97.6060    26.8540    18.6960     2.3020   -27.5270 
  198.7500   189.3430    32.5780    32.9240    69.4750   104.3740    96.1620    29.7790    18.8400     2.2780   -27.5270 
  198.8750   189.4530    32.6190    32.9680    66.9400   105.1560    96.6900    31.3070    19.1290     2.2520   -27.5870 
  199.0000   189.5620    32.6610    33.0120    63.5670   107.4470    98.8480    30.7700    19.4730     2.2300   -27.6480 
  199.1250   189.6710    32.7030    33.0570    61.1810   109.7190   101.3240    27.7590    19.6890     2.2150   -27.6390 
  199.2500   189.7800    32.7450    33.1010    58.6740   110.4730   102.3890    26.7930    19.6960     2.2040   -27.6990 
  199.3750   189.8890    32.7870    33.1450    57.6220   109.3510   101.4050    28.0750    19.5960     2.2000   -27.7600 
  199.5000   189.9980    32.8280    33.1890    60.3270   107.1650    99.0840    28.2910    19.5360     2.2050   -27.7500 
  199.6250   190.1080    32.8700    33.2340    64.3100   105.6450    97.3810    23.6800    19.6030     2.2210   -27.8270 
  199.7500   190.2170    32.9120    33.2780    62.7830   105.8710    98.0380    21.3400    19.7270     2.2430   -27.9340 
  199.8750   190.3260    32.9540    33.3220    57.7880   108.0500   102.0380    22.8380    19.8240     2.2670   -27.9740 
  200.0000   190.4350    32.9960    33.3660    56.0130   111.9920   109.5800    28.1120    19.8460     2.2880   -28.0510 
  200.1250   190.5440    33.0370    33.4110    58.9900   118.2600   120.2740    35.0080    19.7570     2.2970   -28.1720 
  200.2500   190.6530    33.0790    33.4550    61.5470   127.6150   131.8580    35.8820    19.6540     2.2930   -28.1240 
  200.3750   190.7630    33.1210    33.4990    60.8270   140.1160   142.0960    31.5670    19.5890     2.2790   -27.8620 
  200.5000   190.8720    33.1630    33.5430    58.0870   152.8190   148.7400    28.5600    19.5370     2.2640   -27.5820 
  200.6250   190.9810    33.2050    33.5880    55.9820   159.6280   149.7460    30.0360    19.4920     2.2580   -27.1960 
  200.7500   191.0900    33.2460    33.6320    55.2190   159.4520   146.6150    33.4480    19.4760     2.2590   -26.7800 
  200.8750   191.1990    33.2880    33.6760    55.1750   155.0300   141.1870    38.0780    19.4970     2.2610   -26.4030 
  201.0000   191.3080    33.3300    33.7210    55.9170   150.3320   135.7240    41.8690    19.5720     2.2580   -25.9930 
  201.1250   191.4180    33.3720    33.7650    56.2450   148.8970   133.1770    41.1670    19.7240     2.2450   -25.4980 
  201.2500   191.5270    33.4140    33.8090    55.7380   151.7980   134.8660    38.1150    19.7980     2.2280   -25.1100 
  201.3750   191.6360    33.4550    33.8530    55.3670   159.2060   141.1210    31.4510    19.7420     2.2150   -24.9910 
