~V
VERS. 2.00: Ver 2.00
~W
STRT.M 20.0000:
STOP.M 282.0000:
STEP.M 0.1250:
NULL. -999.2500:
UWI. FD10228:
~C
DEPT.M :
TVD. :
DX. :
DY. :
GR.API :
RML.OHMM :
RI. :
RXO.OHMM :
CALI.CM :
SP.MV :
DEN.GM/CC :
~A
# ...
  135.5000   135.4380    -0.2190     1.3720    68.1040    21.2110    19.8880    29.0320    23.5310    -5.9540     2.4470 
  135.6250   135.5630    -0.2070     1.3740    69.3940    18.1370    17.0470    20.5150    23.6820    -5.9210     2.4360 
  135.7500   135.6870    -0.1950     1.3760    68.3350    15.5690    14.6110    15.3050    23.7570    -5.9090     2.4250 
  135.8750   135.8120    -0.1840     1.3780    66.0550    13.7940    12.8360    14.4620    23.7880    -5.8740     2.4170 
  136.0000   135.9360    -0.1720     1.3800    64.4670    12.7990    11.7390    15.6130    23.7480    -5.8580     2.4120 
  136.1250   136.0600    -0.1600     1.3820    62.4060    12.4710    11.2790    15.2450    23.5890    -5.8730     2.4100 
  136.2500   136.1850    -0.1480     1.3850    59.9240    12.4550    11.1750    13.7110    23.3320    -5.8550     2.4100 
  136.3750   136.3090    -0.1370     1.3870    59.0450    12.5420    11.2430    13.1380    23.4190    -5.8280     2.4100 
  136.5000   136.4340    -0.1250     1.3890    61.0660    12.5640    11.3100    13.5720    23.5740    -5.8340     2.4080 
  136.6250   136.5580    -0.1130     1.3910    66.8490    12.3440    11.1880    14.2570    23.6190    -5.8220     2.4040 
  136.7500   136.6820    -0.1010     1.3930    72.3320    11.8110    10.7950    13.9690    23.6330    -5.7670     2.3970 
  136.8750   136.8070    -0.0890     1.3950    74.3590    10.9390    10.1020    12.5240    23.6380    -5.6900     2.3850 
  137.0000   136.9310    -0.0780     1.3980    73.0910     9.8250     9.1780    10.7120    23.6240    -5.5790     2.3680 
  137.1250   137.0560    -0.0660     1.4000    73.1980     8.6930     8.1890     8.9470    23.6400    -5.4640     2.3430 
  137.2500   137.1800    -0.0540     1.4020    74.8110     7.7450     7.3100     7.7410    23.7220    -5.3620     2.3120 
  137.3750   137.3050    -0.0420     1.4040    76.5940     7.0420     6.6110     6.8390    23.7780    -5.2510     2.2810 
  137.5000   137.4290    -0.0310     1.4060    79.5590     6.5590     6.0960     6.4120    23.7880    -5.1340     2.2600 
  137.6250   137.5530    -0.0190     1.4080    83.6970     6.2390     5.7520     6.3290    23.7150    -4.9890     2.2520 
  137.7500   137.6780    -0.0070     1.4110    85.9930     5.9930     5.5070     6.0880    23.6050    -4.8810     2.2570 
  137.8750   137.8020     0.0050     1.4130    85.5260     5.8010     5.3310     5.6620    23.4890    -4.8230     2.2660 
  138.0000   137.9270     0.0160     1.4150    85.1030     5.6790     5.2130     5.3230    23.5420    -4.7930     2.2740 
  138.1250   138.0510     0.0280     1.4170    84.6730     5.6620     5.1630     5.2400    23.7120    -4.7870     2.2770 
  138.2500   138.1760     0.0400     1.4190    82.6230     5.7250     5.1680     5.3450    23.8340    -4.7720     2.2750 
  138.3750   138.3000     0.0520     1.4210    78.9830     5.8280     5.2070     5.5370    23.9490    -4.7980     2.2700 
  138.5000   138.4240     0.0640     1.4240    75.1100     5.9150     5.2440     5.7220    23.8910    -4.8610     2.2650 
  138.6250   138.5490     0.0750     1.4260    72.8050     5.9360     5.2370     5.8430    23.8110    -4.9380     2.2620 
  138.7500   138.6730     0.0870     1.4280    71.8630     5.9090     5.1830     5.8280    23.7900    -5.0230     2.2650 
  138.8750   138.7980     0.0990     1.4300    73.0900     5.8680     5.1040     5.7090    23.6930    -5.1140     2.2720 
  139.0000   138.9220     0.1110     1.4320    75.7950     5.8540     5.0330     5.6070    23.4610    -5.2280     2.2800 
  139.1250   139.0460     0.1220     1.4350    76.8080     5.9010     5.0050     5.7040    23.4650    -5.3280     2.2830 
  139.2500   139.1710     0.1340     1.4370    75.1580     5.9920     5.0180     5.9070    23.4300    -5.4090     2.2810 
  139.3750   139.2950     0.1460     1.4390    72.9920     6.0880     5.0470     6.0330    23.4280    -5.4850     2.2760 
  139.5000   139.4200     0.1580     1.4410    72.8200     6.1360     5.0580     6.1690    23.3480    -5.5590     2.2700 
  139.6250   139.5440     0.1690     1.4430    74.7670     6.0820     5.0040     6.2910    23.2450    -5.6220     2.2650 
  139.7500   139.6690     0.1810     1.4450    79.3380     5.9610     4.8950     6.1810    23.2310    -5.6750     2.2620 
  139.8750   139.7930     0.1930     1.4480    83.3270     5.8550     4.7750     5.8620    23.2490    -5.7330     2.2600 
  140.0000   139.9170     0.2050     1.4500    82.1300     5.8560     4.6990     5.6200    23.2830    -5.7730     2.2590 
  140.1250   140.0420     0.2170     1.4520    76.4610     6.0450     4.7310     5.6770    23.2320    -5.8130     2.2600 
  140.2500   140.1660     0.2280     1.4540    73.0790     6.3590     4.8630     6.0630    23.1090    -5.8710     2.2620 
  140.3750   140.2910     0.2400     1.4560    74.3850     6.6930     5.0570     6.8030    22.8690    -5.9110     2.2670 
  140.5000   140.4150     0.2520     1.4580    77.3250     6.9140     5.2400     7.1940    22.7560    -5.9020     2.2740 
  140.6250   140.5400     0.2640     1.4610    79.0360     6.8930     5.3110     7.0910    22.8080    -5.8780     2.2780 
  140.7500   140.6640     0.2750     1.4630    78.8020     6.7030     5.2600     6.7560    22.8280    -5.8510     2.2770 
  140.8750   140.7880     0.2870     1.4650    77.9220     6.4740     5.1410     6.4450    22.8690    -5.8050     2.2700 
  141.0000   140.9130     0.2990     1.4670    77.8050     6.3370     5.0370     6.2170    22.9090    -5.7630     2.2600 
  141.1250   141.0370     0.3110     1.4690    76.9830     6.3760     5.0260     6.3700    22.8720    -5.7040     2.2500 
  141.2500   141.1620     0.3220     1.4710    73.3840     6.5110     5.0870     6.8870    22.8340    -5.6320     2.2460 
  141.3750   141.2860     0.3340     1.4740    69.4450     6.6260     5.1600     7.4540    22.7410    -5.5470     2.2460 
  141.5000   141.4100     0.3460     1.4760    69.8570     6.6030     5.1670     7.5210    22.7030    -5.4220     2.2480 
  141.6250   141.5350     0.3580     1.4780    74.4160     6.3570     5.0350     6.8550    22.6990    -5.2910     2.2490 
  141.7500   141.6590     0.3700     1.4800    77.8190     5.9810     4.8040     5.9500    22.7110    -5.1630     2.2470 
  141.8750   141.7840     0.3810     1.4820    79.8080     5.5930     4.5410     5.3490    22.7800    -5.0310     2.2430 
  142.0000   141.9080     0.3930     1.4840    81.8320     5.2960     4.3120     5.1560    22.8320    -4.8920     2.2430 
  142.1250   142.0330     0.4050     1.4870    83.1590     5.1660     4.1750     5.1490    22.8040    -4.7560     2.2470 
  142.2500   142.1570     0.4170     1.4890    82.4990     5.1670     4.1260     5.0610    22.8000    -4.6420     2.2560 
  142.3750   142.2810     0.4280     1.4910    82.3690     5.2610     4.1490     5.0720    22.8060    -4.5420     2.2690 
  142.5000   142.4060     0.4400     1.4930    84.5880     5.4060     4.2160     5.1550    22.8870    -4.4960     2.2830 
  142.6250   142.5300     0.4520     1.4950    87.4170     5.5570     4.3000     5.2530    22.8610    -4.5070     2.2930 
  142.7500   142.6550     0.4640     1.4970    88.3830     5.6780     4.3770     5.3710    22.8640    -4.5060     2.2970 
  142.8750   142.7790     0.4760     1.5000    86.4040     5.7500     4.4340     5.4710    22.6970    -4.5000     2.2940 
  143.0000   142.9040     0.4870     1.5020    83.7850     5.7680     4.4650     5.4670    22.6070    -4.5150     2.2870 
  143.1250   143.0280     0.4990     1.5040    83.1340     5.7420     4.4660     5.3810    22.5620    -4.5220     2.2770 
  143.2500   143.1520     0.5110     1.5060    82.8310     5.7070     4.4510     5.2930    22.5450    -4.5070     2.2710 
  143.3750   143.2770     0.5240     1.5090    82.2710     5.6830     4.4280     5.1890    22.5480    -4.5100     2.2700 
  143.5000   143.4010     0.5400     1.5110    84.2040     5.6730     4.4060     5.0690    22.6250    -4.5220     2.2720 
  143.6250   143.5250     0.5550     1.5140    89.5090     5.6690     4.3890     5.0630    22.5840    -4.5150     2.2790 
