~V
VERS. 2.00: Ver 2.00
~W
STRT.M 32.0000:
STOP.M 269.0000:
STEP.M 0.1250:
NULL. -999.2500:
UWI. FD10881:
~C
DEPT.M :
TVD. :
DX. :
DY. :
SP.MV :
GR.API :
RI. :
RML.OHMM :
RXO.OHMM :
~A
# ...
   52.0000    51.9950    -0.4030    -0.0590    -6.1090    60.9760     5.6260     8.1910    22.4820 
   52.1250    52.1200    -0.4070    -0.0610    -5.3880    62.3600     5.1260     7.2860    38.0150 
   52.2500    52.2450    -0.4110    -0.0630    -4.4260    69.4750     4.2590     5.8180    26.7600 
   52.3750    52.3700    -0.4160    -0.0660    -3.3220    83.3750     3.4480     4.5000     8.5460 
   52.5000    52.4950    -0.4200    -0.0680    -2.6750   100.3640     2.8380     3.5720     3.9290 
   52.6250    52.6200    -0.4240    -0.0700    -2.5660   112.2300     2.4990     3.0690     3.8840 
   52.7500    52.7450    -0.4280    -0.0720    -2.6240   114.4690     2.4220     2.8990     3.7680 
   52.8750    52.8700    -0.4330    -0.0740    -2.7470   111.9600     2.6480     3.1150     3.6290 
   53.0000    52.9950    -0.4370    -0.0760    -2.8950   109.1310     3.1440     3.6790     3.9950 
   53.1250    53.1200    -0.4410    -0.0790    -3.0410   104.8250     3.7970     4.4580     6.2190 
   53.2500    53.2440    -0.4460    -0.0810    -3.1940    95.6310     4.4210     5.1660    10.3680 
   53.3750    53.3690    -0.4500    -0.0830    -3.3800    82.7600     4.7140     5.3790    11.6000 
   53.5000    53.4940    -0.4550    -0.0860    -3.5570    73.2950     4.5770     5.0410     8.1980 
   53.6250    53.6190    -0.4590    -0.0880    -3.7380    72.8460     4.1130     4.3660     5.3230 
   53.7500    53.7440    -0.4640    -0.0910    -3.9000    80.6100     3.5720     3.6970     4.7170 
   53.8750    53.8690    -0.4680    -0.0930    -3.8370    88.7290     3.2290     3.3650     4.6040 
   54.0000    53.9940    -0.4730    -0.0960    -3.5360    92.2610     3.1320     3.3220     4.5180 
   54.1250    54.1190    -0.4780    -0.0980    -3.1460    90.8570     3.1850     3.4460     4.4310 
   54.2500    54.2440    -0.4830    -0.1010    -2.7130    87.5890     3.3050     3.6400     4.5880 
   54.3750    54.3680    -0.4880    -0.1030    -2.3840    84.1530     3.4190     3.8430     4.9140 
   54.5000    54.4930    -0.4930    -0.1060    -2.3530    80.5600     3.4500     3.9030     4.8700 
   54.6250    54.6180    -0.4980    -0.1080    -2.5570    76.4730     3.3020     3.7230     4.6630 
   54.7500    54.7430    -0.5030    -0.1110    -2.8480    76.9830     3.0200     3.3600     4.5970 
   54.8750    54.8680    -0.5080    -0.1140    -3.1240    82.0700     2.7210     2.9550     4.4710 
   55.0000    54.9930    -0.5130    -0.1160    -3.2120    87.4320     2.6330     2.8250     4.0650 
   55.1250    55.1180    -0.5180    -0.1190    -3.0600    88.7780     2.9130     3.1420     3.6460 
   55.2500    55.2430    -0.5230    -0.1220    -2.8010    86.3930     3.5510     3.9070     5.6960 
   55.3750    55.3670    -0.5290    -0.1250    -2.6060    81.1940     4.8110     5.4740    13.0330 
   55.5000    55.4920    -0.5340    -0.1270    -2.4410    72.8620     6.6260     7.6480    22.8410 
   55.6250    55.6170    -0.5390    -0.1300    -2.2660    65.0400     7.9970     9.1410    31.1510 
   55.7500    55.7420    -0.5450    -0.1330    -2.2100    60.8230     8.4360     9.5210    36.8020 
   55.8750    55.8670    -0.5500    -0.1360    -2.3920    59.0760     7.6920     8.4850    32.1060 
   56.0000    55.9920    -0.5560    -0.1390    -2.7210    57.8100     6.3390     6.8920    17.8030 
   56.1250    56.1160    -0.5610    -0.1420    -3.0830    56.9210     5.3120     5.7840     9.0240 
   56.2500    56.2410    -0.5670    -0.1450    -3.3920    57.6330     4.7460     5.2040     7.6950 
   56.3750    56.3660    -0.5730    -0.1480    -3.6040    58.1580     4.5160     4.9990     7.4030 
   56.5000    56.4910    -0.5780    -0.1510    -3.8040    58.1910     4.4700     5.0340     7.2260 
   56.6250    56.6160    -0.5840    -0.1540    -4.0420    58.5600     4.5000     5.1200     7.0920 
   56.7500    56.7410    -0.5900    -0.1570    -4.2910    59.4940     4.5440     5.1930     6.9320 
   56.8750    56.8650    -0.5960    -0.1600    -4.5630    59.6930     4.6400     5.2990     6.8210 
   57.0000    56.9900    -0.6020    -0.1630    -4.7720    58.9400     4.9830     5.7150     6.7640 
   57.1250    57.1150    -0.6080    -0.1660    -4.7800    58.4050     5.5760     6.4350     6.6470 
   57.2500    57.2400    -0.6140    -0.1690    -4.5130    59.7080     6.2530     7.2520     9.5580 
   57.3750    57.3650    -0.6200    -0.1720    -4.0770    62.4570     6.7080     7.8090    23.7130 
   57.5000    57.4900    -0.6260    -0.1750    -3.6250    63.5130     6.8050     7.9170    33.7420 
   57.6250    57.6140    -0.6320    -0.1790    -3.3220    62.9460     6.4060     7.3750    21.5310 
   57.7500    57.7390    -0.6380    -0.1820    -3.3270    63.1210     5.6920     6.4690     8.5890 
   57.8750    57.8640    -0.6440    -0.1850    -3.6820    63.9730     5.0000     5.6290     6.7330 
   58.0000    57.9890    -0.6500    -0.1890    -4.1000    64.0450     4.4610     5.0380     6.7730 
   58.1250    58.1140    -0.6560    -0.1920    -4.3710    63.2230     4.2880     4.9410     6.8270 
   58.2500    58.2380    -0.6630    -0.1950    -4.4120    62.8300     4.3670     5.0930     6.9000 
   58.3750    58.3630    -0.6690    -0.1990    -4.3050    62.4880     4.4820     5.2240     6.9680 
   58.5000    58.4880    -0.6750    -0.2020    -4.2200    61.8760     4.5810     5.3320     7.0290 
   58.6250    58.6130    -0.6820    -0.2060    -4.1820    61.8230     4.6340     5.3750     7.1150 
   58.7500    58.7380    -0.6880    -0.2090    -4.1590    61.1820     4.6450     5.3660     8.1430 
   58.8750    58.8620    -0.6950    -0.2130    -4.1720    60.6830     4.6180     5.3150     9.1850 
   59.0000    58.9870    -0.7010    -0.2160    -4.2630    59.4680     4.5640     5.2300     8.2120 
   59.1250    59.1120    -0.7080    -0.2200    -4.4240    56.9620     4.5040     5.1730     7.0980 
   59.2500    59.2370    -0.7150    -0.2230    -4.6450    56.3280     4.4300     5.1410     6.7840 
   59.3750    59.3610    -0.7210    -0.2270    -4.8410    59.2000     4.3500     5.1000     6.3860 
   59.5000    59.4860    -0.7280    -0.2310    -4.9830    63.5820     4.2770     5.0590     6.1880 
   59.6250    59.6110    -0.7350    -0.2350    -5.1470    66.1460     4.2190     5.0150     6.1440 
   59.7500    59.7360    -0.7420    -0.2380    -5.3800    66.7690     4.1700     4.9460     6.1250 
   59.8750    59.8600    -0.7490    -0.2420    -5.6320    66.8060     4.1230     4.8670     6.0890 
   60.0000    59.9850    -0.7550    -0.2460    -5.8820    67.0360     4.0820     4.7930     5.9410 
   60.1250    60.1100    -0.7620    -0.2500    -6.1110    68.4410     4.0420     4.7370     5.6580 
   60.2500    60.2350    -0.7700    -0.2540    -6.1730    70.0390     4.0120     4.6940     5.3870 
   60.3750    60.3590    -0.7770    -0.2580    -5.9830    70.0790     3.9960     4.6640     5.3230 
   60.5000    60.4840    -0.7840    -0.2620    -5.5800    69.6920     3.9830     4.6500     5.5040 
   60.6250    60.6090    -0.7910    -0.2660    -5.1150    69.1580     3.9800     4.6510     5.7120 
   60.7500    60.7340    -0.7990    -0.2700    -4.7980    67.6100     3.9850     4.6710     5.7210 
   60.8750    60.8580    -0.8060    -0.2740    -4.7290    65.9410     3.9880     4.7010     5.5030 
   61.0000    60.9830    -0.8140    -0.2780    -4.8130    65.2500     3.9830     4.7330     6.9440 
   61.1250    61.1080    -0.8210    -0.2820    -4.7980    65.4140     3.9700     4.7490     9.7060 
   61.2500    61.2320    -0.8290    -0.2860    -4.4500    66.6100     3.9440     4.7430     9.4170 
   61.3750    61.3570    -0.8360    -0.2910    -3.5230    69.9350     3.9100     4.7050     7.0150 
   61.5000    61.4820    -0.8440    -0.2950    -2.5040    73.3290     3.8710     4.6560     6.0450 
   61.6250    61.6060    -0.8520    -0.2990    -2.0880    73.9340     3.8260     4.6050     6.1150 
   61.7500    61.7310    -0.8600    -0.3040    -1.9130    70.3020     3.8280     4.6440     6.2330 
   61.8750    61.8560    -0.8670    -0.3080    -1.7150    67.0070     3.9130     4.7760     6.1490 
