~V
VERS. 2.00: Ver 2.00
~W
STRT.M 1.0000:
STOP.M 198.0000:
STEP.M 0.1250:
NULL. -999.2500:
UWI. FD10802:
~C
DEPT.M :
TVD. :
DX. :
DY. :
SP.MV :
GR.API :
RI. :
RML.OHMM :
RXO.OHMM :
DEN.GM/CC :
~A
# ...
  156.1250   151.8530   -17.1510    19.2160   -14.1710    65.3340   176.8380   184.7180    90.6450     2.1310 
  156.2500   151.9690   -17.1860    19.2500   -13.8760    66.6800   173.8510   179.6740    91.6360     2.1360 
  156.3750   152.0840   -17.2200    19.2830   -13.5640    67.3860   156.3510   161.8270    91.6340     2.1450 
  156.5000   152.1990   -17.2550    19.3170   -13.1690    67.7330   132.7940   138.7470    95.4160     2.1530 
  156.6250   152.3140   -17.2900    19.3510   -12.8020    68.9330   113.5590   119.3150    99.4270     2.1560 
  156.7500   152.4290   -17.3250    19.3850   -12.3660    71.6540   100.0810   106.4290    92.0260     2.1600 
  156.8750   152.5450   -17.3600    19.4190   -11.9200    74.6610    93.1120    99.5490    75.6520     2.1660 
  157.0000   152.6600   -17.3950    19.4530   -11.4470    75.3450    91.8240    96.9790    66.8660     2.1730 
  157.1250   152.7750   -17.4300    19.4870   -10.9700    74.0840    93.6730    98.5890    66.0230     2.1750 
  157.2500   152.8900   -17.4650    19.5200   -10.5960    72.6210    96.8230   102.5180    66.0030     2.1710 
  157.3750   153.0050   -17.5000    19.5540   -10.1630    72.8340   100.3320   106.7720    70.4270     2.1630 
  157.5000   153.1200   -17.5350    19.5880    -9.6550    72.7130   103.5590   110.7860    80.2650     2.1570 
  157.6250   153.2350   -17.5690    19.6220    -9.1390    71.9650   106.2410   113.6830    85.2980     2.1590 
  157.7500   153.3500   -17.6040    19.6560    -8.5120    70.4460   108.4520   114.3970    75.9570     2.1640 
  157.8750   153.4650   -17.6390    19.6900    -7.8850    70.0750   110.2530   115.9430    66.5550     2.1660 
  158.0000   153.5810   -17.6740    19.7240    -7.3660    69.7730   111.7220   118.2060    75.1240     2.1660 
  158.1250   153.6960   -17.7090    19.7580    -6.7930    69.8720   113.0990   120.1460    87.0420     2.1670 
  158.2500   153.8110   -17.7440    19.7920    -6.0740    70.3720   113.4580   120.9830    86.1660     2.1690 
  158.3750   153.9260   -17.7800    19.8260    -5.0910    69.7220   112.2790   120.4490    75.6190     2.1690 
  158.5000   154.0410   -17.8150    19.8600    -4.2020    68.3180   110.8240   119.4130    57.2300     2.1670 
  158.6250   154.1560   -17.8500    19.8940    -3.4830    65.7550   110.0520   119.1690    37.4000     2.1670 
  158.7500   154.2710   -17.8850    19.9290    -3.0170    65.5980   111.4880   121.4620    35.4190     2.1690 
  158.8750   154.3860   -17.9200    19.9630    -2.6730    66.2780   116.1020   127.6370    42.2800     2.1600 
  159.0000   154.5010   -17.9550    19.9970    -2.2460    68.3230   123.3660   135.9810    34.1710     2.1450 
  159.1250   154.6160   -17.9900    20.0310    -1.8420    69.2120   120.4210   132.1310    28.0020     2.1320 
  159.2500   154.7310   -18.0250    20.0650    -1.4540    70.7350   106.7170   116.5330    34.4740     2.1410 
  159.3750   154.8460   -18.0600    20.1000    -1.0760    73.1470    85.4450    91.9070    34.9570     2.1710 
  159.5000   154.9610   -18.0950    20.1340    -0.7540    75.1610    65.0050    69.8360    25.3730     2.2040 
  159.6250   155.0760   -18.1300    20.1680    -0.6860    75.1160    56.3520    60.4170    16.8160     2.2270 
  159.7500   155.1910   -18.1650    20.2020    -0.8080    71.0530    57.6510    62.1830    14.0430     2.2370 
  159.8750   155.3060   -18.2000    20.2370    -1.1060    66.5150    67.7500    74.6470    14.1580     2.2470 
  160.0000   155.4210   -18.2350    20.2710    -1.5050    63.3440    83.2230    92.3520    15.6130     2.2630 
  160.1250   155.5360   -18.2700    20.3050    -1.9540    63.4310    87.4230    96.3290    17.3520     2.3030 
  160.2500   155.6510   -18.3050    20.3400    -2.5070    64.6540    78.3350    84.9800    21.2460     2.3670 
  160.3750   155.7660   -18.3400    20.3740    -3.2050    68.1760    57.9160    60.5660    36.8780     2.4150 
  160.5000   155.8810   -18.3750    20.4080    -4.1650    73.8050    36.4660    37.3980    48.8520     2.4030 
  160.6250   155.9960   -18.4100    20.4420    -5.1690    80.0260    24.5580    25.0150    35.6980     2.3520 
  160.7500   156.1110   -18.4450    20.4770    -6.3660    84.0420    18.4370    18.9370    19.1570     2.3080 
  160.8750   156.2260   -18.4800    20.5110    -7.4950    85.0920    15.1780    15.6010    14.0410     2.2920 
  161.0000   156.3410   -18.5150    20.5450    -8.5100    86.2350    14.1260    14.7010    12.5470     2.2950 
  161.1250   156.4560   -18.5500    20.5790    -9.5900    86.2760    15.0520    15.9470    13.6700     2.2980 
  161.2500   156.5710   -18.5850    20.6140   -10.6520    84.7190    17.2470    18.5270    15.8850     2.2890 
  161.3750   156.6860   -18.6190    20.6480   -11.4660    80.9460    19.4600    21.0520    22.6330     2.2680 
  161.5000   156.8010   -18.6540    20.6820   -12.0080    78.2710    20.7840    22.4950    35.8100     2.2470 
  161.6250   156.9160   -18.6890    20.7160   -12.4930    77.7650    20.8050    22.3290    39.0020     2.2480 
  161.7500   157.0310   -18.7240    20.7510   -13.0630    78.8540    19.7360    20.8890    26.9700     2.2660 
  161.8750   157.1460   -18.7590    20.7850   -13.8050    78.9510    18.6900    19.5430    16.8670     2.2790 
  162.0000   157.2610   -18.7940    20.8190   -14.2770    78.1890    18.3800    19.1200    16.4960     2.2760 
  162.1250   157.3760   -18.8290    20.8540   -14.6970    77.2260    19.1660    19.9710    19.5420     2.2650 
  162.2500   157.4910   -18.8640    20.8880   -15.0290    76.8400    20.2680    21.1590    20.8860     2.2550 
  162.3750   157.6060   -18.8990    20.9220   -14.9450    77.7120    21.1800    22.0760    21.6860     2.2540 
  162.5000   157.7210   -18.9340    20.9560   -14.5800    78.5430    21.0420    21.8000    22.0710     2.2600 
  162.6250   157.8360   -18.9700    20.9900   -14.6770    80.4150    20.2610    20.9420    19.7420     2.2790 
  162.7500   157.9510   -19.0050    21.0240   -14.8970    81.3900    19.3360    19.9510    16.4890     2.2940 
  162.8750   158.0660   -19.0400    21.0590   -14.7480    82.6410    18.3870    18.9700    16.1640     2.3000 
  163.0000   158.1810   -19.0750    21.0930   -14.5920    82.7610    17.5340    18.0770    17.8760     2.2890 
  163.1250   158.2960   -19.1100    21.1270   -14.5850    83.5720    16.7230    17.2010    17.7420     2.2800 
  163.2500   158.4110   -19.1450    21.1610   -14.9720    84.7840    15.8930    16.2930    15.2530     2.2800 
  163.3750   158.5260   -19.1800    21.1950   -15.4430    87.1330    14.9850    15.3470    13.0390     2.2930 
  163.5000   158.6410   -19.2150    21.2300   -15.6790    88.1730    14.2420    14.6290    11.9610     2.3010 
  163.6250   158.7560   -19.2500    21.2640   -15.6290    87.4530    13.7780    14.2500    11.1440     2.2970 
  163.7500   158.8710   -19.2850    21.2980   -15.4360    84.5370    13.8560    14.4520    10.8400     2.2840 
  163.8750   158.9860   -19.3200    21.3320   -15.2560    82.0550    14.3190    15.0670    12.2010     2.2700 
  164.0000   159.1010   -19.3550    21.3660   -15.1780    81.9760    15.8180    16.8840    15.0070     2.2670 
  164.1250   159.2160   -19.3900    21.4010   -15.1450    82.4490    18.2890    19.7760    17.4430     2.2660 
  164.2500   159.3310   -19.4240    21.4350   -15.0720    81.0600    21.0610    22.9700    20.1310     2.2580 
  164.3750   159.4470   -19.4590    21.4690   -14.8700    78.4500    23.8460    26.0870    24.6680     2.2440 
  164.5000   159.5620   -19.4940    21.5030   -14.8510    75.9150    26.5550    29.1090    29.6490     2.2260 
  164.6250   159.6770   -19.5290    21.5370   -14.7920    74.3440    29.6310    32.6150    32.0590     2.2130 
  164.7500   159.7920   -19.5640    21.5720   -14.5990    74.1780    34.0230    37.9130    33.2380     2.2050 
  164.8750   159.9070   -19.5990    21.6060   -14.2630    74.0530    40.3110    45.6710    41.0220     2.2010 
  165.0000   160.0220   -19.6340    21.6400   -14.0990    73.4970    51.9860    60.2400    57.1940     2.1890 
  165.1250   160.1370   -19.6690    21.6740   -13.9680    71.7630    73.0390    86.7820    73.8630     2.1700 
