~V
VERS. 2.00: Ver 2.00
~W
STRT.M 20.0000:
STOP.M 206.0000:
STEP.M 0.1250:
NULL. -999.2500:
UWI. FD10809:
~C
DEPT.M :
TVD. :
DX. :
DY. :
SP.MV :
GR.API :
RI. :
RML.OHMM :
DEN.GM/CC :
RXO.OHMM :
~A
# ...
   47.3750    47.3320     0.3270     1.0870   -22.4310    59.0540    12.2920    14.6760     2.1800    13.4750 
   47.5000    47.4560     0.3300     1.1030   -22.4080    57.8290    12.1270    14.5120     2.2190    15.3370 
   47.6250    47.5800     0.3330     1.1190   -22.4400    56.9700    11.8650    14.2040     2.2150    18.8150 
   47.7500    47.7040     0.3350     1.1360   -22.7290    56.7690    11.2330    13.4460     2.1660    20.9130 
   47.8750    47.8280     0.3380     1.1520   -23.2420    57.2280    10.1400    12.1910     2.1070    19.4920 
   48.0000    47.9520     0.3400     1.1680   -23.9370    58.1810     8.8140    10.6590     2.0750    15.9720 
   48.1250    48.0760     0.3430     1.1850   -24.6890    59.6960     7.6560     9.2470     2.0680    14.7490 
   48.2500    48.2000     0.3460     1.2020   -25.3680    61.0720     6.8200     8.2600     2.0710    16.0940 
   48.3750    48.3230     0.3480     1.2190   -26.0170    61.1710     6.4060     7.7100     2.0730    15.7540 
   48.5000    48.4470     0.3510     1.2360   -26.6970    60.4460     6.1800     7.4450     2.0760    13.5490 
   48.6250    48.5710     0.3530     1.2530   -27.3920    59.9120     6.0460     7.2560     2.0770    13.8850 
   48.7500    48.6950     0.3560     1.2700   -27.9970    60.5950     5.8330     7.0050     2.0730    15.8020 
   48.8750    48.8180     0.3590     1.2880   -28.5370    62.1020     5.5540     6.6620     2.0640    13.9930 
   49.0000    48.9420     0.3610     1.3050   -28.9230    63.5510     5.2190     6.2870     2.0580    11.1470 
   49.1250    49.0660     0.3640     1.3230   -29.0880    62.8350     4.9280     5.9580     2.0520    10.6460 
   49.2500    49.1900     0.3670     1.3400   -28.7670    61.8730     4.6770     5.6630     2.0470    10.6410 
   49.3750    49.3130     0.3690     1.3580   -27.9850    61.2340     4.3760     5.3330     2.0460    10.1330 
   49.5000    49.4370     0.3720     1.3760   -26.7620    62.1870     4.0470     4.9380     2.0560     8.8920 
   49.6250    49.5610     0.3750     1.3940   -25.2000    64.0550     3.6660     4.5190     2.0690     7.0380 
   49.7500    49.6840     0.3770     1.4130   -23.6770    66.2350     3.3700     4.1860     2.0720     5.9190 
   49.8750    49.8080     0.3800     1.4310   -22.8690    67.8120     3.1900     3.9970     2.0600     6.2470 
   50.0000    49.9310     0.3820     1.4490   -23.0550    67.3480     3.1290     3.9470     2.0450     6.9050 
   50.1250    50.0550     0.3850     1.4680   -23.3660    66.1480     3.1200     3.9550     2.0350     7.0820 
   50.2500    50.1790     0.3880     1.4870   -23.4590    66.6270     3.1170     3.9460     2.0360     7.0300 
   50.3750    50.3020     0.3900     1.5060   -23.3140    67.8080     3.0700     3.8730     2.0410     6.7820 
   50.5000    50.4260     0.3930     1.5250   -22.9760    69.4430     2.9770     3.7450     2.0490     6.3430 
   50.6250    50.5490     0.3960     1.5440   -22.1830    69.9700     2.8920     3.6230     2.0590     6.1400 
   50.7500    50.6730     0.3990     1.5630   -20.9110    70.3870     2.8330     3.5520     2.0730     6.1090 
   50.8750    50.7960     0.4010     1.5820   -19.1230    72.3280     2.8190     3.5330     2.0930     6.1680 
   51.0000    50.9200     0.4040     1.6020   -16.7420    76.4420     2.8180     3.5490     2.1160     5.7660 
   51.1250    51.0430     0.4070     1.6220   -13.9820    83.4090     2.8400     3.5690     2.1310     4.7480 
   51.2500    51.1660     0.4100     1.6420   -11.5160    89.3880     2.8240     3.5670     2.1390     4.1280 
   51.3750    51.2900     0.4120     1.6620    -9.9150    92.9480     2.8040     3.5540     2.1470     4.0370 
   51.5000    51.4130     0.4150     1.6820    -8.9760    94.1960     2.7940     3.5590     2.1580     4.0630 
   51.6250    51.5360     0.4180     1.7020    -8.5300    95.5660     2.8230     3.6030     2.1660     3.8610 
   51.7500    51.6600     0.4210     1.7220    -8.2750    96.9500     2.8760     3.6680     2.1710     3.9670 
   51.8750    51.7830     0.4230     1.7430    -8.3320    97.4470     2.9160     3.7210     2.1830     4.8230 
   52.0000    51.9060     0.4260     1.7640    -8.3890    98.2910     2.9360     3.7340     2.1950     5.1200 
   52.1250    52.0290     0.4290     1.7850    -7.7240    98.8670     2.9190     3.7180     2.1960     4.3350 
   52.2500    52.1520     0.4320     1.8060    -6.7460    99.0410     2.9210     3.7060     2.1770     3.6100 
   52.3750    52.2760     0.4350     1.8270    -6.4780    98.0360     2.9310     3.7320     2.1530     3.5260 
   52.5000    52.3990     0.4370     1.8480    -6.9330    97.3070     3.0050     3.8270     2.1340     4.2800 
   52.6250    52.5220     0.4400     1.8700    -7.6230    96.5700     3.1240     3.9770     2.1230     5.1020 
   52.7500    52.6450     0.4430     1.8910    -8.1560    94.7950     3.2740     4.1600     2.1200     5.0640 
   52.8750    52.7680     0.4460     1.9130    -8.2220    92.7160     3.4290     4.3430     2.1230     5.1000 
   53.0000    52.8910     0.4480     1.9350    -8.1190    91.2900     3.5510     4.4840     2.1300     5.5660 
   53.1250    53.0140     0.4510     1.9570    -7.9320    91.2840     3.5970     4.5400     2.1380     6.1710 
   53.2500    53.1370     0.4540     1.9790    -7.4990    92.3740     3.5480     4.4760     2.1490     6.6090 
   53.3750    53.2600     0.4570     2.0020    -6.7170    94.6930     3.4180     4.3040     2.1650     5.8110 
   53.5000    53.3830     0.4600     2.0240    -5.6380    98.2740     3.2300     4.0680     2.1780     4.2660 
   53.6250    53.5060     0.4620     2.0470    -4.7690   101.1250     3.0520     3.8820     2.1860     3.5750 
   53.7500    53.6290     0.4650     2.0690    -4.5230   102.5330     3.0370     3.8700     2.1810     3.6670 
   53.8750    53.7520     0.4680     2.0920    -4.8730   101.8650     3.1450     4.0350     2.1660     3.9560 
   54.0000    53.8740     0.4710     2.1150    -5.6350   101.8080     3.3590     4.3250     2.1490     5.1630 
   54.1250    53.9970     0.4730     2.1380    -6.7700    99.9490     3.6090     4.6220     2.1380     6.9180 
   54.2500    54.1200     0.4760     2.1620    -7.8500    96.9830     3.7530     4.7930     2.1410     6.8440 
   54.3750    54.2430     0.4790     2.1850    -8.6310    93.4560     3.7790     4.7880     2.1460     5.7270 
   54.5000    54.3660     0.4820     2.2090    -9.2810    92.5090     3.6580     4.6250     2.1500     5.6600 
   54.6250    54.4880     0.4840     2.2320    -9.7720    92.1990     3.4760     4.3910     2.1570     5.8310 
   54.7500    54.6110     0.4870     2.2560    -9.9240    92.5250     3.2760     4.1750     2.1720     5.4800 
   54.8750    54.7340     0.4890     2.2800    -9.8050    93.4470     3.1750     4.0560     2.1900     4.9230 
   55.0000    54.8560     0.4920     2.3040    -9.8310    94.0310     3.1730     4.0580     2.1900     4.5950 
   55.1250    54.9790     0.4940     2.3290   -10.4440    92.1410     3.2440     4.1560     2.1720     4.4820 
   55.2500    55.1010     0.4970     2.3530   -11.8660    87.7730     3.4010     4.3450     2.1440     4.7360 
   55.3750    55.2240     0.4990     2.3770   -13.8680    83.5410     3.6020     4.5740     2.1250     5.2100 
   55.5000    55.3460     0.5020     2.4020   -15.9190    79.1950     3.7990     4.7800     2.1170     5.5890 
   55.6250    55.4690     0.5040     2.4270   -17.4130    75.2110     3.9490     4.9290     2.1100     6.0410 
   55.7500    55.5910     0.5070     2.4520   -18.3080    71.0730     4.0550     5.0130     2.1000     6.6270 
   55.8750    55.7140     0.5090     2.4770   -18.7890    68.4470     4.1150     5.0490     2.0900     7.0980 
   56.0000    55.8360     0.5120     2.5020   -19.0740    66.3190     4.1390     5.0550     2.0870     7.1190 
   56.1250    55.9590     0.5140     2.5270   -19.3500    65.2770     4.1510     5.0460     2.0850     6.9190 
   56.2500    56.0810     0.5160     2.5520   -19.5670    64.9710     4.1430     5.0190     2.0840     6.7960 
   56.3750    56.2030     0.5190     2.5780   -19.5520    65.0960     4.1060     4.9700     2.0820     6.7940 
