~V
VERS. 2.00: Ver 2.00
~W
STRT.M 30.0000:
STOP.M 262.0000:
STEP.M 0.1250:
NULL. -999.2500:
UWI. FD10852:
~C
DEPT.M :
TVD. :
DX. :
DY. :
SP.MV :
GR.API :
RI. :
RML.OHMM :
RXO.OHMM :
DEN.GM/CC :
~A
# ...
   84.7500    83.9860    -7.9470    -0.6300    -7.3070    61.9530    19.9240    23.3170    21.6510     2.0960 
   84.8750    84.1050    -7.9820    -0.6340    -7.7630    61.0100    20.7460    24.3630    21.9170     2.0820 
   85.0000    84.2250    -8.0170    -0.6390    -8.2990    59.5460    20.9020    24.6460    23.3870     2.0800 
   85.1250    84.3450    -8.0520    -0.6440    -8.6280    60.1450    20.3860    24.1750    27.2990     2.0840 
   85.2500    84.4650    -8.0880    -0.6490    -8.4930    62.6960    19.5050    23.2600    26.8640     2.0800 
   85.3750    84.5850    -8.1230    -0.6530    -7.9860    63.6630    18.5000    22.1560    21.4980     2.0640 
   85.5000    84.7040    -8.1590    -0.6580    -7.4000    63.2170    17.5210    20.9760    18.2720     2.0490 
   85.6250    84.8240    -8.1940    -0.6630    -7.0940    63.6010    16.7600    19.9780    17.1060     2.0450 
   85.7500    84.9440    -8.2300    -0.6680    -7.3430    62.6080    16.8430    19.9500    16.0040     2.0440 
   85.8750    85.0630    -8.2660    -0.6720    -8.0350    59.5930    18.4760    21.6670    16.3070     2.0380 
   86.0000    85.1830    -8.3030    -0.6770    -8.9910    57.8030    22.1640    26.0410    18.0980     2.0620 
   86.1250    85.3020    -8.3390    -0.6810   -10.0170    58.7740    29.2680    34.8930    21.1480     2.1530 
   86.2500    85.4220    -8.3750    -0.6860   -10.7770    59.0590    42.6830    52.1070    36.6620     2.3080 
   86.3750    85.5410    -8.4120    -0.6900   -11.0980    57.3780    64.3340    79.8580    85.9970     2.4590 
   86.5000    85.6610    -8.4490    -0.6950   -11.2050    56.1940    73.3750    87.4440   134.7930     2.5510 
   86.6250    85.7800    -8.4860    -0.7000   -11.3710    55.7780    66.7740    78.1200   129.2290     2.5980 
   86.7500    85.8990    -8.5230    -0.7040   -11.5570    58.0790    47.4850    52.7260   107.1980     2.6180 
   86.8750    86.0190    -8.5600    -0.7090   -11.7530    66.0300    22.3060    23.2010    94.5320     2.5710 
   87.0000    86.1380    -8.5970    -0.7140   -12.0510    77.3470    11.6570    12.5220    59.4680     2.4310 
   87.1250    86.2570    -8.6340    -0.7190   -12.3920    86.2630     7.8260     8.5900    20.4640     2.2680 
   87.2500    86.3760    -8.6710    -0.7240   -12.6910    89.5630     6.1700     7.0600     7.1570     2.1790 
   87.3750    86.4950    -8.7090    -0.7290   -12.9120    90.4480     5.6610     6.8390     6.9850     2.1630 
   87.5000    86.6150    -8.7460    -0.7340   -13.0010    90.6030     5.8020     7.2640     7.0620     2.1740 
   87.6250    86.7340    -8.7840    -0.7390   -13.0840    91.4510     6.0170     7.6110     7.1270     2.1820 
   87.7500    86.8530    -8.8220    -0.7440   -13.2610    91.4400     6.0000     7.5520     6.9350     2.1900 
   87.8750    86.9720    -8.8590    -0.7490   -13.5060    90.8300     5.6790     7.0480     6.4820     2.2030 
   88.0000    87.0910    -8.8970    -0.7540   -13.8440    93.1900     5.1590     6.3010     6.0160     2.2150 
   88.1250    87.2100    -8.9350    -0.7590   -14.2600    98.8330     4.6250     5.5520     5.6230     2.2200 
   88.2500    87.3290    -8.9730    -0.7640   -14.5380   101.2980     4.3080     5.1380     5.2220     2.2290 
   88.3750    87.4480    -9.0110    -0.7690   -14.4230    97.5290     4.2540     5.0780     4.6870     2.2430 
   88.5000    87.5670    -9.0490    -0.7740   -13.8520    91.9990     4.5490     5.4760     4.7810     2.2510 
   88.6250    87.6860    -9.0880    -0.7800   -13.0870    89.1970     5.1420     6.2760     5.8650     2.2440 
   88.7500    87.8040    -9.1260    -0.7850   -12.4970    88.2430     6.0040     7.4240     6.7620     2.2310 
   88.8750    87.9230    -9.1650    -0.7900   -12.3280    85.8520     6.9590     8.6980     7.1050     2.2140 
   89.0000    88.0420    -9.2030    -0.7960   -12.5670    82.4490     7.9120     9.9890     7.5440     2.1870 
   89.1250    88.1610    -9.2420    -0.8010   -12.9630    80.4930     8.7460    11.1050     7.8960     2.1550 
   89.2500    88.2800    -9.2800    -0.8070   -13.3380    81.0410     9.4360    12.0420     8.1530     2.1330 
   89.3750    88.3980    -9.3190    -0.8130   -13.4640    80.7340     9.9310    12.7020     8.6120     2.1270 
   89.5000    88.5170    -9.3580    -0.8180   -13.1380    77.3970    10.0500    12.8230     8.9890     2.1320 
   89.6250    88.6360    -9.3970    -0.8240   -12.5710    74.6870     9.8900    12.5780     9.1490     2.1350 
   89.7500    88.7540    -9.4360    -0.8300   -12.0350    74.2140     9.6270    12.1790     9.0170     2.1290 
   89.8750    88.8730    -9.4750    -0.8350   -11.5520    74.3020     9.4690    11.9790     8.5850     2.1250 
   90.0000    88.9910    -9.5150    -0.8410   -11.0910    74.5510     9.6730    12.3540     8.2070     2.1310 
   90.1250    89.1100    -9.5540    -0.8460   -10.7640    75.8680    10.2180    13.2620     8.2270     2.1360 
   90.2500    89.2280    -9.5940    -0.8520   -10.6550    77.3730    11.2600    14.9420     8.7200     2.1280 
   90.3750    89.3470    -9.6330    -0.8580   -10.7730    78.5130    12.6800    17.1950    10.1930     2.1210 
   90.5000    89.4650    -9.6730    -0.8630   -11.2000    79.9380    13.3980    18.1580    12.2360     2.1320 
   90.6250    89.5830    -9.7130    -0.8690   -11.8100    81.1240    12.6600    16.9650    13.2960     2.1590 
   90.7500    89.7020    -9.7520    -0.8740   -12.5080    82.5040    10.6370    13.8970    14.4110     2.1830 
   90.8750    89.8200    -9.7920    -0.8790   -13.4070    86.4240     8.0170    10.0500    14.9620     2.1990 
   91.0000    89.9380    -9.8320    -0.8850   -14.5050    93.1610     6.1010     7.4670    11.4310     2.2160 
   91.1250    90.0570    -9.8720    -0.8910   -15.5340    97.9760     5.1690     6.3190     6.6080     2.2340 
   91.2500    90.1750    -9.9120    -0.8960   -16.3220    98.1140     5.0630     6.4180     5.2400     2.2330 
   91.3750    90.2930    -9.9530    -0.9030   -16.8940    94.4550     5.5330     7.3150     6.1560     2.2070 
   91.5000    90.4110    -9.9930    -0.9090   -17.1120    88.1560     6.2400     8.4360     7.0100     2.1640 
   91.6250    90.5300   -10.0330    -0.9150   -16.8500    84.3900     6.8340     9.2330     7.4150     2.1310 
   91.7500    90.6480   -10.0730    -0.9210   -16.2180    86.2700     6.8910     9.0870     7.4090     2.1270 
   91.8750    90.7660   -10.1140    -0.9270   -15.5980    90.1920     6.6650     8.5330     7.0070     2.1520 
   92.0000    90.8840   -10.1540    -0.9330   -15.3840    91.0080     6.5490     8.1760     6.6540     2.1850 
   92.1250    91.0020   -10.1950    -0.9390   -15.6720    88.7450     6.8470     8.4700     6.7360     2.2040 
   92.2500    91.1200   -10.2360    -0.9450   -16.2220    86.1420     7.6660     9.5390     7.2320     2.2060 
   92.3750    91.2380   -10.2760    -0.9510   -16.7550    82.8680     8.7460    11.0070    10.1470     2.2030 
   92.5000    91.3560   -10.3170    -0.9570   -17.0560    78.2280     9.7620    12.3200    15.0290     2.1940 
   92.6250    91.4740   -10.3580    -0.9640   -16.8900    75.4950    10.4530    13.1470    15.9340     2.1710 
   92.7500    91.5920   -10.3990    -0.9700   -16.3090    76.4870    10.8470    13.5400    12.4440     2.1300 
   92.8750    91.7100   -10.4400    -0.9760   -15.6720    79.2390    10.9680    13.5650     9.3920     2.1030 
   93.0000    91.8280   -10.4810    -0.9820   -15.1370    80.5670    10.9040    13.3740     8.4830     2.1150 
   93.1250    91.9460   -10.5220    -0.9880   -14.7510    80.1380    10.7250    13.0360    10.0960     2.1550 
   93.2500    92.0640   -10.5630    -0.9940   -14.6650    81.3590    10.2640    12.2960    12.0920     2.1820 
   93.3750    92.1820   -10.6040    -1.0000   -14.8420    85.1200     9.4480    11.1360    11.0120     2.1840 
   93.5000    92.3000   -10.6450    -1.0060   -15.1630    89.4740     8.2510     9.6180     8.6380     2.1750 
   93.6250    92.4170   -10.6860    -1.0120   -15.5070    93.5370     7.0130     8.1350     7.6460     2.1740 
   93.7500    92.5350   -10.7270    -1.0180   -15.7980    98.4220     6.0610     7.0910     7.1610     2.1940 
