~V
VERS. 2.00: Ver 2.00
~W
STRT.M 43.0000:
STOP.M 257.0000:
STEP.M 0.1250:
NULL. -999.2500:
UWI. FD10872:
~C
DEPT.M :
TVD. :
DX. :
DY. :
SP.MV :
GR.API :
RI. :
RML.OHMM :
RXO.OHMM :
DEN.GM/CC :
~A
# ...
  234.6250   223.7180    48.8210   -31.9210    -0.1380    88.0390     5.4130     7.6930     9.9590     2.3420 
  234.7500   223.8310    48.8670   -31.9470    -0.2920    88.1970     5.1930     7.3390    10.5950     2.3450 
  234.8750   223.9440    48.9140   -31.9730    -0.4670    86.4430     4.8600     6.8290     9.6570     2.3400 
  235.0000   224.0570    48.9610   -31.9990    -0.5420    82.8360     4.5460     6.3760     7.6210     2.3310 
  235.1250   224.1700    49.0070   -32.0260    -0.4360    78.5950     4.2990     6.0580     6.3100     2.3200 
  235.2500   224.2830    49.0540   -32.0520    -0.1800    76.4110     4.1520     5.9000     6.1630     2.3110 
  235.3750   224.3960    49.1010   -32.0780     0.1490    77.3630     4.0550     5.7870     6.2080     2.3060 
  235.5000   224.5090    49.1470   -32.1040     0.4580    77.1920     3.9860     5.6930     6.0580     2.3050 
  235.6250   224.6220    49.1940   -32.1300     0.6920    75.7770     3.9420     5.6270     5.8480     2.3090 
  235.7500   224.7350    49.2410   -32.1560     0.8440    75.4610     3.9200     5.5970     5.5680     2.3140 
  235.8750   224.8480    49.2870   -32.1820     0.9290    77.7150     3.9150     5.5770     5.4280     2.3190 
  236.0000   224.9610    49.3340   -32.2080     0.9790    80.3320     3.9300     5.5630     5.4770     2.3210 
  236.1250   225.0740    49.3800   -32.2350     0.9930    80.7080     3.9590     5.5770     5.4600     2.3200 
  236.2500   225.1870    49.4270   -32.2610     0.9570    79.6240     3.9980     5.6210     5.3830     2.3140 
  236.3750   225.3000    49.4730   -32.2880     0.8390    79.0200     4.0500     5.6880     5.5250     2.3050 
  236.5000   225.4130    49.5200   -32.3140     0.6210    79.4380     4.1080     5.7760     5.9050     2.2960 
  236.6250   225.5260    49.5670   -32.3400     0.2970    79.8540     4.1740     5.8490     6.1440     2.2890 
  236.7500   225.6390    49.6130   -32.3660    -0.1010    78.8660     4.2360     5.9060     6.1300     2.2860 
  236.8750   225.7520    49.6600   -32.3920    -0.5370    77.6190     4.2780     5.9480     6.0830     2.2870 
  237.0000   225.8650    49.7070   -32.4190    -0.9510    78.1050     4.3250     5.9770     6.0500     2.2910 
  237.1250   225.9780    49.7540   -32.4450    -1.2430    80.5830     4.3570     5.9910     6.0800     2.2950 
  237.2500   226.0910    49.8000   -32.4710    -1.3290    81.9000     4.3740     6.0080     6.2900     2.2990 
  237.3750   226.2040    49.8470   -32.4970    -1.1450    80.6930     4.3760     6.0030     6.5260     2.3000 
  237.5000   226.3170    49.8940   -32.5230    -0.7500    79.2920     4.3650     5.9910     6.5630     2.2970 
  237.6250   226.4300    49.9410   -32.5490    -0.2810    81.3980     4.3590     5.9640     6.4150     2.2900 
  237.7500   226.5430    49.9880   -32.5750     0.0820    84.5370     4.3620     5.9020     6.2000     2.2830 
  237.8750   226.6560    50.0340   -32.6010     0.2300    84.6640     4.3480     5.8320     5.9430     2.2770 
  238.0000   226.7690    50.0810   -32.6270     0.2060    82.5570     4.3320     5.7680     5.7970     2.2750 
  238.1250   226.8820    50.1280   -32.6530     0.1180    82.7070     4.3150     5.7320     5.9010     2.2780 
  238.2500   226.9940    50.1750   -32.6790     0.1010    85.2200     4.3060     5.7410     5.9690     2.2830 
  238.3750   227.1070    50.2220   -32.7050     0.2340    85.5390     4.3170     5.7760     6.0360     2.2890 
  238.5000   227.2200    50.2680   -32.7310     0.4850    82.4950     4.3440     5.8180     6.3520     2.2930 
  238.6250   227.3330    50.3150   -32.7580     0.8050    78.7140     4.3710     5.8360     6.5310     2.2910 
  238.7500   227.4460    50.3620   -32.7840     1.1250    75.5090     4.3860     5.8280     6.3510     2.2870 
  238.8750   227.5590    50.4090   -32.8100     1.3780    74.4240     4.3790     5.7660     6.1270     2.2820 
  239.0000   227.6720    50.4550   -32.8370     1.5430    75.6480     4.3660     5.6980     6.0920     2.2810 
  239.1250   227.7850    50.5020   -32.8640     1.6150    77.9470     4.3680     5.6750     5.9450     2.2830 
  239.2500   227.8970    50.5480   -32.8910     1.6180    79.0340     4.4200     5.7190     5.5100     2.2840 
  239.3750   228.0100    50.5950   -32.9190     1.5890    79.9620     4.5050     5.8240     5.4110     2.2800 
  239.5000   228.1230    50.6410   -32.9460     1.5440    83.2130     4.6060     5.9300     5.7070     2.2720 
  239.6250   228.2360    50.6880   -32.9730     1.4700    87.8810     4.6740     5.9760     5.8160     2.2630 
  239.7500   228.3490    50.7340   -33.0000     1.3570    89.1300     4.7040     5.9570     5.8830     2.2550 
  239.8750   228.4610    50.7810   -33.0280     1.2030    85.8160     4.7030     5.9200     6.2100     2.2500 
  240.0000   228.5740    50.8270   -33.0550     1.0520    82.5310     4.7190     5.9370     6.4800     2.2470 
  240.1250   228.6870    50.8740   -33.0830     0.9930    83.4190     4.7850     6.0220     6.4600     2.2440 
  240.2500   228.7990    50.9200   -33.1100     1.1120    85.8410     4.8800     6.1530     6.2390     2.2410 
  240.3750   228.9120    50.9670   -33.1380     1.4940    86.9200     4.9830     6.2780     6.4780     2.2380 
  240.5000   229.0250    51.0130   -33.1660     2.1010    86.9940     5.0500     6.3470     8.3600     2.2350 
  240.6250   229.1380    51.0600   -33.1930     2.8150    87.2620     5.0670     6.3300    10.4790     2.2340 
  240.7500   229.2500    51.1060   -33.2210     3.4520    86.5470     5.0340     6.2100    10.1890     2.2360 
  240.8750   229.3630    51.1520   -33.2490     3.8370    84.1990     4.8770     5.9950     8.3110     2.2410 
  241.0000   229.4760    51.1980   -33.2770     3.9370    81.0560     4.7250     5.7880     6.9000     2.2500 
  241.1250   229.5880    51.2450   -33.3050     3.8260    77.3990     4.6010     5.6670     6.3680     2.2640 
  241.2500   229.7010    51.2910   -33.3340     3.6750    74.6690     4.5850     5.6510     6.1480     2.2800 
  241.3750   229.8140    51.3370   -33.3620     3.6320    75.4860     4.6890     5.7620     5.8740     2.2950 
  241.5000   229.9270    51.3820   -33.3900     3.7450    78.9270     4.8720     5.9820     5.8660     2.3050 
  241.6250   230.0390    51.4280   -33.4190     3.9690    80.3190     5.0860     6.2400     6.9270     2.3060 
  241.7500   230.1520    51.4740   -33.4480     4.1930    78.6150     5.2430     6.4260     8.2550     2.3000 
  241.8750   230.2650    51.5190   -33.4760     4.3390    76.3790     5.3030     6.4840     8.3030     2.2900 
  242.0000   230.3780    51.5650   -33.5050     4.3810    77.0440     5.2190     6.3500     8.2660     2.2800 
  242.1250   230.4910    51.6100   -33.5340     4.3370    80.0270     5.0770     6.1340     8.7020     2.2720 
  242.2500   230.6040    51.6560   -33.5620     4.2600    81.7520     4.9480     5.9350     8.3570     2.2650 
  242.3750   230.7160    51.7010   -33.5910     4.1910    82.5560     4.9010     5.7920     7.5220     2.2570 
  242.5000   230.8290    51.7470   -33.6200     4.1470    83.8150     4.8540     5.7490     6.7670     2.2490 
  242.6250   230.9420    51.7920   -33.6480     4.1300    85.1300     4.8490     5.7810     6.4150     2.2410 
  242.7500   231.0550    51.8370   -33.6770     4.1260    84.5890     4.7950     5.7670     7.1230     2.2360 
  242.8750   231.1680    51.8830   -33.7060     4.1260    83.0800     4.6770     5.6690     7.9840     2.2350 
  243.0000   231.2810    51.9280   -33.7350     4.1260    81.7290     4.5740     5.5220     7.5540     2.2400 
  243.1250   231.3940    51.9740   -33.7630     4.1260    80.3670     4.4620     5.3390     6.3620     2.2520 
  243.2500   231.5060    52.0190   -33.7920     4.1260    79.3280     4.3800     5.2040     5.6540     2.2670 
  243.3750   231.6190    52.0650   -33.8210     4.1260    79.0220     4.3420     5.1120     5.6150     2.2820 
  243.5000   231.7320    52.1100   -33.8490     4.1260    77.8550     4.3320     5.0640     5.8320     2.2940 
  243.6250   231.8450    52.1550   -33.8780     4.1260    77.4240     4.3640     5.0810     6.0220     2.2970 
