~V
VERS. 2.00: Ver 2.00
~W
STRT.M 15.0000:
STOP.M 236.0000:
STEP.M 0.1250:
NULL. -999.2500:
UWI. FD10614:
~C
DEPT.M :
TVD. :
DX. :
DY. :
DEN.GM/CC :
GR.API :
RML.OHMM :
RI. :
RXO.OHMM :
CALI.CM :
SP.MV :
~A
# ...
   97.5000    96.5430     7.1670     2.0790     2.4190   101.8540     5.1530     4.4880     5.2970    22.0860   -15.1410 
   97.6250    96.6610     7.2020     2.0980     2.4130   103.3600     5.3950     4.6180     5.2790    22.0160   -14.9570 
   97.7500    96.7800     7.2380     2.1170     2.4280   102.3710     6.0500     5.0870     5.3020    21.9310   -15.0840 
   97.8750    96.8980     7.2730     2.1360     2.4710    96.5780     7.2020     5.9670     5.8760    21.7910   -15.4490 
   98.0000    97.0160     7.3090     2.1550     2.5210    87.3030     8.8360     7.3040     7.7860    21.5800   -16.0990 
   98.1250    97.1340     7.3440     2.1750     2.5320    78.3600    10.6780     9.0150    12.4140    21.3730   -16.9490 
   98.2500    97.2520     7.3800     2.1940     2.4860    71.8760    12.1140    10.5400    15.9250    21.2670   -17.8720 
   98.3750    97.3710     7.4150     2.2130     2.3960    67.9020    12.6550    11.2640    13.7910    21.2820   -18.8170 
   98.5000    97.4890     7.4510     2.2320     2.3010    65.6710    12.1780    10.9340    10.0600    21.4120   -19.6810 
   98.6250    97.6070     7.4860     2.2510     2.2470    65.1130    10.9910     9.8720     9.0270    21.5300   -20.3980 
   98.7500    97.7250     7.5220     2.2700     2.2320    66.6270     9.8140     8.7920     8.9450    21.4370   -20.9110 
   98.8750    97.8430     7.5570     2.2900     2.2370    70.9510     9.0100     8.0090     8.5980    21.2140   -21.2440 
   99.0000    97.9620     7.5930     2.3090     2.2370    76.4610     8.6850     7.6160     7.8800    21.0530   -21.4570 
   99.1250    98.0800     7.6280     2.3280     2.2160    78.0730     8.8200     7.6210     7.9580    21.0350   -21.6030 
   99.2500    98.1980     7.6640     2.3470     2.1820    72.6920     9.1960     7.8680     8.6710    21.0690   -21.7250 
   99.3750    98.3160     7.7000     2.3660     2.1480    63.1890     9.6850     8.2640     9.0950    21.1380   -21.8310 
   99.5000    98.4350     7.7350     2.3850     2.1260    56.6200    10.1810     8.7210     8.7900    21.2530   -21.9360 
   99.6250    98.5530     7.7710     2.4050     2.1220    56.4660    10.5910     9.1430     8.6860    21.4170   -22.0700 
   99.7500    98.6710     7.8060     2.4240     2.1270    56.9470    10.8700     9.4710     9.0220    21.5220   -22.1940 
   99.8750    98.7890     7.8420     2.4430     2.1390    55.8280    10.9730     9.6560     9.3800    21.6130   -22.2170 
  100.0000    98.9070     7.8770     2.4620     2.1540    55.2230    10.8390     9.6370     9.2830    21.7090   -22.0420 
  100.1250    99.0260     7.9130     2.4810     2.1780    59.0460    10.3740     9.3000     8.8060    21.7620   -21.5540 
  100.2500    99.1440     7.9480     2.5000     2.2130    65.1500     9.6500     8.6920     8.3900    21.6470   -20.8610 
  100.3750    99.2620     7.9840     2.5200     2.2560    73.6270     8.7850     7.9200     7.8040    21.5260   -20.0150 
  100.5000    99.3800     8.0190     2.5390     2.2970    84.6950     7.9560     7.1500     6.7780    21.5290   -19.1170 
  100.6250    99.4990     8.0550     2.5580     2.3200    92.3200     7.3900     6.5800     5.9420    21.5600   -18.2460 
  100.7500    99.6170     8.0900     2.5770     2.3200    93.4120     7.1720     6.2870     5.8230    21.4830   -17.4950 
  100.8750    99.7350     8.1260     2.5960     2.3030    90.1750     7.3190     6.2990     6.3820    21.2640   -16.9450 
  101.0000    99.8530     8.1610     2.6150     2.2810    86.3580     7.7760     6.5940     7.1670    20.9930   -16.5930 
  101.1250    99.9710     8.1970     2.6350     2.2680    82.8020     8.4260     7.1110     7.8830    20.8580   -16.5660 
  101.2500   100.0900     8.2320     2.6540     2.2640    79.5660     9.0680     7.6810     8.6460    20.8350   -16.7480 
  101.3750   100.2080     8.2680     2.6730     2.2630    77.4670     9.5750     8.1790     9.3470    20.8750   -17.1150 
  101.5000   100.3260     8.3030     2.6920     2.2530    75.4120     9.8820     8.5200     9.4840    20.9440   -17.6290 
  101.6250   100.4440     8.3390     2.7110     2.2280    72.6590     9.9810     8.6680     9.1280    21.0860   -18.2210 
  101.7500   100.5620     8.3740     2.7300     2.1890    69.5720    10.0160     8.7100     9.0460    21.3580   -18.7570 
  101.8750   100.6810     8.4100     2.7500     2.1480    65.4940    10.1640     8.7660     8.9040    21.6330   -19.2140 
  102.0000   100.7990     8.4450     2.7690     2.1240    60.6830    10.6510     9.0170     8.6740    21.7280   -19.5750 
  102.1250   100.9170     8.4810     2.7880     2.1530    58.2600    11.7740     9.7590     8.8220    21.5780   -19.7050 
  102.2500   101.0350     8.5160     2.8070     2.2410    59.4360    13.4210    11.0210     9.2310    21.4100   -19.6170 
  102.3750   101.1540     8.5520     2.8260     2.3710    62.1870    15.2200    12.6470    10.8960    21.2850   -19.3120 
  102.5000   101.2720     8.5870     2.8450     2.5030    65.6010    16.5000    14.1360    16.1050    21.1680   -18.7850 
  102.6250   101.3900     8.6230     2.8650     2.5810    70.7490    16.3410    14.4770    22.5950    21.1070   -18.0790 
  102.7500   101.5080     8.6590     2.8840     2.5880    76.3430    14.8610    13.4710    19.1140    21.0960   -17.3050 
  102.8750   101.6260     8.6940     2.9030     2.5380    81.0790    12.6440    11.6630    11.8330    21.1200   -16.4940 
  103.0000   101.7450     8.7300     2.9220     2.4610    86.1290    10.4690     9.8310     8.7660    21.1470   -15.7330 
  103.1250   101.8630     8.7650     2.9410     2.3950    89.9240     8.9920     8.5420     8.2510    21.1740   -15.0720 
  103.2500   101.9810     8.8010     2.9600     2.3540    89.4810     8.1860     7.8030     8.2490    21.2000   -14.5310 
  103.3750   102.0990     8.8360     2.9790     2.3370    86.2230     7.8590     7.5030     8.1390    21.2300   -14.1330 
  103.5000   102.2170     8.8720     2.9990     2.3340    85.6250     7.7660     7.4640     7.8820    21.3060   -13.8290 
  103.6250   102.3360     8.9070     3.0180     2.3350    88.6680     7.7020     7.4940     7.1640    21.3750   -13.6250 
  103.7500   102.4540     8.9430     3.0370     2.3360    91.1320     7.5730     7.4710     6.5080    21.4160   -13.4380 
  103.8750   102.5720     8.9780     3.0560     2.3380    93.7520     7.3830     7.3800     6.2790    21.4470   -13.3410 
  104.0000   102.6900     9.0140     3.0750     2.3500    96.6730     7.1700     7.2470     6.5600    21.4990   -13.2230 
  104.1250   102.8090     9.0490     3.0940     2.3720    96.0920     6.9850     7.1110     6.6700    21.5750   -13.1390 
  104.2500   102.9270     9.0850     3.1140     2.3940    93.6260     6.8710     7.0150     6.5430    21.7290   -13.0930 
  104.3750   103.0450     9.1200     3.1330     2.4020    92.5710     6.8610     6.9860     6.5990    21.9990   -13.0840 
  104.5000   103.1630     9.1560     3.1520     2.3860    93.4240     6.9610     7.0350     6.6190    22.4020   -13.1240 
  104.6250   103.2810     9.1910     3.1710     2.3460    92.3000     7.1440     7.1460     6.6270    22.8000   -13.1580 
  104.7500   103.4000     9.2270     3.1900     2.3010    89.9460     7.3150     7.2400     6.5630    23.0510   -13.2300 
  104.8750   103.5180     9.2620     3.2090     2.2690    89.3400     7.4030     7.2480     6.5260    22.9940   -13.2280 
  105.0000   103.6360     9.2980     3.2290     2.2590    89.9630     7.3740     7.1390     6.6480    22.6770   -13.2090 
  105.1250   103.7540     9.3330     3.2480     2.2680    91.9210     7.2620     6.9490     6.7640    22.2720   -13.1540 
  105.2500   103.8730     9.3690     3.2670     2.2840    94.9440     7.1980     6.8020     6.8560    22.0770   -13.0120 
  105.3750   103.9910     9.4040     3.2860     2.2950    96.4510     7.3260     6.8140     7.1130    22.0670   -12.7420 
  105.5000   104.1090     9.4400     3.3050     2.2950    93.7490     7.7900     7.1050     7.8710    22.1520   -12.3910 
  105.6250   104.2270     9.4750     3.3240     2.2790    87.8510     8.8150     7.8690     8.9810    22.2500   -11.9380 
