~V
VERS. 2.00: Ver 2.00
~W
STRT.M 63.0000:
STOP.M 266.0000:
STEP.M 0.1250:
NULL. -999.2500:
UWI. FD10888:
~C
DEPT.M :
TVD. :
DX. :
DY. :
SP.MV :
GR.API :
RI. :
RML.OHMM :
RXO.OHMM :
DEN.GM/CC :
~A
# ...
  117.7500   117.7420    -0.6890    -0.6120   -20.3440    95.2700     3.5470     3.7700     3.4600     2.3270 
  117.8750   117.8670    -0.6920    -0.6140   -19.9800    94.0630     3.8400     4.1660     4.2290     2.3460 
  118.0000   117.9920    -0.6940    -0.6160   -19.3730    89.6140     4.6900     5.1520     8.3370     2.3660 
  118.1250   118.1170    -0.6960    -0.6170   -18.5410    82.3520     6.3670     7.0060    16.7080     2.3600 
  118.2500   118.2420    -0.6990    -0.6190   -17.5190    75.0230     8.8080     9.7660    22.6570     2.3150 
  118.3750   118.3670    -0.7010    -0.6210   -16.3930    67.0420    11.4850    12.5820    20.7050     2.2360 
  118.5000   118.4920    -0.7040    -0.6220   -15.3170    61.2780    13.3220    14.4020    16.0870     2.1530 
  118.6250   118.6170    -0.7060    -0.6240   -14.5110    59.8820    13.7690    14.7660    13.9790     2.0970 
  118.7500   118.7420    -0.7090    -0.6260   -14.0610    61.1660    13.2460    14.0790    13.6240     2.0690 
  118.8750   118.8670    -0.7110    -0.6280   -13.8850    66.0840    12.5270    13.3860    13.5990     2.0600 
  119.0000   118.9920    -0.7140    -0.6290   -13.9230    70.5660    12.3160    13.3080    13.7800     2.0580 
  119.1250   119.1170    -0.7160    -0.6310   -13.9220    69.5130    12.5180    13.5850    14.2650     2.0570 
  119.2500   119.2410    -0.7190    -0.6330   -13.8300    65.5500    12.7560    13.8940    14.7060     2.0600 
  119.3750   119.3660    -0.7210    -0.6350   -13.8460    63.3010    12.9410    14.1300    14.7510     2.0670 
  119.5000   119.4910    -0.7240    -0.6370   -14.0080    62.2850    13.0530    14.2690    14.4550     2.0800 
  119.6250   119.6160    -0.7270    -0.6390   -14.2850    61.0850    13.1640    14.4060    14.3850     2.0970 
  119.7500   119.7410    -0.7290    -0.6410   -14.6440    60.3680    13.4940    14.8830    14.9440     2.1260 
  119.8750   119.8660    -0.7320    -0.6430   -15.1260    58.8090    14.3580    16.0480    15.7150     2.1840 
  120.0000   119.9910    -0.7350    -0.6450   -15.7570    57.6260    15.3690    17.2690    16.0610     2.2750 
  120.1250   120.1160    -0.7380    -0.6470   -16.6190    60.8780    15.4230    17.3650    15.5430     2.3790 
  120.2500   120.2410    -0.7400    -0.6490   -17.7830    65.6510    14.1050    15.9720    13.9690     2.4510 
  120.3750   120.3660    -0.7430    -0.6510   -19.0420    67.2300    11.5970    13.0470    11.2950     2.4570 
  120.5000   120.4910    -0.7460    -0.6530   -19.9380    67.8320     8.9040    10.0330     8.4280     2.4060 
  120.6250   120.6160    -0.7490    -0.6550   -20.3510    73.7320     7.1350     7.9200     6.7060     2.3290 
  120.7500   120.7410    -0.7520    -0.6570   -20.6860    81.5830     6.2060     6.8250     6.3430     2.2640 
  120.8750   120.8660    -0.7550    -0.6590   -20.9700    85.7420     5.9260     6.6280     6.7590     2.2320 
  121.0000   120.9910    -0.7580    -0.6620   -21.1990    85.3680     5.9510     6.7480     7.3130     2.2310 
  121.1250   121.1160    -0.7610    -0.6640   -21.3440    84.3190     6.0060     6.8270     7.4760     2.2500 
  121.2500   121.2410    -0.7640    -0.6660   -21.5060    84.5660     5.9400     6.7060     7.0780     2.2680 
  121.3750   121.3660    -0.7660    -0.6680   -21.7800    85.1860     5.7580     6.4450     6.4290     2.2720 
  121.5000   121.4910    -0.7690    -0.6710   -22.1040    85.5190     5.5380     6.1700     5.8810     2.2590 
  121.6250   121.6160    -0.7720    -0.6730   -22.2710    83.9280     5.3260     5.9220     5.6540     2.2410 
  121.7500   121.7400    -0.7750    -0.6750   -22.2690    83.5240     5.1460     5.7020     5.5650     2.2380 
  121.8750   121.8650    -0.7790    -0.6780   -22.3410    85.5830     5.1130     5.6660     5.2250     2.2620 
  122.0000   121.9900    -0.7820    -0.6800   -22.5520    88.0470     5.3430     6.0250     4.9440     2.3110 
  122.1250   122.1150    -0.7850    -0.6830   -22.8090    87.8800     5.8210     6.6920     6.1230     2.3680 
  122.2500   122.2400    -0.7880    -0.6850   -22.9980    85.9830     6.3590     7.4370     9.4410     2.4080 
  122.3750   122.3650    -0.7910    -0.6880   -23.0710    84.0580     6.7430     7.9530    12.1230     2.4100 
  122.5000   122.4900    -0.7940    -0.6900   -23.0840    81.0880     6.6820     7.8290    10.9530     2.3770 
  122.6250   122.6150    -0.7970    -0.6930   -23.0290    77.9080     6.2530     7.2840     7.7470     2.3220 
  122.7500   122.7400    -0.8000    -0.6950   -23.0990    77.0600     5.6820     6.5840     6.0810     2.2700 
  122.8750   122.8650    -0.8030    -0.6980   -23.2700    80.7730     5.1530     5.9690     5.9440     2.2380 
  123.0000   122.9900    -0.8070    -0.7010   -23.3890    84.2470     4.8420     5.6430     5.7840     2.2310 
  123.1250   123.1150    -0.8100    -0.7030   -23.4880    84.7850     4.6340     5.4120     5.2310     2.2440 
  123.2500   123.2400    -0.8130    -0.7060   -23.6110    85.4190     4.4560     5.1940     4.6860     2.2670 
  123.3750   123.3650    -0.8160    -0.7090   -23.6980    89.2630     4.3800     5.0920     4.4060     2.2900 
  123.5000   123.4900    -0.8200    -0.7120   -23.7350    92.0270     4.4870     5.2310     4.4300     2.3070 
  123.6250   123.6140    -0.8230    -0.7140   -23.7080    92.4450     4.7890     5.6170     4.9500     2.3140 
  123.7500   123.7390    -0.8260    -0.7170   -23.6350    95.8060     5.1690     6.0850     5.9370     2.3120 
  123.8750   123.8640    -0.8300    -0.7200   -23.5130    99.1180     5.4710     6.4300     6.6990     2.3010 
  124.0000   123.9890    -0.8330    -0.7230   -23.4530    95.9970     5.6160     6.5550     6.5390     2.2860 
  124.1250   124.1140    -0.8370    -0.7260   -23.4070    89.0550     5.6310     6.5260     5.7630     2.2710 
  124.2500   124.2390    -0.8400    -0.7290   -23.2780    87.1630     5.5700     6.4250     5.3650     2.2590 
  124.3750   124.3640    -0.8440    -0.7320   -23.2180    90.2060     5.4510     6.2850     5.9970     2.2520 
  124.5000   124.4890    -0.8470    -0.7350   -23.1650    94.6390     5.3590     6.2040     7.2620     2.2490 
  124.6250   124.6140    -0.8510    -0.7380   -23.0660    98.4750     5.3460     6.2010     7.7730     2.2450 
  124.7500   124.7390    -0.8540    -0.7410   -22.8340    99.1390     5.4030     6.2690     6.9860     2.2410 
  124.8750   124.8640    -0.8580    -0.7440   -22.6430    95.2610     5.5410     6.4300     6.1790     2.2350 
  125.0000   124.9890    -0.8610    -0.7470   -22.5750    89.7330     5.7040     6.6210     6.1720     2.2320 
  125.1250   125.1130    -0.8650    -0.7500   -22.4990    86.6050     5.9000     6.8420     6.3850     2.2360 
  125.2500   125.2380    -0.8690    -0.7530   -22.4540    88.4930     6.0920     7.0440     6.4870     2.2440 
  125.3750   125.3630    -0.8720    -0.7570   -22.5190    91.2740     6.2460     7.1840     6.5570     2.2500 
  125.5000   125.4880    -0.8760    -0.7600   -22.4930    90.3140     6.3110     7.2180     6.6610     2.2510 
  125.6250   125.6130    -0.8800    -0.7630   -22.2870    85.7200     6.3090     7.2070     7.1310     2.2470 
  125.7500   125.7380    -0.8840    -0.7670   -22.0130    83.0340     6.3230     7.2340     7.9690     2.2400 
  125.8750   125.8630    -0.8880    -0.7700   -21.7340    83.2090     6.3190     7.2460     8.4660     2.2330 
  126.0000   125.9880    -0.8910    -0.7740   -21.4010    83.1370     6.3080     7.2550     8.2120     2.2240 
  126.1250   126.1130    -0.8950    -0.7770   -20.9360    84.0480     6.3260     7.3080     7.6500     2.2140 
  126.2500   126.2370    -0.8990    -0.7810   -20.3480    84.6090     6.3920     7.4120     7.2320     2.2070 
  126.3750   126.3620    -0.9030    -0.7850   -19.5930    82.8050     6.6020     7.6970     7.1170     2.2020 
  126.5000   126.4870    -0.9080    -0.7880   -18.7530    80.1930     7.0370     8.2540     7.3470     2.1980 
  126.6250   126.6120    -0.9120    -0.7920   -17.7070    80.9150     7.8850     9.2010     8.0290     2.1900 
  126.7500   126.7370    -0.9160    -0.7960   -16.4550    82.9090     9.1700    10.7110     9.9510     2.1740 
