~V
VERS. 2.00: Ver 2.00
~W
STRT.M 40.0000:
STOP.M 276.0000:
STEP.M 0.1250:
NULL. -999.2500:
UWI. FD10882:
~C
DEPT.M :
TVD. :
DX. :
DY. :
SP.MV :
GR.API :
RI. :
RML.OHMM :
RXO.OHMM :
DEN.GM/CC :
~A
# ...
  158.6250   153.9210   -21.0870   -16.3370    -5.5060    54.6170    27.1060    30.1940    26.7780     2.5580 
  158.7500   154.0310   -21.1330   -16.3730    -5.6650    56.0570    25.7570    28.4110    22.6530     2.5280 
  158.8750   154.1420   -21.1790   -16.4090    -5.7430    58.3310    24.2690    26.6080    19.9380     2.4950 
  159.0000   154.2520   -21.2260   -16.4450    -5.8000    59.3280    23.0810    25.2590    20.4880     2.4740 
  159.1250   154.3620   -21.2720   -16.4810    -5.8930    58.3390    22.4150    24.5510    23.4780     2.4760 
  159.2500   154.4730   -21.3180   -16.5170    -5.9590    56.2830    22.4870    24.6890    25.3430     2.4840 
  159.3750   154.5830   -21.3640   -16.5540    -6.0060    55.5020    23.1340    25.4260    24.2220     2.4930 
  159.5000   154.6940   -21.4100   -16.5900    -6.0390    56.0200    23.9910    26.4320    22.1530     2.5010 
  159.6250   154.8040   -21.4560   -16.6260    -6.0220    56.9240    24.8060    27.4060    21.7300     2.5180 
  159.7500   154.9140   -21.5020   -16.6620    -5.9330    56.1760    25.1920    27.8980    22.7920     2.5350 
  159.8750   155.0250   -21.5480   -16.6980    -5.7900    55.2880    24.9850    27.6600    23.4990     2.5540 
  160.0000   155.1350   -21.5950   -16.7340    -5.6880    54.3980    23.9070    26.3500    22.7200     2.5610 
  160.1250   155.2460   -21.6410   -16.7700    -5.7540    54.1610    22.1820    24.3540    20.6700     2.5520 
  160.2500   155.3560   -21.6870   -16.8070    -5.9960    52.5110    20.4900    22.4660    18.6270     2.5300 
  160.3750   155.4660   -21.7330   -16.8430    -6.3620    51.1680    19.2580    21.1910    17.7380     2.5090 
  160.5000   155.5770   -21.7800   -16.8790    -6.8090    50.6370    18.7350    20.7660    17.9660     2.5010 
  160.6250   155.6870   -21.8260   -16.9150    -7.3280    52.0320    18.7830    20.9690    18.3540     2.4980 
  160.7500   155.7970   -21.8720   -16.9510    -7.8430    53.9420    19.1720    21.5270    18.3250     2.4910 
  160.8750   155.9080   -21.9190   -16.9870    -8.1250    56.1910    19.7950    22.3200    18.9430     2.4750 
  161.0000   156.0180   -21.9650   -17.0220    -8.2220    57.0250    20.5540    23.2690    21.3740     2.4640 
  161.1250   156.1290   -22.0110   -17.0580    -8.2210    56.7490    21.4300    24.3720    24.7240     2.4710 
  161.2500   156.2390   -22.0580   -17.0940    -8.2040    55.1370    22.3590    25.4980    26.5720     2.4890 
  161.3750   156.3490   -22.1040   -17.1300    -8.2170    54.0360    23.1760    26.3740    25.9640     2.5080 
  161.5000   156.4600   -22.1510   -17.1660    -8.2060    53.3620    23.7460    26.8940    24.3670     2.5320 
  161.6250   156.5700   -22.1970   -17.2020    -8.1700    54.1630    24.1830    27.2930    23.3820     2.5590 
  161.7500   156.6810   -22.2440   -17.2380    -8.1550    55.5280    24.6490    27.8200    23.9610     2.6010 
  161.8750   156.7910   -22.2900   -17.2730    -8.1340    56.3670    25.1260    28.4280    26.3260     2.6400 
  162.0000   156.9010   -22.3370   -17.3090    -8.1470    55.6980    25.5190    28.9470    28.7310     2.6620 
  162.1250   157.0120   -22.3830   -17.3450    -8.2030    53.3560    25.3530    28.7420    28.8320     2.6550 
  162.2500   157.1220   -22.4290   -17.3810    -8.2210    51.1100    24.6840    27.9410    26.5870     2.6350 
  162.3750   157.2320   -22.4760   -17.4170    -8.2240    49.9680    23.6000    26.7130    23.6680     2.6050 
  162.5000   157.3430   -22.5220   -17.4530    -8.2780    50.9690    22.4900    25.4950    21.3040     2.5670 
  162.6250   157.4530   -22.5690   -17.4890    -8.4540    53.2890    21.7740    24.7860    19.5250     2.5220 
  162.7500   157.5630   -22.6150   -17.5250    -8.5690    55.8250    21.3480    24.3830    18.3600     2.4890 
  162.8750   157.6740   -22.6620   -17.5600    -8.6310    57.3120    21.1420    24.2020    18.0870     2.4710 
  163.0000   157.7840   -22.7090   -17.5960    -8.6390    57.3180    20.9770    24.0250    18.4140     2.4600 
  163.1250   157.8940   -22.7550   -17.6320    -8.6050    55.1460    20.7340    23.7250    19.0660     2.4560 
  163.2500   158.0050   -22.8020   -17.6680    -8.5330    52.8760    20.5450    23.4800    19.9790     2.4710 
  163.3750   158.1150   -22.8480   -17.7040    -8.5210    52.5860    20.3970    23.2560    21.1060     2.5000 
  163.5000   158.2250   -22.8950   -17.7400    -8.4680    54.0790    20.4570    23.3090    22.1550     2.5280 
  163.6250   158.3350   -22.9420   -17.7760    -8.4240    56.3150    20.8670    23.8030    22.8190     2.5460 
  163.7500   158.4460   -22.9880   -17.8120    -8.4810    57.2960    21.6210    24.7220    23.4510     2.5590 
  163.8750   158.5560   -23.0350   -17.8480    -8.5350    56.7810    22.3820    25.6290    24.5480     2.5750 
  164.0000   158.6660   -23.0810   -17.8840    -8.5240    56.4160    22.8660    26.2090    25.4440     2.5800 
  164.1250   158.7770   -23.1280   -17.9200    -8.4710    55.9000    22.9190    26.2560    24.7500     2.5730 
  164.2500   158.8870   -23.1750   -17.9560    -8.3570    56.6230    22.2480    25.4560    22.7680     2.5530 
  164.3750   158.9970   -23.2210   -17.9920    -8.2480    57.2120    21.1440    24.2110    21.2910     2.5460 
  164.5000   159.1070   -23.2680   -18.0280    -8.1290    57.7190    19.9270    22.8740    20.7860     2.5630 
  164.6250   159.2180   -23.3140   -18.0640    -8.0100    57.6800    18.9620    21.9040    20.1170     2.5890 
  164.7500   159.3280   -23.3610   -18.1000    -7.9150    58.0870    18.4370    21.4370    19.1340     2.5940 
  164.8750   159.4380   -23.4070   -18.1360    -7.8330    58.7110    18.0320    21.0730    18.8530     2.5780 
  165.0000   159.5490   -23.4530   -18.1720    -7.7380    59.9830    17.6950    20.7810    19.1790     2.5690 
  165.1250   159.6590   -23.5000   -18.2080    -7.6200    59.4860    17.3280    20.3820    19.1130     2.5780 
  165.2500   159.7690   -23.5460   -18.2440    -7.4760    59.0570    17.0010    19.9940    18.6320     2.5930 
  165.3750   159.8800   -23.5930   -18.2800    -7.2700    57.4690    16.8220    19.7500    18.3560     2.5930 
  165.5000   159.9900   -23.6390   -18.3160    -7.0170    57.3790    16.8560    19.7580    18.2970     2.5930 
  165.6250   160.1000   -23.6860   -18.3520    -6.6660    57.0850    17.4510    20.5020    18.5670     2.5930 
  165.7500   160.2100   -23.7320   -18.3880    -6.2870    58.6780    18.5350    21.9220    20.0000     2.6030 
  165.8750   160.3210   -23.7790   -18.4240    -5.9210    58.6040    20.1530    24.0530    23.1840     2.6170 
  166.0000   160.4310   -23.8250   -18.4600    -5.6150    56.9910    21.6200    25.8940    26.8090     2.6340 
  166.1250   160.5410   -23.8720   -18.4960    -5.3490    54.4030    22.1520    26.4810    28.1580     2.6470 
  166.2500   160.6520   -23.9180   -18.5320    -5.2250    54.2660    21.4960    25.5070    25.6220     2.6510 
  166.3750   160.7620   -23.9650   -18.5680    -5.2730    55.6900    19.6660    23.0520    20.1820     2.6320 
  166.5000   160.8720   -24.0110   -18.6040    -5.4580    58.0750    17.5070    20.3140    15.3720     2.5990 
  166.6250   160.9830   -24.0580   -18.6400    -5.6460    58.7290    15.5360    17.9130    13.5350     2.5710 
  166.7500   161.0930   -24.1040   -18.6760    -5.7350    59.6220    14.2840    16.4770    13.9250     2.5600 
  166.8750   161.2030   -24.1510   -18.7120    -5.7450    58.9130    13.5890    15.7880    14.9960     2.5600 
  167.0000   161.3130   -24.1970   -18.7480    -5.6700    58.5210    13.4610    15.7540    15.5210     2.5560 
  167.1250   161.4240   -24.2440   -18.7840    -5.6190    57.1570    13.5820    15.9520    15.0740     2.5460 
  167.2500   161.5340   -24.2900   -18.8200    -5.5780    57.5620    13.6710    16.0540    14.1890     2.5250 
  167.3750   161.6440   -24.3370   -18.8560    -5.5260    58.1580    13.7100    16.0870    13.5970     2.4990 
  167.5000   161.7540   -24.3840   -18.8920    -5.4580    59.4150    13.8010    16.1910    13.4750     2.4680 
  167.6250   161.8650   -24.4300   -18.9280    -5.4200    58.7610    13.9380    16.3690    13.7870     2.4510 
