~V
VERS. 2.00: Ver 2.00
~W
STRT.M 20.0000:
STOP.M 282.0000:
STEP.M 0.1250:
NULL. -999.2500:
UWI. FD10228:
~C
DEPT.M :
TVD. :
DX. :
DY. :
GR.API :
RML.OHMM :
RI. :
RXO.OHMM :
CALI.CM :
SP.MV :
DEN.GM/CC :
~A
# ...
  119.0000   118.9700    -1.1860     1.1730    66.2590    10.8750    10.9980    13.5180    24.2650    -5.9970     2.4020 
  119.1250   119.0950    -1.1810     1.1740    69.0010     9.9860     9.7160     9.8920    24.3090    -6.1320     2.3490 
  119.2500   119.2200    -1.1760     1.1760    66.8010    10.2590     9.4200     9.4760    24.3270    -6.2480     2.2990 
  119.3750   119.3450    -1.1710     1.1770    63.4000    11.3800     9.9750    11.1010    24.3350    -6.2910     2.2710 
  119.5000   119.4700    -1.1660     1.1780    61.5940    12.9470    11.1710    13.7430    24.3340    -6.2420     2.2750 
  119.6250   119.5950    -1.1610     1.1800    61.9620    14.2330    12.5210    16.3110    24.2720    -6.1480     2.3080 
  119.7500   119.7200    -1.1560     1.1810    62.1620    14.5020    13.2160    17.0270    24.2810    -6.0380     2.3480 
  119.8750   119.8450    -1.1510     1.1820    62.7180    13.4860    12.7710    13.9270    24.3610    -5.8640     2.3670 
  120.0000   119.9700    -1.1460     1.1840    66.3280    11.6200    11.3660    10.3100    24.4260    -5.6140     2.3560 
  120.1250   120.0950    -1.1410     1.1850    72.8130     9.7760     9.6940     9.3440    24.3840    -5.3050     2.3270 
  120.2500   120.2190    -1.1360     1.1860    76.7780     8.5460     8.3730     9.1210    24.3230    -5.0080     2.3020 
  120.3750   120.3440    -1.1320     1.1880    75.6290     8.1780     7.6530     8.2300    24.2790    -4.7700     2.2970 
  120.5000   120.4690    -1.1270     1.1890    71.9420     8.8360     7.6740     7.9920    24.2380    -4.5780     2.3140 
  120.6250   120.5940    -1.1220     1.1900    67.1030    10.9620     8.7620     9.4700    24.1920    -4.4120     2.3530 
  120.7500   120.7190    -1.1170     1.1920    59.8850    14.6660    11.0640    14.7320    24.2110    -4.2700     2.4050 
  120.8750   120.8440    -1.1120     1.1930    51.6950    20.1750    14.9540    25.3150    24.3080    -4.1510     2.4560 
  121.0000   120.9690    -1.1070     1.1940    45.7180    27.3470    20.6550    39.8690    24.4700    -4.0780     2.4970 
  121.1250   121.0940    -1.1020     1.1960    43.6810    34.9510    27.6190    44.6620    24.4980    -4.0620     2.5200 
  121.2500   121.2190    -1.0970     1.1970    43.1010    40.7260    33.7090    41.6400    24.5040    -4.0390     2.5280 
  121.3750   121.3430    -1.0920     1.1980    42.2120    43.6180    37.4550    38.8060    24.4970    -3.9890     2.5280 
  121.5000   121.4680    -1.0870     1.2000    41.5060    44.3710    38.9000    39.2940    24.4940    -3.9450     2.5250 
  121.6250   121.5930    -1.0820     1.2010    42.7110    44.7210    39.1730    41.4780    24.4950    -3.9180     2.5200 
  121.7500   121.7180    -1.0770     1.2030    44.3760    45.9320    39.6590    42.7780    24.5020    -3.8870     2.5120 
  121.8750   121.8430    -1.0720     1.2040    44.9450    48.3060    40.9090    43.9120    24.4980    -3.8660     2.5040 
  122.0000   121.9680    -1.0670     1.2050    45.2430    51.7330    43.0610    45.3870    24.4880    -3.8360     2.5020 
  122.1250   122.0930    -1.0620     1.2070    45.0250    55.9080    46.0780    48.7830    24.4980    -3.8040     2.5100 
  122.2500   122.2180    -1.0570     1.2080    43.0930    59.9520    49.3590    52.6460    24.5020    -3.7840     2.5280 
  122.3750   122.3430    -1.0520     1.2090    40.9170    62.7640    52.1150    58.7200    24.4940    -3.7740     2.5490 
  122.5000   122.4670    -1.0480     1.2110    40.3480    63.2100    53.3980    64.2140    24.4900    -3.7450     2.5640 
  122.6250   122.5920    -1.0430     1.2120    42.6850    60.5230    52.3320    58.9530    24.4750    -3.7000     2.5710 
  122.7500   122.7170    -1.0380     1.2130    47.2590    56.1000    49.6410    52.8590    24.4860    -3.6790     2.5710 
  122.8750   122.8420    -1.0330     1.2150    51.1190    51.1610    46.1190    46.2190    24.4850    -3.6800     2.5700 
  123.0000   122.9670    -1.0280     1.2160    51.4160    46.5840    42.4870    41.4360    24.4630    -3.6790     2.5710 
  123.1250   123.0920    -1.0230     1.2170    49.0160    42.8350    39.2570    40.0940    24.4530    -3.6550     2.5720 
  123.2500   123.2170    -1.0180     1.2190    46.8910    39.6820    36.4470    40.2670    24.4970    -3.6460     2.5710 
  123.3750   123.3420    -1.0130     1.2200    45.2890    36.8950    33.9490    38.4730    24.5040    -3.6640     2.5650 
  123.5000   123.4670    -1.0080     1.2210    43.5900    34.3150    31.6520    34.3920    24.5040    -3.7110     2.5540 
  123.6250   123.5910    -1.0030     1.2230    41.5520    31.9320    29.5300    32.8180    24.5000    -3.7810     2.5410 
  123.7500   123.7160    -0.9980     1.2240    40.2920    29.8020    27.5950    31.4860    24.4900    -3.8210     2.5280 
  123.8750   123.8410    -0.9930     1.2250    40.9930    28.0330    25.9470    29.8600    24.4900    -3.8380     2.5180 
  124.0000   123.9660    -0.9880     1.2270    45.0660    26.6900    24.6770    26.9140    24.4840    -3.8820     2.5100 
  124.1250   124.0910    -0.9830     1.2280    49.8590    25.8170    23.8730    24.9420    24.4860    -3.9560     2.5050 
  124.2500   124.2160    -0.9780     1.2290    50.9800    25.2350    23.3890    24.1690    24.4880    -4.0200     2.5020 
  124.3750   124.3410    -0.9730     1.2310    48.5470    24.8030    23.0990    24.7250    24.4920    -4.0620     2.4980 
  124.5000   124.4660    -0.9680     1.2320    46.5230    24.3700    22.8440    24.7730    24.5020    -4.0970     2.4890 
  124.6250   124.5910    -0.9640     1.2330    49.4090    23.7680    22.4160    23.9900    24.4960    -4.1310     2.4720 
  124.7500   124.7150    -0.9590     1.2350    52.9580    22.9610    21.7380    22.8230    24.4640    -4.1980     2.4490 
  124.8750   124.8400    -0.9540     1.2360    51.9070    22.0110    20.8480    21.1520    24.4780    -4.2520     2.4250 
  125.0000   124.9650    -0.9490     1.2370    46.3840    21.0770    19.8870    20.0320    24.5420    -4.2630     2.4050 
  125.1250   125.0900    -0.9420     1.2390    43.5540    20.3870    19.0700    19.2760    24.6600    -4.2690     2.3910 
  125.2500   125.2150    -0.9340     1.2400    45.0660    20.0020    18.5090    18.9280    24.6810    -4.2910     2.3860 
  125.3750   125.3400    -0.9260     1.2420    47.7740    19.8960    18.2200    18.7670    24.6390    -4.3210     2.3870 
  125.5000   125.4640    -0.9170     1.2430    49.3930    19.9660    18.1490    19.3140    24.5890    -4.3310     2.3950 
  125.6250   125.5890    -0.9090     1.2450    49.7620    20.1010    18.2080    20.3140    24.5770    -4.2960     2.4090 
  125.7500   125.7140    -0.9010     1.2460    49.6920    20.2360    18.2950    20.8120    24.5800    -4.2300     2.4250 
  125.8750   125.8380    -0.8920     1.2480    48.6070    20.3960    18.3920    20.6750    24.5750    -4.2110     2.4410 
  126.0000   125.9630    -0.8840     1.2490    47.7160    20.6250    18.5290    20.5590    24.5580    -4.2340     2.4540 
  126.1250   126.0880    -0.8760     1.2510    50.0040    20.9510    18.7600    20.8080    24.4450    -4.2510     2.4630 
  126.2500   126.2120    -0.8670     1.2520    52.6310    21.3130    19.0610    22.0080    24.3830    -4.2500     2.4710 
  126.3750   126.3370    -0.8590     1.2540    52.9190    21.6100    19.3530    23.2710    24.2850    -4.2440     2.4770 
  126.5000   126.4620    -0.8500     1.2560    51.3720    21.7240    19.5170    23.4010    24.2800    -4.2470     2.4840 
  126.6250   126.5870    -0.8420     1.2570    51.4550    21.5010    19.3900    23.0750    24.3100    -4.3080     2.4880 
  126.7500   126.7110    -0.8340     1.2590    51.3140    20.9810    18.9830    21.4190    24.3410    -4.4090     2.4880 
  126.8750   126.8360    -0.8250     1.2600    48.5210    20.2710    18.3730    20.3960    24.3530    -4.4780     2.4860 
  127.0000   126.9610    -0.8170     1.2620    45.5240    19.5250    17.6870    19.7200    24.3730    -4.5100     2.4810 
  127.1250   127.0850    -0.8090     1.2630    46.7140    18.9060    17.0590    18.9890    24.4730    -4.5660     2.4730 
