~V
VERS. 2.00: Ver 2.00
~W
STRT.M 50.0000:
STOP.M 287.0000:
STEP.M 0.1250:
NULL. -999.2500:
UWI. FD10894:
~C
DEPT.M :
TVD. :
DX. :
DY. :
SP.MV :
GR.API :
RI. :
RML.OHMM :
RXO.OHMM :
DEN.GM/CC :
~A
# ...
   95.6250    95.5530     1.5860     0.6830   -15.8890    93.1860     3.6210     3.8590     5.2390     2.2390 
   95.7500    95.6770     1.6020     0.6900   -15.1290    95.2850     3.8330     4.0620     4.7870     2.2590 
   95.8750    95.8010     1.6170     0.6960   -14.1920    96.3380     5.5340     5.8280     9.6090     2.2900 
   96.0000    95.9250     1.6330     0.7020   -13.1270    93.4230     9.5480     9.8590    28.3460     2.3350 
   96.1250    96.0480     1.6490     0.7090   -11.9640    82.9330    16.8180    18.6140    54.7320     2.3970 
   96.2500    96.1720     1.6640     0.7150   -10.7390    69.1300    26.0580    29.3020    75.2510     2.4670 
   96.3750    96.2960     1.6800     0.7210    -9.4640    59.3300    31.0610    34.9640    87.6340     2.5220 
   96.5000    96.4200     1.6960     0.7270    -8.1480    55.5070    31.4330    35.1880    81.5980     2.5390 
   96.6250    96.5440     1.7120     0.7330    -6.7990    56.4060    27.2110    29.1620    52.3930     2.5030 
   96.7500    96.6680     1.7290     0.7400    -5.4430    58.3210    21.5540    22.4950    25.8110     2.4240 
   96.8750    96.7910     1.7450     0.7460    -4.1300    59.7360    18.0070    18.6540    17.3470     2.3200 
   97.0000    96.9150     1.7610     0.7520    -2.9130    60.0690    15.8780    16.5460    17.1770     2.2220 
   97.1250    97.0390     1.7780     0.7580    -1.8660    60.2320    14.8590    15.6840    17.6080     2.1470 
   97.2500    97.1630     1.7940     0.7640    -1.0190    60.0840    14.5590    15.5540    17.4800     2.1000 
   97.3750    97.2860     1.8110     0.7700    -0.4120    59.5110    14.6030    15.6900    16.8410     2.0780 
   97.5000    97.4100     1.8270     0.7770    -0.0250    59.7030    14.7110    15.8560    16.4990     2.0710 
   97.6250    97.5340     1.8440     0.7830     0.1480    59.8530    14.8460    16.0140    17.1280     2.0700 
   97.7500    97.6580     1.8610     0.7890     0.1490    58.6790    14.9610    16.1000    18.0870     2.0700 
   97.8750    97.7810     1.8780     0.7950    -0.0040    56.1280    15.0030    16.0790    18.2870     2.0680 
   98.0000    97.9050     1.8950     0.8020    -0.2740    55.9400    14.9630    15.9530    17.7110     2.0640 
   98.1250    98.0290     1.9120     0.8080    -0.6480    57.5580    14.8240    15.7230    17.0590     2.0610 
   98.2500    98.1520     1.9290     0.8140    -1.0910    57.4300    14.6400    15.4990    16.7810     2.0610 
   98.3750    98.2760     1.9460     0.8200    -1.5750    55.7650    14.5020    15.3460    16.6700     2.0630 
   98.5000    98.4000     1.9630     0.8270    -2.0610    55.3410    14.4310    15.2980    16.4150     2.0670 
   98.6250    98.5230     1.9800     0.8330    -2.5130    57.8710    14.4560    15.3770    16.1350     2.0720 
   98.7500    98.6470     1.9980     0.8400    -2.9160    60.5490    14.5910    15.5780    16.0810     2.0750 
   98.8750    98.7710     2.0150     0.8460    -3.2720    60.0540    14.6940    15.7410    16.2060     2.0750 
   99.0000    98.8940     2.0320     0.8520    -3.6190    56.8330    14.5540    15.6350    16.3450     2.0730 
   99.1250    99.0180     2.0500     0.8590    -4.0110    55.2010    13.9230    14.9770    16.4760     2.0720 
   99.2500    99.1410     2.0670     0.8650    -4.4950    57.5060    12.9080    13.8720    16.3410     2.0740 
   99.3750    99.2650     2.0850     0.8720    -5.1040    61.6290    11.7220    12.5550    14.7560     2.0840 
   99.5000    99.3890     2.1020     0.8780    -5.8140    65.9090    10.7130    11.4460    12.1500     2.0990 
   99.6250    99.5120     2.1200     0.8850    -6.5750    68.7130    10.1050    10.8250    10.3970     2.1160 
   99.7500    99.6360     2.1380     0.8910    -7.3110    69.8620     9.8490    10.6360     9.8140     2.1300 
   99.8750    99.7590     2.1560     0.8980    -7.9530    70.6930     9.9090    10.8080    10.4360     2.1390 
  100.0000    99.8830     2.1730     0.9040    -8.4720    71.3970    10.1010    11.0690    11.0220     2.1410 
  100.1250   100.0060     2.1920     0.9110    -8.8620    70.5400    10.2440    11.2320    10.4160     2.1400 
  100.2500   100.1300     2.2100     0.9170    -9.1600    68.6430    10.3070    11.2890     9.6180     2.1390 
  100.3750   100.2530     2.2280     0.9240    -9.3980    68.2910    10.3540    11.3380     9.0750     2.1390 
  100.5000   100.3770     2.2460     0.9300    -9.6090    69.5560    10.5140    11.5460     8.6970     2.1390 
  100.6250   100.5000     2.2650     0.9360    -9.8030    69.3240    10.8580    11.9780     8.5780     2.1370 
  100.7500   100.6240     2.2830     0.9430    -9.9840    68.4620    11.3420    12.5560     8.6350     2.1300 
  100.8750   100.7470     2.3020     0.9490   -10.1490    66.3090    11.8260    13.1090     8.7800     2.1190 
  101.0000   100.8700     2.3210     0.9550   -10.3060    62.4730    12.1260    13.4300     8.8540     2.1070 
  101.1250   100.9940     2.3400     0.9620   -10.4700    59.1570    12.1530    13.4320     8.9440     2.0960 
  101.2500   101.1170     2.3590     0.9680   -10.6570    58.7800    11.9660    13.2080     9.0210     2.0890 
  101.3750   101.2410     2.3780     0.9740   -10.8820    60.7270    11.7060    12.9240     8.7460     2.0890 
  101.5000   101.3640     2.3970     0.9810   -11.1380    63.3260    11.5710    12.8010     8.3410     2.0940 
  101.6250   101.4870     2.4160     0.9870   -11.4050    67.1330    11.6160    12.9140     8.1620     2.1020 
  101.7500   101.6110     2.4360     0.9930   -11.6520    70.5200    11.7650    13.1650     8.1290     2.1080 
  101.8750   101.7340     2.4550     0.9990   -11.8490    70.5460    11.8520    13.3070     8.2160     2.1090 
  102.0000   101.8570     2.4750     1.0060   -11.9880    68.5900    11.7230    13.1590     8.4930     2.1040 
  102.1250   101.9810     2.4950     1.0120   -12.0780    67.2710    11.2660    12.5760     8.7200     2.0980 
  102.2500   102.1040     2.5140     1.0180   -12.1560    67.5660    10.6790    11.8450     8.4130     2.0950 
  102.3750   102.2270     2.5340     1.0240   -12.2640    69.1540    10.1250    11.2010     7.7690     2.0990 
  102.5000   102.3500     2.5540     1.0300   -12.4310    71.3350     9.7920    10.8750     7.5190     2.1090 
  102.6250   102.4740     2.5740     1.0360   -12.6640    72.8320     9.7930    10.9470     7.6580     2.1200 
  102.7500   102.5970     2.5940     1.0430   -12.9340    71.9270     9.9810    11.2250     7.6270     2.1260 
  102.8750   102.7200     2.6150     1.0490   -13.1960    68.6710    10.1920    11.5180     7.3720     2.1240 
  103.0000   102.8430     2.6350     1.0550   -13.4070    66.1190    10.3420    11.7310     7.3270     2.1190 
  103.1250   102.9660     2.6550     1.0620   -13.5370    66.8160    10.3650    11.8010     7.4790     2.1120 
  103.2500   103.0890     2.6760     1.0680   -13.5970    67.5840    10.2890    11.7430     7.4920     2.1070 
  103.3750   103.2130     2.6960     1.0740   -13.6140    66.6370    10.1650    11.6050     7.3470     2.1040 
  103.5000   103.3360     2.7170     1.0800   -13.6410    66.6000     9.9730    11.3500     7.1400     2.1010 
  103.6250   103.4590     2.7380     1.0870   -13.7320    68.0630     9.7130    10.9600     7.0360     2.0980 
  103.7500   103.5820     2.7590     1.0930   -13.9210    67.6460     9.7810    10.9850     7.0820     2.0980 
  103.8750   103.7050     2.7800     1.0990   -14.2390    64.4130    10.6060    11.9720     7.1230     2.1040 
  104.0000   103.8280     2.8010     1.1050   -14.6770    63.3340    12.3570    14.1000     7.4520     2.1220 
  104.1250   103.9510     2.8220     1.1110   -15.2300    65.4100    15.4830    17.9260    13.5570     2.1640 
  104.2500   104.0740     2.8430     1.1170   -15.8640    66.8490    19.7500    23.0570    28.1520     2.2370 
  104.3750   104.1970     2.8650     1.1230   -16.5560    65.5830    21.4970    24.7470    40.9830     2.3370 
  104.5000   104.3200     2.8860     1.1290   -17.2670    63.4780    20.2820    23.0060    44.8240     2.4370 
  104.6250   104.4430     2.9080     1.1350   -17.9620    63.6590    16.2010    17.8860    40.0730     2.5040 
