~V
VERS. 2.00: Ver 2.00
~W
STRT.M 62.0000:
STOP.M 282.0000:
STEP.M 0.1250:
NULL. -999.2500:
UWI. FD10887:
~C
DEPT.M :
TVD. :
DX. :
DY. :
SP.MV :
GR.API :
RI. :
RML.OHMM :
RXO.OHMM :
DEN.GM/CC :
~A
# ...
  253.6250   239.3410    -1.0950    64.2100    -6.4820    79.2860     5.4850     6.3790     7.0760     2.2560 
  253.7500   239.4490    -1.0940    64.2730    -6.2990    83.3430     5.3740     6.2860     6.8790     2.2420 
  253.8750   239.5570    -1.0930    64.3360    -6.0630    84.2530     5.3940     6.3070     7.0130     2.2430 
  254.0000   239.6650    -1.0920    64.3980    -5.8050    83.0410     5.3490     6.1960     7.7300     2.2530 
  254.1250   239.7730    -1.0910    64.4610    -5.5520    80.6620     5.1550     5.8890     7.7650     2.2610 
  254.2500   239.8810    -1.0900    64.5240    -5.3330    78.1120     4.7380     5.3280     6.1880     2.2660 
  254.3750   239.9890    -1.0890    64.5870    -5.1710    76.3810     4.2330     4.7630     4.8380     2.2690 
  254.5000   240.0970    -1.0880    64.6500    -5.0610    76.9290     3.7910     4.3040     4.3970     2.2750 
  254.6250   240.2050    -1.0870    64.7130    -4.9830    78.4300     3.4720     3.9770     4.0070     2.2810 
  254.7500   240.3130    -1.0860    64.7760    -4.9030    78.2340     3.3540     3.8620     3.8440     2.2860 
  254.8750   240.4210    -1.0850    64.8380    -4.8040    76.7790     3.3710     3.8840     4.0410     2.2870 
  255.0000   240.5300    -1.0830    64.9010    -4.6850    76.2960     3.4490     3.8670     4.1610     2.2820 
  255.1250   240.6380    -1.0820    64.9640    -4.5610    76.8220     3.5690     3.7950     4.1230     2.2760 
  255.2500   240.7460    -1.0810    65.0270    -4.4500    75.8140     3.6320     3.7140     4.0760     2.2710 
  255.3750   240.8540    -1.0800    65.0890    -4.3730    72.2290     3.6850     3.7420     4.0130     2.2670 
  255.5000   240.9620    -1.0790    65.1520    -4.3470    68.7510     3.7480     3.9450     3.9910     2.2610 
  255.6250   241.0700    -1.0780    65.2150    -4.3890    69.1040     3.8650     4.2580     4.1980     2.2510 
  255.7500   241.1780    -1.0770    65.2770    -4.4910    72.4640     4.0820     4.6100     4.8390     2.2410 
  255.8750   241.2860    -1.0760    65.3400    -4.6310    76.1590     4.3290     4.9480     5.6780     2.2330 
  256.0000   241.3950    -1.0750    65.4030    -4.7780    78.6210     4.5450     5.2470     5.9060     2.2290 
  256.1250   241.5030    -1.0740    65.4650    -4.9040    79.9900     4.7290     5.5180     5.6010     2.2270 
  256.2500   241.6110    -1.0730    65.5280    -4.9980    80.1800     4.8230     5.6660     5.3670     2.2270 
  256.3750   241.7190    -1.0720    65.5900    -5.0420    78.6670     4.7860     5.6070     5.2970     2.2310 
  256.5000   241.8270    -1.0710    65.6530    -5.0280    77.1550     4.6460     5.3910     5.5070     2.2360 
  256.6250   241.9350    -1.0700    65.7160    -4.9480    79.4050     4.4350     5.0580     5.4700     2.2400 
  256.7500   242.0440    -1.0690    65.7790    -4.8160    82.8560     4.2470     4.7590     4.8630     2.2390 
  256.8750   242.1520    -1.0680    65.8410    -4.6530    82.1360     4.1200     4.5820     4.4000     2.2340 
  257.0000   242.2600    -1.0670    65.9040    -4.4780    77.8520     4.0470     4.5110     4.4490     2.2300 
  257.1250   242.3680    -1.0660    65.9670    -4.2900    74.5570     3.9530     4.3890     4.7320     2.2310 
  257.2500   242.4760    -1.0650    66.0300    -4.0710    72.5190     3.7950     4.1180     4.9840     2.2400 
  257.3750   242.5840    -1.0640    66.0920    -3.8060    69.5800     3.5790     3.7110     4.8440     2.2580 
  257.5000   242.6920    -1.0630    66.1550    -3.5040    64.2280     3.2790     3.2790     4.0700     2.2810 
  257.6250   242.8000    -1.0620    66.2180    -3.1870    56.5770     3.0510     2.9520     3.2420     2.3030 
  257.7500   242.9080    -1.0600    66.2810    -2.8860    48.0690     2.9300     2.7320     2.8760     2.3240 
  257.8750   243.0160    -1.0590    66.3440    -2.6340    43.3330     2.8930     2.6350     2.9180     2.3430 
  258.0000   243.1240    -1.0580    66.4070    -2.4440    42.5160     2.9110     2.6930     2.9970     2.3630 
  258.1250   243.2320    -1.0570    66.4700    -2.3240    41.4800     2.9190     2.8510     2.8310     2.3800 
  258.2500   243.3400    -1.0560    66.5320    -2.2460    38.2620     2.8960     3.0590     2.6610     2.3960 
  258.3750   243.4480    -1.0550    66.5950    -2.1800    34.4000     3.0780     3.4150     4.5290     2.4110 
  258.5000   243.5560    -1.0540    66.6580    -2.1020    31.9330     3.5680     4.0300     7.1070     2.4240 
  258.6250   243.6640    -1.0520    66.7210    -2.0150    32.8870     4.1680     4.7700     6.2600     2.4270 
  258.7500   243.7730    -1.0510    66.7840    -1.9430    40.2790     4.5500     5.2290     6.0890     2.4110 
  258.8750   243.8810    -1.0500    66.8470    -1.8930    54.0370     4.5380     5.1980     9.2980     2.3780 
  259.0000   243.9890    -1.0490    66.9090    -1.8500    66.7410     4.0720     4.5740     9.7890     2.3410 
  259.1250   244.0970    -1.0490    66.9720    -1.7840    70.2690     3.3950     3.7030     6.3330     2.3160 
  259.2500   244.2050    -1.0480    67.0350    -1.6920    64.3510     2.8270     2.9890     3.5640     2.3080 
  259.3750   244.3130    -1.0470    67.0980    -1.6060    53.3390     2.4520     2.5170     2.6520     2.3160 
  259.5000   244.4210    -1.0460    67.1600    -1.5730    43.5840     2.4290     2.5100     2.3930     2.3280 
  259.6250   244.5290    -1.0450    67.2230    -1.6400    41.1150     2.7650     2.9330     3.1870     2.3330 
  259.7500   244.6370    -1.0440    67.2860    -1.8080    47.0210     3.3670     3.7030     5.3880     2.3250 
  259.8750   244.7450    -1.0430    67.3480    -2.0660    57.6650     4.0550     4.5720     8.3380     2.3070 
  260.0000   244.8540    -1.0420    67.4110    -2.3710    66.3110     4.4930     5.1010     9.3170     2.2840 
  260.1250   244.9620    -1.0410    67.4740    -2.6750    71.8030     4.5270     5.1160     6.8910     2.2640 
  260.2500   245.0700    -1.0400    67.5360    -2.9240    75.2360     4.2320     4.7340     4.8090     2.2500 
  260.3750   245.1780    -1.0390    67.5990    -3.0670    75.3050     3.8180     4.2390     4.6220     2.2410 
  260.5000   245.2860    -1.0380    67.6620    -3.0970    71.3510     3.5380     3.8810     4.4240     2.2390 
  260.6250   245.3940    -1.0370    67.7240    -3.0290    66.0930     3.3920     3.6500     4.0280     2.2430 
  260.7500   245.5030    -1.0370    67.7870    -2.9190    64.2940     3.3630     3.5570     4.1110     2.2510 
  260.8750   245.6110    -1.0360    67.8500    -2.8270    66.9190     3.4730     3.6850     4.4960     2.2580 
  261.0000   245.7190    -1.0350    67.9120    -2.7880    70.5010     3.7520     4.1070     4.6720     2.2610 
  261.1250   245.8270    -1.0340    67.9750    -2.8150    72.0760     4.2680     4.8310     5.0210     2.2570 
  261.2500   245.9350    -1.0340    68.0380    -2.8860    73.4550     4.8670     5.5620     6.2340     2.2510 
  261.3750   246.0430    -1.0330    68.1000    -2.9700    76.1470     5.3400     6.0080     8.5290     2.2480 
  261.5000   246.1520    -1.0330    68.1630    -3.0310    78.2400     5.5650     6.1370    10.1700     2.2530 
  261.6250   246.2600    -1.0330    68.2250    -3.0360    79.8830     5.4230     5.8700     9.4160     2.2610 
  261.7500   246.3680    -1.0320    68.2880    -2.9750    81.5170     5.0770     5.4710     7.5130     2.2650 
  261.8750   246.4760    -1.0320    68.3500    -2.8680    82.7660     4.7440     5.1440     6.0090     2.2600 
  262.0000   246.5850    -1.0320    68.4130    -2.7590    81.7790     4.5340     4.9480     5.6480     2.2470 
  262.1250   246.6930    -1.0320    68.4750    -2.6910    80.6660     4.4480     4.8910     6.1310     2.2310 
  262.2500   246.8010    -1.0320    68.5380    -2.6740    79.8770     4.4070     4.8720     6.3040     2.2160 
  262.3750   246.9090    -1.0320    68.6010    -2.7110    79.2050     4.3500     4.8010     5.8440     2.2100 
  262.5000   247.0170    -1.0320    68.6630    -2.8050    78.8320     4.2430     4.6720     5.0080     2.2120 
  262.6250   247.1260    -1.0320    68.7260    -2.9650    78.9590     4.1760     4.6020     4.4520     2.2190 
