~V
VERS. 2.00: Ver 2.00
~W
STRT.M 24.0000:
STOP.M 269.0000:
STEP.M 0.1250:
NULL. -999.2500:
UWI. FD10666:
~C
DEPT.M :
TVD. :
DX. :
DY. :
GR.API :
RML.OHMM :
RI. :
RXO.OHMM :
CALI.CM :
DEN.GM/CC :
SP.MV :
~A
# ...
  180.7500   173.5110    36.8580    18.9870    39.4180    16.6440    15.2190    14.1420    20.8790     2.4840    -7.2670 
  180.8750   173.6220    36.9090    19.0110    38.2390    17.2010    15.7110    14.5030    20.8700     2.4880    -7.3230 
  181.0000   173.7340    36.9610    19.0340    39.4830    17.6290    16.1010    14.6060    20.8670     2.4940    -7.3790 
  181.1250   173.8450    37.0120    19.0580    41.0810    17.7740    16.2490    14.4500    20.8650     2.4990    -7.4370 
  181.2500   173.9570    37.0640    19.0810    40.1360    17.6180    16.1290    14.5040    20.8620     2.4980    -7.5020 
  181.3750   174.0680    37.1150    19.1050    38.2120    17.1950    15.7600    14.5600    20.8600     2.4930    -7.5710 
  181.5000   174.1800    37.1660    19.1280    38.7450    16.6220    15.2400    14.2190    20.8580     2.4860    -7.6370 
  181.6250   174.2910    37.2180    19.1520    40.4830    16.0810    14.7260    13.4920    20.8580     2.4830    -7.7010 
  181.7500   174.4020    37.2690    19.1750    40.4840    15.7150    14.3500    12.7680    20.8580     2.4850    -7.7700 
  181.8750   174.5140    37.3210    19.1990    39.8040    15.5640    14.1510    12.2340    20.8580     2.4910    -7.8380 
  182.0000   174.6250    37.3720    19.2220    39.2820    15.5650    14.0880    12.0160    20.8580     2.5010    -7.9080 
  182.1250   174.7370    37.4240    19.2450    37.8970    15.5670    14.0480    11.9120    20.8580     2.5110    -7.9850 
  182.2500   174.8480    37.4750    19.2690    36.1780    15.4280    13.9130    11.7880    20.8580     2.5170    -8.0600 
  182.3750   174.9600    37.5260    19.2920    35.8760    15.1050    13.6410    11.7470    20.8580     2.5190    -8.1230 
  182.5000   175.0710    37.5780    19.3160    37.7720    14.6500    13.2680    11.8170    20.8580     2.5140    -8.1700 
  182.6250   175.1830    37.6290    19.3390    40.1860    14.2140    12.9120    11.8110    20.8580     2.5040    -8.1970 
  182.7500   175.2940    37.6810    19.3630    41.6960    13.9330    12.6910    11.7690    20.8580     2.4940    -8.2140 
  182.8750   175.4050    37.7320    19.3860    41.8800    13.8620    12.6610    11.8900    20.8580     2.4890    -8.2380 
  183.0000   175.5170    37.7840    19.4100    40.9470    13.9770    12.8170    12.1370    20.8580     2.4890    -8.2840 
  183.1250   175.6280    37.8350    19.4330    40.6010    14.2210    13.1180    12.1550    20.8580     2.4920    -8.3470 
  183.2500   175.7400    37.8860    19.4570    42.0140    14.5000    13.4650    12.1300    20.8580     2.4930    -8.4140 
  183.3750   175.8510    37.9380    19.4800    44.4180    14.7820    13.7980    12.0900    20.8580     2.4890    -8.4890 
  183.5000   175.9630    37.9890    19.5040    46.1470    15.0560    14.0830    12.3170    20.8580     2.4780    -8.5760 
  183.6250   176.0740    38.0410    19.5270    45.3250    15.2650    14.2570    12.5970    20.8580     2.4680    -8.6760 
  183.7500   176.1850    38.0920    19.5510    42.6960    15.2920    14.2420    12.7950    20.8580     2.4660    -8.7920 
  183.8750   176.2970    38.1430    19.5740    40.0910    14.9940    13.9230    13.0130    20.8580     2.4780    -8.9130 
  184.0000   176.4080    38.1950    19.5980    40.4900    14.2790    13.2200    13.0480    20.8580     2.5010    -9.0270 
  184.1250   176.5200    38.2460    19.6210    44.7140    13.1560    12.1300    13.1630    20.8590     2.5240    -9.1330 
  184.2500   176.6310    38.2980    19.6450    47.9900    11.9430    10.9330    12.5900    20.8600     2.5360    -9.2390 
  184.3750   176.7430    38.3490    19.6680    47.4580    10.9660     9.9180    10.9780    20.8590     2.5330    -9.3550 
  184.5000   176.8540    38.4010    19.6920    44.8770    10.5380     9.3460     9.1460    20.8480     2.5180    -9.4850 
  184.6250   176.9660    38.4520    19.7150    45.0960    11.0330     9.5260     8.4500    20.8310     2.5000    -9.6330 
  184.7500   177.0770    38.5030    19.7390    47.7240    12.4340    10.4640     8.8540    20.8290     2.4870    -9.7890 
  184.8750   177.1880    38.5550    19.7620    50.2330    14.7020    12.1880    10.3090    20.8740     2.4770    -9.9390 
  185.0000   177.3000    38.6060    19.7860    51.2530    17.6490    14.6330    12.6930    20.9910     2.4660   -10.0700 
  185.1250   177.4110    38.6580    19.8090    50.7270    20.9010    17.6110    15.7160    21.2160     2.4430   -10.1810 
  185.2500   177.5230    38.7090    19.8330    51.1860    23.8690    20.5950    17.3580    21.4760     2.4070   -10.2870 
  185.3750   177.6340    38.7610    19.8560    52.3860    26.1180    23.1190    17.6230    21.7040     2.3600   -10.3830 
  185.5000   177.7460    38.8120    19.8800    51.9300    27.4060    24.8220    18.7210    21.8980     2.3130   -10.4630 
  185.6250   177.8570    38.8630    19.9030    49.0780    27.6540    25.4680    21.4140    22.1010     2.2740   -10.5060 
  185.7500   177.9680    38.9150    19.9270    48.0750    27.3170    25.4350    23.5120    22.2990     2.2480   -10.5050 
  185.8750   178.0800    38.9660    19.9500    50.4300    26.6760    25.0060    23.3550    22.4300     2.2310   -10.4690 
  186.0000   178.1910    39.0180    19.9740    53.8820    25.9010    24.3830    21.3560    22.4730     2.2220   -10.4140 
  186.1250   178.3030    39.0690    19.9970    55.8910    25.0180    23.6480    19.9630    22.4800     2.2200   -10.3280 
  186.2500   178.4140    39.1200    20.0210    56.7420    24.0240    22.8200    20.2450    22.5080     2.2240   -10.2160 
  186.3750   178.5260    39.1720    20.0440    57.0070    22.9130    21.8840    20.6310    22.6050     2.2370   -10.0870 
  186.5000   178.6370    39.2230    20.0680    57.3180    21.7510    20.8420    18.3790    22.8050     2.2590    -9.9530 
  186.6250   178.7490    39.2750    20.0910    57.7710    20.6380    19.7320    16.3970    23.1420     2.2810    -9.8410 
  186.7500   178.8600    39.3260    20.1150    56.9390    19.6880    18.6370    15.5310    23.5260     2.2890    -9.7540 
  186.8750   178.9710    39.3780    20.1380    54.2860    18.8230    17.6190    15.7140    23.8330     2.2740    -9.6830 
  187.0000   179.0830    39.4290    20.1620    52.9090    18.0600    16.7130    16.2180    23.8720     2.2420    -9.6220 
  187.1250   179.1940    39.4800    20.1850    54.6150    17.3020    15.9390    16.2900    23.4770     2.2100    -9.5860 
  187.2500   179.3060    39.5320    20.2090    56.4120    16.5320    15.2520    15.8330    22.8880     2.1960    -9.5570 
  187.3750   179.4170    39.5830    20.2320    57.6000    15.8410    14.6250    14.9450    22.3450     2.2060    -9.5300 
  187.5000   179.5290    39.6350    20.2560    58.9140    15.2090    14.0460    14.0670    22.0650     2.2350    -9.4980 
  187.6250   179.6400    39.6860    20.2790    59.2040    14.6630    13.5340    13.7080    22.1030     2.2730    -9.4560 
  187.7500   179.7510    39.7380    20.3020    58.0090    14.2250    13.1020    13.2780    22.2610     2.3060    -9.4160 
  187.8750   179.8630    39.7890    20.3260    58.7590    13.9320    12.7720    12.7420    22.4430     2.3320    -9.3880 
  188.0000   179.9740    39.8400    20.3490    61.6250    13.8180    12.5770    12.3140    22.6170     2.3500    -9.3800 
  188.1250   180.0860    39.8920    20.3730    60.2760    13.9790    12.6050    12.3560    22.7200     2.3570    -9.4010 
  188.2500   180.1970    39.9430    20.3960    56.9230    14.4420    12.8930    13.0350    22.6930     2.3550    -9.4580 
  188.3750   180.3090    39.9950    20.4200    57.1800    15.2630    13.5000    13.9970    22.5490     2.3470    -9.5580 
  188.5000   180.4200    40.0460    20.4430    61.7470    16.4620    14.4590    14.0710    22.3560     2.3340    -9.7080 
  188.6250   180.5310    40.0980    20.4670    65.4860    18.0340    15.8020    15.0920    22.2580     2.3240    -9.9030 
  188.7500   180.6430    40.1490    20.4900    64.9940    19.7710    17.3630    18.0460    22.3010     2.3190   -10.1160 
  188.8750   180.7540    40.2000    20.5140    63.2920    21.4650    18.9650    22.0140    22.4470     2.3160   -10.3460 
