~V
VERS. 2.00: Ver 2.00
~W
STRT.M 12.0000:
STOP.M 226.0000:
STEP.M 0.1250:
NULL. -999.2500:
UWI. FD10605:
~C
DEPT.M :
TVD. :
DX. :
DY. :
GR.API :
RML.OHMM :
RI. :
RXO.OHMM :
CALI.CM :
DEN.GM/CC :
SP.MV :
~A
   12.0000    11.9940     0.3370    -0.0210  -999.2500  -999.2500  -999.2500  -999.2500  -999.2500  -999.2500   272.9640 
   12.1250    12.1190     0.3410    -0.0210  -999.2500  -999.2500  -999.2500  -999.2500  -999.2500  -999.2500   273.8120 
   12.2500    12.2440     0.3450    -0.0220  -999.2500  -999.2500  -999.2500  -999.2500  -999.2500  -999.2500   274.6420 
   12.3750    12.3690     0.3480    -0.0220  -999.2500  -999.2500  -999.2500  -999.2500  -999.2500  -999.2500   275.4380 
   12.5000    12.4940     0.3520    -0.0220  -999.2500  -999.2500  -999.2500  -999.2500  -999.2500  -999.2500   276.3010 
   12.6250    12.6190     0.3550    -0.0220  -999.2500  -999.2500  -999.2500  -999.2500  -999.2500  -999.2500   277.1670 
   12.7500    12.7440     0.3590    -0.0230  -999.2500  -999.2500  -999.2500  -999.2500  -999.2500  -999.2500   277.7710 
   12.8750    12.8690     0.3620    -0.0230  -999.2500  -999.2500  -999.2500  -999.2500  -999.2500  -999.2500   277.9830 
   13.0000    12.9940     0.3660    -0.0230  -999.2500  -999.2500  -999.2500  -999.2500  -999.2500  -999.2500   277.9990 
   13.1250    13.1180     0.3690    -0.0230  -999.2500  -999.2500  -999.2500  -999.2500  -999.2500  -999.2500   277.6250 
   13.2500    13.2430     0.3730    -0.0230  -999.2500  -999.2500  -999.2500  -999.2500  -999.2500  -999.2500   275.7540 
   13.3750    13.3680     0.3760    -0.0240  -999.2500  -999.2500  -999.2500  -999.2500  -999.2500  -999.2500   275.0050 
   13.5000    13.4930     0.3800    -0.0240  -999.2500  -999.2500  -999.2500  -999.2500  -999.2500  -999.2500   275.0050 
   13.6250    13.6180     0.3830    -0.0240  -999.2500  -999.2500  -999.2500  -999.2500  -999.2500  -999.2500   275.0050 
   13.7500    13.7430     0.3870    -0.0240  -999.2500  -999.2500  -999.2500  -999.2500  -999.2500  -999.2500   275.0050 
   13.8750    13.8680     0.3900    -0.0250  -999.2500  -999.2500  -999.2500  -999.2500  -999.2500  -999.2500   275.0050 
   14.0000    13.9930     0.3940    -0.0250  -999.2500  -999.2500  -999.2500  -999.2500  -999.2500  -999.2500   275.0050 
   14.1250    14.1180     0.3970    -0.0250  -999.2500  -999.2500  -999.2500  -999.2500  -999.2500  -999.2500   275.3640 
   14.2500    14.2430     0.4010    -0.0250  -999.2500  -999.2500  -999.2500  -999.2500  -999.2500  -999.2500   276.9450 
   14.3750    14.3680     0.4040    -0.0250  -999.2500  -999.2500  -999.2500  -999.2500  -999.2500  -999.2500   276.5470 
   14.5000    14.4930     0.4080    -0.0260  -999.2500  -999.2500  -999.2500  -999.2500  -999.2500  -999.2500   274.2660 
   14.6250    14.6180     0.4110    -0.0260  -999.2500  -999.2500  -999.2500  -999.2500  -999.2500  -999.2500   270.1370 
   14.7500    14.7430     0.4150    -0.0260  -999.2500  -999.2500  -999.2500  -999.2500  -999.2500  -999.2500   263.7460 
   14.8750    14.8680     0.4180    -0.0260  -999.2500  -999.2500  -999.2500  -999.2500  -999.2500  -999.2500   254.9170 
   15.0000    14.9930     0.4220    -0.0270  -999.2500  -999.2500  -999.2500  -999.2500  -999.2500  -999.2500   244.2490 
   15.1250    15.1170     0.4250    -0.0270  -999.2500  -999.2500  -999.2500  -999.2500  -999.2500  -999.2500   232.2440 
   15.2500    15.2420     0.4290    -0.0270  -999.2500  -999.2500  -999.2500  -999.2500  -999.2500  -999.2500   219.5750 
   15.3750    15.3670     0.4320    -0.0270  -999.2500  -999.2500  -999.2500  -999.2500  -999.2500  -999.2500   206.9620 
   15.5000    15.4920     0.4360    -0.0270  -999.2500  -999.2500  -999.2500  -999.2500  -999.2500  -999.2500   194.8680 
   15.6250    15.6170     0.4390    -0.0280  -999.2500  -999.2500  -999.2500  -999.2500  -999.2500  -999.2500   183.9750 
   15.7500    15.7420     0.4430    -0.0280  -999.2500  -999.2500  -999.2500  -999.2500  -999.2500  -999.2500   174.5560 
   15.8750    15.8670     0.4460    -0.0280  -999.2500  -999.2500  -999.2500  -999.2500  -999.2500  -999.2500   166.8680 
   16.0000    15.9920     0.4500    -0.0280  -999.2500  -999.2500  -999.2500  -999.2500  -999.2500  -999.2500   160.6080 
   16.1250    16.1170     0.4540    -0.0290  -999.2500  -999.2500  -999.2500  -999.2500  -999.2500  -999.2500   155.4080 
   16.2500    16.2420     0.4570    -0.0290  -999.2500  -999.2500  -999.2500  -999.2500  -999.2500    -0.0040   150.8390 
   16.3750    16.3670     0.4610    -0.0290    33.2130  6941.5830    15.6450     1.7980    25.9420    -0.0040   146.5670 
   16.5000    16.4920     0.4640    -0.0290    33.2130  6941.5830    15.6450     1.7980    25.9420     1.9220   142.3660 
   16.6250    16.6170     0.4680    -0.0290    35.9220  5712.2640    16.4270     4.6510    25.9120     1.9150   138.3970 
   16.7500    16.7420     0.4710    -0.0300    43.8570  5264.5530    18.1790     7.3160    25.8720     1.9180   134.9070 
   16.8750    16.8670     0.4750    -0.0300    47.8020  5143.5750    18.9880     4.0510    25.8760     1.9300   131.6640 
   17.0000    16.9920     0.4780    -0.0300    49.2290  5143.7870    19.6670     1.9720    25.8790     1.9470   128.4750 
   17.1250    17.1160     0.4820    -0.0300    50.2740  5040.5680    20.2670     1.3390    25.8770     1.9600   125.4910 
   17.2500    17.2410     0.4850    -0.0310    51.5600  4729.0150    20.9370     1.1890    25.8720     1.9670   123.0440 
   17.3750    17.3660     0.4890    -0.0310    52.2980  4239.3480    21.7480     1.2320    25.8720     1.9730   121.3970 
   17.5000    17.4910     0.4920    -0.0310    51.6550  3716.1200    22.6930     1.3320    25.8780     1.9860   120.3980 
   17.6250    17.6160     0.4960    -0.0310    49.9130  3403.7940    23.6440     1.4660    25.8790     2.0100   119.4230 
   17.7500    17.7410     0.4990    -0.0310    48.7490  3453.0950    24.4590     1.5700    25.8730     2.0370   118.1690 
   17.8750    17.8660     0.5030    -0.0320    49.0440  3945.7690    25.1890     1.5900    25.8700     2.0550   117.1170 
   18.0000    17.9910     0.5060    -0.0320    50.2800  4771.5370    26.0110     1.5090    25.8760     2.0570   116.7190 
   18.1250    18.1160     0.5100    -0.0320    51.5740  5443.6570    26.9480     1.3800    25.8820     2.0420   116.9860 
   18.2500    18.2410     0.5130    -0.0320    53.5000  5374.9880    27.4460     1.2870    25.8810     2.0190   117.5420 
   18.3750    18.3660     0.5170    -0.0330    55.4110  4336.3460    26.4820     1.2140    25.8780     1.9970   118.1980 
   18.5000    18.4910     0.5200    -0.0330    55.8580  2688.7500    22.8180     1.1620    25.8740     1.9850   118.9080 
   18.6250    18.6160     0.5240    -0.0330    54.9600  1267.3730    16.3050     1.0420    25.8630     2.0200   119.7020 
   18.7500    18.7410     0.5270    -0.0330    53.6210   487.2220    10.0060     0.9660    25.8250     2.1220   120.0360 
   18.8750    18.8660     0.5310    -0.0330    52.0190   200.8340     5.6970     1.1080    25.7750     2.2870   118.5670 
   19.0000    18.9910     0.5340    -0.0340    51.6790   108.1220     3.3670     1.1760    25.7660     2.4720   113.6040 
   19.1250    19.1150     0.5380    -0.0340    54.0790    71.3590     2.4800     1.8680    25.8020     2.5860   102.8420 
   19.2500    19.2400     0.5410    -0.0340    59.4930    60.4440     2.3950     1.9110    25.8950     2.5880    86.9060 
   19.3750    19.3650     0.5450    -0.0340    67.4290    71.3210     3.1560     2.1450    26.1690     2.4890    67.1790 
   19.5000    19.4900     0.5480    -0.0350    75.6230   107.8970     5.0660     2.8350    26.7970     2.3420    45.4380 
   19.6250    19.6150     0.5520    -0.0350    80.1720   203.8100     9.0560     4.0110    27.4460     2.2100    23.2760 
   19.7500    19.7400     0.5550    -0.0350    80.1380   385.3770    15.0800     4.6690    27.9670     2.1100     2.2410 
   19.8750    19.8650     0.5590    -0.0350    78.3860   639.2190    21.8820     4.9540    28.2810     2.0290   -16.1390 
   20.0000    19.9900     0.5620    -0.0350    77.9630   888.3310    26.7170     5.0990    28.4460     1.9510   -30.3010 
   20.1250    20.1150     0.5660    -0.0360    79.4560  1026.6600    26.0140     5.1890    28.4250     1.8820   -37.6290 
