~V
VERS. 2.00: Ver 2.00
~W
STRT.M 33.0000:
STOP.M 273.0000:
STEP.M 0.1250:
NULL. -999.2500:
UWI. FD10880:
~C
DEPT.M :
TVD. :
DX. :
DY. :
SP.MV :
GR.API :
RI. :
RML.OHMM :
RXO.OHMM :
DEN.GM/CC :
~A
# ...
  169.8750   161.3460    41.2510     7.9600   -15.2120    62.2180     7.5660     8.7480    12.0280     2.3560 
  170.0000   161.4550    41.3110     7.9720   -15.0730    61.5720     7.6640     8.8830    12.5350     2.3680 
  170.1250   161.5640    41.3710     7.9840   -14.5270    56.7970     7.6470     8.8830    13.2940     2.3850 
  170.2500   161.6720    41.4310     7.9960   -13.7130    51.2610     7.5060     8.7280    13.0500     2.3910 
  170.3750   161.7810    41.4910     8.0080   -12.8690    48.7370     7.2880     8.4610    12.6910     2.3760 
  170.5000   161.8900    41.5520     8.0200   -12.3240    50.9450     7.0630     8.1820    12.6910     2.3430 
  170.6250   161.9990    41.6120     8.0320   -12.2750    55.5690     6.9410     8.0330    12.6910     2.3080 
  170.7500   162.1080    41.6720     8.0440   -12.6720    58.7280     6.9690     8.0610    12.6910     2.2960 
  170.8750   162.2160    41.7330     8.0570   -13.2140    59.8710     7.1160     8.2230    12.6910     2.3130 
  171.0000   162.3250    41.7930     8.0690   -13.5450    59.9540     7.3430     8.4610    12.9600     2.3500 
  171.1250   162.4340    41.8540     8.0810   -13.4280    59.0200     7.6800     8.8550    13.6070     2.3780 
  171.2500   162.5420    41.9140     8.0930   -12.9940    57.5860     8.1100     9.3740    14.1390     2.3850 
  171.3750   162.6510    41.9750     8.1050   -12.7130    56.7910     8.5170     9.8730    14.3880     2.3780 
  171.5000   162.7600    42.0360     8.1170   -12.6020    56.6470     8.7100    10.1000    14.5900     2.3700 
  171.6250   162.8680    42.0970     8.1290   -12.5940    55.6170     8.5980     9.9570    14.4880     2.3680 
  171.7500   162.9770    42.1570     8.1420   -12.8820    53.6690     8.1620     9.4070    13.9930     2.3630 
  171.8750   163.0850    42.2180     8.1540   -13.4250    53.1140     7.5650     8.6820    13.4190     2.3500 
  172.0000   163.1940    42.2790     8.1660   -13.9550    54.2610     6.9670     7.9550    12.6910     2.3310 
  172.1250   163.3020    42.3400     8.1780   -14.3570    56.1410     6.5130     7.4360    12.5160     2.3170 
  172.2500   163.4110    42.4000     8.1910   -14.4610    56.0310     6.3000     7.2270    12.8250     2.3190 
  172.3750   163.5200    42.4610     8.2030   -14.4690    54.6140     6.2740     7.2230    13.2330     2.3320 
  172.5000   163.6280    42.5220     8.2150   -14.6500    53.5230     6.3310     7.2590    13.9920     2.3460 
  172.6250   163.7370    42.5830     8.2270   -15.0050    53.5080     6.3660     7.2510    13.9920     2.3540 
  172.7500   163.8450    42.6440     8.2390   -15.4390    52.7780     6.3640     7.1790    13.4200     2.3560 
  172.8750   163.9540    42.7050     8.2520   -16.0020    50.8830     6.3300     7.0990    13.2330     2.3520 
  173.0000   164.0620    42.7650     8.2640   -16.5050    50.7630     6.3130     7.0800    13.8000     2.3430 
  173.1250   164.1710    42.8260     8.2760   -16.6490    52.0660     6.3350     7.1320    14.6920     2.3350 
  173.2500   164.2790    42.8870     8.2880   -16.1460    50.9320     6.3690     7.2010    15.0020     2.3340 
  173.3750   164.3880    42.9480     8.3000   -15.2590    48.4570     6.3590     7.2070    16.3110     2.3420 
  173.5000   164.4960    43.0090     8.3120   -14.4440    48.1700     6.2530     7.0870    14.8070     2.3540 
  173.6250   164.6050    43.0700     8.3240   -14.0650    49.9650     6.0730     6.8760    13.6070     2.3630 
  173.7500   164.7130    43.1310     8.3370   -14.4930    51.3450     5.8850     6.6560    13.3290     2.3630 
  173.8750   164.8220    43.1920     8.3490   -15.3000    52.4480     5.7450     6.4970    12.6910     2.3590 
  174.0000   164.9300    43.2530     8.3610   -16.1610    52.7160     5.7440     6.4950    11.5380     2.3590 
  174.1250   165.0380    43.3130     8.3730   -16.8020    51.2560     5.9010     6.6910    11.7190     2.3650 
  174.2500   165.1470    43.3740     8.3850   -16.8140    48.6140     6.1620     7.0030    14.2780     2.3700 
  174.3750   165.2550    43.4350     8.3970   -16.1710    47.0790     6.4640     7.3560    14.8280     2.3740 
  174.5000   165.3640    43.4960     8.4090   -15.2880    48.0420     6.6760     7.5860    13.9400     2.3820 
  174.6250   165.4720    43.5570     8.4210   -14.6350    49.7460     6.7510     7.6380    14.3620     2.3950 
  174.7500   165.5810    43.6180     8.4330   -14.1990    49.5680     6.6700     7.5170    14.3000     2.4080 
  174.8750   165.6890    43.6790     8.4450   -13.7430    48.7550     6.4680     7.2810    12.7260     2.4160 
  175.0000   165.7980    43.7400     8.4570   -13.3310    50.4360     6.2110     6.9910    11.9690     2.4160 
  175.1250   165.9060    43.8010     8.4690   -13.0960    54.2890     6.0080     6.7800    12.2720     2.4070 
  175.2500   166.0140    43.8620     8.4810   -13.1080    57.6630     5.9070     6.6870    11.6380     2.3930 
  175.3750   166.1230    43.9240     8.4930   -13.2310    58.8600     5.9160     6.7190    10.6750     2.3840 
  175.5000   166.2310    43.9850     8.5060   -13.2920    59.5110     6.0050     6.8460    10.5510     2.3860 
  175.6250   166.3400    44.0460     8.5180   -13.4040    59.5100     6.1410     7.0050    10.8040     2.3920 
  175.7500   166.4480    44.1070     8.5300   -13.6640    59.4210     6.3010     7.1600    11.3730     2.3920 
  175.8750   166.5560    44.1680     8.5420   -13.9770    59.7210     6.4500     7.2810    11.7000     2.3860 
  176.0000   166.6650    44.2290     8.5540   -14.3010    60.5160     6.5840     7.3690    11.4810     2.3790 
  176.1250   166.7730    44.2900     8.5660   -14.6110    59.6880     6.6990     7.4430    11.8050     2.3780 
  176.2500   166.8810    44.3510     8.5780   -14.6670    55.8090     6.8050     7.5240    12.3990     2.3810 
  176.3750   166.9900    44.4120     8.5900   -14.2690    51.9790     6.8890     7.6040    13.0620     2.3880 
  176.5000   167.0980    44.4740     8.6020   -13.4940    52.0710     6.9480     7.6620    13.6590     2.3960 
  176.6250   167.2060    44.5350     8.6140   -12.6550    54.5930     6.9920     7.7050    13.4130     2.4050 
  176.7500   167.3150    44.5960     8.6260   -12.1510    56.3650     7.0820     7.8230    14.3590     2.4120 
  176.8750   167.4230    44.6570     8.6380   -12.1900    57.2570     7.1420     7.8950    15.7140     2.4160 
  177.0000   167.5310    44.7190     8.6500   -12.6960    59.6430     7.1240     7.8890    14.4390     2.4170 
  177.1250   167.6400    44.7800     8.6620   -13.3360    61.9880     6.9970     7.7320    12.9400     2.4160 
  177.2500   167.7480    44.8410     8.6740   -13.8640    61.7080     6.7600     7.4390    13.4760     2.4120 
  177.3750   167.8560    44.9030     8.6860   -13.9570    58.9950     6.5020     7.1280    14.5040     2.4060 
  177.5000   167.9640    44.9640     8.6980   -13.4980    57.6270     6.3200     6.9310    13.7350     2.4010 
  177.6250   168.0720    45.0260     8.7100   -12.9360    57.2500     6.2580     6.8760    11.6250     2.3990 
  177.7500   168.1800    45.0870     8.7220   -12.4750    56.8750     6.3440     6.9980    10.6910     2.4020 
  177.8750   168.2890    45.1490     8.7340   -12.0890    55.9860     6.5060     7.1870    11.5170     2.4070 
  178.0000   168.3970    45.2110     8.7460   -11.8040    55.1640     6.6590     7.3460    12.6960     2.4060 
  178.1250   168.5050    45.2720     8.7580   -11.7530    55.6050     6.7560     7.4330    13.2990     2.3970 
  178.2500   168.6130    45.3340     8.7710   -11.8700    57.3680     6.8160     7.4690    13.5600     2.3890 
  178.3750   168.7210    45.3950     8.7830   -12.0680    57.9470     6.8500     7.4940    13.0580     2.3880 
  178.5000   168.8290    45.4570     8.7950   -12.2790    55.6520     6.8800     7.5340    12.9820     2.3930 
  178.6250   168.9370    45.5190     8.8070   -12.4180    53.0710     6.8910     7.5690    13.6730     2.3960 
  178.7500   169.0450    45.5800     8.8200   -12.5580    53.7620     6.8500     7.5530    13.5460     2.3950 
  178.8750   169.1530    45.6420     8.8320   -12.8180    55.4950     6.6920     7.3980    13.5980     2.3970 
