~V
VERS. 2.00: Ver 2.00
~W
STRT.M 44.0000:
STOP.M 206.0000:
STEP.M 0.1250:
NULL. -999.2500:
UWI. FD10808:
~C
DEPT.M :
TVD. :
DX. :
DY. :
SP.MV :
GR.API :
RI. :
RML.OHMM :
RXO.OHMM :
DEN.GM/CC :
~A
# ...
  199.1250   183.5940   -25.8610    54.1500     0.0420    90.9180     6.6520     7.3620     7.9370     2.2750 
  199.2500   183.6970   -25.8930    54.2130     0.0420    90.9180     6.6550     7.3590     7.5990     2.2980 
  199.3750   183.8000   -25.9250    54.2770     0.0420    90.9180     6.6550     7.3550     7.7780     2.3200 
  199.5000   183.9030   -25.9570    54.3400     0.0420    90.9180     6.6550     7.3520     8.2520     2.3280 
  199.6250   184.0060   -25.9880    54.4030     0.0420    90.9180     6.6560     7.3480     8.4450     2.3280 
  199.7500   184.1090   -26.0200    54.4670     0.0420    90.9180     6.6560     7.3440     8.4320     2.3220 
  199.8750   184.2120   -26.0520    54.5300     0.0420    90.9180     6.6560     7.3430     9.3420     2.3190 
  200.0000   184.3150   -26.0840    54.5930     0.0420    90.9180     6.6560     7.3440    10.8270     2.3190 
  200.1250   184.4180   -26.1150    54.6570     0.0420    90.9180     6.6570     7.3480    11.6590     2.3270 
  200.2500   184.5210   -26.1470    54.7200     0.0420    90.9180     6.6580     7.3500    12.1460     2.3300 
  200.3750   184.6240   -26.1790    54.7830     0.0420    90.9180     6.6590     7.3510    11.7430     2.3380 
  200.5000   184.7270   -26.2110    54.8470     0.0420    90.9180     6.6600     7.3520     9.5450     2.3400 
  200.6250   184.8300   -26.2420    54.9100     0.0420    90.9180     6.6610     7.3500    12.3770     2.3400 
  200.7500   184.9330   -26.2740    54.9730     0.0420    90.9180     6.6620     7.3450    16.7470     2.3310 
  200.8750   185.0360   -26.3060    55.0370     0.0420    90.9180     6.6620     7.3390    20.9850     2.3200 
  201.0000   185.1390   -26.3380    55.1000     0.0420    90.9180     6.6620     7.3340    28.8780     2.3140 
  201.1250   185.2420   -26.3690    55.1630     0.0420    90.9180     6.6620     7.3330    23.4390     2.3180 
  201.2500   185.3450   -26.4010    55.2270     0.0420    90.9180     6.6620     7.3330    10.5310     2.3250 
  201.3750   185.4480   -26.4330    55.2900     0.0420    90.9180     6.6620     7.3330     6.6100     2.3240 
  201.5000   185.5510   -26.4650    55.3530     0.0420    90.9180     6.6620     7.3330     6.3930     2.3160 
  201.6250   185.6540   -26.4960    55.4160     0.0420    90.9180     6.6620     7.3330     6.4590     2.3070 
  201.7500   185.7570   -26.5280    55.4800     0.0420    90.9180     6.6620     7.3330     7.0820     2.2940 
  201.8750   185.8600   -26.5600    55.5430     0.0420    90.9180     6.6620     7.3330     7.4650     2.2730 
  202.0000   185.9630   -26.5920    55.6060     0.0420    90.9180     6.6620     7.3330     6.8690     2.2520 
  202.1250   186.0660   -26.6230    55.6700     0.0420    90.9180     6.6620     7.3330     6.2090     2.2460 
  202.2500   186.1690   -26.6550    55.7330     0.0420    90.9180     6.6620     7.3330     5.6780     2.2460 
  202.3750   186.2720   -26.6870    55.7960     0.0420    90.9180     6.6620     7.3330     5.1520     2.2430 
  202.5000   186.3750   -26.7190    55.8600     0.0420    90.9180     6.6620     7.3330     5.1750     2.2390 
  202.6250   186.4780   -26.7500    55.9230     0.0420    90.9180     6.6620     7.3330     5.3270     2.2340 
  202.7500   186.5810   -26.7820    55.9860     0.0420    90.9180     6.6620     7.3330     5.3560     2.2230 
  202.8750   186.6840   -26.8140    56.0500     0.0420    90.9180     6.6620     7.3330     5.6000     2.2070 
  203.0000   186.7870   -26.8460    56.1130     0.0420    90.9180     6.6620     7.3330     5.7230     2.2020 
  203.1250   186.8900   -26.8770    56.1760     0.0420    90.9180     6.6620     7.3330     5.5940     2.2160 
  203.2500   186.9930   -26.9090    56.2400     0.0420    90.9180     6.6620     7.3330     5.5650     2.2330 
  203.3750   187.0960   -26.9410    56.3030     0.0420    90.9180     6.6620     7.3330     5.5180     2.2430 
  203.5000   187.1990   -26.9730    56.3660     0.0420    90.9180     6.6620     7.3330     5.3140     2.2360 
  203.6250   187.3020   -27.0040    56.4300     0.0420    90.9180     6.6620     7.3330     5.1810     2.2140 
  203.7500   187.4050   -27.0360    56.4930     0.0420    90.9180     6.6620     7.3330     5.1970     2.1860 
  203.8750   187.5080   -27.0680    56.5560     0.0420    90.9180     6.6620     7.3330     5.3300     2.1740 
  204.0000   187.6110   -27.1000    56.6200     0.0420    90.9180     6.6620     7.3330     5.5530     2.1810 
  204.1250   187.7140   -27.1310    56.6830     0.0420    90.9180     6.6620     7.3330     5.7640     2.2000 
  204.2500   187.8170   -27.1630    56.7460     0.0420    90.9180     6.6620     7.3330     5.8840     2.2170 
  204.3750   187.9200   -27.1950    56.8100     0.0420    90.9180     6.6620     7.3330     5.9160     2.2300 
  204.5000   188.0230   -27.2270    56.8730     0.0420    90.9180     6.6620     7.3330     5.9150     2.2360 
  204.6250   188.1260   -27.2580    56.9360     0.0420    90.9180     6.6620     7.3330     5.9140     2.2380 
  204.7500   188.2290   -27.2900    56.9990     0.0420    90.9180     6.6620     7.3330     5.9130     2.2420 
  204.8750   188.3320   -27.3220    57.0630     0.0420    90.9180     6.6620     7.3330     5.9120     2.2460 
  205.0000   188.4350   -27.3540    57.1260     0.0420    90.9180     6.6620     7.3330     5.9110     2.2480 
  205.1250   188.5380   -27.3850    57.1890     0.0420    90.9180     6.6620     7.3330     5.9110     2.2460 
  205.2500   188.6410   -27.4170    57.2530     0.0420    90.9180     6.6620     7.3330     5.9100     2.2400 
  205.3750   188.7440   -27.4490    57.3160     0.0420    90.9180     6.6620     7.3330     5.9090     2.2380 
  205.5000   188.8470   -27.4810    57.3790     0.0420    90.9180     6.6620     7.3330     5.9090     2.2350 
  205.6250   188.9500   -27.5120    57.4430     0.0420    90.9180     6.6620     7.3330     5.9080     2.2390 
  205.7500   189.0530   -27.5440    57.5060     0.0420    90.9180     6.6620     7.3330     5.9070     2.2420 
  205.8750   189.1560   -27.5760    57.5690     0.0420    90.9180     6.6620     7.3330     5.9070     2.2430 
  206.0000   189.2590   -27.6080    57.6330     0.0420    90.9180     6.6620     7.3330     5.9060     2.2360 
