~V
VERS. 2.00: Ver 2.00
~W
STRT.M 24.0000:
STOP.M 269.0000:
STEP.M 0.1250:
NULL. -999.2500:
UWI. FD10666:
~C
DEPT.M :
TVD. :
DX. :
DY. :
GR.API :
RML.OHMM :
RI. :
RXO.OHMM :
CALI.CM :
DEN.GM/CC :
SP.MV :
~A
# ...
  147.7500   143.2860    24.9220    13.2580    54.0040    32.0230    29.7710    14.7370    20.9490     2.2400    -5.4730 
  147.8750   143.4020    24.9650    13.2790    57.1390    30.3560    28.1500    14.4800    20.9490     2.2260    -5.6180 
  148.0000   143.5170    25.0090    13.3000    59.3590    29.1280    26.8970    13.8350    20.9490     2.2200    -5.6940 
  148.1250   143.6320    25.0520    13.3210    58.1560    28.4560    26.1530    12.8910    20.9490     2.2190    -5.6680 
  148.2500   143.7480    25.0950    13.3420    55.3430    28.1650    25.7830    11.7480    20.9490     2.2170    -5.5520 
  148.3750   143.8630    25.1380    13.3630    52.9660    28.1390    25.6890    10.7940    20.9490     2.2120    -5.3650 
  148.5000   143.9780    25.1820    13.3840    53.5280    28.2930    25.7880    10.3890    20.9490     2.2040    -5.1200 
  148.6250   144.0940    25.2250    13.4050    57.1670    28.6140    26.0480    10.5880    20.9490     2.1960    -4.8370 
  148.7500   144.2090    25.2680    13.4260    60.1690    29.0790    26.4330    11.2240    20.9490     2.1890    -4.5480 
  148.8750   144.3240    25.3120    13.4470    60.4670    29.6740    26.9290    11.9100    20.9490     2.1840    -4.2680 
  149.0000   144.4400    25.3550    13.4680    58.0090    30.3260    27.4880    12.3720    20.9490     2.1840    -4.0240 
  149.1250   144.5550    25.3980    13.4890    55.9650    30.8700    27.9840    12.5350    20.9490     2.1860    -3.8420 
  149.2500   144.6700    25.4410    13.5110    54.0540    31.1750    28.2970    12.3420    20.9490     2.1890    -3.7200 
  149.3750   144.7860    25.4850    13.5320    50.7560    31.1990    28.3700    11.8560    20.9490     2.1900    -3.6530 
  149.5000   144.9010    25.5280    13.5530    46.9360    31.0000    28.2280    11.3000    20.9490     2.1870    -3.6350 
  149.6250   145.0170    25.5710    13.5740    46.3720    30.7210    27.9700    11.1490    20.9490     2.1830    -3.6730 
  149.7500   145.1320    25.6150    13.5950    48.6960    30.5260    27.7490    11.1490    20.9490     2.1790    -3.7330 
  149.8750   145.2470    25.6580    13.6160    50.8890    30.4740    27.6400    11.5160    20.9490     2.1800    -3.8040 
  150.0000   145.3630    25.7010    13.6370    51.4640    30.5420    27.6530    11.9880    20.9490     2.1900    -3.8700 
  150.1250   145.4770    25.7460    13.6590    51.2180    30.6350    27.7360    12.3760    20.9490     2.2110    -3.9010 
  150.2500   145.5920    25.7920    13.6800    51.2160    30.6540    27.7920    12.7360    20.9490     2.2310    -3.8760 
  150.3750   145.7060    25.8370    13.7020    51.4960    30.5650    27.7690    13.1840    20.9490     2.2420    -3.7900 
  150.5000   145.8210    25.8820    13.7240    52.7600    30.3950    27.6610    13.8330    20.9480     2.2360    -3.6440 
  150.6250   145.9350    25.9270    13.7450    54.0010    30.2080    27.5010    14.3410    20.9470     2.2160    -3.4360 
  150.7500   146.0500    25.9720    13.7670    52.9200    30.0530    27.3420    14.7240    20.9470     2.1950    -3.1990 
  150.8750   146.1640    26.0180    13.7890    51.2330    29.9240    27.1990    14.9510    20.9520     2.1810    -2.9590 
  151.0000   146.2790    26.0630    13.8110    51.7520    29.7780    27.0490    15.2550    20.9670     2.1750    -2.7360 
  151.1250   146.3930    26.1080    13.8320    53.8420    29.5280    26.8300    15.5060    20.9970     2.1770    -2.5630 
  151.2500   146.5080    26.1530    13.8540    54.7900    29.1440    26.5050    15.4370    21.0340     2.1820    -2.4550 
  151.3750   146.6220    26.1980    13.8760    54.8750    28.6480    26.0810    14.5800    21.0670     2.1870    -2.4220 
  151.5000   146.7370    26.2440    13.8970    54.8580    28.1330    25.6280    13.1560    21.0850     2.1890    -2.4730 
  151.6250   146.8510    26.2890    13.9190    54.9310    27.8350    25.3460    11.6610    21.0860     2.1870    -2.6150 
  151.7500   146.9660    26.3340    13.9410    55.6910    27.9760    25.4430    11.0030    21.0760     2.1790    -2.8230 
  151.8750   147.0800    26.3790    13.9630    56.5330    28.7270    26.0950    11.1820    21.0590     2.1700    -3.0820 
  152.0000   147.1950    26.4240    13.9840    55.0790    30.0800    27.3420    12.0060    21.0380     2.1690    -3.3690 
  152.1250   147.3090    26.4700    14.0060    52.2810    31.7200    28.9930    13.2700    21.0220     2.1960    -3.6550 
  152.2500   147.4240    26.5150    14.0280    52.4940    32.9700    30.4480    14.7200    21.0160     2.2540    -3.9150 
  152.3750   147.5380    26.5600    14.0490    55.1520    33.2640    31.1430    16.5480    21.0210     2.3310    -4.1310 
  152.5000   147.6530    26.6050    14.0710    56.8450    32.2960    30.6800    19.9320    21.0430     2.4010    -4.2900 
  152.6250   147.7670    26.6500    14.0930    56.6610    30.0940    28.9350    21.9030    21.0900     2.4190    -4.3860 
  152.7500   147.8820    26.6960    14.1140    57.0770    27.5030    26.6750    19.8190    21.1500     2.3830    -4.4340 
  152.8750   147.9960    26.7410    14.1360    57.5300    25.1640    24.5310    16.0970    21.2020     2.3150    -4.4320 
  153.0000   148.1110    26.7860    14.1580    55.5140    23.4610    22.9150    13.9910    21.2220     2.2480    -4.3950 
  153.1250   148.2250    26.8310    14.1800    53.1830    22.5550    22.0350    13.3050    21.2040     2.2080    -4.3350 
  153.2500   148.3400    26.8760    14.2010    53.3100    22.1350    21.6500    12.8530    21.1940     2.1960    -4.2760 
  153.3750   148.4540    26.9220    14.2230    55.8960    21.9590    21.5510    12.3300    21.2240     2.2070    -4.2370 
  153.5000   148.5690    26.9670    14.2450    58.4180    21.8080    21.5210    11.8590    21.2960     2.2300    -4.2210 
  153.6250   148.6830    27.0120    14.2660    58.0870    21.4840    21.3300    11.2380    21.4050     2.2490    -4.2170 
  153.7500   148.7980    27.0570    14.2880    58.4610    20.8950    20.8560    10.7830    21.5190     2.2540    -4.2160 
  153.8750   148.9120    27.1020    14.3100    60.1240    19.9850    20.0230    10.4210    21.5860     2.2460    -4.2220 
  154.0000   149.0270    27.1480    14.3320    60.8820    18.7730    18.8390    10.3460    21.5660     2.2290    -4.2340 
  154.1250   149.1410    27.1930    14.3530    59.8380    17.4220    17.4490    10.7820    21.4560     2.2120    -4.2630 
  154.2500   149.2560    27.2380    14.3750    59.2110    16.2500    16.1800    11.2920    21.2940     2.2000    -4.3210 
  154.3750   149.3700    27.2830    14.3970    58.6300    15.5220    15.2890    11.4440    21.1190     2.2000    -4.4140 
  154.5000   149.4850    27.3280    14.4180    56.6710    15.4140    14.9550    10.8770    20.9930     2.2160    -4.5560 
  154.6250   149.5990    27.3740    14.4400    54.6950    16.0960    15.3640    10.2670    20.9510     2.2590    -4.7560 
  154.7500   149.7140    27.4190    14.4620    54.3820    17.3830    16.3930    10.7880    20.9400     2.3240    -4.9830 
  154.8750   149.8280    27.4640    14.4830    55.9120    19.1480    17.9550    11.7090    20.9370     2.4010    -5.2270 
  155.0000   149.9430    27.5090    14.5050    58.5680    21.2410    19.9180    12.9090    20.9350     2.4760    -5.4760 
  155.1250   150.0570    27.5540    14.5270    60.1120    23.5130    22.1220    14.9710    20.9440     2.5310    -5.7220 
  155.2500   150.1720    27.6000    14.5490    58.7230    25.7570    24.3220    17.7220    20.9600     2.5640    -5.9430 
  155.3750   150.2860    27.6450    14.5700    55.5640    27.7940    26.3320    20.5330    20.9880     2.5840    -6.1210 
  155.5000   150.4010    27.6900    14.5920    51.9760    29.4390    27.9710    21.5960    21.0260     2.5980    -6.2490 
  155.6250   150.5150    27.7350    14.6140    47.8490    30.4040    28.9670    19.4400    21.0560     2.6060    -6.3280 
  155.7500   150.6300    27.7800    14.6350    45.3870    30.6610    29.2810    17.1760    21.0780     2.6020    -6.3850 
  155.8750   150.7440    27.8260    14.6570    44.8160    30.1760    28.8680    17.6850    21.0920     2.5830    -6.4280 
