~V
VERS. 2.00: Ver 2.00
~W
STRT.M 65.0000:
STOP.M 248.0000:
STEP.M 0.1250:
NULL. -999.2500:
UWI. FD10900:
~C
DEPT.M :
TVD. :
DX. :
DY. :
SP.MV :
GR.API :
RI. :
RML.OHMM :
RXO.OHMM :
DEN.GM/CC :
~A
# ...
  147.1250   146.5300    -7.3890     4.1750   -23.5320    54.6890    30.2420    34.7170    28.8980     2.4530 
  147.2500   146.6530    -7.4080     4.1900   -23.8470    56.5210    29.3160    33.5920    28.8070     2.4620 
  147.3750   146.7750    -7.4280     4.2050   -23.9610    57.0610    28.5020    32.6290    29.5810     2.4570 
  147.5000   146.8980    -7.4470     4.2190   -24.0260    55.5960    28.0420    32.1020    28.9470     2.4420 
  147.6250   147.0210    -7.4660     4.2340   -24.1250    54.4280    28.0180    32.0800    27.3660     2.4240 
  147.7500   147.1430    -7.4850     4.2490   -24.2390    54.2130    28.4530    32.6040    27.1450     2.4100 
  147.8750   147.2660    -7.5050     4.2640   -24.3260    54.5510    29.2910    33.6440    29.2870     2.4050 
  148.0000   147.3890    -7.5240     4.2780   -24.3950    54.7260    30.4040    35.0530    32.1100     2.4190 
  148.1250   147.5110    -7.5430     4.2930   -24.4230    56.4750    31.3970    36.3130    33.1960     2.4470 
  148.2500   147.6340    -7.5630     4.3080   -24.4420    58.3810    31.7390    36.7460    32.5660     2.4700 
  148.3750   147.7560    -7.5820     4.3230   -24.5360    59.7490    31.2230    36.1000    31.2230     2.4740 
  148.5000   147.8790    -7.6020     4.3380   -24.6310    57.7190    29.9410    34.5050    28.5460     2.4610 
  148.6250   148.0010    -7.6210     4.3530   -24.7710    55.9890    28.3570    32.5610    25.1700     2.4430 
  148.7500   148.1240    -7.6410     4.3680   -24.9450    54.1770    26.8810    30.7650    23.4670     2.4330 
  148.8750   148.2470    -7.6600     4.3830   -25.1730    54.2090    25.7960    29.4480    23.4630     2.4350 
  149.0000   148.3690    -7.6800     4.3980   -25.3900    54.8150    25.3870    28.9390    23.3650     2.4480 
  149.1250   148.4920    -7.6990     4.4130   -25.4930    56.4270    25.7140    29.3220    23.3160     2.4630 
  149.2500   148.6140    -7.7190     4.4280   -25.5810    57.5620    26.6740    30.4810    24.7140     2.4770 
  149.3750   148.7370    -7.7380     4.4430   -25.6800    59.2410    27.7960    31.8380    27.3110     2.4890 
  149.5000   148.8590    -7.7580     4.4580   -25.8080    60.0600    28.4690    32.6490    29.8960     2.4990 
  149.6250   148.9820    -7.7780     4.4740   -25.8380    60.0750    28.3390    32.4800    31.0510     2.5020 
  149.7500   149.1040    -7.7970     4.4890   -25.6650    57.9070    27.3020    31.2310    28.8940     2.4950 
  149.8750   149.2270    -7.8170     4.5040   -25.3070    56.5780    25.6390    29.3010    23.7110     2.4800 
  150.0000   149.3490    -7.8370     4.5190   -24.6600    56.8380    23.8600    27.3280    18.5810     2.4690 
  150.1250   149.4720    -7.8560     4.5350   -23.9720    59.0680    22.5410    25.9550    16.0590     2.4670 
  150.2500   149.5940    -7.8760     4.5500   -23.3470    60.0330    22.1140    25.6310    16.6060     2.4740 
  150.3750   149.7170    -7.8960     4.5650   -22.6880    60.0540    22.6060    26.3290    20.3220     2.4850 
  150.5000   149.8390    -7.9160     4.5810   -22.2650    58.3800    23.7760    27.7580    26.3850     2.4970 
  150.6250   149.9610    -7.9360     4.5960   -21.9770    57.2590    25.1650    29.4220    31.6650     2.5090 
  150.7500   150.0840    -7.9560     4.6110   -21.6900    56.3800    26.5390    31.0920    36.7100     2.5200 
  150.8750   150.2060    -7.9760     4.6270   -21.3850    56.7820    27.7540    32.5950    42.2530     2.5340 
  151.0000   150.3290    -7.9960     4.6420   -21.0110    55.8330    28.4750    33.4800    44.2110     2.5480 
  151.1250   150.4510    -8.0160     4.6580   -20.4540    53.3220    28.3560    33.3290    39.9300     2.5580 
  151.2500   150.5730    -8.0360     4.6730   -19.4430    50.2400    27.1650    31.8650    31.9340     2.5570 
  151.3750   150.6960    -8.0560     4.6890   -18.0450    49.0270    25.2240    29.5100    25.5740     2.5480 
  151.5000   150.8180    -8.0770     4.7040   -16.4570    49.7360    23.1690    27.0750    22.3620     2.5350 
  151.6250   150.9410    -8.0970     4.7200   -14.8860    50.4240    21.6740    25.3580    21.2190     2.5270 
  151.7500   151.0630    -8.1170     4.7360   -14.1950    51.1500    21.0870    24.7440    21.6960     2.5280 
  151.8750   151.1850    -8.1370     4.7510   -14.0830    52.0860    21.2290    24.9790    22.8170     2.5380 
  152.0000   151.3080    -8.1580     4.7670   -14.1210    52.2390    21.8380    25.7120    29.5180     2.5560 
  152.1250   151.4300    -8.1780     4.7830   -14.2240    51.3680    22.5010    26.4600    50.9610     2.5720 
  152.2500   151.5520    -8.1990     4.7990   -14.4600    50.6020    22.9360    26.9270    65.9470     2.5800 
  152.3750   151.6740    -8.2190     4.8150   -14.9130    50.6480    23.0520    27.0390    52.5520     2.5810 
  152.5000   151.7970    -8.2400     4.8310   -15.5900    52.6890    22.7870    26.7600    33.2850     2.5820 
  152.6250   151.9190    -8.2600     4.8470   -16.4470    54.4390    22.2200    26.2150    23.8930     2.5890 
  152.7500   152.0410    -8.2810     4.8630   -17.4770    55.6480    21.4740    25.5560    20.7730     2.6040 
  152.8750   152.1640    -8.3010     4.8790   -18.6430    55.5780    20.6920    24.8880    19.3200     2.6250 
  153.0000   152.2860    -8.3220     4.8950   -19.8840    54.1060    19.8380    24.0710    17.8840     2.6460 
  153.1250   152.4080    -8.3420     4.9110   -21.0750    52.4640    18.8130    22.9150    17.1650     2.6610 
  153.2500   152.5300    -8.3630     4.9270   -22.3150    50.2830    17.6600    21.4330    17.1630     2.6640 
  153.3750   152.6520    -8.3840     4.9440   -23.5180    49.8330    16.5900    19.9250    15.9850     2.6500 
  153.5000   152.7750    -8.4040     4.9600   -24.4540    51.8510    15.9260    18.8810    13.5660     2.6210 
  153.6250   152.8970    -8.4250     4.9770   -24.9980    54.8960    15.9200    18.7070    12.1790     2.5910 
  153.7500   153.0190    -8.4460     4.9930   -25.2860    55.8590    16.6570    19.5430    13.3580     2.5770 
  153.8750   153.1410    -8.4660     5.0100   -25.4130    55.2100    17.7540    20.8680    17.1850     2.5790 
  154.0000   153.2630    -8.4870     5.0260   -25.4760    53.6610    18.5970    21.8470    22.4480     2.5840 
  154.1250   153.3850    -8.5080     5.0430   -25.6110    53.4360    18.7040    21.8720    25.5290     2.5780 
  154.2500   153.5070    -8.5290     5.0590   -25.7960    52.6810    17.9530    20.8440    23.5290     2.5590 
  154.3750   153.6300    -8.5500     5.0760   -25.9510    52.4590    16.7720    19.3600    18.4420     2.5360 
  154.5000   153.7520    -8.5710     5.0920   -26.1060    52.4110    15.6910    18.1180    14.9210     2.5190 
  154.6250   153.8740    -8.5920     5.1090   -26.2540    53.0370    15.0550    17.5260    14.7040     2.5120 
  154.7500   153.9960    -8.6120     5.1260   -26.3750    54.4340    15.0390    17.7390    15.2250     2.5090 
  154.8750   154.1180    -8.6330     5.1420   -26.4720    55.0150    15.5440    18.5510    14.9770     2.5080 
  155.0000   154.2400    -8.6540     5.1590   -26.5600    54.8380    16.4190    19.7400    14.9940     2.5070 
  155.1250   154.3620    -8.6750     5.1760   -26.6230    53.4770    17.4400    21.0570    15.8280     2.5090 
  155.2500   154.4840    -8.6960     5.1920   -26.7070    52.5670    18.4400    22.3460    17.8230     2.5180 
  155.3750   154.6060    -8.7170     5.2090   -26.7940    51.3500    19.2660    23.4260    20.0660     2.5350 
  155.5000   154.7280    -8.7380     5.2260   -26.9030    49.9540    19.6410    23.9140    20.6720     2.5500 
  155.6250   154.8510    -8.7600     5.2430   -27.0430    47.7360    19.4360    23.6200    19.9140     2.5520 
  155.7500   154.9730    -8.7810     5.2600   -27.1420    46.8600    18.6940    22.5830    19.0960     2.5340 
  155.8750   155.0950    -8.8020     5.2760   -27.2680    47.1320    17.7240    21.2200    18.2950     2.4990 
  156.0000   155.2170    -8.8230     5.2930   -27.3630    47.8950    16.8320    19.9570    17.2490     2.4570 
  156.1250   155.3390    -8.8440     5.3100   -27.4790    48.3810    16.1690    19.0160    16.4690     2.4220 
