~V
VERS. 2.00: Ver 2.00
~W
STRT.M 32.0000:
STOP.M 275.0000:
STEP.M 0.1250:
NULL. -999.2500:
UWI. FD10902:
~C
DEPT.M :
TVD. :
DX. :
DY. :
SP.MV :
GR.API :
RI. :
RML.OHMM :
RXO.OHMM :
DEN.GM/CC :
~A
# ...
   77.6250    77.4050     3.8670    -0.9080    -4.3440    93.7530     4.0950     4.7570     4.8500     2.3800 
   77.7500    77.5290     3.8880    -0.9130    -5.8010    89.6840     5.8310     6.9650    11.2660     2.4050 
   77.8750    77.6520     3.9080    -0.9180    -7.2940    82.1400     8.7030    10.6440    21.6840     2.4420 
   78.0000    77.7750     3.9290    -0.9240    -8.6100    73.3010    12.0110    14.7690    29.4190     2.4520 
   78.1250    77.8980     3.9500    -0.9290    -9.5390    66.4850    13.8180    16.7920    29.8340     2.4120 
   78.2500    78.0210     3.9700    -0.9350    -9.7870    62.8020    13.4310    15.9800    22.1700     2.3230 
   78.3750    78.1440     3.9910    -0.9400    -9.5060    62.1520    11.0800    12.7880    13.1720     2.2250 
   78.5000    78.2680     4.0120    -0.9450    -9.0820    65.2370     8.2260     9.2060     8.3970     2.1520 
   78.6250    78.3910     4.0330    -0.9510    -9.0890    71.0250     6.3540     7.0600     6.6480     2.1160 
   78.7500    78.5140     4.0540    -0.9560    -9.8060    76.1190     5.4600     6.1750     5.9460     2.1170 
   78.8750    78.6370     4.0750    -0.9620   -10.9130    78.4340     5.2050     6.0480     5.6500     2.1310 
   79.0000    78.7600     4.0960    -0.9680   -11.8830    77.6200     5.3330     6.3490     5.9140     2.1400 
   79.1250    78.8830     4.1170    -0.9730   -12.5370    75.2010     5.6360     6.8120     6.3850     2.1410 
   79.2500    79.0060     4.1380    -0.9790   -12.7410    72.1490     5.9640     7.2340     6.7540     2.1410 
   79.3750    79.1290     4.1600    -0.9850   -12.7750    70.1730     6.1750     7.4610     6.8230     2.1380 
   79.5000    79.2520     4.1810    -0.9900   -12.9630    70.0130     6.2070     7.4340     6.4610     2.1260 
   79.6250    79.3750     4.2020    -0.9960   -13.1620    70.5540     6.0710     7.1930     6.0360     2.1150 
   79.7500    79.4980     4.2240    -1.0020   -13.1020    70.2820     5.8680     6.8830     5.9350     2.1040 
   79.8750    79.6210     4.2450    -1.0080   -12.8870    69.6140     5.7070     6.6390     6.0670     2.1000 
   80.0000    79.7440     4.2670    -1.0130   -12.6820    69.7020     5.6380     6.5370     6.2690     2.1030 
   80.1250    79.8670     4.2880    -1.0190   -12.5820    71.3850     5.6480     6.5420     6.3790     2.1140 
   80.2500    79.9900     4.3100    -1.0250   -12.7750    73.4260     5.6790     6.6040     6.3430     2.1230 
   80.3750    80.1130     4.3320    -1.0310   -12.9110    74.3910     5.7200     6.7030     6.4720     2.1310 
   80.5000    80.2360     4.3540    -1.0370   -13.0670    72.3910     5.7680     6.8340     6.7010     2.1340 
   80.6250    80.3590     4.3750    -1.0430   -13.1960    69.7710     5.8230     6.9730     6.7010     2.1250 
   80.7500    80.4820     4.3970    -1.0490   -13.2010    67.9060     5.8630     7.0760     6.6480     2.1100 
   80.8750    80.6050     4.4190    -1.0550   -13.1790    67.6560     5.8820     7.1330     6.7020     2.1000 
   81.0000    80.7280     4.4410    -1.0600   -13.1130    68.1620     5.8630     7.1190     6.8480     2.1090 
   81.1250    80.8510     4.4640    -1.0660   -12.9860    68.7180     5.8390     7.1010     6.9570     2.1270 
   81.2500    80.9730     4.4860    -1.0720   -12.8300    69.5360     5.8240     7.0970     6.9100     2.1420 
   81.3750    81.0960     4.5080    -1.0780   -12.7220    69.7650     5.7890     7.0640     6.8450     2.1500 
   81.5000    81.2190     4.5300    -1.0840   -12.6250    70.1710     5.7710     7.0670     6.7970     2.1460 
   81.6250    81.3420     4.5530    -1.0900   -12.5930    71.3690     5.8270     7.1750     6.7700     2.1450 
   81.7500    81.4650     4.5750    -1.0960   -12.4930    73.5630     5.9300     7.3390     8.1280     2.1490 
   81.8750    81.5880     4.5980    -1.1020   -12.5700    74.7700     6.0340     7.5070    11.7750     2.1580 
   82.0000    81.7100     4.6200    -1.1080   -12.6510    74.8050     6.1050     7.6230    12.9980     2.1560 
   82.1250    81.8330     4.6430    -1.1140   -12.5660    73.9230     6.1170     7.6260     9.6770     2.1510 
   82.2500    81.9560     4.6660    -1.1200   -12.3970    73.2760     6.0620     7.5130     7.2300     2.1460 
   82.3750    82.0790     4.6880    -1.1260   -12.0000    72.4000     6.0030     7.3970     6.9820     2.1460 
   82.5000    82.2010     4.7110    -1.1320   -11.3560    72.3040     5.9180     7.2680     6.9050     2.1410 
   82.6250    82.3240     4.7340    -1.1380   -10.6640    72.4930     5.8040     7.1410     6.9480     2.1370 
   82.7500    82.4470     4.7570    -1.1440   -10.2640    72.5710     5.6930     7.0380     6.7760     2.1380 
   82.8750    82.5700     4.7810    -1.1500   -10.2510    71.8580     5.5180     6.8370     6.1840     2.1350 
   83.0000    82.6920     4.8040    -1.1560   -10.5580    72.3120     5.3180     6.5920     5.8990     2.1230 
   83.1250    82.8150     4.8270    -1.1610   -10.9290    74.0810     5.1510     6.3920     6.1490     2.1030 
   83.2500    82.9380     4.8510    -1.1670   -11.3230    76.6690     5.0670     6.3000     6.3230     2.0820 
   83.3750    83.0600     4.8740    -1.1730   -11.6890    77.4020     5.0640     6.3010     6.2440     2.0700 
   83.5000    83.1830     4.8980    -1.1790   -12.0130    76.8320     5.1080     6.3580     6.2910     2.0770 
   83.6250    83.3050     4.9210    -1.1860   -12.1810    75.0620     5.1550     6.3900     6.4790     2.0940 
   83.7500    83.4280     4.9450    -1.1920   -12.3130    73.3900     5.1850     6.4120     6.5350     2.1120 
   83.8750    83.5510     4.9680    -1.1980   -12.3940    71.3670     5.2880     6.5330     6.5090     2.1270 
   84.0000    83.6730     4.9920    -1.2050   -12.3440    69.6910     5.5050     6.7930     6.5330     2.1630 
   84.1250    83.7960     5.0160    -1.2110   -12.1000    67.7900     5.8100     7.1870     6.7360     2.2060 
   84.2500    83.9180     5.0390    -1.2180   -11.6300    65.1360     6.2180     7.7170     8.2540     2.2350 
   84.3750    84.0410     5.0630    -1.2250   -11.0450    62.6180     6.6160     8.2260    10.9040     2.2460 
   84.5000    84.1630     5.0870    -1.2320   -10.4860    61.8860     6.8120     8.4640    13.2000     2.2480 
   84.6250    84.2860     5.1110    -1.2390   -10.0250    62.2310     6.7330     8.3330    14.0550     2.2400 
   84.7500    84.4080     5.1350    -1.2450    -9.6260    64.2260     6.3280     7.7920    11.4450     2.2140 
   84.8750    84.5310     5.1590    -1.2520    -9.5230    67.5920     5.7790     7.0800     7.5030     2.1810 
   85.0000    84.6530     5.1830    -1.2590    -9.7810    73.4350     5.2910     6.4730     5.8790     2.1500 
   85.1250    84.7760     5.2070    -1.2660   -10.0520    78.1460     4.9280     6.0420     5.7270     2.1230 
   85.2500    84.8980     5.2310    -1.2730    -9.9960    80.6680     4.7350     5.8460     5.8950     2.1040 
   85.3750    85.0210     5.2550    -1.2800    -9.6520    79.8570     4.7110     5.8660     6.0980     2.0930 
   85.5000    85.1430     5.2800    -1.2870    -9.0010    77.2960     4.7910     6.0010     6.0720     2.0960 
   85.6250    85.2650     5.3040    -1.2940    -8.1980    75.3080     4.8910     6.1390     6.0040     2.1020 
   85.7500    85.3880     5.3280    -1.3010    -7.5260    75.7050     4.9610     6.2190     6.0180     2.1140 
   85.8750    85.5100     5.3530    -1.3070    -6.8860    76.9380     4.9610     6.2040     5.9780     2.1250 
   86.0000    85.6330     5.3780    -1.3140    -6.3240    77.2350     4.9040     6.1170     5.7820     2.1280 
   86.1250    85.7550     5.4020    -1.3210    -5.9020    76.1360     4.8230     6.0000     5.2350     2.1210 
   86.2500    85.8770     5.4270    -1.3280    -5.7290    74.4900     4.7560     5.9050     4.6140     2.1080 
   86.3750    86.0000     5.4510    -1.3360    -5.7190    73.2020     4.7260     5.8610     4.7480     2.0960 
   86.5000    86.1220     5.4760    -1.3430    -5.7920    73.6290     4.7400     5.8790     5.3360     2.0880 
   86.6250    86.2440     5.5010    -1.3500    -5.8550    75.3770     4.7830     5.9410     5.5820     2.0900 
