~V
VERS. 2.00: Ver 2.00
~W
STRT.M 30.0000:
STOP.M 223.0000:
STEP.M 0.1250:
NULL. -999.2500:
UWI. FD10814:
~C
DEPT.M :
TVD. :
DX. :
DY. :
SP.MV :
GR.API :
RI. :
RML.OHMM :
RXO.OHMM :
DEN.GM/CC :
~A
# ...
  176.0000   166.3460    -1.4610    43.4550   -12.1140    58.3370   173.3590   221.1410   455.3360     2.6440 
  176.1250   166.4550    -1.4630    43.5170   -11.4550    57.8670   203.8760   270.5430   551.7750     2.6640 
  176.2500   166.5640    -1.4660    43.5790   -11.0190    56.4200   246.7110   319.4760   603.8810     2.6730 
  176.3750   166.6730    -1.4680    43.6400   -10.7220    56.8410   235.6350   305.7820   714.4030     2.6910 
  176.5000   166.7810    -1.4710    43.7020   -10.4760    57.1380   181.8480   237.3800   426.8650     2.7160 
  176.6250   166.8900    -1.4740    43.7630   -10.0000    58.0380   109.3650   136.6100    75.8020     2.7260 
  176.7500   166.9990    -1.4760    43.8250    -9.4930    58.1020    29.5310    47.6030    17.4110     2.6900 
  176.8750   167.1070    -1.4790    43.8870    -9.2070    58.9440    12.4570    16.8320    12.7660     2.5930 
  177.0000   167.2160    -1.4820    43.9480    -9.1470    59.3570     8.7230    10.4870     8.1220     2.4660 
  177.1250   167.3250    -1.4850    44.0100    -9.1080    60.5020     7.2930     8.7730     6.0930     2.3610 
  177.2500   167.4330    -1.4870    44.0720    -9.1070    61.3840     6.9100     8.3750     5.3420     2.3030 
  177.3750   167.5420    -1.4900    44.1340    -9.0420    63.6470     7.1170     8.5940     5.4580     2.2830 
  177.5000   167.6510    -1.4930    44.1960    -9.0420    65.7760     7.4210     8.8580     6.4220     2.2750 
  177.6250   167.7590    -1.4960    44.2570    -9.0880    66.8010     7.4990     8.9360     7.4860     2.2730 
  177.7500   167.8680    -1.4990    44.3190    -9.0830    65.6690     7.5560     8.9520     7.5930     2.2790 
  177.8750   167.9760    -1.5010    44.3810    -9.0470    63.7570     7.4930     8.8590     6.9530     2.2880 
  178.0000   168.0850    -1.5040    44.4430    -8.8220    62.0960     7.2310     8.5480     6.9770     2.2910 
  178.1250   168.1930    -1.5070    44.5050    -8.4050    59.8410     6.7820     8.0350     7.1840     2.2870 
  178.2500   168.3020    -1.5100    44.5670    -7.8890    57.4050     6.2760     7.4700     6.8260     2.2830 
  178.3750   168.4100    -1.5120    44.6290    -7.5470    55.4360     5.8430     7.0040     6.2660     2.2810 
  178.5000   168.5190    -1.5150    44.6910    -7.3330    54.6260     5.5360     6.7190     5.5630     2.2820 
  178.6250   168.6270    -1.5180    44.7530    -7.2640    53.8530     5.3770     6.6610     4.9990     2.2830 
  178.7500   168.7360    -1.5210    44.8150    -7.2450    54.8430     5.3740     6.7920     4.7430     2.2840 
  178.8750   168.8440    -1.5240    44.8770    -7.2960    56.6770     5.4890     7.0400     4.6210     2.2780 
  179.0000   168.9530    -1.5260    44.9390    -7.4320    59.1000     5.6520     7.2990     4.9940     2.2720 
  179.1250   169.0610    -1.5290    45.0010    -7.6180    61.6220     5.8090     7.5190     6.0120     2.2680 
  179.2500   169.1700    -1.5320    45.0630    -7.6890    65.5480     5.8960     7.6630     6.5620     2.2730 
  179.3750   169.2780    -1.5350    45.1250    -7.7860    69.3870     5.9140     7.7310     6.1190     2.2800 
  179.5000   169.3870    -1.5380    45.1870    -7.9640    72.1780     5.8880     7.7410     5.4950     2.2860 
  179.6250   169.4950    -1.5400    45.2490    -8.1160    72.6710     5.8220     7.6860     5.2140     2.2850 
  179.7500   169.6040    -1.5430    45.3110    -8.2180    73.0230     5.7510     7.6240     5.2240     2.2750 
  179.8750   169.7120    -1.5460    45.3730    -8.3810    71.9270     5.6980     7.5920     5.2100     2.2570 
  180.0000   169.8210    -1.5490    45.4350    -8.5950    69.6960     5.6700     7.6140     5.1350     2.2450 
  180.1250   169.9290    -1.5520    45.4970    -8.7390    65.5380     5.6430     7.6650     5.1420     2.2500 
  180.2500   170.0380    -1.5540    45.5600    -8.8730    61.3410     5.6100     7.6960     5.1240     2.2670 
  180.3750   170.1460    -1.5570    45.6220    -8.9790    59.3670     5.5470     7.6680     5.0010     2.2850 
  180.5000   170.2550    -1.5600    45.6840    -9.1300    60.2860     5.4500     7.5930     4.9490     2.2960 
  180.6250   170.3630    -1.5630    45.7460    -9.2760    61.9910     5.3890     7.5180     4.9640     2.3000 
  180.7500   170.4720    -1.5660    45.8080    -9.5000    63.6680     5.3590     7.4930     4.7610     2.3040 
  180.8750   170.5800    -1.5680    45.8700    -9.7900    65.7120     5.4770     7.6700     4.5740     2.3090 
  181.0000   170.6890    -1.5710    45.9320   -10.0900    69.3800     5.8250     8.1700     4.8810     2.3200 
  181.1250   170.7970    -1.5740    45.9940   -10.4370    72.3060     6.4930     9.1060     5.6370     2.3310 
  181.2500   170.9060    -1.5760    46.0560   -10.7310    74.1500     7.4230    10.4060     6.3140     2.3460 
  181.3750   171.0140    -1.5790    46.1180   -10.9780    74.0060     8.5730    11.9960     7.3500     2.3500 
  181.5000   171.1230    -1.5810    46.1800   -11.2530    72.7730     9.7920    13.6390     9.1400     2.3410 
  181.6250   171.2310    -1.5840    46.2420   -11.4940    71.2380    10.8530    15.0520    10.7090     2.3310 
  181.7500   171.3390    -1.5860    46.3040   -11.5890    70.8970    11.6780    16.0290    11.1780     2.3350 
  181.8750   171.4480    -1.5890    46.3660   -11.5040    71.8220    11.8070    16.1030    10.3590     2.3570 
  182.0000   171.5560    -1.5910    46.4280   -11.1240    71.1950    11.1770    15.2360     9.1660     2.3810 
  182.1250   171.6650    -1.5940    46.4900   -10.5770    70.5130    10.0070    13.6580     8.2460     2.3870 
  182.2500   171.7730    -1.5970    46.5530    -9.9510    71.7570     8.5840    11.7780     7.3620     2.3720 
  182.3750   171.8820    -1.5990    46.6150    -9.2880    76.5180     7.3160    10.0760     6.2050     2.3400 
  182.5000   171.9900    -1.6020    46.6770    -8.6320    80.3580     6.3530     8.7980     4.7860     2.3040 
  182.6250   172.0990    -1.6050    46.7390    -8.1660    80.8020     5.7240     8.0350     4.1270     2.2780 
  182.7500   172.2070    -1.6070    46.8010    -7.9910    78.9070     5.4400     7.7420     4.4880     2.2660 
  182.8750   172.3160    -1.6100    46.8630    -8.0860    77.6520     5.4600     7.8160     4.7270     2.2670 
  183.0000   172.4240    -1.6130    46.9250    -8.2830    77.5580     5.6620     8.0920     4.6000     2.2720 
  183.1250   172.5330    -1.6150    46.9870    -8.4180    77.3960     6.0130     8.5930     4.6500     2.2730 
  183.2500   172.6410    -1.6180    47.0490    -8.4690    76.2880     6.6740     9.4660     5.0440     2.2690 
  183.3750   172.7500    -1.6200    47.1110    -8.5370    74.8500     7.5000    10.5640     6.0540     2.2680 
  183.5000   172.8580    -1.6230    47.1720    -8.9200    74.0600     8.1970    11.5230     7.6990     2.2790 
  183.6250   172.9670    -1.6250    47.2340    -9.4030    73.9890     8.6580    12.1360     9.3780     2.2970 
  183.7500   173.0760    -1.6280    47.2960    -9.6490    74.5130     8.8620    12.3260     9.6860     2.3110 
  183.8750   173.1840    -1.6300    47.3580    -9.5750    76.0590     8.6780    11.9290     8.2160     2.3090 
  184.0000   173.2930    -1.6330    47.4200    -9.3810    77.8110     8.0410    11.0190     7.9930     2.3000 
  184.1250   173.4020    -1.6350    47.4810    -9.1810    78.4410     7.1320     9.7600     9.7990     2.2880 
  184.2500   173.5100    -1.6380    47.5430    -8.9540    77.5960     6.0370     8.4070     9.7170     2.2780 
  184.3750   173.6190    -1.6400    47.6050    -8.6570    76.5890     5.2090     7.3520     7.0440     2.2670 
  184.5000   173.7280    -1.6420    47.6670    -8.3200    76.8250     4.6510     6.6340     5.1650     2.2590 
  184.6250   173.8360    -1.6450    47.7280    -8.3080    75.9510     4.2700     6.1920     4.9790     2.2540 
  184.7500   173.9450    -1.6470    47.7900    -8.4960    73.9680     4.1330     6.0600     4.9600     2.2510 
  184.8750   174.0540    -1.6500    47.8520    -8.7840    71.5450     4.2380     6.1950     4.7430     2.2470 
  185.0000   174.1620    -1.6520    47.9140    -9.0900    71.0640     4.4120     6.4020     4.6570     2.2470 
