~V
VERS. 2.00: Ver 2.00
~W
STRT.M 53.0000:
STOP.M 258.0000:
STEP.M 0.1250:
NULL. -999.2500:
UWI. FD10870:
~C
DEPT.M :
TVD. :
DX. :
DY. :
SP.MV :
GR.API :
RI. :
RML.OHMM :
RXO.OHMM :
DEN.GM/CC :
~A
# ...
  126.0000   124.8220    -8.0750    -6.7550    -6.5170   111.0780     4.5170     5.6070     4.3980     2.3610 
  126.1250   124.9420    -8.1080    -6.7600    -6.1130   112.1620     5.0420     6.3540     4.7480     2.3310 
  126.2500   125.0620    -8.1420    -6.7640    -5.7230   109.4850     5.9150     7.5670     5.5040     2.2930 
  126.3750   125.1830    -8.1760    -6.7670    -5.3500   102.7220     7.0110     9.0170     6.4340     2.2590 
  126.5000   125.3030    -8.2090    -6.7710    -4.9060    98.0000     8.1330    10.4360     7.0350     2.2440 
  126.6250   125.4230    -8.2430    -6.7750    -4.3260    93.7000     9.0160    11.4840     7.1930     2.2430 
  126.7500   125.5440    -8.2770    -6.7780    -3.8590    91.6420     9.5750    12.0770     7.3380     2.2430 
  126.8750   125.6640    -8.3100    -6.7810    -3.4500    91.8160     9.9160    12.4090     7.6620     2.2380 
  127.0000   125.7840    -8.3440    -6.7840    -3.0990    94.1090    10.1080    12.6470     7.9060     2.2270 
  127.1250   125.9050    -8.3780    -6.7870    -2.8410    96.0970    10.2420    12.9010     8.0290     2.2170 
  127.2500   126.0250    -8.4120    -6.7900    -2.6650    95.3520    10.2790    13.0820     8.1850     2.2100 
  127.3750   126.1450    -8.4460    -6.7920    -2.4000    92.7200    10.1970    13.1400     8.1310     2.2140 
  127.5000   126.2660    -8.4790    -6.7950    -2.0950    91.6900    10.0180    13.0170     7.7930     2.2240 
  127.6250   126.3860    -8.5130    -6.7970    -1.7650    93.9920     9.7660    12.8270     7.4880     2.2350 
  127.7500   126.5060    -8.5470    -6.7990    -1.2310    97.1410     9.5440    12.6730     7.3050     2.2370 
  127.8750   126.6270    -8.5810    -6.8010    -0.5370    97.6650     9.3900    12.5980     7.2780     2.2310 
  128.0000   126.7470    -8.6150    -6.8020     0.2210    95.4710     9.3270    12.6260     7.5080     2.2190 
  128.1250   126.8670    -8.6490    -6.8040     0.8750    93.1620     9.3280    12.6950     7.8430     2.2130 
  128.2500   126.9870    -8.6830    -6.8050     1.5460    91.3620     9.4720    12.9310     8.0760     2.2130 
  128.3750   127.1080    -8.7170    -6.8070     2.2280    89.6390     9.9760    13.6810     8.1260     2.2310 
  128.5000   127.2280    -8.7510    -6.8080     3.0180    87.6390    10.7960    14.9010     7.9190     2.2780 
  128.6250   127.3480    -8.7850    -6.8090     4.0740    85.3200    12.0310    16.7130     7.6990     2.3720 
  128.7500   127.4680    -8.8190    -6.8100     5.2630    81.4330    13.2430    18.4800     8.5620     2.4650 
  128.8750   127.5890    -8.8540    -6.8100     6.2780    76.2940    14.0600    19.5990    11.0280     2.4840 
  129.0000   127.7090    -8.8880    -6.8110     7.0840    73.4530    14.4090    19.9940    13.5310     2.4010 
  129.1250   127.8290    -8.9220    -6.8110     7.8690    75.7080    14.2660    19.7360    13.1320     2.2900 
  129.2500   127.9490    -8.9560    -6.8120     8.7080    79.6980    13.9310    19.3380    10.4980     2.2200 
  129.3750   128.0690    -8.9910    -6.8120     9.5620    80.8530    13.7610    19.3390    10.4280     2.2040 
  129.5000   128.1900    -9.0250    -6.8120    10.2850    78.2040    13.8610    19.7660    12.8750     2.2050 
  129.6250   128.3100    -9.0600    -6.8120    10.7780    74.1380    14.2610    20.5310    14.0180     2.2100 
  129.7500   128.4300    -9.0940    -6.8120    11.2210    68.5040    14.7420    21.2260    13.4560     2.2110 
  129.8750   128.5500    -9.1290    -6.8110    11.8280    64.9070    15.1860    21.7340    12.8210     2.2080 
  130.0000   128.6700    -9.1640    -6.8110    12.5060    64.7230    15.6300    22.1790    13.2460     2.1960 
  130.1250   128.7900    -9.1980    -6.8110    13.0920    67.1490    16.0970    22.6280    14.6270     2.1870 
  130.2500   128.9100    -9.2330    -6.8100    13.4550    69.0180    16.5830    23.1130    16.0030     2.1850 
  130.3750   129.0300    -9.2680    -6.8090    13.6520    67.2590    17.1360    23.7210    16.7880     2.1960 
  130.5000   129.1500    -9.3030    -6.8090    13.8040    65.4940    17.6280    24.2920    16.4070     2.2110 
  130.6250   129.2700    -9.3380    -6.8080    13.9960    62.7170    17.8630    24.5270    17.0590     2.2280 
  130.7500   129.3900    -9.3730    -6.8070    13.9870    62.0770    17.3680    23.7210    28.6350     2.2410 
  130.8750   129.5100    -9.4080    -6.8060    13.6740    62.0970    15.8590    21.4850    38.5450     2.2420 
  131.0000   129.6300    -9.4430    -6.8050    13.2210    66.5820    13.6590    18.2410    27.2360     2.2310 
  131.1250   129.7500    -9.4780    -6.8040    12.9010    76.0390    11.2390    14.7850    14.6260     2.2270 
  131.2500   129.8700    -9.5140    -6.8030    12.8850    87.9060     9.3980    12.2200    11.7670     2.2410 
  131.3750   129.9900    -9.5490    -6.8020    12.9630    94.9170     8.2770    10.7120     8.8080     2.2620 
  131.5000   130.1100    -9.5840    -6.8010    13.1360    94.3270     8.0380    10.5000     7.2230     2.2740 
  131.6250   130.2300    -9.6200    -6.8000    13.2910    88.9620     8.6130    11.3990     8.9800     2.2750 
  131.7500   130.3500    -9.6550    -6.7980    13.3700    83.6760     9.5020    12.6520    13.2130     2.2700 
  131.8750   130.4690    -9.6910    -6.7970    13.4450    80.4510    10.4010    13.7560    19.6280     2.2670 
  132.0000   130.5890    -9.7260    -6.7950    13.3160    77.6600    10.8940    14.1920    20.9150     2.2630 
  132.1250   130.7090    -9.7620    -6.7930    13.0280    74.2980    10.8800    13.9190    14.1130     2.2580 
  132.2500   130.8290    -9.7970    -6.7920    12.8140    73.2930    10.6960    13.4890     9.2530     2.2490 
  132.3750   130.9490    -9.8330    -6.7900    12.6870    75.5120    10.7060    13.4780     8.4280     2.2450 
  132.5000   131.0690    -9.8680    -6.7880    12.5670    78.5710    11.0980    14.0930     8.0680     2.2510 
  132.6250   131.1880    -9.9040    -6.7850    12.3230    77.8310    11.7290    15.1130     9.8990     2.2630 
  132.7500   131.3080    -9.9390    -6.7830    11.6110    72.6890    12.3580    16.1130    13.5960     2.2730 
  132.8750   131.4280    -9.9750    -6.7810    10.6590    68.0180    12.4560    16.3140    15.1560     2.2800 
  133.0000   131.5480   -10.0110    -6.7780     9.6910    66.9440    12.1030    15.8450    13.1250     2.2890 
  133.1250   131.6680   -10.0460    -6.7760     8.7270    70.7990    11.3750    14.8430    10.4500     2.2900 
  133.2500   131.7870   -10.0820    -6.7730     7.7920    74.8450    10.6280    13.8370     9.7440     2.2750 
  133.3750   131.9070   -10.1170    -6.7700     6.9500    75.7670    10.2920    13.4330     9.6990     2.2440 
  133.5000   132.0270   -10.1530    -6.7670     6.1650    74.1320    10.3640    13.5840     8.9520     2.2160 
  133.6250   132.1470   -10.1880    -6.7640     5.3750    71.2050    10.8720    14.3050     8.5720     2.2040 
  133.7500   132.2670   -10.2240    -6.7610     4.7640    70.6890    11.6370    15.3440    10.3000     2.2070 
  133.8750   132.3860   -10.2600    -6.7580     4.5730    70.5130    12.5330    16.4850    12.6900     2.2180 
  134.0000   132.5060   -10.2950    -6.7540     4.4350    70.8500    13.3680    17.5220    12.9170     2.2280 
  134.1250   132.6260   -10.3310    -6.7510     4.0640    70.0470    13.9730    18.2340    12.9420     2.2340 
  134.2500   132.7460   -10.3660    -6.7470     3.4110    70.6380    14.2460    18.5040    13.9490     2.2470 
  134.3750   132.8650   -10.4020    -6.7430     2.5100    70.8820    14.1550    18.3000    14.2410     2.2750 
  134.5000   132.9850   -10.4380    -6.7390     1.8040    70.2720    13.8430    17.8150    13.4360     2.3090 
  134.6250   133.1050   -10.4730    -6.7350     1.4910    67.2210    13.4320    17.2200    12.3410     2.3220 
  134.7500   133.2250   -10.5090    -6.7310     1.1840    65.8330    12.9870    16.5970    12.3130     2.3120 
  134.8750   133.3440   -10.5450    -6.7270     0.9400    65.8440    12.7270    16.2840    12.4340     2.2920 
  135.0000   133.4640   -10.5810    -6.7230     0.8310    68.6940    12.7890    16.4240    11.3020     2.2750 
