~V
VERS. 2.00: Ver 2.00
~W
STRT.M 15.0000:
STOP.M 236.0000:
STEP.M 0.1250:
NULL. -999.2500:
UWI. FD10614:
~C
DEPT.M :
TVD. :
DX. :
DY. :
DEN.GM/CC :
GR.API :
RML.OHMM :
RI. :
RXO.OHMM :
CALI.CM :
SP.MV :
~A
# ...
  213.0000   198.3660    54.6810    26.7280     2.3920    42.5030     5.0980     4.1860     5.1920    22.0070   -12.6310 
  213.1250   198.4720    54.7400    26.7560     2.3700    48.4970     5.2890     4.3590     5.3850    22.3650   -12.6590 
  213.2500   198.5790    54.8000    26.7850     2.3560    49.5640     5.4920     4.5570     5.4360    22.0930   -12.7090 
  213.3750   198.6850    54.8590    26.8130     2.3540    49.5060     5.6750     4.7490     5.5010    21.5030   -12.8160 
  213.5000   198.7910    54.9180    26.8420     2.3640    51.8880     5.8180     4.9110     5.7340    21.0880   -12.9480 
  213.6250   198.8980    54.9770    26.8710     2.3770    54.9360     5.9080     5.0260     5.9610    21.0270   -13.0930 
  213.7500   199.0040    55.0370    26.8990     2.3860    55.8850     5.9500     5.0940     6.1350    21.0800   -13.1910 
  213.8750   199.1100    55.0960    26.9280     2.3870    54.3990     5.9370     5.1060     6.2030    21.0720   -13.2690 
  214.0000   199.2170    55.1550    26.9560     2.3820    52.6580     5.8540     5.0490     6.2090    20.9550   -13.4140 
  214.1250   199.3230    55.2140    26.9850     2.3770    52.8900     5.6810     4.9040     5.8730    20.7940   -13.5260 
  214.2500   199.4290    55.2730    27.0130     2.3770    51.5710     5.4490     4.7000     5.3610    20.7050   -13.6180 
  214.3750   199.5350    55.3330    27.0420     2.3850    46.5280     5.1950     4.4700     4.8400    20.6430   -13.7250 
  214.5000   199.6420    55.3920    27.0710     2.3970    39.4870     4.9620     4.2520     4.5840    20.5850   -13.7310 
  214.6250   199.7480    55.4510    27.0990     2.4080    34.8540     4.7990     4.0880     4.5750    20.5700   -13.7170 
  214.7500   199.8540    55.5100    27.1280     2.4170    33.6910     4.7110     3.9890     4.6100    20.6140   -13.7940 
  214.8750   199.9610    55.5700    27.1560     2.4200    34.4810     4.6960     3.9570     4.5980    20.6510   -13.8450 
  215.0000   200.0670    55.6290    27.1850     2.4190    36.2260     4.7380     3.9850     4.6080    20.6680   -13.8650 
  215.1250   200.1730    55.6880    27.2130     2.4130    38.4120     4.8240     4.0660     4.7580    20.6960   -13.8630 
  215.2500   200.2790    55.7470    27.2420     2.4080    39.6960     4.9290     4.1730     4.9640    20.7250   -13.7520 
  215.3750   200.3860    55.8070    27.2710     2.4080    40.7890     5.0390     4.2930     5.0510    20.6910   -13.6250 
  215.5000   200.4920    55.8660    27.2990     2.4140    43.9770     5.1400     4.4100     5.0230    20.5740   -13.5330 
  215.6250   200.5980    55.9250    27.3280     2.4200    48.1110     5.2050     4.5020     5.0500    20.4660   -13.4060 
  215.7500   200.7050    55.9840    27.3560     2.4170    48.4590     5.2200     4.5500     5.2340    20.3730   -13.1990 
  215.8750   200.8110    56.0430    27.3850     2.4030    44.9220     5.1740     4.5410     5.2730    20.3770   -12.9170 
  216.0000   200.9170    56.1030    27.4130     2.3810    42.3150     5.0740     4.4730     5.0540    20.5340   -12.5960 
  216.1250   201.0230    56.1620    27.4420     2.3640    42.2480     4.9360     4.3580     4.8790    20.9550   -12.2520 
  216.2500   201.1300    56.2210    27.4710     2.3600    41.9030     4.7930     4.2290     4.7930    21.4040   -11.9610 
  216.3750   201.2360    56.2800    27.4990     2.3680    40.2790     4.6650     4.1090     4.6730    21.7400   -11.6810 
  216.5000   201.3420    56.3400    27.5280     2.3780    37.4540     4.5590     4.0100     4.5410    21.9800   -11.3900 
  216.6250   201.4490    56.3990    27.5560     2.3770    34.1110     4.4800     3.9370     4.5240    22.2100   -11.1400 
  216.7500   201.5550    56.4580    27.5850     2.3640    31.3740     4.4160     3.8810     4.5190    22.4880   -10.9880 
  216.8750   201.6610    56.5170    27.6130     2.3470    30.2410     4.3650     3.8370     4.4980    22.7340   -10.9370 
  217.0000   201.7680    56.5770    27.6420     2.3360    31.0820     4.3270     3.8040     4.4540    23.0220   -10.9180 
  217.1250   201.8740    56.6360    27.6710     2.3370    32.7340     4.3080     3.7870     4.3880    23.2820   -10.9140 
  217.2500   201.9800    56.6950    27.6990     2.3460    33.9380     4.3100     3.7870     4.3390    23.2140   -10.8190 
  217.3750   202.0860    56.7540    27.7280     2.3530    34.0390     4.3280     3.8020     4.3130    22.7070   -10.6920 
  217.5000   202.1930    56.8130    27.7560     2.3510    33.4910     4.3540     3.8250     4.3480    22.1260   -10.6710 
  217.6250   202.2990    56.8730    27.7850     2.3370    32.7420     4.3780     3.8470     4.4250    22.1220   -10.6540 
  217.7500   202.4050    56.9320    27.8130     2.3210    31.4550     4.3930     3.8620     4.4210    22.6410   -10.6220 
  217.8750   202.5120    56.9910    27.8420     2.3110    30.5800     4.4010     3.8720     4.3760    23.1160   -10.6480 
  218.0000   202.6180    57.0500    27.8700     2.3130    30.4420     4.4060     3.8800     4.3510    22.9930   -10.6430 
  218.1250   202.7240    57.1100    27.8990     2.3270    31.3970     4.4150     3.8900     4.3750    22.2680   -10.6250 
  218.2500   202.8300    57.1690    27.9280     2.3460    33.0500     4.4280     3.9030     4.4270    21.5250   -10.6920 
  218.3750   202.9370    57.2280    27.9560     2.3630    34.1330     4.4420     3.9160     4.4840    21.1680   -10.7650 
  218.5000   203.0430    57.2870    27.9850     2.3740    34.0690     4.4510     3.9290     4.5620    21.1980   -10.8260 
  218.6250   203.1490    57.3460    28.0130     2.3790    32.9820     4.4510     3.9360     4.6320    21.3700   -10.8990 
  218.7500   203.2560    57.4060    28.0420     2.3800    32.8240     4.4440     3.9370     4.7150    21.3540   -10.9640 
  218.8750   203.3620    57.4650    28.0700     2.3780    35.0690     4.4340     3.9360     4.7340    21.1390   -10.9760 
  219.0000   203.4680    57.5240    28.0990     2.3730    38.5220     4.4260     3.9350     4.6000    21.1260   -11.0170 
  219.1250   203.5740    57.5830    28.1280     2.3690    39.7400     4.4270     3.9410     4.4980    21.4280   -11.1660 
  219.2500   203.6810    57.6430    28.1560     2.3720    37.8340     4.4380     3.9520     4.4300    21.5940   -11.3200 
  219.3750   203.7870    57.7020    28.1850     2.3870    34.0030     4.4560     3.9660     4.4310    21.4800   -11.4680 
  219.5000   203.8930    57.7610    28.2130     2.4140    30.3240     4.4740     3.9770     4.5180    21.2730   -11.5310 
  219.6250   204.0000    57.8200    28.2420     2.4460    29.2310     4.4850     3.9790     4.5730    21.1650   -11.5260 
  219.7500   204.1060    57.8800    28.2700     2.4660    30.8890     4.4840     3.9710     4.5830    21.1160   -11.4930 
  219.8750   204.2120    57.9390    28.2990     2.4650    32.7010     4.4660     3.9500     4.5070    21.0820   -11.4590 
  220.0000   204.3190    57.9980    28.3280     2.4410    33.5910     4.4340     3.9150     4.4080    21.1290   -11.4260 
  220.1250   204.4250    58.0570    28.3560     2.4040    33.4830     4.3900     3.8690     4.3510    21.2990   -11.3780 
  220.2500   204.5310    58.1160    28.3850     2.3710    32.6130     4.3490     3.8210     4.3250    21.4480   -11.3370 
  220.3750   204.6370    58.1760    28.4130     2.3480    31.2130     4.3250     3.7840     4.3240    21.3450   -11.2390 
  220.5000   204.7440    58.2350    28.4420     2.3350    30.5710     4.3370     3.7730     4.3670    21.1690   -11.1290 
  220.6250   204.8500    58.2940    28.4700     2.3310    32.3230     4.4080     3.8130     4.4800    21.1520   -11.0040 
  220.7500   204.9560    58.3530    28.4990     2.3330    35.2400     4.5330     3.9030     4.6700    21.4120   -10.8470 
  220.8750   205.0630    58.4130    28.5280     2.3420    37.8890     4.7030     4.0380     5.0140    21.9110   -10.7750 
  221.0000   205.1690    58.4720    28.5560     2.3580    40.0730     4.8990     4.2050     5.4580    22.3550   -10.7840 
  221.1250   205.2750    58.5310    28.5850     2.3800    42.7290     5.0980     4.3850     5.7090    22.5140   -10.7980 
