~V
VERS. 2.00: Ver 2.00
~W
STRT.M 34.0000:
STOP.M 260.0000:
STEP.M 0.1250:
NULL. -999.2500:
UWI. FD10858:
~C
DEPT.M :
TVD. :
DX. :
DY. :
SP.MV :
GR.API :
RI. :
RML.OHMM :
RXO.OHMM :
DEN.GM/CC :
~A
# ...
  253.0000   233.3680   -55.9370   -61.0860    -0.1230    29.4650     1.8260     2.2080     3.0960     2.2670 
  253.1250   233.4780   -55.9760   -61.1310    -0.1230    29.4650     1.8340     2.2030     2.9390     2.2640 
  253.2500   233.5880   -56.0140   -61.1760    -0.1230    29.4650     1.8380     2.2010     2.6870     2.2620 
  253.3750   233.6980   -56.0530   -61.2210    -0.1230    29.4650     1.8330     2.1990     2.5920     2.2600 
  253.5000   233.8080   -56.0920   -61.2660    -0.1230    29.4650     1.8190     2.2030     2.6200     2.2560 
  253.6250   233.9180   -56.1310   -61.3110    -0.1230    29.4650     1.8110     2.2090     2.6640     2.2480 
  253.7500   234.0280   -56.1690   -61.3550    -0.1230    29.4650     1.8090     2.2140     2.6930     2.2370 
  253.8750   234.1380   -56.2080   -61.4000    -0.1230    29.4650     1.8160     2.2150     2.7630     2.2140 
  254.0000   234.2480   -56.2470   -61.4450    -0.1230    29.4650     1.8230     2.2190     2.8750     2.1640 
  254.1250   234.3580   -56.2860   -61.4900    -0.1230    29.4650     1.8280     2.2240     2.9290     2.0770 
  254.2500   234.4680   -56.3240   -61.5350    -0.1230    29.4650     1.8310     2.2260     2.9310     1.9650 
  254.3750   234.5780   -56.3630   -61.5800    -0.1230    29.4650     1.8250     2.2240     2.9430     1.8610 
  254.5000   234.6880   -56.4020   -61.6250    -0.1230    29.4650     1.8280     2.2260     2.8830     1.7910 
  254.6250   234.7980   -56.4410   -61.6700    -0.1230    29.4650     1.8290     2.2270     2.7440     1.7620 
  254.7500   234.9080   -56.4790   -61.7150    -0.1230    29.4650     1.8350     2.2290     2.6740     1.7570 
  254.8750   235.0180   -56.5180   -61.7600    -0.1230    29.4650     1.8390     2.2350     2.6750     1.7600 
  255.0000   235.1280   -56.5570   -61.8050    -0.1230    29.4650     1.8390     2.2350     2.6750     1.7630 
  255.1250   235.2380   -56.5960   -61.8500    -0.1230    29.4650     1.8390     2.2350     2.6750     1.7640 
  255.2500   235.3480   -56.6340   -61.8950    -0.1230    29.4650     1.8390     2.2350     2.6740     1.7650 
  255.3750   235.4580   -56.6730   -61.9400    -0.1230    29.4650     1.8390     2.2350     2.6740     1.7660 
  255.5000   235.5680   -56.7120   -61.9850    -0.1230    29.4650     1.8390     2.2350     2.6750     1.7650 
  255.6250   235.6780   -56.7510   -62.0300    -0.1230    29.4650     1.8390     2.2350     2.6750     1.7630 
  255.7500   235.7880   -56.7890   -62.0750    -0.1230    29.4650     1.8390     2.2350     2.6740     1.7610 
  255.8750   235.8980   -56.8280   -62.1200    -0.1230    29.4650     1.8390     2.2350     2.6740     1.7590 
  256.0000   236.0080   -56.8670   -62.1650    -0.1230    29.4650     1.8390     2.2350     2.6740     1.7580 
  256.1250   236.1180   -56.9060   -62.2090    -0.1230    29.4650     1.8390     2.2350     2.6740     1.7580 
  256.2500   236.2290   -56.9450   -62.2540    -0.1230    29.4650     1.8390     2.2350     2.6740     1.7600 
  256.3750   236.3390   -56.9830   -62.2990    -0.1230    29.4650     1.8390     2.2350     2.6740     1.7610 
  256.5000   236.4490   -57.0220   -62.3440    -0.1230    29.4650     1.8390     2.2350     2.6740     1.7610 
  256.6250   236.5590   -57.0610   -62.3890    -0.1230    29.4650     1.8390     2.2350     2.6740     1.7600 
  256.7500   236.6690   -57.1000   -62.4340    -0.1230    29.4650     1.8390     2.2350     2.6730     1.7590 
  256.8750   236.7790   -57.1380   -62.4790    -0.1230    29.4650     1.8390     2.2350     2.6730     1.7580 
  257.0000   236.8890   -57.1770   -62.5240    -0.1230    29.4650     1.8390     2.2350     2.6730     1.7570 
  257.1250   236.9990   -57.2160   -62.5690    -0.1230    29.4650     1.8390     2.2350     2.6730     1.7570 
  257.2500   237.1090   -57.2550   -62.6140    -0.1230    29.4650     1.8390     2.2350     2.6730     1.7590 
  257.3750   237.2190   -57.2930   -62.6590    -0.1230    29.4650     1.8390     2.2350     2.6730     1.7630 
  257.5000   237.3290   -57.3320   -62.7040    -0.1230    29.4650     1.8390     2.2350     2.6730     1.7680 
  257.6250   237.4390   -57.3710   -62.7490    -0.1230    29.4650     1.8390     2.2350     2.6730     1.7730 
  257.7500   237.5490   -57.4100   -62.7940    -0.1230    29.4650     1.8390     2.2350     2.6730     1.7750 
  257.8750   237.6590   -57.4480   -62.8390    -0.1230    29.4650     1.8390     2.2350     2.6720     1.7760 
  258.0000   237.7690   -57.4870   -62.8840    -0.1230    29.4650     1.8390     2.2350     2.6720     1.7770 
  258.1250   237.8790   -57.5260   -62.9290    -0.1230    29.4650     1.8390     2.2350     2.6720     1.7750 
  258.2500   237.9890   -57.5650   -62.9740    -0.1230    29.4650     1.8390     2.2350     2.6720     1.7700 
  258.3750   238.0990   -57.6030   -63.0180    -0.1230    29.4650     1.8390     2.2350     2.6720     1.7610 
  258.5000   238.2090   -57.6420   -63.0630    -0.1230    29.4650     1.8390     2.2350     2.6720     1.7520 
  258.6250   238.3190   -57.6810   -63.1080    -0.1230    29.4650     1.8390     2.2350     2.6710     1.7460 
  258.7500   238.4290   -57.7200   -63.1530    -0.1230    29.4650     1.8390     2.2350     2.6720     1.7430 
  258.8750   238.5390   -57.7580   -63.1980    -0.1230    29.4650     1.8390     2.2350     2.6720     1.7430 
  259.0000   238.6490   -57.7970   -63.2430    -0.1230    29.4650     1.8390     2.2350     2.6720     1.7430 
  259.1250   238.7590   -57.8360   -63.2880    -0.1230    29.4650     1.8390     2.2350     2.6710     1.7430 
  259.2500   238.8690   -57.8750   -63.3330    -0.1230    29.4650     1.8390     2.2350     2.6710     1.7430 
  259.3750   238.9790   -57.9130   -63.3780    -0.1230    29.4650     1.8390     2.2350     2.6710     1.7430 
  259.5000   239.0890   -57.9520   -63.4230    -0.1230    29.4650     1.8390     2.2350     2.6710     1.7430 
  259.6250   239.1990   -57.9910   -63.4680    -0.1230    29.4650     1.8390     2.2350     2.6710     1.7430 
  259.7500   239.3090   -58.0300   -63.5130    -0.1230    29.4650     1.8390     2.2350     2.6710     1.7430 
  259.8750   239.4190   -58.0680   -63.5580    -0.1230    29.4650     1.8390     2.2350     2.6700     1.7430 
  260.0000   239.5290   -58.1070   -63.6030    -0.1230    29.4650     1.8390     2.2350     2.6690     1.7430 
