~V
VERS. 2.00: Ver 2.00
~W
STRT.M 63.0000:
STOP.M 256.0000:
STEP.M 0.1250:
NULL. -999.2500:
UWI. FD10901:
~C
DEPT.M :
TVD. :
DX. :
DY. :
SP.MV :
GR.API :
RI. :
RML.OHMM :
RXO.OHMM :
DEN.GM/CC :
~A
# ...
  163.3750   162.9130    -2.4400    -6.2090    -0.4000    57.1430    15.8350    18.1320    15.8990     2.5510 
  163.5000   163.0350    -2.4460    -6.2320    -0.4330    57.3900    15.7720    17.9250    13.7230     2.5340 
  163.6250   163.1580    -2.4510    -6.2560    -0.6160    57.6980    15.9320    18.0030    12.8820     2.5360 
  163.7500   163.2810    -2.4560    -6.2800    -0.8190    58.7180    16.3420    18.4610    14.5730     2.5570 
  163.8750   163.4030    -2.4620    -6.3030    -1.1490    59.3420    16.8680    19.1390    15.7370     2.5930 
  164.0000   163.5260    -2.4670    -6.3270    -1.7100    60.1070    17.2790    19.6990    16.1090     2.6240 
  164.1250   163.6480    -2.4720    -6.3510    -2.3140    60.0720    17.3640    19.8520    16.2850     2.6280 
  164.2500   163.7710    -2.4780    -6.3740    -2.8520    59.7210    17.1350    19.5870    15.3580     2.6090 
  164.3750   163.8940    -2.4830    -6.3980    -3.2530    58.6520    16.7820    19.1820    13.9910     2.5840 
  164.5000   164.0160    -2.4890    -6.4220    -3.4390    57.0470    16.6410    19.0740    13.8740     2.5690 
  164.6250   164.1390    -2.4940    -6.4460    -3.3030    55.4330    16.7410    19.3150    14.4610     2.5650 
  164.7500   164.2610    -2.5000    -6.4700    -3.1940    55.0640    16.9610    19.7250    14.6280     2.5650 
  164.8750   164.3840    -2.5050    -6.4940    -3.2890    55.1630    17.2760    20.2320    14.3540     2.5630 
  165.0000   164.5060    -2.5110    -6.5180    -3.4620    54.9680    17.6310    20.6910    13.7940     2.5650 
  165.1250   164.6290    -2.5160    -6.5420    -3.7220    54.2380    17.9290    21.0200    13.6210     2.5810 
  165.2500   164.7520    -2.5210    -6.5660    -4.0570    53.5290    18.2920    21.4710    14.7540     2.6030 
  165.3750   164.8740    -2.5270    -6.5900    -4.3840    53.5520    18.4950    21.7380    16.5930     2.6160 
  165.5000   164.9970    -2.5320    -6.6150    -4.7200    53.7750    18.2400    21.3980    16.8960     2.6150 
  165.6250   165.1190    -2.5370    -6.6390    -5.1500    54.6990    17.4710    20.3670    16.0960     2.6060 
  165.7500   165.2410    -2.5430    -6.6630    -5.5790    55.5880    16.4380    18.9610    15.0820     2.5840 
  165.8750   165.3640    -2.5480    -6.6880    -5.9260    57.4570    15.5170    17.6960    13.4840     2.5630 
  166.0000   165.4860    -2.5530    -6.7120    -6.2200    58.0670    14.9280    16.9070    14.0750     2.5560 
  166.1250   165.6090    -2.5590    -6.7370    -6.2850    57.6040    14.7910    16.7150    16.5050     2.5620 
  166.2500   165.7310    -2.5650    -6.7610    -5.8570    55.4350    14.8540    16.7640    16.5420     2.5570 
  166.3750   165.8540    -2.5700    -6.7860    -4.9660    53.8590    14.9740    16.8820    15.0320     2.5380 
  166.5000   165.9760    -2.5760    -6.8110    -4.1970    53.6810    15.0770    16.9570    14.5980     2.5130 
  166.6250   166.0980    -2.5820    -6.8350    -3.9990    54.0410    15.1550    16.9900    14.2730     2.4970 
  166.7500   166.2210    -2.5880    -6.8600    -4.0970    54.3210    15.3890    17.2210    13.5110     2.4960 
  166.8750   166.3430    -2.5940    -6.8850    -4.2530    52.5750    15.8310    17.7160    14.1940     2.5140 
  167.0000   166.4660    -2.5990    -6.9100    -4.2640    51.9960    16.2620    18.1860    15.5870     2.5330 
  167.1250   166.5880    -2.6050    -6.9350    -4.1850    51.8360    16.4840    18.3850    15.7570     2.5330 
  167.2500   166.7100    -2.6100    -6.9600    -4.0730    52.9730    16.3620    18.1800    15.0140     2.5190 
  167.3750   166.8330    -2.6160    -6.9850    -3.7750    53.7450    15.9380    17.6390    14.0160     2.5080 
  167.5000   166.9550    -2.6220    -7.0110    -3.1260    55.2200    15.3520    16.9480    13.3050     2.5060 
  167.6250   167.0770    -2.6270    -7.0360    -2.5630    56.7490    14.8540    16.3990    13.1050     2.4970 
  167.7500   167.1990    -2.6330    -7.0610    -2.3550    58.1360    14.5200    16.0370    13.2110     2.4740 
  167.8750   167.3220    -2.6390    -7.0870    -2.3890    57.6690    14.2810    15.7580    13.1680     2.4470 
  168.0000   167.4440    -2.6450    -7.1120    -2.4660    56.7720    14.0660    15.4960    12.9630     2.4340 
  168.1250   167.5660    -2.6510    -7.1380    -2.4380    57.5860    13.8200    15.1900    13.2760     2.4460 
  168.2500   167.6880    -2.6560    -7.1640    -2.3960    60.0790    13.5190    14.8140    14.8490     2.4620 
  168.3750   167.8100    -2.6620    -7.1890    -2.3440    61.5920    13.1360    14.3390    17.4230     2.4710 
  168.5000   167.9330    -2.6670    -7.2150    -2.3330    61.0820    12.6950    13.8080    17.3010     2.4650 
  168.6250   168.0550    -2.6730    -7.2410    -2.2720    60.0180    12.3320    13.3900    13.2840     2.4640 
  168.7500   168.1770    -2.6790    -7.2670    -2.1420    59.5400    12.0850    13.1330    10.1940     2.4680 
  168.8750   168.2990    -2.6840    -7.2930    -1.9730    58.8650    11.9440    13.0160    10.1230     2.4800 
  169.0000   168.4210    -2.6900    -7.3190    -1.8190    57.8480    11.7330    12.8130    11.4140     2.4800 
  169.1250   168.5430    -2.6950    -7.3460    -1.6510    57.3010    11.4140    12.4760    11.9530     2.4650 
  169.2500   168.6650    -2.7010    -7.3720    -1.5490    57.5000    11.0990    12.1320    11.0000     2.4380 
  169.3750   168.7870    -2.7070    -7.3980    -1.5250    58.3890    10.9450    11.9680     9.3520     2.4250 
  169.5000   168.9090    -2.7120    -7.4250    -1.5170    58.8950    11.0340    12.0820     8.1510     2.4320 
  169.6250   169.0310    -2.7180    -7.4510    -1.5820    58.1520    11.3960    12.5310     8.7680     2.4510 
  169.7500   169.1530    -2.7240    -7.4780    -1.6620    56.3430    12.0580    13.3360    10.2960     2.4670 
  169.8750   169.2750    -2.7300    -7.5050    -1.7950    55.3860    12.8490    14.2540    11.2000     2.4690 
  170.0000   169.3970    -2.7350    -7.5320    -1.9720    56.5450    13.6330    15.1550    11.6250     2.4600 
  170.1250   169.5190    -2.7410    -7.5590    -2.1880    58.6110    14.1660    15.7700    12.2900     2.4430 
  170.2500   169.6410    -2.7470    -7.5860    -2.5060    59.0760    14.4710    16.1670    13.1120     2.4300 
  170.3750   169.7630    -2.7520    -7.6130    -3.0030    59.0750    14.5440    16.3430    13.3740     2.4250 
  170.5000   169.8850    -2.7580    -7.6400    -3.5240    60.6610    14.3700    16.2320    13.2520     2.4310 
  170.6250   170.0070    -2.7630    -7.6670    -3.9390    63.3560    13.9810    15.8670    12.6530     2.4470 
  170.7500   170.1290    -2.7690    -7.6940    -4.1230    64.7500    13.4070    15.2900    11.5840     2.4590 
  170.8750   170.2510    -2.7750    -7.7210    -4.1270    63.0460    12.7810    14.6650    10.9170     2.4590 
  171.0000   170.3720    -2.7810    -7.7490    -4.0690    60.2750    12.2990    14.2010    10.9220     2.4480 
  171.1250   170.4940    -2.7860    -7.7760    -4.0080    56.7590    12.0420    13.9790    10.9650     2.4410 
  171.2500   170.6160    -2.7920    -7.8040    -3.9320    54.1640    12.0270    14.0000    10.4960     2.4420 
  171.3750   170.7380    -2.7980    -7.8310    -3.8770    53.8600    12.2070    14.2340    10.2420     2.4480 
  171.5000   170.8600    -2.8040    -7.8590    -3.9080    55.4130    12.5310    14.6330    10.8300     2.4530 
  171.6250   170.9810    -2.8100    -7.8860    -4.1380    56.6670    12.9910    15.1960    11.3860     2.4520 
  171.7500   171.1030    -2.8150    -7.9140    -4.4270    56.7460    13.4240    15.7190    11.3300     2.4430 
  171.8750   171.2250    -2.8210    -7.9420    -4.5450    57.1940    13.5500    15.8580    11.4940     2.4250 
  172.0000   171.3470    -2.8260    -7.9700    -4.4670    59.2220    13.3080    15.5810    12.2200     2.3900 
  172.1250   171.4680    -2.8320    -7.9970    -4.2910    60.9870    12.7690    14.9700    11.8440     2.3410 
  172.2500   171.5900    -2.8380    -8.0250    -4.0030    61.3050    11.9510    14.0350    10.1750     2.2960 
  172.3750   171.7120    -2.8440    -8.0530    -3.3910    59.4370    10.8920    12.8270     9.4820     2.2730 
