~V
VERS. 2.00: Ver 2.00
~W
STRT.M 50.0000:
STOP.M 287.0000:
STEP.M 0.1250:
NULL. -999.2500:
UWI. FD10894:
~C
DEPT.M :
TVD. :
DX. :
DY. :
SP.MV :
GR.API :
RI. :
RML.OHMM :
RXO.OHMM :
DEN.GM/CC :
~A
   50.0000    50.0000     0.0000     0.0000    50.9300    30.5180     0.1750     0.4490     1.3440     2.1930 
   50.1250    50.1250     0.0000    -0.0010    49.1070    31.9260     0.1660     0.4480     1.2950     2.1950 
   50.2500    50.2500     0.0000    -0.0020    48.0820    33.0440     0.1500     0.4490     1.2540     2.2060 
   50.3750    50.3750     0.0010    -0.0040    47.7730    32.2990     0.1280     0.4360     1.2410     2.2240 
   50.5000    50.5000     0.0010    -0.0050    47.9560    30.8600     0.1120     0.4250     1.2430     2.2460 
   50.6250    50.6250     0.0010    -0.0060    48.4990    30.7690     0.1240     0.4140     1.2210     2.2610 
   50.7500    50.7500     0.0010    -0.0070    49.2340    31.7470     0.1300     0.4050     1.1520     2.2600 
   50.8750    50.8750     0.0020    -0.0090    50.0440    32.8420     0.1600     0.3870     1.0640     2.2420 
   51.0000    51.0000     0.0020    -0.0100    50.8170    34.9430     0.1830     0.3610     1.0220     2.2140 
   51.1250    51.1250     0.0020    -0.0110    51.4750    37.0730     0.2120     0.3390     1.0680     2.1890 
   51.2500    51.2500     0.0030    -0.0120    52.0150    37.5850     0.2410     0.3200     1.1270     2.1740 
   51.3750    51.3750     0.0030    -0.0130    52.5100    35.6900     0.2280     0.3210     1.1410     2.1690 
   51.5000    51.5000     0.0030    -0.0150    53.1260    34.2440     0.2160     0.3250     1.1350     2.1650 
   51.6250    51.6250     0.0040    -0.0160    54.1060    34.5960     0.1980     0.3240     1.1450     2.1580 
   51.7500    51.7500     0.0040    -0.0170    55.6410    35.6670     0.1810     0.3210     1.1660     2.1470 
   51.8750    51.8750     0.0040    -0.0180    57.9320    36.6890     0.1960     0.3040     1.1780     2.1370 
   52.0000    52.0000     0.0050    -0.0200    60.9380    37.6780     0.2040     0.2880     1.1870     2.1300 
   52.1250    52.1250     0.0050    -0.0210    64.5590    37.3730     0.2120     0.2700     1.1930     2.1260 
   52.2500    52.2500     0.0060    -0.0220    68.4600    35.8600     0.2260     0.2590     1.1850     2.1250 
   52.3750    52.3750     0.0060    -0.0230    72.2430    35.1670     0.2210     0.2440     1.1780     2.1280 
   52.5000    52.5000     0.0060    -0.0250    75.5140    35.5290     0.2230     0.2350     1.1830     2.1330 
   52.6250    52.6250     0.0070    -0.0260    77.8640    36.1120     0.2150     0.2340     1.1910     2.1390 
   52.7500    52.7500     0.0070    -0.0270    79.1410    35.9970     0.1990     0.2480     1.1880     2.1420 
   52.8750    52.8750     0.0080    -0.0280    79.1580    36.2060     0.1870     0.2510     1.1770     2.1430 
   53.0000    53.0000     0.0080    -0.0300    78.0080    36.5040     0.1680     0.2230     1.1690     2.1420 
   53.1250    53.1250     0.0080    -0.0310    75.6260    36.6560     0.1310     0.1650     1.1630     2.1420 
   53.2500    53.2500     0.0090    -0.0320    72.1040    36.2190     0.0860     0.0950     1.1600     2.1450 
   53.3750    53.3750     0.0090    -0.0330    67.2980    35.0650     0.0580     0.0540     1.1520     2.1530 
   53.5000    53.5000     0.0090    -0.0350    61.2510    34.5750     0.0760     0.0630     1.1230     2.1650 
   53.6250    53.6250     0.0100    -0.0360    53.8760    36.3900     0.1940     0.1540     1.2670     2.1830 
   53.7500    53.7500     0.0100    -0.0370    45.4320    39.7160     0.4620     0.3880     2.6800     2.2030 
   53.8750    53.8750     0.0110    -0.0380    36.2130    43.2900     1.0970     1.3920     5.1440     2.2130 
   54.0000    54.0000     0.0110    -0.0390    26.7920    46.4820     1.9990     3.3500     6.3240     2.2010 
   54.1250    54.1250     0.0120    -0.0410    17.7910    49.7820     2.8490     4.4780     6.1490     2.1640 
   54.2500    54.2500     0.0120    -0.0420     9.7130    52.5990     3.4950     5.0380     6.0190     2.1190 
   54.3750    54.3750     0.0120    -0.0430     3.0200    55.8830     3.8480     4.5090     5.9440     2.0860 
   54.5000    54.5000     0.0130    -0.0440    -2.2680    60.4080     4.1170     3.7750     5.8800     2.0720 
   54.6250    54.6250     0.0130    -0.0450    -6.1440    64.3930     4.4620     3.9190     6.1710     2.0730 
   54.7500    54.7500     0.0140    -0.0470    -8.9580    65.5490     4.8200     4.2400     6.4830     2.0780 
   54.8750    54.8750     0.0140    -0.0480   -10.9350    63.0460     5.0750     4.5270     6.5550     2.0780 
   55.0000    55.0000     0.0150    -0.0490   -12.3940    60.5640     5.1990     4.6660     6.6650     2.0710 
   55.1250    55.1250     0.0150    -0.0500   -13.4870    59.7350     5.2070     4.6780     6.7690     2.0620 
   55.2500    55.2500     0.0160    -0.0510   -14.3520    61.4160     5.1470     4.6190     6.6790     2.0550 
   55.3750    55.3750     0.0160    -0.0520   -15.0410    64.2290     5.0850     4.5490     6.2460     2.0550 
   55.5000    55.5000     0.0170    -0.0530   -15.6200    66.4850     5.0330     4.5150     5.8180     2.0630 
   55.6250    55.6250     0.0170    -0.0540   -16.1330    67.8950     5.0040     4.5170     5.9960     2.0780 
   55.7500    55.7500     0.0180    -0.0560   -16.6360    69.4920     5.0000     4.5810     6.4160     2.0940 
   55.8750    55.8750     0.0190    -0.0570   -17.1730    71.5000     5.0050     4.7110     6.4860     2.1060 
   56.0000    56.0000     0.0190    -0.0580   -17.7670    71.4730     5.0290     4.8700     6.4730     2.1120 
   56.1250    56.1250     0.0200    -0.0590   -18.4320    69.3870     5.0690     5.0450     6.6960     2.1110 
   56.2500    56.2500     0.0200    -0.0600   -19.1510    68.0970     5.0930     5.2210     6.8290     2.1030 
   56.3750    56.3750     0.0210    -0.0610   -19.9080    68.0090     5.1470     5.3770     6.8010     2.0890 
   56.5000    56.5000     0.0210    -0.0620   -20.6740    67.4720     5.2200     5.4980     7.0320     2.0740 
   56.6250    56.6250     0.0220    -0.0630   -21.4190    65.6160     5.3160     5.5880     7.3850     2.0620 
   56.7500    56.7500     0.0230    -0.0640   -22.1100    63.4960     5.4070     5.6390     7.4450     2.0580 
   56.8750    56.8750     0.0230    -0.0650   -22.7070    62.5620     5.4520     5.6880     7.4040     2.0600 
   57.0000    57.0000     0.0240    -0.0660   -23.1800    61.7430     5.4690     5.7380     7.5770     2.0650 
   57.1250    57.1250     0.0240    -0.0670   -23.4890    59.9480     5.4390     5.7720     7.6610     2.0700 
   57.2500    57.2500     0.0250    -0.0680   -23.6400    58.3610     5.3750     5.7880     7.4100     2.0750 
   57.3750    57.3750     0.0260    -0.0690   -23.6390    60.3290     5.2670     5.7540     7.2750     2.0820 
   57.5000    57.5000     0.0260    -0.0700   -23.5430    65.0370     5.1310     5.7050     7.4240     2.0890 
   57.6250    57.6250     0.0270    -0.0710   -23.4090    68.9820     5.0500     5.6500     7.3750     2.0940 
   57.7500    57.7500     0.0280    -0.0720   -23.2930    69.8380     5.0150     5.6010     7.1610     2.0970 
   57.8750    57.8750     0.0280    -0.0730   -23.2290    67.9290     5.0220     5.6140     7.0230     2.0970 
   58.0000    58.0000     0.0290    -0.0740   -23.2070    64.6590     5.0530     5.6670     6.8970     2.0960 
   58.1250    58.1250     0.0300    -0.0750   -23.1980    61.0140     5.0390     5.6740     6.8400     2.0940 
   58.2500    58.2500     0.0310    -0.0760   -23.1570    59.2490     4.9780     5.6190     6.8290     2.0900 
   58.3750    58.3750     0.0310    -0.0770   -23.0460    60.9570     4.8490     5.4420     6.7300     2.0870 
   58.5000    58.5000     0.0320    -0.0780   -22.8640    63.1840     4.6600     5.2100     6.3880     2.0860 
   58.6250    58.6250     0.0330    -0.0790   -22.6320    64.5950     4.4840     5.0140     5.9490     2.0930 
   58.7500    58.7500     0.0340    -0.0800   -22.4000    68.1010     4.3970     4.9220     5.9440     2.1070 
   58.8750    58.8750     0.0350    -0.0810   -22.2260    72.7700     4.4440     4.9940     6.1550     2.1240 
   59.0000    59.0000     0.0350    -0.0820   -22.1510    72.3750     4.6430     5.2270     6.1800     2.1360 
