~V
VERS. 2.00: Ver 2.00
~W
STRT.M 24.0000:
STOP.M 269.0000:
STEP.M 0.1250:
NULL. -999.2500:
UWI. FD10666:
~C
DEPT.M :
TVD. :
DX. :
DY. :
GR.API :
RML.OHMM :
RI. :
RXO.OHMM :
CALI.CM :
DEN.GM/CC :
SP.MV :
~A
# ...
   40.5000    40.4740     0.6140     0.5250    77.9230    11.1950     8.0080     9.3010    25.8930     2.2540   -13.4670 
   40.6250    40.5990     0.6200     0.5300    67.8130    13.9640    10.0490    14.2290    25.8880     2.3140   -14.2110 
   40.7500    40.7230     0.6260     0.5350    62.5130    15.9980    11.7610    21.8720    25.9700     2.3700   -15.0120 
   40.8750    40.8480     0.6320     0.5390    61.3750    16.5050    12.5280    25.9330    26.2100     2.4040   -15.8540 
   41.0000    40.9730     0.6390     0.5440    60.3470    15.1970    11.9850    20.6350    26.6520     2.4010   -16.7180 
   41.1250    41.0970     0.6450     0.5490    58.3520    12.6110    10.3370    13.0960    27.2850     2.3530   -17.5790 
   41.2500    41.2220     0.6510     0.5540    57.6640    10.1360     8.5850     9.2460    27.9130     2.2820   -18.3850 
   41.3750    41.3470     0.6570     0.5590    58.6430     8.4040     7.2330     7.3250    28.3960     2.2070   -19.0970 
   41.5000    41.4720     0.6630     0.5640    58.7800     7.4790     6.4000     6.6420    28.6800     2.1450   -19.6920 
   41.6250    41.5960     0.6690     0.5680    59.1520     7.1890     6.0460     6.6020    28.8040     2.1060   -20.1340 
   41.7500    41.7210     0.6750     0.5730    59.9170     7.1600     5.9400     6.6680    28.9710     2.0830   -20.4540 
   41.8750    41.8460     0.6810     0.5780    58.5090     7.2350     5.9670     6.7700    29.2680     2.0690   -20.6700 
   42.0000    41.9700     0.6870     0.5830    54.7620     7.3290     6.0460     6.9720    29.6730     2.0530   -20.7960 
   42.1250    42.0950     0.6930     0.5880    51.5400     7.4120     6.1310     7.2070    29.9650     2.0360   -20.8550 
   42.2500    42.2200     0.6990     0.5920    51.8210     7.4860     6.2060     7.2960    29.9440     2.0250   -20.9010 
   42.3750    42.3440     0.7060     0.5970    54.9600     7.5550     6.2690     7.2510    29.6230     2.0200   -20.9570 
   42.5000    42.4690     0.7120     0.6020    57.9690     7.6170     6.3190     7.2100    29.2670     2.0230   -21.0350 
   42.6250    42.5940     0.7180     0.6070    59.1440     7.6700     6.3510     7.1530    29.0740     2.0300   -21.1460 
   42.7500    42.7180     0.7240     0.6120    59.9380     7.7120     6.3640     7.1000    28.9730     2.0400   -21.2780 
   42.8750    42.8430     0.7300     0.6160    59.7360     7.7390     6.3560     7.1170    28.9260     2.0510   -21.4160 
   43.0000    42.9680     0.7360     0.6210    57.5620     7.7480     6.3260     7.0350    28.9020     2.0630   -21.5420 
   43.1250    43.0930     0.7420     0.6260    53.9530     7.7330     6.2750     6.9720    28.8610     2.0720   -21.6210 
   43.2500    43.2170     0.7480     0.6310    51.2550     7.7020     6.2120     7.0170    28.7770     2.0740   -21.6370 
   43.3750    43.3420     0.7540     0.6360    51.6000     7.6610     6.1390     7.1300    28.6560     2.0720   -21.5860 
   43.5000    43.4670     0.7600     0.6400    54.3460     7.6200     6.0640     7.1940    28.5230     2.0690   -21.4820 
   43.6250    43.5910     0.7660     0.6450    56.4170     7.5860     5.9940     7.1660    28.3940     2.0700   -21.3400 
   43.7500    43.7160     0.7720     0.6500    56.5510     7.5570     5.9330     7.0860    28.2860     2.0750   -21.1760 
   43.8750    43.8410     0.7790     0.6550    55.7560     7.5300     5.8850     7.0400    28.1910     2.0830   -20.9950 
   44.0000    43.9650     0.7850     0.6600    56.4130     7.5060     5.8560     6.9830    28.0870     2.0890   -20.8030 
   44.1250    44.0900     0.7910     0.6650    57.3030     7.5030     5.8620     7.1190    27.8800     2.0890   -20.6140 
   44.2500    44.2150     0.7970     0.6690    57.5560     7.5360     5.9130     7.0760    27.5330     2.0830   -20.4300 
   44.3750    44.3400     0.8030     0.6740    57.9830     7.6210     6.0210     7.0240    27.0730     2.0750   -20.2480 
   44.5000    44.4640     0.8090     0.6790    58.0780     7.7560     6.1810     6.9320    26.6130     2.0720   -20.0520 
   44.6250    44.5890     0.8150     0.6840    57.3160     7.9170     6.3730     7.1230    26.3460     2.0810   -19.8050 
   44.7500    44.7140     0.8210     0.6890    55.5020     8.0560     6.5510     7.4530    26.2160     2.0990   -19.4850 
   44.8750    44.8380     0.8270     0.6930    53.4860     8.1330     6.6740     7.7450    26.1840     2.1190   -19.0780 
   45.0000    44.9630     0.8330     0.6980    51.4060     8.1170     6.7050     7.9010    26.2190     2.1330   -18.5730 
   45.1250    45.0880     0.8390     0.7030    49.2300     7.9640     6.6030     7.8640    26.2410     2.1310   -17.9410 
   45.2500    45.2120     0.8460     0.7080    50.6040     7.6930     6.3830     7.7620    26.1650     2.1170   -17.2010 
   45.3750    45.3370     0.8520     0.7130    55.6390     7.3180     6.0620     7.6120    25.9840     2.1000   -16.3690 
   45.5000    45.4620     0.8580     0.7170    62.4580     6.8690     5.6690     7.4770    25.7450     2.0930   -15.4840 
   45.6250    45.5860     0.8640     0.7220    68.7600     6.3890     5.2450     6.9630    25.4790     2.1050   -14.6220 
   45.7500    45.7110     0.8700     0.7270    74.4630     5.9440     4.8460     6.0330    25.2300     2.1300   -13.8540 
   45.8750    45.8360     0.8760     0.7320    79.5560     5.6060     4.5230     5.2270    25.0460     2.1610   -13.2260 
   46.0000    45.9610     0.8820     0.7370    83.8480     5.4670     4.3380     4.9400    24.9210     2.1870   -12.7850 
   46.1250    46.0850     0.8880     0.7410    85.8340     5.7040     4.4080     5.0340    24.8400     2.2000   -12.6140 
   46.2500    46.2100     0.8940     0.7460    83.6490     6.3620     4.7750     5.2400    24.7920     2.2020   -12.6970 
   46.3750    46.3350     0.9000     0.7510    78.0020     7.4400     5.4620     5.6160    24.7540     2.2010   -13.0320 
   46.5000    46.4590     0.9060     0.7560    71.5500     8.8020     6.4120     6.8210    24.7050     2.2110   -13.5850 
   46.6250    46.5840     0.9120     0.7610    65.8210    10.1070     7.4340     9.2020    24.6530     2.2420   -14.2970 
   46.7500    46.7090     0.9190     0.7650    60.6060    10.9530     8.2290    12.4900    24.6650     2.2830   -15.0680 
   46.8750    46.8330     0.9250     0.7700    55.3120    11.0940     8.5700    16.2010    24.8550     2.3100   -15.8390 
   47.0000    46.9580     0.9310     0.7750    51.0170    10.5400     8.3850    16.9210    25.3270     2.2920   -16.5500 
   47.1250    47.0830     0.9370     0.7800    49.3610     9.6020     7.8180    12.6270    26.1200     2.2060   -17.1380 
   47.2500    47.2080     0.9430     0.7850    49.1410     8.7980     7.2490     9.2360    27.0270     2.1020   -17.5920 
   47.3750    47.3320     0.9490     0.7900    48.5100     8.3450     6.8680     8.0810    27.7850     2.0320   -17.9140 
   47.5000    47.4570     0.9550     0.7940    47.5720     8.2430     6.7170     7.8190    28.1270     2.0280   -18.1140 
   47.6250    47.5820     0.9610     0.7990    48.8650     8.3650     6.7450     7.8080    27.8930     2.0970   -18.2010 
   47.7500    47.7060     0.9670     0.8040    51.4120     8.5030     6.8150     8.2640    27.5790     2.1870   -18.2230 
   47.8750    47.8310     0.9730     0.8090    53.2750     8.5630     6.8520     8.5120    27.3880     2.2430   -18.2080 
   48.0000    47.9560     0.9790     0.8140    53.3000     8.5290     6.8360     8.3810    27.1380     2.2330   -18.1730 
   48.1250    48.0800     0.9860     0.8180    51.9920     8.4260     6.7810     8.6550    26.6290     2.1710   -18.1280 
   48.2500    48.2050     0.9920     0.8230    50.9030     8.3090     6.7230     9.1270    26.1260     2.1120   -18.0680 
   48.3750    48.3300     0.9980     0.8280    51.3750     8.2000     6.6710     9.3020    25.8510     2.0760   -17.9640 
   48.5000    48.4540     1.0040     0.8330    53.1040     8.1060     6.6220     9.1370    25.7340     2.0640   -17.8020 
   48.6250    48.5790     1.0100     0.8380    54.7010     8.0260     6.5620     8.7610    25.6120     2.0690   -17.5620 
