~V
VERS. 2.00: Ver 2.00
~W
STRT.M 55.0000:
STOP.M 289.0000:
STEP.M 0.1250:
NULL. -999.2500:
UWI. FD10909:
~C
DEPT.M :
TVD. :
DX. :
DY. :
SP.MV :
GR.API :
RI. :
RML.OHMM :
RXO.OHMM :
DEN.GM/CC :
~A
# ...
  264.8750   256.5740    51.3630    11.1390    -7.1970    46.9280     3.1480     3.8250     3.6820     2.3430 
  265.0000   256.6910    51.4040    11.1500    -7.0820    51.3810     3.3640     4.0600     4.2610     2.3490 
  265.1250   256.8090    51.4450    11.1600    -7.0370    54.9180     3.5200     4.2300     4.8970     2.3510 
  265.2500   256.9270    51.4850    11.1710    -7.0040    55.7880     3.5740     4.2880     5.2690     2.3480 
  265.3750   257.0440    51.5260    11.1820    -6.9500    53.5710     3.5110     4.2200     5.3040     2.3440 
  265.5000   257.1620    51.5670    11.1920    -6.8620    49.9350     3.3490     4.0440     4.9300     2.3440 
  265.6250   257.2800    51.6080    11.2030    -6.7440    46.3210     3.1480     3.8240     4.4440     2.3480 
  265.7500   257.3970    51.6480    11.2140    -6.5970    44.7300     2.9460     3.6050     4.1900     2.3530 
  265.8750   257.5150    51.6890    11.2240    -6.4350    43.9820     2.7750     3.4200     3.9230     2.3540 
  266.0000   257.6330    51.7300    11.2350    -6.2820    45.1510     2.6500     3.2830     3.4780     2.3520 
  266.1250   257.7500    51.7710    11.2460    -6.1710    44.8310     2.5560     3.1810     3.1610     2.3470 
  266.2500   257.8680    51.8110    11.2570    -6.1380    43.5770     2.4850     3.1030     3.0450     2.3360 
  266.3750   257.9860    51.8520    11.2670    -6.1830    41.6480     2.4370     3.0510     2.9590     2.3180 
  266.5000   258.1040    51.8930    11.2780    -6.2970    41.1120     2.4210     3.0340     2.8990     2.2950 
  266.6250   258.2210    51.9340    11.2890    -6.4490    41.1660     2.4420     3.0570     2.8690     2.2690 
  266.7500   258.3390    51.9740    11.3000    -6.6270    41.2500     2.5030     3.1230     2.8180     2.2490 
  266.8750   258.4570    52.0150    11.3100    -6.8320    41.8860     2.5920     3.2200     2.7560     2.2420 
  267.0000   258.5740    52.0560    11.3210    -7.0710    44.0330     2.6950     3.3330     2.7820     2.2450 
  267.1250   258.6920    52.0970    11.3320    -7.3340    46.9390     2.7970     3.4430     2.9740     2.2510 
  267.2500   258.8100    52.1370    11.3420    -7.5980    50.1760     2.8810     3.5350     3.2850     2.2540 
  267.3750   258.9270    52.1780    11.3530    -7.8360    52.5970     2.9430     3.6020     3.4710     2.2560 
  267.5000   259.0450    52.2190    11.3640    -8.0150    54.5610     2.9810     3.6430     3.3860     2.2590 
  267.6250   259.1630    52.2600    11.3740    -8.1220    55.4420     2.9920     3.6560     3.2770     2.2660 
  267.7500   259.2800    52.3010    11.3850    -8.1520    54.8330     2.9750     3.6370     3.4060     2.2780 
  267.8750   259.3980    52.3410    11.3950    -8.1370    53.0490     2.9420     3.6010     3.6610     2.2900 
  268.0000   259.5160    52.3820    11.4060    -8.1180    50.4000     2.9140     3.5710     3.7550     2.2960 
  268.1250   259.6330    52.4230    11.4170    -8.1260    48.4380     2.9170     3.5730     3.6060     2.2950 
  268.2500   259.7510    52.4640    11.4270    -8.1660    47.9550     2.9650     3.6260     3.5220     2.2950 
  268.3750   259.8690    52.5050    11.4380    -8.2250    49.0290     3.0660     3.7360     3.7780     2.3010 
  268.5000   259.9860    52.5460    11.4480    -8.3010    50.1400     3.2180     3.9010     4.0810     2.3090 
  268.6250   260.1040    52.5860    11.4590    -8.3990    51.4590     3.3840     4.0820     4.0840     2.3090 
  268.7500   260.2220    52.6270    11.4700    -8.5300    52.8700     3.5170     4.2270     3.9670     2.2900 
  268.8750   260.3390    52.6680    11.4800    -8.6790    54.7720     3.5920     4.3080     3.9480     2.2560 
  269.0000   260.4570    52.7090    11.4910    -8.8070    55.3940     3.6100     4.3270     4.0260     2.2190 
  269.1250   260.5750    52.7490    11.5020    -8.8840    56.6270     3.6060     4.3240     4.2190     2.1950 
  269.2500   260.6920    52.7900    11.5130    -8.9070    59.7060     3.6160     4.3350     4.3370     2.1900 
  269.3750   260.8100    52.8310    11.5230    -8.9220    63.9570     3.6780     4.4020     4.1250     2.1940 
  269.5000   260.9280    52.8720    11.5340    -8.9760    68.1700     3.8080     4.5430     3.7650     2.2040 
  269.6250   261.0450    52.9130    11.5450    -9.0690    70.5300     3.9450     4.6920     3.6350     2.2170 
  269.7500   261.1630    52.9530    11.5550    -9.1780    71.3590     4.0080     4.7600     3.9480     2.2340 
  269.8750   261.2810    52.9940    11.5660    -9.2700    69.6360     3.9370     4.6830     4.6760     2.2550 
  270.0000   261.3980    53.0350    11.5760    -9.3400    67.5110     3.7220     4.4490     5.2970     2.2790 
  270.1250   261.5160    53.0760    11.5870    -9.4030    64.2310     3.4590     4.1630     4.9860     2.3000 
  270.2500   261.6340    53.1170    11.5970    -9.4760    60.0890     3.2500     3.9360     3.8800     2.3060 
  270.3750   261.7510    53.1580    11.6080    -9.5620    56.6470     3.1750     3.8540     3.1400     2.2930 
  270.5000   261.8690    53.1990    11.6180    -9.6610    56.2390     3.2810     3.9700     3.3050     2.2680 
  270.6250   261.9870    53.2400    11.6280    -9.7590    59.5080     3.5120     4.2210     3.9710     2.2460 
  270.7500   262.1040    53.2810    11.6390    -9.8390    63.7450     3.7980     4.5320     4.6950     2.2340 
  270.8750   262.2220    53.3220    11.6490    -9.8910    68.0150     4.0860     4.8450     5.3590     2.2320 
  271.0000   262.3400    53.3620    11.6590    -9.9160    71.6480     4.3560     5.1400     5.7640     2.2400 
  271.1250   262.4570    53.4030    11.6700    -9.9340    75.7610     4.6130     5.4190     5.5160     2.2510 
  271.2500   262.5750    53.4440    11.6800    -9.9640    78.9050     4.8710     5.7000     5.0870     2.2570 
  271.3750   262.6930    53.4850    11.6900   -10.0180    82.0780     5.1370     5.9900     5.3480     2.2550 
  271.5000   262.8100    53.5270    11.7000   -10.0940    83.7810     5.4040     6.2790     6.1990     2.2470 
  271.6250   262.9280    53.5680    11.7110   -10.1910    84.3310     5.6140     6.5090     7.2480     2.2410 
  271.7500   263.0450    53.6090    11.7210   -10.3040    82.9230     5.6480     6.5450     7.9560     2.2400 
  271.8750   263.1630    53.6500    11.7310   -10.4170    80.5720     5.4440     6.3220     7.6640     2.2490 
  272.0000   263.2810    53.6910    11.7410   -10.5090    77.6420     5.0030     5.8500     6.9230     2.2670 
  272.1250   263.3980    53.7320    11.7520   -10.5630    72.1750     4.4510     5.3050     6.4120     2.2840 
  272.2500   263.5160    53.7730    11.7620   -10.5710    64.4170     3.9110     4.7550     5.5130     2.2880 
  272.3750   263.6330    53.8140    11.7730   -10.5520    55.8150     3.4560     4.1930     4.3910     2.2750 
  272.5000   263.7510    53.8550    11.7830   -10.5250    49.9890     3.1370     3.7110     3.7970     2.2530 
  272.6250   263.8690    53.8960    11.7940   -10.5140    47.1570     2.9670     3.3840     3.4820     2.2380 
  272.7500   263.9860    53.9380    11.8040   -10.5300    47.5690     2.9900     3.3460     3.4440     2.2440 
  272.8750   264.1040    53.9790    11.8150   -10.5670    49.7290     3.1930     3.5680     3.6450     2.2670 
  273.0000   264.2210    54.0200    11.8250   -10.6190    53.1750     3.5370     3.9450     3.7210     2.2970 
  273.1250   264.3390    54.0610    11.8360   -10.6750    56.1850     3.9340     4.3670     3.9620     2.3200 
  273.2500   264.4560    54.1020    11.8470   -10.7390    57.1900     4.2640     4.7040     4.8630     2.3250 
  273.3750   264.5740    54.1430    11.8570   -10.4420    56.7530     4.4150     4.8400     5.9840     2.3130 
  273.5000   264.6910    54.1850    11.8680    -6.5500    56.3130     4.3270     4.7100     6.2780     2.2840 
  273.6250   264.8090    54.2260    11.8790     3.6320    54.8470     4.0450     4.3780     5.4340     2.2510 
  273.7500   264.9260    54.2670    11.8890    20.9190    50.7170     3.6800     3.9880     4.1680     2.2330 
  273.8750   265.0440    54.3080    11.9000    41.4410    45.1790     3.3720     3.6930     3.4740     2.2360 
