~V
VERS. 2.00: Ver 2.00
~W
STRT.M 55.0000:
STOP.M 289.0000:
STEP.M 0.1250:
NULL. -999.2500:
UWI. FD10909:
~C
DEPT.M :
TVD. :
DX. :
DY. :
SP.MV :
GR.API :
RI. :
RML.OHMM :
RXO.OHMM :
DEN.GM/CC :
~A
# ...
  100.6250   100.5370     2.3290     0.0540   -10.5890    91.4610     3.6370     4.7840     4.1300     2.2360 
  100.7500   100.6610     2.3450     0.0560   -10.4830    90.7290     3.5830     4.7270     4.3050     2.2140 
  100.8750   100.7850     2.3620     0.0570   -10.4440    90.5200     3.6560     4.8050     4.5470     2.1880 
  101.0000   100.9090     2.3780     0.0590   -10.5240    91.6670     3.8080     4.9670     5.0020     2.1770 
  101.1250   101.0330     2.3940     0.0600   -10.7000    92.8160     3.9550     5.1240     5.5060     2.1830 
  101.2500   101.1570     2.4100     0.0620   -10.9130    92.4730     4.0520     5.2280     5.7260     2.1990 
  101.3750   101.2800     2.4270     0.0640   -11.0860    92.5530     4.1070     5.2870     5.5910     2.2100 
  101.5000   101.4040     2.4430     0.0650   -11.1520    93.9090     4.1420     5.3240     5.2410     2.2090 
  101.6250   101.5280     2.4600     0.0670   -11.0980    94.5390     4.1640     5.3470     5.1010     2.2010 
  101.7500   101.6520     2.4760     0.0680   -10.9280    94.4900     4.1260     5.3060     5.5130     2.1950 
  101.8750   101.7760     2.4930     0.0700   -10.6960    93.6890     4.0120     5.1840     5.9970     2.1960 
  102.0000   101.9000     2.5100     0.0720   -10.4310    92.7380     3.8380     4.9990     5.6740     2.2020 
  102.1250   102.0240     2.5260     0.0730   -10.1460    93.3760     3.6620     4.8110     4.7210     2.2090 
  102.2500   102.1480     2.5430     0.0750    -9.8450    95.4670     3.5360     4.6760     4.0740     2.2120 
  102.3750   102.2710     2.5600     0.0770    -9.5410    99.0620     3.4690     4.6050     3.9530     2.2160 
  102.5000   102.3950     2.5770     0.0790    -9.2790    99.9890     3.4690     4.6050     3.9800     2.2200 
  102.6250   102.5190     2.5940     0.0810    -9.1010   100.8700     3.5310     4.6710     4.0170     2.2190 
  102.7500   102.6430     2.6110     0.0830    -9.0400    98.0310     3.6450     4.7930     4.2350     2.2120 
  102.8750   102.7670     2.6280     0.0850    -9.0820    95.3150     3.7920     4.9500     4.6450     2.2040 
  103.0000   102.8900     2.6460     0.0870    -9.2070    91.8520     3.9320     5.0990     4.9330     2.2000 
  103.1250   103.0140     2.6630     0.0890    -9.3670    91.2270     4.0060     5.1780     4.8980     2.1970 
  103.2500   103.1380     2.6800     0.0910    -9.5170    91.0460     4.0010     5.1740     4.7740     2.1940 
  103.3750   103.2620     2.6980     0.0930    -9.6160    90.7440     3.9580     5.1280     4.7440     2.1950 
  103.5000   103.3860     2.7150     0.0950    -9.6450    89.4920     3.9270     5.0950     4.6400     2.2020 
  103.6250   103.5090     2.7320     0.0970    -9.6220    89.9840     3.9280     5.0950     4.4310     2.2080 
  103.7500   103.6330     2.7500     0.1000    -9.5730    89.9870     3.9070     5.0730     4.3240     2.2090 
  103.8750   103.7570     2.7680     0.1020    -9.5190    90.4390     3.8380     4.9990     4.3870     2.2090 
  104.0000   103.8800     2.7850     0.1040    -9.4640    90.2830     3.7440     4.8980     4.3690     2.2190 
  104.1250   104.0040     2.8030     0.1070    -9.4070    92.7130     3.6490     4.7970     4.0660     2.2430 
  104.2500   104.1280     2.8210     0.1090    -9.3450    97.4130     3.5730     4.7160     3.6740     2.2690 
  104.3750   104.2520     2.8390     0.1110    -9.2860   103.7470     3.5270     4.6670     3.4940     2.2830 
  104.5000   104.3750     2.8560     0.1140    -9.2350   107.0300     3.5140     4.6530     3.5670     2.2810 
  104.6250   104.4990     2.8740     0.1160    -9.2010   107.3230     3.5190     4.6580     3.8210     2.2760 
  104.7500   104.6230     2.8920     0.1180    -9.1980   104.1620     3.4950     4.6320     4.0800     2.2780 
  104.8750   104.7460     2.9100     0.1210    -9.2260   101.8670     3.4000     4.5310     3.9910     2.2930 
  105.0000   104.8700     2.9280     0.1230    -9.2770    99.3020     3.2750     4.3980     3.5630     2.3190 
  105.1250   104.9940     2.9470     0.1250    -9.3350    98.5890     3.2480     4.3690     3.2300     2.3330 
  105.2500   105.1170     2.9650     0.1280    -9.3970    99.3480     3.4840     4.6210     3.3270     2.3680 
  105.3750   105.2410     2.9830     0.1300    -9.4830    98.5440     4.0300     5.2120     4.6450     2.4160 
  105.5000   105.3650     3.0010     0.1320    -9.6340    92.9010     4.8140     6.0740     8.7360     2.4590 
  105.6250   105.4880     3.0200     0.1350    -9.8810    82.4400     5.5950     6.9370    14.0380     2.4660 
  105.7500   105.6120     3.0380     0.1370   -10.2500    74.4260     6.1540     7.5540    15.6670     2.4240 
  105.8750   105.7350     3.0570     0.1400   -10.7210    69.3840     6.5240     7.9630    12.6700     2.3800 
  106.0000   105.8590     3.0750     0.1420   -11.2680    68.5130     7.0040     8.4920     9.3310     2.3940 
  106.1250   105.9830     3.0940     0.1450   -11.8360    66.2820     8.1210     9.7250    11.1620     2.4750 
  106.2500   106.1060     3.1120     0.1470   -12.3730    66.1070    10.4150    12.2550    23.3030     2.5840 
  106.3750   106.2300     3.1310     0.1500   -12.8390    66.6940    13.3440    15.4860    41.6790     2.6670 
  106.5000   106.3530     3.1500     0.1520   -13.2010    67.3580    15.4510    17.8110    52.3200     2.6990 
  106.6250   106.4770     3.1690     0.1550   -13.4750    65.6350    15.5400    17.9090    46.5650     2.6890 
  106.7500   106.6000     3.1880     0.1570   -13.6940    64.0460    13.3100    15.4490    29.5620     2.6360 
  106.8750   106.7240     3.2070     0.1600   -13.9160    64.7560    10.1070    11.9160    14.9180     2.5380 
  107.0000   106.8470     3.2260     0.1630   -14.1740    67.5480     7.4040     8.9340     8.6560     2.4030 
  107.1250   106.9710     3.2450     0.1650   -14.4590    68.8340     5.7790     7.1410     7.1740     2.2680 
  107.2500   107.0940     3.2640     0.1680   -14.7260    67.1820     5.0840     6.3740     7.0540     2.1740 
  107.3750   107.2180     3.2830     0.1710   -14.9360    64.3980     4.8410     6.1050     7.0420     2.1250 
  107.5000   107.3410     3.3020     0.1730   -15.0620    63.2760     4.8240     6.0860     6.9980     2.1080 
  107.6250   107.4650     3.3220     0.1760   -15.1190    62.5520     4.8820     6.1510     6.9940     2.1020 
  107.7500   107.5880     3.3410     0.1790   -15.1270    61.6530     4.9480     6.2240     7.0130     2.0980 
  107.8750   107.7120     3.3610     0.1810   -15.1160    60.0710     5.0010     6.2820     6.9740     2.0950 
  108.0000   107.8350     3.3800     0.1840   -15.1030    59.9930     5.0410     6.3260     6.9290     2.0890 
  108.1250   107.9590     3.4000     0.1870   -15.0980    60.9120     5.0840     6.3740     6.9710     2.0740 
  108.2500   108.0820     3.4200     0.1900   -15.1040    62.0160     5.1460     6.4420     7.0560     2.0540 
  108.3750   108.2050     3.4400     0.1930   -15.1180    62.9590     5.2180     6.5210     7.0590     2.0430 
  108.5000   108.3290     3.4590     0.1960   -15.1440    62.9700     5.2770     6.5860     6.9470     2.0500 
  108.6250   108.4520     3.4790     0.1980   -15.1780    62.6220     5.3070     6.6190     6.8170     2.0690 
  108.7500   108.5750     3.4990     0.2010   -15.2180    61.9420     5.3020     6.6140     6.7670     2.0890 
  108.8750   108.6990     3.5200     0.2040   -15.2610    60.8870     5.2680     6.5770     6.8400     2.1040 
  109.0000   108.8220     3.5400     0.2070   -15.3020    60.2090     5.2160     6.5190     7.0090     2.1140 
  109.1250   108.9450     3.5600     0.2100   -15.3390    60.2620     5.1800     6.4800     7.1630     2.1180 
  109.2500   109.0690     3.5800     0.2140   -15.3670    62.0220     5.1930     6.4940     7.2300     2.1150 
  109.3750   109.1920     3.6010     0.2170   -15.3820    63.9290     5.2510     6.5580     7.2640     2.1080 
  109.5000   109.3150     3.6210     0.2200   -15.3820    65.1310     5.3130     6.6260     7.3810     2.1020 
  109.6250   109.4380     3.6420     0.2230   -15.3620    65.1110     5.3170     6.6310     7.5720     2.1000 
