~V
VERS. 2.00: Ver 2.00
~W
STRT.M 43.0000:
STOP.M 257.0000:
STEP.M 0.1250:
NULL. -999.2500:
UWI. FD10872:
~C
DEPT.M :
TVD. :
DX. :
DY. :
SP.MV :
GR.API :
RI. :
RML.OHMM :
RXO.OHMM :
DEN.GM/CC :
~A
# ...
  161.6250   156.9900    23.4700   -16.6750    -6.7950    55.4990    22.3770    25.7510    34.5140     2.5250 
  161.7500   157.1050    23.5120   -16.7020    -6.9410    56.1730    21.8000    25.2200    30.4770     2.5220 
  161.8750   157.2200    23.5530   -16.7280    -6.8790    55.0210    21.4570    24.9120    22.5050     2.5200 
  162.0000   157.3350    23.5950   -16.7550    -6.6350    53.4310    21.3700    24.8940    18.7930     2.5200 
  162.1250   157.4490    23.6370   -16.7820    -6.3060    52.0630    21.8460    25.5090    22.4170     2.5250 
  162.2500   157.5640    23.6780   -16.8090    -6.0100    51.3160    22.6920    26.4340    27.2500     2.5330 
  162.3750   157.6790    23.7200   -16.8360    -5.8170    52.9080    23.4940    27.1890    27.2570     2.5400 
  162.5000   157.7940    23.7610   -16.8630    -5.7310    56.0100    23.9970    27.6540    25.1280     2.5440 
  162.6250   157.9080    23.8030   -16.8900    -5.7280    57.4350    24.0960    27.7460    27.4990     2.5460 
  162.7500   158.0230    23.8440   -16.9160    -5.7600    56.0180    23.8250    27.4490    30.1090     2.5450 
  162.8750   158.1380    23.8860   -16.9430    -5.8000    55.7330    23.1650    26.6990    27.0670     2.5440 
  163.0000   158.2530    23.9270   -16.9700    -5.8410    57.8490    22.2990    25.6120    24.6670     2.5410 
  163.1250   158.3680    23.9690   -16.9970    -5.8980    58.6570    21.4290    24.5900    26.6050     2.5390 
  163.2500   158.4830    24.0100   -17.0240    -5.9960    57.6160    20.8720    24.0600    27.5350     2.5400 
  163.3750   158.5970    24.0510   -17.0510    -6.1520    57.6150    20.6240    23.9770    24.6950     2.5430 
  163.5000   158.7120    24.0930   -17.0770    -6.3420    58.1050    20.3940    23.9910    22.7560     2.5500 
  163.6250   158.8270    24.1350   -17.1040    -6.5030    55.6710    20.1320    24.0220    25.3490     2.5570 
  163.7500   158.9420    24.1760   -17.1300    -6.5490    52.5570    19.9550    24.1400    28.0830     2.5620 
  163.8750   159.0570    24.2180   -17.1570    -6.3720    52.2370    19.9050    24.3630    25.1780     2.5650 
  164.0000   159.1720    24.2590   -17.1840    -5.9310    53.1060    20.0840    24.7700    20.1720     2.5660 
  164.1250   159.2870    24.3010   -17.2100    -5.2430    53.9760    20.3310    25.0900    20.2130     2.5650 
  164.2500   159.4020    24.3420   -17.2370    -4.4520    54.6120    20.5330    25.2190    23.6210     2.5640 
  164.3750   159.5160    24.3840   -17.2630    -3.7260    54.8090    20.5070    24.9700    25.2720     2.5610 
  164.5000   159.6310    24.4250   -17.2890    -3.2140    54.1210    20.2770    24.4510    24.8770     2.5560 
  164.6250   159.7460    24.4660   -17.3160    -2.9890    53.3370    19.9660    23.8720    23.7520     2.5490 
  164.7500   159.8610    24.5080   -17.3430    -2.9620    52.8760    19.6570    23.3360    22.5740     2.5400 
  164.8750   159.9760    24.5490   -17.3690    -3.0080    53.6690    19.4360    22.9290    21.9080     2.5300 
  165.0000   160.0910    24.5900   -17.3960    -2.9830    56.3370    19.3010    22.6660    24.6030     2.5220 
  165.1250   160.2060    24.6310   -17.4230    -2.8150    59.4270    19.2580    22.5510    29.6480     2.5140 
  165.2500   160.3210    24.6730   -17.4500    -2.5620    60.3110    19.1040    22.2840    29.4160     2.5070 
  165.3750   160.4360    24.7140   -17.4760    -2.3270    59.0570    18.4680    21.4870    24.9230     2.5010 
  165.5000   160.5510    24.7550   -17.5030    -2.2000    59.0660    17.4030    20.2140    22.2920     2.4940 
  165.6250   160.6660    24.7960   -17.5290    -2.2300    61.5020    15.9890    18.5540    21.6900     2.4890 
  165.7500   160.7810    24.8380   -17.5560    -2.3810    64.5030    14.5590    16.9180    19.7510     2.4850 
  165.8750   160.8960    24.8790   -17.5830    -2.6060    65.6260    13.2540    15.4090    15.8380     2.4830 
  166.0000   161.0110    24.9200   -17.6100    -2.8530    64.4160    12.1660    14.1070    12.9860     2.4830 
  166.1250   161.1260    24.9610   -17.6370    -3.1020    61.7090    11.3260    13.0580    12.0120     2.4830 
  166.2500   161.2410    25.0020   -17.6640    -3.3590    58.5040    10.8100    12.3890    11.6210     2.4820 
  166.3750   161.3560    25.0430   -17.6910    -3.6450    55.9290    10.6970    12.1910    11.3820     2.4790 
  166.5000   161.4710    25.0840   -17.7180    -3.9830    55.9000    10.7000    12.1760    11.2710     2.4760 
  166.6250   161.5860    25.1250   -17.7440    -4.3870    58.1140    10.7070    12.2020    11.9030     2.4720 
  166.7500   161.7010    25.1660   -17.7710    -4.8280    59.7190    10.6560    12.1770    13.0990     2.4690 
  166.8750   161.8160    25.2070   -17.7980    -5.2440    59.8350    10.4850    12.0140    13.1390     2.4640 
  167.0000   161.9310    25.2480   -17.8250    -5.5510    58.8890    10.2340    11.7420    12.1200     2.4580 
  167.1250   162.0460    25.2890   -17.8510    -5.6540    57.6820     9.9400    11.4170    10.9950     2.4510 
  167.2500   162.1610    25.3300   -17.8780    -5.5520    57.0640     9.6740    11.1260    10.5980     2.4470 
  167.3750   162.2760    25.3710   -17.9050    -5.3060    57.4450     9.4600    10.8900    10.8560     2.4460 
  167.5000   162.3910    25.4120   -17.9320    -5.0630    58.8640     9.2750    10.6900    10.7870     2.4480 
  167.6250   162.5060    25.4530   -17.9590    -4.9760    59.9050     9.2080    10.6360    10.8040     2.4490 
  167.7500   162.6210    25.4930   -17.9850    -5.1010    60.9940     9.4120    10.9470    10.8960     2.4500 
  167.8750   162.7360    25.5340   -18.0120    -5.4020    61.7750    10.0240    11.7750    10.2630     2.4520 
  168.0000   162.8510    25.5750   -18.0390    -5.7310    60.0990    11.0150    13.0950    10.2620     2.4590 
  168.1250   162.9660    25.6160   -18.0650    -5.9350    57.6210    12.3240    14.7620    14.1680     2.4730 
  168.2500   163.0810    25.6570   -18.0920    -5.9380    56.4420    13.4340    16.1160    19.5110     2.4900 
  168.3750   163.1960    25.6980   -18.1190    -5.7400    56.4980    13.9260    16.6460    19.9990     2.5020 
  168.5000   163.3110    25.7390   -18.1450    -5.4490    57.1200    13.6000    16.1360    17.2190     2.5040 
  168.6250   163.4260    25.7800   -18.1720    -5.1700    59.8660    12.6310    14.8750    15.2730     2.4940 
  168.7500   163.5410    25.8210   -18.1990    -4.9700    63.4370    11.5890    13.5730    14.1270     2.4740 
  168.8750   163.6560    25.8630   -18.2250    -4.8900    64.3820    10.8280    12.6570    13.0070     2.4520 
  169.0000   163.7710    25.9040   -18.2520    -4.9200    62.3530    10.3860    12.1740    11.3210     2.4360 
  169.1250   163.8860    25.9450   -18.2780    -5.0480    60.8820    10.3770    12.2480    11.0330     2.4300 
  169.2500   164.0010    25.9870   -18.3050    -5.2450    62.0260    10.5980    12.6030    12.4870     2.4330 
  169.3750   164.1160    26.0280   -18.3320    -5.4870    65.9640    10.9130    13.0400    12.4600     2.4420 
  169.5000   164.2300    26.0700   -18.3590    -5.7470    69.0080    11.1910    13.3930    11.5440     2.4510 
  169.6250   164.3450    26.1110   -18.3860    -6.0130    67.8330    11.2390    13.4410    11.9790     2.4580 
  169.7500   164.4600    26.1530   -18.4120    -6.2830    64.4400    11.1360    13.3180    13.4020     2.4610 
  169.8750   164.5750    26.1950   -18.4390    -6.5510    61.9600    10.8810    13.0160    13.7010     2.4600 
  170.0000   164.6900    26.2370   -18.4650    -6.7950    61.6780    10.4860    12.5700    12.4630     2.4590 
  170.1250   164.8040    26.2780   -18.4920    -6.9570    62.7960    10.0140    12.0510    12.4950     2.4590 
  170.2500   164.9190    26.3200   -18.5180    -6.9740    64.6860     9.6280    11.6430    13.3460     2.4610 
  170.3750   165.0340    26.3620   -18.5450    -6.7770    66.1790     9.5270    11.5710    12.0630     2.4660 
  170.5000   165.1490    26.4040   -18.5710    -6.3950    66.6700     9.6760    11.7780    10.0780     2.4700 
  170.6250   165.2630    26.4460   -18.5970    -5.9120    66.8950    10.1100    12.3150     9.7370     2.4740 
