~V
VERS. 2.00: Ver 2.00
~W
STRT.M 20.0000:
STOP.M 206.0000:
STEP.M 0.1250:
NULL. -999.2500:
UWI. FD10809:
~C
DEPT.M :
TVD. :
DX. :
DY. :
SP.MV :
GR.API :
RI. :
RML.OHMM :
DEN.GM/CC :
RXO.OHMM :
~A
# ...
   56.5000    56.3260     0.5210     2.6030   -19.3010    64.9320     4.0580     4.9310     2.0780     6.8960 
   56.6250    56.4480     0.5240     2.6290   -18.8690    64.6300     4.0510     4.9580     2.0730     6.8940 
   56.7500    56.5700     0.5260     2.6550   -18.2360    65.3120     4.1410     5.0890     2.0870     6.8340 
   56.8750    56.6930     0.5290     2.6810   -17.4610    65.1280     4.2780     5.2680     2.1300     7.3010 
   57.0000    56.8150     0.5320     2.7070   -16.4800    66.4300     4.3740     5.3830     2.1920    12.3650 
   57.1250    56.9370     0.5340     2.7330   -15.4180    69.4910     4.3700     5.3620     2.2340    17.8340 
   57.2500    57.0590     0.5370     2.7600   -14.4390    77.7470     4.2770     5.2400     2.2340    13.7570 
   57.3750    57.1810     0.5400     2.7860   -13.8330    85.7360     4.2410     5.1590     2.2000     7.1460 
   57.5000    57.3030     0.5430     2.8130   -13.7960    89.5200     4.3430     5.3330     2.1620     5.8480 
   57.6250    57.4250     0.5450     2.8390   -14.3240    85.7760     4.8000     6.0040     2.1440    10.6910 
   57.7500    57.5480     0.5480     2.8660   -15.2710    78.8050     5.8470     7.2150     2.1720    20.5680 
   57.8750    57.6700     0.5510     2.8930   -16.1330    73.1470     6.9100     8.4660     2.2350    28.0830 
   58.0000    57.7920     0.5540     2.9200   -16.9140    70.2520     7.5500     9.1180     2.2800    39.4280 
   58.1250    57.9130     0.5570     2.9480   -17.7660    67.6810     7.4040     8.8670     2.2590    42.8920 
   58.2500    58.0350     0.5590     2.9750   -18.7420    64.2280     6.5450     7.8250     2.1760    22.3770 
   58.3750    58.1570     0.5620     3.0030   -19.5620    62.2810     5.5100     6.6190     2.0980     7.3040 
   58.5000    58.2790     0.5650     3.0300   -20.0700    61.5970     4.8220     5.7370     2.0600     7.0890 
   58.6250    58.4010     0.5680     3.0580   -20.3880    62.5280     4.3930     5.2640     2.0550     7.3940 
   58.7500    58.5230     0.5710     3.0860   -20.5790    64.0690     4.2840     5.1530     2.0640     7.5820 
   58.8750    58.6450     0.5740     3.1140   -20.6000    67.4680     4.3480     5.2070     2.0830     7.3840 
   59.0000    58.7660     0.5770     3.1430   -20.4460    70.9800     4.3950     5.2720     2.1000     6.9340 
   59.1250    58.8880     0.5800     3.1710   -20.2840    73.5890     4.4350     5.3140     2.1070     6.6040 
   59.2500    59.0100     0.5830     3.2000   -20.2590    73.5210     4.4810     5.3600     2.0960     6.6570 
   59.3750    59.1310     0.5860     3.2280   -20.5030    73.0640     4.5480     5.4270     2.0840     7.0340 
   59.5000    59.2530     0.5890     3.2570   -21.0330    72.5080     4.6510     5.5130     2.0770     7.5350 
   59.6250    59.3740     0.5920     3.2860   -21.7660    71.7190     4.7420     5.5860     2.0770     7.8140 
   59.7500    59.4960     0.5950     3.3150   -22.3780    69.7220     4.7880     5.6060     2.0750     7.7480 
   59.8750    59.6170     0.5980     3.3440   -22.8400    67.7760     4.7670     5.5580     2.0690     7.5170 
   60.0000    59.7390     0.6010     3.3740   -23.2110    65.9590     4.6780     5.4490     2.0610     7.2010 
   60.1250    59.8600     0.6040     3.4030   -23.4620    64.0190     4.5650     5.3190     2.0550     7.0660 
   60.2500    59.9820     0.6080     3.4330   -23.5810    62.2990     4.4560     5.2050     2.0550     7.2740 
   60.3750    60.1030     0.6110     3.4630   -23.5260    61.9080     4.3680     5.1210     2.0580     7.3390 
   60.5000    60.2240     0.6140     3.4920   -23.3210    62.5120     4.3080     5.0690     2.0580     7.1000 
   60.6250    60.3460     0.6170     3.5220   -22.9820    62.8140     4.2750     5.0380     2.0580     7.0770 
   60.7500    60.4670     0.6210     3.5530   -22.5270    62.2900     4.2500     5.0150     2.0630     7.1960 
   60.8750    60.5880     0.6240     3.5830   -21.9870    62.2780     4.2290     4.9930     2.0710     7.1310 
   61.0000    60.7090     0.6270     3.6130   -21.5080    62.3500     4.2150     4.9830     2.0750     7.1770 
   61.1250    60.8310     0.6310     3.6440   -21.0530    62.2670     4.2260     5.0120     2.0740     7.4540 
   61.2500    60.9520     0.6340     3.6750   -20.5710    61.7480     4.2970     5.0910     2.0860     7.6380 
   61.3750    61.0730     0.6370     3.7060   -19.9400    60.9030     4.3670     5.1770     2.1250     7.6130 
   61.5000    61.1940     0.6410     3.7360   -19.0420    61.1180     4.3980     5.2230     2.1780     7.4060 
   61.6250    61.3150     0.6440     3.7680   -17.9820    62.9600     4.3790     5.2110     2.2030     6.9740 
   61.7500    61.4360     0.6480     3.7990   -16.9180    66.5400     4.3160     5.1390     2.1860     6.3140 
   61.8750    61.5570     0.6510     3.8300   -16.0680    69.1430     4.2170     5.0290     2.1520     5.8300 
   62.0000    61.6780     0.6550     3.8620   -15.5910    70.0980     4.1100     4.9100     2.1320     6.0250 
   62.1250    61.7980     0.6590     3.8930   -15.4670    70.0910     4.0170     4.8040     2.1270     6.4270 
   62.2500    61.9190     0.6620     3.9250   -15.3080    70.2210     3.9440     4.7350     2.1210     6.2710 
   62.3750    62.0400     0.6660     3.9570   -15.0280    71.9680     3.9330     4.7140     2.1110     5.9990 
   62.5000    62.1610     0.6700     3.9890   -14.8020    74.0490     3.9540     4.7410     2.1040     5.9840 
   62.6250    62.2820     0.6740     4.0210   -14.7150    76.7770     4.0250     4.8360     2.1130     5.9610 
   62.7500    62.4020     0.6770     4.0540   -14.6970    77.6430     4.1870     5.0250     2.1340     5.9990 
   62.8750    62.5230     0.6810     4.0860   -14.6830    76.5850     4.3980     5.2560     2.1520     6.1610 
   63.0000    62.6440     0.6850     4.1190   -14.5970    73.1640     4.5510     5.4330     2.1440     7.4570 
   63.1250    62.7640     0.6890     4.1510   -14.4000    70.3350     4.6060     5.4890     2.1210     9.6540 
   63.2500    62.8850     0.6930     4.1840   -14.2700    69.3730     4.5280     5.3860     2.0960     9.6130 
   63.3750    63.0050     0.6970     4.2170   -14.2490    70.2150     4.3430     5.1760     2.0880     7.4520 
   63.5000    63.1260     0.7010     4.2500   -14.2150    70.6560     4.1430     4.9450     2.0930     6.1260 
   63.6250    63.2460     0.7050     4.2840   -14.0790    71.3030     3.9730     4.7670     2.1040     5.8410 
   63.7500    63.3670     0.7090     4.3170   -14.0390    71.6800     3.8910     4.6860     2.1120     5.7680 
   63.8750    63.4870     0.7130     4.3500   -14.0470    72.1860     3.8860     4.6880     2.1150     5.7590 
   64.0000    63.6070     0.7170     4.3840   -14.1680    71.0400     3.9400     4.7600     2.1140     5.8390 
   64.1250    63.7280     0.7220     4.4180   -14.3950    70.3660     4.0530     4.8890     2.1170     6.0520 
   64.2500    63.8480     0.7260     4.4510   -14.7280    69.5220     4.2090     5.0560     2.1370     6.3570 
   64.3750    63.9680     0.7300     4.4850   -15.0780    68.4780     4.3470     5.2040     2.1700     6.6760 
   64.5000    64.0880     0.7340     4.5190   -15.1590    66.6960     4.4280     5.2760     2.1920     6.7020 
   64.6250    64.2080     0.7390     4.5530   -15.0870    66.3810     4.4150     5.2470     2.1780     6.3780 
   64.7500    64.3290     0.7430     4.5880   -15.0340    68.6680     4.2650     5.0520     2.1380     6.4480 
   64.8750    64.4490     0.7480     4.6220   -15.4080    70.1950     4.1360     4.8970     2.0990     6.9700 
   65.0000    64.5690     0.7530     4.6570   -15.9990    70.0320     4.0600     4.8020     2.0760     7.2550 
   65.1250    64.6890     0.7570     4.6910   -16.5330    69.5870     4.0410     4.7770     2.0630     7.2940 
   65.2500    64.8090     0.7620     4.7260   -16.8710    68.3980     4.0730     4.8090     2.0600     7.4190 
   65.3750    64.9290     0.7670     4.7610   -17.1250    68.2800     4.1250     4.8560     2.0660     7.4330 
   65.5000    65.0480     0.7720     4.7960   -17.1800    68.4010     4.1670     4.8870     2.0800     7.1240 
