~V
VERS. 2.00: Ver 2.00
~W
STRT.M 24.0000:
STOP.M 309.0000:
STEP.M 0.1250:
NULL. -999.2500:
UWI. FD10911:
~C
DEPT.M :
TVD. :
DX. :
DY. :
SP.MV :
GR.API :
RI. :
RML.OHMM :
RXO.OHMM :
DEN.GM/CC :
~A
# ...
  206.5000   193.1270    23.4670   -51.5730   -19.3070    46.6940     3.4470     4.9360     4.2620     2.3780 
  206.6250   193.2320    23.5030   -51.6320   -19.0920    48.5600     3.4690     4.9830     4.3140     2.3860 
  206.7500   193.3360    23.5400   -51.6900   -18.9630    49.8700     3.4770     4.9870     4.4170     2.3830 
  206.8750   193.4400    23.5760   -51.7490   -18.9500    48.8280     3.4540     4.9320     4.4570     2.3730 
  207.0000   193.5440    23.6130   -51.8070   -19.0440    46.1630     3.3960     4.8310     4.3510     2.3600 
  207.1250   193.6490    23.6490   -51.8660   -19.1940    44.8390     3.3220     4.7210     4.1560     2.3480 
  207.2500   193.7530    23.6860   -51.9240   -19.3500    45.2060     3.2560     4.6370     3.9810     2.3380 
  207.3750   193.8570    23.7230   -51.9830   -19.4830    46.3300     3.2090     4.5840     3.9100     2.3330 
  207.5000   193.9610    23.7590   -52.0410   -19.5900    46.3370     3.1800     4.5560     3.9400     2.3320 
  207.6250   194.0660    23.7950   -52.1000   -19.6860    44.9510     3.1580     4.5380     3.9850     2.3330 
  207.7500   194.1700    23.8320   -52.1580   -19.7830    43.3700     3.1370     4.5260     4.0080     2.3300 
  207.8750   194.2740    23.8680   -52.2170   -19.8910    41.1620     3.1190     4.5250     4.0140     2.3240 
  208.0000   194.3780    23.9050   -52.2760   -20.0020    40.2500     3.1050     4.5370     3.9530     2.3180 
  208.1250   194.4830    23.9410   -52.3340   -20.1100    38.9080     3.0940     4.5550     3.8540     2.3170 
  208.2500   194.5870    23.9770   -52.3930   -20.2110    38.9510     3.0910     4.5760     3.7940     2.3210 
  208.3750   194.6910    24.0130   -52.4520   -20.3030    38.8200     3.0990     4.5990     3.7860     2.3290 
  208.5000   194.7950    24.0500   -52.5110   -20.3870    39.4240     3.1190     4.6290     3.8200     2.3380 
  208.6250   194.8990    24.0860   -52.5690   -20.4600    38.5690     3.1500     4.6660     3.8610     2.3450 
  208.7500   195.0040    24.1220   -52.6280   -20.5320    37.7720     3.1850     4.7090     3.8580     2.3520 
  208.8750   195.1080    24.1580   -52.6870   -20.6130    38.1360     3.2180     4.7550     3.8600     2.3570 
  209.0000   195.2120    24.1940   -52.7460   -20.7140    40.9150     3.2440     4.7990     3.9260     2.3610 
  209.1250   195.3160    24.2300   -52.8050   -20.8290    42.8280     3.2640     4.8400     3.9830     2.3610 
  209.2500   195.4200    24.2660   -52.8640   -20.9410    42.7140     3.2800     4.8770     4.0010     2.3580 
  209.3750   195.5240    24.3020   -52.9230   -21.0320    42.3050     3.2910     4.9080     4.0320     2.3540 
  209.5000   195.6290    24.3390   -52.9820   -21.0890    42.3510     3.2960     4.9310     4.0680     2.3520 
  209.6250   195.7330    24.3750   -53.0400   -21.1160    41.9370     3.2920     4.9410     4.0770     2.3520 
  209.7500   195.8370    24.4110   -53.0990   -21.1090    41.6070     3.2770     4.9250     4.0700     2.3480 
  209.8750   195.9410    24.4470   -53.1580   -21.0620    42.2120     3.2540     4.8780     4.0820     2.3400 
  210.0000   196.0450    24.4830   -53.2170   -20.9570    44.4130     3.2280     4.8110     4.0970     2.3340 
  210.1250   196.1490    24.5200   -53.2760   -20.7960    47.0160     3.2090     4.7560     4.0640     2.3340 
  210.2500   196.2540    24.5560   -53.3350   -20.6090    50.1300     3.2120     4.7440     4.0120     2.3390 
  210.3750   196.3580    24.5920   -53.3940   -20.4500    51.5720     3.2340     4.7780     4.0130     2.3440 
  210.5000   196.4620    24.6280   -53.4530   -20.3740    50.9070     3.2670     4.8360     4.1340     2.3460 
  210.6250   196.5660    24.6640   -53.5110   -20.3810    48.5510     3.2930     4.8830     4.3840     2.3460 
  210.7500   196.6700    24.7000   -53.5700   -20.4330    48.0040     3.2940     4.8850     4.5800     2.3430 
  210.8750   196.7740    24.7360   -53.6290   -20.4860    49.6240     3.2730     4.8450     4.4980     2.3360 
  211.0000   196.8780    24.7720   -53.6880   -20.5110    53.0830     3.2370     4.7810     4.1960     2.3270 
  211.1250   196.9830    24.8080   -53.7480   -20.5040    56.0780     3.2000     4.7170     3.9740     2.3220 
  211.2500   197.0870    24.8440   -53.8070   -20.4640    57.2750     3.1720     4.6730     3.9560     2.3250 
  211.3750   197.1910    24.8800   -53.8660   -20.3960    56.5280     3.1490     4.6420     3.9760     2.3320 
  211.5000   197.2950    24.9160   -53.9250   -20.3270    54.7430     3.1250     4.6100     3.9350     2.3390 
  211.6250   197.3990    24.9520   -53.9840   -20.2990    53.6540     3.0990     4.5680     3.9030     2.3440 
  211.7500   197.5030    24.9870   -54.0430   -20.3560    53.9010     3.0730     4.5200     3.8670     2.3490 
  211.8750   197.6070    25.0230   -54.1020   -20.5100    52.8570     3.0590     4.4930     3.7950     2.3530 
  212.0000   197.7120    25.0590   -54.1610   -20.7620    49.4610     3.0690     4.5150     3.7990     2.3550 
  212.1250   197.8160    25.0950   -54.2200   -21.0900    45.8380     3.1020     4.5790     3.9480     2.3530 
  212.2500   197.9200    25.1310   -54.2790   -21.4760    45.1470     3.1450     4.6560     4.1660     2.3450 
  212.3750   198.0240    25.1670   -54.3380   -21.8910    46.5080     3.1790     4.7090     4.3160     2.3320 
  212.5000   198.1280    25.2030   -54.3980   -22.3100    47.3930     3.1890     4.7160     4.3220     2.3210 
  212.6250   198.2320    25.2390   -54.4570   -22.7210    46.7460     3.1710     4.6840     4.2660     2.3160 
  212.7500   198.3360    25.2760   -54.5160   -23.1180    46.4450     3.1280     4.6230     4.2160     2.3200 
  212.8750   198.4400    25.3120   -54.5750   -23.4900    46.6610     3.0780     4.5580     4.1160     2.3290 
  213.0000   198.5440    25.3480   -54.6340   -23.8120    47.4700     3.0430     4.5150     3.9330     2.3360 
  213.1250   198.6490    25.3840   -54.6930   -24.0410    47.4470     3.0340     4.5070     3.7070     2.3360 
  213.2500   198.7530    25.4200   -54.7520   -24.1300    49.0040     3.0560     4.5430     3.5550     2.3330 
  213.3750   198.8570    25.4560   -54.8110   -24.0720    50.6950     3.0980     4.6040     3.6520     2.3340 
  213.5000   198.9610    25.4930   -54.8700   -23.8730    53.4400     3.1520     4.6750     3.9810     2.3440 
  213.6250   199.0650    25.5290   -54.9280   -23.6040    56.3470     3.2080     4.7510     4.2490     2.3530 
  213.7500   199.1690    25.5660   -54.9870   -23.3260    62.1460     3.2580     4.8260     4.3030     2.3540 
  213.8750   199.2730    25.6020   -55.0460   -23.0960    69.8660     3.2920     4.8820     4.3770     2.3490 
  214.0000   199.3770    25.6380   -55.1050   -22.9450    74.3370     3.2930     4.8860     4.8300     2.3440 
  214.1250   199.4810    25.6750   -55.1640   -22.8600    72.8260     3.2530     4.8160     5.4220     2.3420 
  214.2500   199.5850    25.7120   -55.2230   -22.8210    65.8930     3.1840     4.6880     5.4620     2.3410 
  214.3750   199.6890    25.7480   -55.2820   -22.8080    59.1210     3.1190     4.5670     4.9420     2.3420 
  214.5000   199.7930    25.7850   -55.3410   -22.8150    54.9380     3.0950     4.5160     4.4680     2.3420 
  214.6250   199.8970    25.8210   -55.4000   -22.8410    51.3440     3.1270     4.5570     4.3150     2.3340 
  214.7500   200.0010    25.8580   -55.4580   -22.8770    48.3940     3.2020     4.6630     4.2550     2.3140 
  214.8750   200.1050    25.8950   -55.5170   -22.9080    46.5970     3.2790     4.7630     4.1090     2.2920 
  215.0000   200.2090    25.9310   -55.5760   -22.9300    46.9450     3.3070     4.7830     3.9790     2.2780 
  215.1250   200.3130    25.9680   -55.6350   -22.9410    47.7190     3.2660     4.6990     4.0300     2.2760 
  215.2500   200.4170    26.0050   -55.6940   -22.9440    47.6350     3.1600     4.5280     4.2600     2.2850 
  215.3750   200.5210    26.0410   -55.7530   -22.9390    47.5700     3.0190     4.3160     4.3800     2.2980 
  215.5000   200.6250    26.0780   -55.8120   -22.9270    46.4320     2.8610     4.0820     4.1690     2.3100 
