~V
VERS. 2.00: Ver 2.00
~W
STRT.M 20.0000:
STOP.M 282.0000:
STEP.M 0.1250:
NULL. -999.2500:
UWI. FD10228:
~C
DEPT.M :
TVD. :
DX. :
DY. :
GR.API :
RML.OHMM :
RI. :
RXO.OHMM :
CALI.CM :
SP.MV :
DEN.GM/CC :
~A
# ...
  242.7500   239.1550    25.5370     5.0560    63.3030    20.6440    20.0200    15.1000    18.0380   -12.9080     2.2480 
  242.8750   239.2730    25.5770     5.0610    63.2700    19.4220    18.8360    14.5070    18.2280   -12.8520     2.2600 
  243.0000   239.3910    25.6170     5.0660    67.5820    18.8100    18.1000    13.8150    18.3470   -12.7810     2.2670 
  243.1250   239.5100    25.6580     5.0710    69.5880    19.0740    18.0900    13.6540    18.3650   -12.7240     2.2680 
  243.2500   239.6280    25.6980     5.0760    66.4900    20.0650    18.7510    13.7160    18.4120   -12.6620     2.2590 
  243.3750   239.7460    25.7380     5.0800    62.9720    21.5930    19.9990    14.3020    18.6210   -12.6000     2.2440 
  243.5000   239.8640    25.7790     5.0850    63.4270    23.2700    21.5790    15.3780    18.8390   -12.5920     2.2290 
  243.6250   239.9830    25.8190     5.0900    65.5250    24.3550    22.8790    16.0900    18.9520   -12.6090     2.2210 
  243.7500   240.1010    25.8590     5.0950    63.8830    24.3630    23.3010    16.0210    18.9700   -12.6140     2.2230 
  243.8750   240.2190    25.9000     5.1000    59.9710    23.2500    22.6300    15.6300    18.9720   -12.6370     2.2310 
  244.0000   240.3370    25.9400     5.1040    58.0890    21.5050    21.1850    15.0930    18.9620   -12.7150     2.2400 
  244.1250   240.4550    25.9800     5.1090    59.9130    20.0270    19.7180    14.0030    18.9280   -12.7720     2.2470 
  244.2500   240.5740    26.0210     5.1140    63.3570    19.4340    18.8750    12.7330    18.7880   -12.8070     2.2510 
  244.3750   240.6920    26.0610     5.1190    66.2030    19.9390    18.9280    12.4950    18.6070   -12.8930     2.2590 
  244.5000   240.8100    26.1010     5.1240    67.9110    21.4940    19.9380    13.5070    18.4370   -12.9970     2.2740 
  244.6250   240.9280    26.1420     5.1280    67.5760    23.9080    21.9180    15.5570    18.3880   -13.0640     2.2970 
  244.7500   241.0460    26.1820     5.1330    66.2570    26.4900    24.3380    17.7990    18.4500   -13.1100     2.3220 
  244.8750   241.1650    26.2230     5.1380    65.6860    28.5440    26.5800    18.9920    18.5200   -13.1610     2.3420 
  245.0000   241.2830    26.2630     5.1430    67.4900    29.4360    27.9550    18.9130    18.5760   -13.1630     2.3480 
  245.1250   241.4010    26.3030     5.1470    70.8460    28.7860    27.9070    18.8050    18.4740   -13.1340     2.3400 
  245.2500   241.5190    26.3440     5.1520    71.7170    27.3270    26.9470    18.5980    18.3410   -13.1170     2.3230 
  245.3750   241.6380    26.3840     5.1570    68.4530    25.7580    25.6520    17.5530    18.2860   -13.0780     2.3090 
  245.5000   241.7560    26.4240     5.1620    64.1190    24.6530    24.5560    16.2130    18.2960   -13.0110     2.3040 
  245.6250   241.8740    26.4650     5.1670    63.2490    24.3950    24.0730    15.5490    18.2360   -12.9530     2.3090 
  245.7500   241.9920    26.5050     5.1710    65.3510    24.7200    24.1160    15.7680    18.1520   -12.9200     2.3240 
  245.8750   242.1100    26.5450     5.1760    68.3760    25.3130    24.4890    16.5520    18.1140   -12.8820     2.3390 
  246.0000   242.2290    26.5860     5.1810    70.9130    25.8680    24.9460    17.3110    18.0980   -12.8410     2.3490 
  246.1250   242.3470    26.6260     5.1860    73.0510    26.1650    25.2570    17.5450    18.0490   -12.7850     2.3530 
  246.2500   242.4650    26.6660     5.1910    73.9650    26.2500    25.3760    16.9050    18.0320   -12.7290     2.3550 
  246.3750   242.5830    26.7070     5.1950    74.4390    26.2600    25.3780    15.6620    18.0210   -12.6490     2.3590 
  246.5000   242.7010    26.7470     5.2000    75.8540    26.2880    25.3560    15.7320    18.0140   -12.5250     2.3650 
  246.6250   242.8200    26.7870     5.2050    76.9480    26.1560    25.2060    17.2940    18.0250   -12.3920     2.3710 
  246.7500   242.9380    26.8280     5.2100    77.1620    25.6160    24.7060    17.7300    18.0340   -12.2410     2.3690 
  246.8750   243.0560    26.8680     5.2150    77.9380    24.6420    23.7850    16.8510    18.0310   -12.0400     2.3570 
  247.0000   243.1740    26.9080     5.2190    80.1670    23.5350    22.6570    16.2190    18.0290   -11.8360     2.3380 
  247.1250   243.2920    26.9490     5.2240    80.6020    22.9550    21.8580    15.9920    18.0220   -11.6590     2.3180 
  247.2500   243.4110    26.9890     5.2290    76.5380    23.3360    21.8260    15.3010    18.0300   -11.4390     2.3120 
  247.3750   243.5290    27.0300     5.2340    69.9580    24.8400    22.8340    15.9970    17.9810   -11.2020     2.3280 
  247.5000   243.6470    27.0700     5.2390    62.7230    27.3090    24.9230    18.1410    17.9500   -10.9940     2.3690 
  247.6250   243.7650    27.1100     5.2430    55.0720    32.0760    27.8910    21.2100    17.9460   -10.7470     2.4290 
  247.7500   243.8840    27.1510     5.2480    49.2720    34.8010    30.8980    21.6120    17.9410   -10.4820     2.4930 
  247.8750   244.0020    27.1910     5.2530    47.7070    36.3910    33.1410    21.6810    17.9280   -10.2580     2.5420 
  248.0000   244.1200    27.2310     5.2580    49.2710    36.4510    34.0120    21.8120    17.9310   -10.0550     2.5660 
  248.1250   244.2380    27.2720     5.2630    51.4940    34.9500    33.2280    21.1590    17.9320    -9.8470     2.5620 
  248.2500   244.3560    27.3120     5.2670    55.3240    32.5270    31.3740    19.9770    17.9300    -9.6960     2.5290 
  248.3750   244.4750    27.3520     5.2720    60.9550    29.3150    28.6080    19.0130    17.8910    -9.5910     2.4840 
  248.5000   244.5930    27.3930     5.2770    64.3060    25.3230    24.9570    18.6600    17.8710    -9.4830     2.4390 
  248.6250   244.7110    27.4330     5.2820    63.9030    20.7410    20.6130    17.8960    17.8670    -9.4100     2.4060 
  248.7500   244.8290    27.4730     5.2870    63.7970    16.2940    16.3330    14.5240    17.8670    -9.3730     2.3910 
  248.8750   244.9470    27.5140     5.2910    64.2100    12.5950    12.7030     9.5910    17.8730    -9.3550     2.3850 
  249.0000   245.0660    27.5540     5.2960    65.1180     9.9930    10.0290     6.7070    17.9300    -9.3190     2.3810 
  249.1250   245.1840    27.5950     5.3010    66.4830     8.6170     8.4390     5.8120    18.1140    -9.2990     2.3750 
  249.2500   245.3020    27.6360     5.3060    66.3140     8.0100     7.5740     5.7430    18.2240    -9.2490     2.3650 
  249.3750   245.4200    27.6770     5.3110    62.1440     7.9020     7.2390     6.0880    18.2740    -9.1390     2.3550 
  249.5000   245.5380    27.7180     5.3160    57.7420     7.8130     7.2540     6.7960    18.2750    -9.0080     2.3460 
  249.6250   245.6560    27.7590     5.3210    58.0540     8.0230     7.4500     7.4500    18.2830    -8.8770     2.3380 
  249.7500   245.7740    27.7990     5.3260    60.9310     8.1000     7.6510     7.8890    18.2980    -8.6980     2.3330 
  249.8750   245.8920    27.8400     5.3310    63.8670     8.1750     7.7960     8.2120    18.3790    -8.4810     2.3300 
  250.0000   246.0100    27.8810     5.3360    64.3410     8.1990     7.8690     8.7100    18.5930    -8.2830     2.3300 
  250.1250   246.1280    27.9220     5.3420    60.5710     8.2190     7.8710     9.1410    18.7810    -8.0540     2.3330 
  250.2500   246.2460    27.9630     5.3470    56.8840     8.2650     7.8370     9.3170    18.8530    -7.8130     2.3370 
  250.3750   246.3640    28.0040     5.3520    58.4240     8.2850     7.8030     9.2540    18.8740    -7.6090     2.3420 
  250.5000   246.4820    28.0450     5.3570    63.8450     8.3700     7.8070     8.8620    18.7440    -7.4480     2.3450 
  250.6250   246.6000    28.0860     5.3620    66.3040     8.5960     7.9100     8.2580    18.6150    -7.2740     2.3480 
  250.7500   246.7180    28.1270     5.3670    67.4700     8.9640     8.1200     7.6590    18.6210    -7.1370     2.3520 
  250.8750   246.8360    28.1680     5.3720    70.1970     9.4320     8.4170     7.5680    18.6220    -7.0270     2.3590 
