~V
VERS. 2.00: Ver 2.00
~W
STRT.M 25.0000:
STOP.M 295.0000:
STEP.M 0.1250:
NULL. -999.2500:
UWI. FD10906:
~C
DEPT.M :
TVD. :
DX. :
DY. :
SP.MV :
GR.API :
RI. :
RML.OHMM :
RXO.OHMM :
DEN.GM/CC :
~A
# ...
   61.5000    61.1750    -3.5080     2.8780   -18.0620    81.9210     4.6600     5.9710     7.0330     2.1590 
   61.6250    61.2980    -3.5290     2.8900   -18.2630    82.3050     4.6490     5.9220     7.1610     2.1550 
   61.7500    61.4200    -3.5510     2.9030   -18.4520    81.9400     4.8410     6.1220     7.0880     2.1560 
   61.8750    61.5430    -3.5730     2.9150   -18.5980    79.4260     5.3770     6.7920     7.2430     2.1730 
   62.0000    61.6650    -3.5950     2.9280   -18.6470    75.3080     6.5000     8.2930     9.2160     2.2300 
   62.1250    61.7880    -3.6170     2.9400   -18.5680    71.4860     8.3720    10.8420    14.0290     2.3280 
   62.2500    61.9100    -3.6400     2.9520   -18.3460    69.4510    10.9790    14.3560    20.5430     2.4510 
   62.3750    62.0320    -3.6620     2.9650   -18.0560    69.6390    13.6190    17.8030    27.0270     2.5600 
   62.5000    62.1550    -3.6840     2.9770   -17.8350    69.0560    15.1740    19.6390    33.3930     2.6220 
   62.6250    62.2770    -3.7070     2.9890   -17.8190    68.0830    14.9860    19.0760    37.7680     2.6360 
   62.7500    62.3990    -3.7290     3.0020   -18.1080    67.7410    13.0780    16.2850    35.7440     2.6060 
   62.8750    62.5220    -3.7520     3.0140   -18.6680    68.6880    10.4840    12.7470    27.3610     2.5370 
   63.0000    62.6440    -3.7750     3.0270   -19.4550    69.1850     8.1860     9.7810    17.4500     2.4290 
   63.1250    62.7660    -3.7970     3.0390   -20.3680    67.9300     6.6360     7.8930    11.0730     2.3050 
   63.2500    62.8880    -3.8200     3.0520   -21.3370    66.8830     5.8780     7.0550     8.8920     2.2050 
   63.3750    63.0110    -3.8430     3.0640   -22.2760    65.8880     5.6440     6.8600     8.3420     2.1490 
   63.5000    63.1330    -3.8660     3.0770   -23.0860    65.2150     5.7320     7.0270     8.1720     2.1330 
   63.6250    63.2550    -3.8890     3.0890   -23.7340    64.1090     5.9190     7.2850     8.2410     2.1320 
   63.7500    63.3770    -3.9120     3.1010   -24.1740    63.4070     6.0660     7.4660     8.4280     2.1330 
   63.8750    63.5000    -3.9360     3.1140   -24.4470    62.8240     6.1230     7.5070     8.4680     2.1330 
   64.0000    63.6220    -3.9590     3.1260   -24.5870    62.9170     6.0980     7.4170     8.3830     2.1330 
   64.1250    63.7440    -3.9820     3.1390   -24.6580    63.4190     6.0420     7.2730     8.3710     2.1330 
   64.2500    63.8660    -4.0060     3.1510   -24.7120    64.1410     5.9990     7.1510     8.4350     2.1320 
   64.3750    63.9880    -4.0300     3.1630   -24.7800    66.4720     5.9880     7.0850     8.4410     2.1340 
   64.5000    64.1100    -4.0530     3.1760   -24.8670    67.4050     5.9970     7.0720     8.4080     2.1390 
   64.6250    64.2320    -4.0770     3.1880   -24.9610    67.6360     6.0000     7.0820     8.4290     2.1420 
   64.7500    64.3540    -4.1010     3.2010   -25.0360    64.5450     5.9760     7.0920     8.4220     2.1400 
   64.8750    64.4760    -4.1250     3.2130   -25.0680    63.7860     5.9240     7.0780     8.2950     2.1360 
   65.0000    64.5980    -4.1490     3.2250   -25.0260    63.0060     5.8540     7.0170     8.1840     2.1340 
   65.1250    64.7200    -4.1730     3.2380   -24.9040    64.9650     5.7800     6.9300     8.2710     2.1330 
   65.2500    64.8420    -4.1970     3.2500   -24.6880    65.8480     5.7070     6.8630     8.5230     2.1310 
   65.3750    64.9640    -4.2220     3.2630   -24.3900    68.6740     5.6220     6.8330     8.6940     2.1290 
   65.5000    65.0860    -4.2460     3.2750   -24.0200    70.2200     5.5080     6.7910     8.6340     2.1260 
   65.6250    65.2080    -4.2700     3.2880   -23.6210    72.3600     5.3650     6.6790     8.3810     2.1230 
   65.7500    65.3300    -4.2950     3.3000   -23.2380    72.8470     5.2130     6.4910     7.9840     2.1200 
   65.8750    65.4520    -4.3190     3.3130   -22.9100    72.5060     5.0870     6.3030     7.5750     2.1180 
   66.0000    65.5740    -4.3440     3.3250   -22.6730    71.1870     5.0140     6.2000     7.3650     2.1220 
   66.1250    65.6960    -4.3690     3.3380   -22.5420    70.6710     4.9920     6.1850     7.4690     2.1310 
   66.2500    65.8180    -4.3940     3.3500   -22.5480    71.0740     5.0090     6.2140     7.7600     2.1440 
   66.3750    65.9400    -4.4190     3.3620   -22.6860    71.8300     5.0390     6.2360     7.9130     2.1550 
   66.5000    66.0620    -4.4440     3.3750   -22.9340    71.9320     5.0640     6.2250     7.7910     2.1590 
   66.6250    66.1830    -4.4690     3.3870   -23.2230    71.5250     5.0780     6.1880     7.5580     2.1580 
   66.7500    66.3050    -4.4940     3.3990   -23.4910    71.3460     5.0930     6.1630     7.4050     2.1560 
   66.8750    66.4270    -4.5190     3.4120   -23.7140    70.7630     5.1270     6.1840     7.3830     2.1540 
   67.0000    66.5490    -4.5450     3.4240   -23.8950    70.1290     5.1890     6.2680     7.4520     2.1540 
   67.1250    66.6710    -4.5700     3.4360   -24.0460    67.6470     5.2650     6.3900     7.5920     2.1510 
   67.2500    66.7920    -4.5950     3.4480   -24.1550    65.7310     5.3340     6.5160     7.9520     2.1450 
   67.3750    66.9140    -4.6210     3.4610   -24.2080    63.3110     5.3770     6.6190     8.4740     2.1390 
   67.5000    67.0360    -4.6470     3.4730   -24.1790    62.5280     5.3850     6.6870     8.6790     2.1350 
   67.6250    67.1580    -4.6720     3.4850   -24.0760    61.8450     5.3650     6.7250     8.3370     2.1340 
   67.7500    67.2790    -4.6980     3.4980   -23.9280    61.9660     5.3260     6.7380     7.7710     2.1320 
   67.8750    67.4010    -4.7240     3.5100   -23.7910    62.7100     5.2800     6.7450     7.4520     2.1300 
   68.0000    67.5230    -4.7500     3.5220   -23.7190    64.2060     5.2270     6.7440     7.5610     2.1260 
   68.1250    67.6440    -4.7760     3.5340   -23.7180    66.5910     5.1600     6.7120     7.8820     2.1240 
   68.2500    67.7660    -4.8020     3.5460   -23.7630    67.2780     5.0660     6.6080     8.1030     2.1240 
   68.3750    67.8880    -4.8280     3.5590   -23.8180    67.1170     4.9770     6.4690     8.1260     2.1270 
   68.5000    68.0090    -4.8550     3.5710   -23.8610    66.4340     4.9970     6.4560     8.0580     2.1350 
   68.6250    68.1310    -4.8810     3.5830   -23.8740    66.7380     5.2640     6.8020     7.9840     2.1550 
   68.7500    68.2520    -4.9070     3.5950   -23.8390    67.8290     5.9670     7.8080     8.2710     2.2060 
   68.8750    68.3740    -4.9340     3.6070   -23.7410    68.2160     7.1390     9.5260    10.8270     2.2970 
   69.0000    68.4950    -4.9610     3.6190   -23.5720    65.6800     8.5750    11.6090    18.9750     2.4190 
   69.1250    68.6170    -4.9870     3.6310   -23.3600    63.0210     9.7310    13.2000    30.9720     2.5320 
   69.2500    68.7380    -5.0140     3.6430   -23.1610    62.1200    10.0520    13.4800    39.2190     2.5910 
   69.3750    68.8600    -5.0410     3.6550   -23.0540    64.2970     9.4780    12.4370    37.4320     2.5810 
   69.5000    68.9810    -5.0680     3.6670   -23.1390    67.8960     8.3070    10.6140    26.4820     2.5110 
   69.6250    69.1030    -5.0950     3.6790   -23.4450    70.9150     7.1330     8.9410    17.2800     2.4280 
   69.7500    69.2240    -5.1220     3.6900   -23.9460    71.3560     6.3570     7.9920    18.8700     2.3790 
   69.8750    69.3460    -5.1490     3.7020   -24.5220    69.4130     6.0020     7.7040    24.5260     2.3720 
   70.0000    69.4670    -5.1770     3.7140   -25.0660    66.2310     5.9300     7.7820    22.4930     2.3680 
   70.1250    69.5890    -5.2040     3.7260   -25.5390    64.7180     5.9150     7.8540    14.8350     2.3240 
   70.2500    69.7100    -5.2310     3.7370   -25.9630    64.1100     5.8300     7.7400     9.8300     2.2450 
   70.3750    69.8310    -5.2590     3.7490   -26.3690    64.7180     5.6820     7.5070     8.3890     2.1750 
   70.5000    69.9530    -5.2870     3.7610   -26.7300    63.9120     5.5460     7.2970     8.0660     2.1410 
