~V
VERS. 2.00: Ver 2.00
~W
STRT.M 50.0000:
STOP.M 219.0000:
STEP.M 0.1250:
NULL. -999.2500:
UWI. FD10804:
~C
DEPT.M :
TVD. :
DX. :
DY. :
SP.MV :
GR.API :
RI. :
RML.OHMM :
RXO.OHMM :
DEN.GM/CC :
~A
# ...
  123.0000   122.3420    -6.6730    -4.5780  -118.8980    51.6440     6.9500     7.2890    11.0410     2.4240 
  123.1250   122.4630    -6.6950    -4.5990  -118.9510    51.3930     6.9900     7.3160    11.9120     2.4250 
  123.2500   122.5840    -6.7170    -4.6190  -119.0240    51.4380     6.9200     7.2500    10.6470     2.4160 
  123.3750   122.7050    -6.7390    -4.6400  -119.1440    51.6120     6.8310     7.1630     9.7040     2.4070 
  123.5000   122.8270    -6.7610    -4.6610  -119.2910    51.0710     6.7860     7.1310     9.6530     2.4170 
  123.6250   122.9480    -6.7830    -4.6810  -119.4410    50.7630     6.8370     7.2200     8.8350     2.4390 
  123.7500   123.0690    -6.8050    -4.7020  -119.5570    51.4200     7.0140     7.3990     8.2800     2.4550 
  123.8750   123.1910    -6.8280    -4.7230  -119.6040    52.1630     7.1830     7.5760     8.8790     2.4390 
  124.0000   123.3120    -6.8500    -4.7440  -119.6060    52.3170     7.2780     7.6760     9.7500     2.4140 
  124.1250   123.4330    -6.8720    -4.7640  -119.5960    51.2100     7.2800     7.6850    10.3660     2.3960 
  124.2500   123.5540    -6.8940    -4.7850  -119.5920    50.7750     7.2420     7.6440     9.9850     2.4030 
  124.3750   123.6760    -6.9160    -4.8060  -119.6110    52.2250     7.1650     7.5890     8.1730     2.4190 
  124.5000   123.7970    -6.9380    -4.8270  -119.6310    55.4100     7.1190     7.5650     7.8500     2.4380 
  124.6250   123.9180    -6.9610    -4.8470  -119.6170    57.5130     7.1320     7.6060     9.6510     2.4520 
  124.7500   124.0390    -6.9830    -4.8680  -119.5580    55.9240     7.1880     7.6880     9.7570     2.4590 
  124.8750   124.1610    -7.0050    -4.8890  -119.4480    51.8590     7.2310     7.7620     9.1040     2.4600 
  125.0000   124.2820    -7.0270    -4.9100  -119.3230    48.1980     7.2600     7.8120     9.8640     2.4510 
  125.1250   124.4030    -7.0500    -4.9310  -119.2160    48.3510     7.2970     7.8690    10.8720     2.4330 
  125.2500   124.5240    -7.0720    -4.9520  -119.1480    50.6080     7.3740     7.9570    10.7640     2.4150 
  125.3750   124.6450    -7.0940    -4.9730  -119.1290    52.7390     7.5060     8.0980    10.0120     2.4150 
  125.5000   124.7670    -7.1160    -4.9940  -119.1570    53.2380     7.6750     8.2840    10.2840     2.4340 
  125.6250   124.8880    -7.1390    -5.0150  -119.2150    53.0230     7.8570     8.4940    11.6230     2.4530 
  125.7500   125.0090    -7.1610    -5.0360  -119.2760    54.1410     8.0440     8.6780    12.0980     2.4560 
  125.8750   125.1300    -7.1830    -5.0570  -119.3170    54.7040     8.0660     8.6960    11.0150     2.4610 
  126.0000   125.2510    -7.2060    -5.0780  -119.3170    55.3680     7.8440     8.4500    10.5630     2.4750 
  126.1250   125.3730    -7.2280    -5.0990  -119.2670    56.0360     7.3690     7.9610    10.8740     2.4860 
  126.2500   125.4940    -7.2500    -5.1200  -119.1860    57.0680     6.8420     7.4140     9.9670     2.4720 
  126.3750   125.6150    -7.2730    -5.1410  -119.0920    56.3650     6.4220     6.9970     8.2720     2.4390 
  126.5000   125.7360    -7.2950    -5.1620  -119.0030    54.8110     6.1860     6.7840     7.4840     2.4110 
  126.6250   125.8570    -7.3180    -5.1830  -118.9380    52.5400     6.1610     6.7960     7.8000     2.4110 
  126.7500   125.9780    -7.3400    -5.2040  -118.9180    50.8970     6.2970     6.9620     8.8720     2.4340 
  126.8750   126.0990    -7.3620    -5.2260  -118.9640    50.0140     6.5200     7.1850     9.9710     2.4600 
  127.0000   126.2210    -7.3850    -5.2470  -119.0590    50.5850     6.7350     7.3540    10.0040     2.4690 
  127.1250   126.3420    -7.4070    -5.2680  -119.1740    50.9370     6.8860     7.4260     9.3010     2.4540 
  127.2500   126.4630    -7.4300    -5.2890  -119.2580    48.5330     6.9960     7.5110     8.8020     2.4360 
  127.3750   126.5840    -7.4520    -5.3100  -119.2570    44.8460     7.1340     7.6930     9.1270     2.4280 
  127.5000   126.7050    -7.4750    -5.3320  -119.1710    43.8160     7.2950     7.9400     9.6660     2.4360 
  127.6250   126.8260    -7.4970    -5.3530  -119.0210    46.6820     7.3570     8.1080     9.4510     2.4520 
  127.7500   126.9470    -7.5200    -5.3740  -118.8450    50.8480     7.3030     8.0740     9.4590     2.4720 
  127.8750   127.0680    -7.5430    -5.3960  -118.6810    54.6970     7.0680     7.8410     9.7740     2.4870 
  128.0000   127.1890    -7.5650    -5.4170  -118.5530    58.5730     6.7600     7.5340     9.8880     2.4870 
  128.1250   127.3100    -7.5880    -5.4380  -118.4780    62.0840     6.5030     7.2770    10.0570     2.4720 
  128.2500   127.4310    -7.6100    -5.4600  -118.4550    64.1520     6.3470     7.1450     9.3880     2.4600 
  128.3750   127.5520    -7.6330    -5.4810  -118.4810    62.6430     6.3790     7.2190     8.5440     2.4580 
  128.5000   127.6740    -7.6560    -5.5030  -118.5430    59.1760     6.5800     7.4690     9.0530     2.4650 
  128.6250   127.7950    -7.6790    -5.5240  -118.6170    56.8540     6.8600     7.8090     9.5980     2.4690 
  128.7500   127.9160    -7.7010    -5.5460  -118.6800    56.7510     7.1040     8.1090     9.2950     2.4820 
  128.8750   128.0370    -7.7240    -5.5670  -118.7240    58.2770     7.2140     8.2500     9.2030     2.4930 
  129.0000   128.1580    -7.7470    -5.5890  -118.7380    59.8310     7.1650     8.2170     9.0850     2.4920 
  129.1250   128.2790    -7.7700    -5.6100  -118.7160    60.6020     7.0150     8.0510     9.5860     2.4720 
  129.2500   128.4000    -7.7930    -5.6320  -118.6630    60.4480     6.8460     7.8570    10.6740     2.4540 
  129.3750   128.5210    -7.8160    -5.6530  -118.5810    59.3590     6.7440     7.7560    10.0590     2.4480 
  129.5000   128.6410    -7.8390    -5.6750  -118.4870    58.5670     6.8010     7.8110     9.3610     2.4590 
  129.6250   128.7620    -7.8620    -5.6960  -118.3950    58.6840     6.9820     8.0370     9.6160     2.4740 
  129.7500   128.8830    -7.8850    -5.7180  -118.3100    58.3030     7.2450     8.3840    10.2960     2.4910 
  129.8750   129.0040    -7.9080    -5.7400  -118.2330    56.7190     7.5630     8.7940    12.6230     2.4980 
  130.0000   129.1250    -7.9310    -5.7610  -118.1600    54.7140     7.8470     9.1980    13.6740     2.4960 
  130.1250   129.2460    -7.9540    -5.7830  -118.0940    53.5660     8.0640     9.4640    12.3820     2.4910 
  130.2500   129.3670    -7.9770    -5.8050  -118.0350    52.2180     8.1550     9.3250    11.7840     2.4900 
  130.3750   129.4880    -8.0000    -5.8270  -117.9840    52.9090     7.6020     8.5360    11.2620     2.5030 
  130.5000   129.6090    -8.0230    -5.8480  -117.9400    56.0620     6.5590     7.3540    10.6800     2.5080 
  130.6250   129.7300    -8.0460    -5.8700  -117.8880    63.5880     5.2250     6.0710     9.5270     2.4810 
  130.7500   129.8510    -8.0690    -5.8920  -117.8230    72.8680     3.9620     4.7980     6.3180     2.4080 
  130.8750   129.9720    -8.0920    -5.9140  -117.7590    80.9540     3.2360     3.9530     3.8480     2.3230 
  131.0000   130.0920    -8.1160    -5.9360  -117.7000    85.5830     2.9220     3.6370     3.6530     2.2640 
  131.1250   130.2130    -8.1390    -5.9580  -117.6440    85.0200     2.9640     3.7130     4.5040     2.2490 
  131.2500   130.3340    -8.1620    -5.9800  -117.5900    83.5690     3.2510     4.0390     5.4850     2.2480 
  131.3750   130.4550    -8.1860    -6.0010  -117.5350    83.5360     3.6860     4.4640     5.8390     2.2440 
  131.5000   130.5760    -8.2090    -6.0230  -117.4750    85.0650     4.0730     4.8520     5.7890     2.2300 
  131.6250   130.6970    -8.2320    -6.0450  -117.4270    84.7030     4.3340     5.1470     5.7650     2.2210 
  131.7500   130.8170    -8.2560    -6.0670  -117.4160    81.8770     4.5040     5.3220     5.8750     2.2120 
  131.8750   130.9380    -8.2790    -6.0890  -117.4500    78.7870     4.5210     5.3370     6.0950     2.2040 
  132.0000   131.0590    -8.3020    -6.1110  -117.5210    77.7100     4.4080     5.2040     6.2400     2.2030 
