~V
VERS. 2.00: Ver 2.00
~W
STRT.M 44.0000:
STOP.M 206.0000:
STEP.M 0.1250:
NULL. -999.2500:
UWI. FD10808:
~C
DEPT.M :
TVD. :
DX. :
DY. :
SP.MV :
GR.API :
RI. :
RML.OHMM :
RXO.OHMM :
DEN.GM/CC :
~A
# ...
   71.3750    71.3000    -0.3620     1.5740   -17.8410    60.9020     5.6590     6.1300     8.2360     2.1490 
   71.5000    71.4240    -0.3670     1.5930   -18.4620    59.1530     5.6480     6.1040     8.5220     2.1310 
   71.6250    71.5470    -0.3710     1.6120   -19.0010    59.2170     5.5860     6.0230     8.1810     2.1140 
   71.7500    71.6710    -0.3760     1.6310   -19.5000    59.4560     5.4850     5.9100     7.7580     2.1070 
   71.8750    71.7940    -0.3810     1.6500   -19.8340    60.4100     5.3690     5.7990     7.6540     2.1070 
   72.0000    71.9170    -0.3860     1.6700   -20.0870    61.9480     5.2830     5.7390     7.6590     2.1130 
   72.1250    72.0410    -0.3900     1.6890   -20.2650    63.2990     5.3000     5.7750     7.7310     2.1220 
   72.2500    72.1640    -0.3950     1.7090   -20.3860    62.8600     5.3880     5.8850     7.9140     2.1460 
   72.3750    72.2870    -0.4000     1.7290   -20.4780    61.5800     5.5070     6.0240     8.0220     2.1850 
   72.5000    72.4110    -0.4050     1.7490   -20.5360    61.2830     5.6090     6.1340     8.1410     2.2260 
   72.6250    72.5340    -0.4100     1.7690   -20.4480    61.4270     5.6350     6.1640     8.2890     2.2330 
   72.7500    72.6570    -0.4150     1.7890   -20.4110    61.2440     5.5990     6.1090     8.3680     2.2020 
   72.8750    72.7800    -0.4200     1.8090   -20.3820    60.2730     5.4970     5.9880     8.1820     2.1520 
   73.0000    72.9040    -0.4250     1.8300   -20.3770    58.5910     5.3890     5.8600     7.8690     2.1170 
   73.1250    73.0270    -0.4300     1.8500   -20.2320    57.4960     5.2970     5.7720     8.0420     2.1040 
   73.2500    73.1500    -0.4350     1.8710   -19.8490    56.9010     5.2560     5.7380     8.3490     2.1080 
   73.3750    73.2730    -0.4400     1.8920   -19.4240    58.2010     5.2490     5.7480     8.2790     2.1160 
   73.5000    73.3960    -0.4460     1.9130   -18.9480    59.2350     5.2500     5.7700     8.1370     2.1170 
   73.6250    73.5190    -0.4510     1.9340   -18.3980    61.5200     5.2550     5.7920     8.1790     2.1140 
   73.7500    73.6420    -0.4560     1.9560   -17.7920    63.3500     5.2570     5.8030     8.4120     2.1180 
   73.8750    73.7650    -0.4610     1.9770   -17.3280    64.0870     5.2420     5.7820     8.7970     2.1340 
   74.0000    73.8880    -0.4660     1.9990   -16.9310    62.7830     5.2000     5.7210     9.2960     2.1520 
   74.1250    74.0110    -0.4720     2.0210   -16.5500    61.8290     5.1390     5.6290     9.5350     2.1580 
   74.2500    74.1340    -0.4770     2.0430   -16.0740    62.5740     5.0890     5.5810     9.2140     2.1490 
   74.3750    74.2570    -0.4820     2.0650   -15.4750    64.3610     5.2220     5.7410     8.7350     2.1360 
   74.5000    74.3800    -0.4880     2.0870   -14.8200    65.3940     5.6340     6.2230     8.6190     2.1380 
   74.6250    74.5030    -0.4930     2.1090   -14.0060    65.0220     6.3740     7.0210     9.4250     2.1720 
   74.7500    74.6260    -0.4990     2.1310   -13.1250    64.2990     7.1680     7.8560    13.0870     2.2340 
   74.8750    74.7490    -0.5040     2.1540   -12.0860    63.4560     7.6120     8.2760    21.9450     2.2820 
   75.0000    74.8710    -0.5100     2.1770   -10.8600    63.4140     7.3850     7.9900    25.3850     2.2790 
   75.1250    74.9940    -0.5160     2.2000    -9.4690    64.3720     6.5240     7.0100    16.0670     2.2390 
   75.2500    75.1170    -0.5210     2.2230    -7.7990    70.5770     5.3800     5.7500     7.8660     2.2170 
   75.3750    75.2400    -0.5270     2.2460    -5.7020    79.7530     4.3350     4.6510     5.6480     2.2390 
   75.5000    75.3620    -0.5330     2.2690    -3.6930    91.9860     3.6960     3.9540     4.5930     2.2700 
   75.6250    75.4850    -0.5390     2.2920    -2.3030   100.5810     3.4090     3.6570     4.2240     2.2860 
   75.7500    75.6080    -0.5450     2.3160    -1.4860   106.7240     3.3470     3.5830     4.0270     2.2850 
   75.8750    75.7300    -0.5500     2.3390    -1.1470   107.7550     3.3840     3.6230     3.8920     2.2870 
   76.0000    75.8530    -0.5560     2.3630    -0.9710   107.5680     3.4710     3.7110     3.6540     2.2800 
   76.1250    75.9750    -0.5620     2.3870    -0.9390   106.1780     3.5850     3.8220     3.5240     2.2600 
   76.2500    76.0980    -0.5680     2.4110    -1.0430   104.3960     3.6940     3.9270     3.5360     2.2330 
   76.3750    76.2200    -0.5750     2.4350    -1.2770   102.9600     3.7650     3.9950     3.6130     2.2270 
   76.5000    76.3430    -0.5810     2.4590    -1.5350   102.5920     3.7830     4.0090     3.7350     2.2340 
   76.6250    76.4650    -0.5870     2.4840    -1.8250   103.9830     3.7520     3.9700     3.6740     2.2270 
   76.7500    76.5880    -0.5930     2.5080    -2.1970   105.9060     3.6890     3.9100     3.5460     2.2060 
   76.8750    76.7100    -0.6000     2.5330    -2.9790   106.4130     3.6560     3.9100     3.7580     2.1970 
   77.0000    76.8330    -0.6060     2.5570    -4.1270   105.2030     3.7570     4.0560     4.3080     2.2090 
   77.1250    76.9550    -0.6120     2.5820    -5.5630   102.1940     4.0580     4.4200     4.7630     2.2170 
   77.2500    77.0770    -0.6190     2.6070    -7.3250    98.5000     4.5410     4.9620     5.7830     2.2100 
   77.3750    77.1990    -0.6250     2.6320    -9.2260    92.2130     5.1430     5.5980     7.5270     2.1880 
   77.5000    77.3220    -0.6320     2.6580   -11.0790    83.5260     5.7450     6.1770     8.1660     2.1570 
   77.6250    77.4440    -0.6390     2.6830   -12.5390    75.4210     6.1790     6.5700     7.9210     2.1180 
   77.7500    77.5660    -0.6450     2.7080   -13.3820    70.4890     6.4290     6.7720     7.9860     2.0900 
   77.8750    77.6880    -0.6520     2.7340   -13.6590    68.4850     6.5180     6.8340     8.1560     2.0770 
   78.0000    77.8100    -0.6590     2.7600   -13.6100    67.7470     6.5150     6.8650     8.3490     2.0780 
   78.1250    77.9330    -0.6650     2.7850   -13.3010    68.3610     6.5440     6.9050     8.5050     2.0790 
   78.2500    78.0550    -0.6720     2.8110   -12.7560    69.9100     6.4700     6.8540     8.4560     2.0840 
   78.3750    78.1770    -0.6790     2.8370   -11.8810    71.8950     6.1660     6.5860     8.3520     2.0930 
   78.5000    78.2990    -0.6860     2.8640   -10.7050    73.4480     5.6730     6.1190     8.3540     2.1170 
   78.6250    78.4210    -0.6930     2.8900    -9.3150    77.5580     5.0580     5.5270     7.6080     2.1540 
   78.7500    78.5430    -0.7000     2.9160    -7.8500    84.9100     4.4900     4.9450     6.0560     2.1940 
   78.8750    78.6650    -0.7070     2.9430    -6.7590    92.8950     4.0650     4.5480     5.2770     2.2180 
   79.0000    78.7870    -0.7150     2.9700    -6.4170    97.8840     3.9690     4.5370     5.3230     2.2310 
   79.1250    78.9080    -0.7220     2.9970    -6.7830    98.7680     4.4450     5.1590     5.2500     2.2500 
   79.2500    79.0300    -0.7290     3.0240    -7.4110    97.0560     5.4450     6.4420     7.0560     2.2940 
   79.3750    79.1520    -0.7370     3.0510    -8.2890    93.1920     7.0230     8.2630    15.7510     2.3660 
   79.5000    79.2740    -0.7440     3.0780    -9.2960    87.8370     8.6640    10.0340    24.4550     2.4260 
   79.6250    79.3950    -0.7520     3.1050   -10.3580    82.4520     9.6090    10.9510    21.4870     2.4170 
   79.7500    79.5170    -0.7590     3.1330   -11.5250    79.0930     9.5310    10.6890    13.4100     2.3320 
   79.8750    79.6390    -0.7670     3.1610   -12.6270    78.3700     8.4400     9.4170     8.9990     2.2160 
   80.0000    79.7600    -0.7750     3.1880   -13.4650    79.6910     7.0760     7.9290     7.6560     2.1330 
   80.1250    79.8820    -0.7830     3.2160   -13.9750    79.7700     6.1840     6.9270     7.4410     2.1010 
   80.2500    80.0040    -0.7900     3.2440   -14.2690    77.5940     5.8520     6.5280     7.2720     2.0940 
   80.3750    80.1250    -0.7980     3.2730   -14.3710    74.3640     5.8560     6.5350     7.2350     2.0910 
