~V
VERS. 2.00: Ver 2.00
~W
STRT.M 33.0000:
STOP.M 273.0000:
STEP.M 0.1250:
NULL. -999.2500:
UWI. FD10880:
~C
DEPT.M :
TVD. :
DX. :
DY. :
SP.MV :
GR.API :
RI. :
RML.OHMM :
RXO.OHMM :
DEN.GM/CC :
~A
# ...
  124.2500   121.1120    20.1170     3.9480   -12.6850    93.2500     5.6400     7.0130     7.2070     2.1880 
  124.3750   121.2240    20.1730     3.9570   -11.9770    86.3940     6.3910     7.9990     7.6100     2.1620 
  124.5000   121.3350    20.2280     3.9660   -11.3310    77.1390     7.2560     9.0800     9.1410     2.1290 
  124.6250   121.4470    20.2830     3.9760   -10.6140    73.1160     7.9970     9.9350    10.2890     2.1040 
  124.7500   121.5590    20.3390     3.9850    -9.8900    75.1360     8.6110    10.5680    10.3760     2.0920 
  124.8750   121.6700    20.3940     3.9950    -9.2910    76.4150     9.0890    11.0210    10.2220     2.0900 
  125.0000   121.7820    20.4500     4.0040    -8.7770    73.0980     9.7290    11.7310    10.4150     2.0920 
  125.1250   121.8930    20.5060     4.0140    -8.3180    68.0740    10.6940    12.8650    11.3880     2.0900 
  125.2500   122.0050    20.5620     4.0230    -7.7810    64.8970    11.9640    14.3880    14.5550     2.0820 
  125.3750   122.1160    20.6170     4.0330    -7.0600    62.6590    13.6340    16.4100    18.9400     2.0720 
  125.5000   122.2270    20.6730     4.0430    -6.3600    59.5260    15.5590    18.7530    21.1840     2.0790 
  125.6250   122.3390    20.7290     4.0520    -5.9440    56.6140    17.6040    21.1170    21.9960     2.1230 
  125.7500   122.4500    20.7850     4.0620    -5.6410    56.7130    19.3280    23.0850    28.2390     2.2090 
  125.8750   122.5610    20.8410     4.0710    -5.0800    59.3580    20.2500    23.9620    38.8440     2.2990 
  126.0000   122.6730    20.8980     4.0800    -4.2240    61.5430    20.1030    23.5870    40.1560     2.3370 
  126.1250   122.7840    20.9540     4.0900    -3.1810    62.2190    19.1920    22.3760    31.7530     2.3050 
  126.2500   122.8950    21.0100     4.0990    -2.3030    64.4920    17.9030    20.7690    25.2110     2.2300 
  126.3750   123.0060    21.0670     4.1090    -1.9740    67.3180    16.8170    19.5050    22.4620     2.1620 
  126.5000   123.1170    21.1230     4.1190    -2.1640    67.8110    16.1080    18.7040    19.2480     2.1280 
  126.6250   123.2280    21.1790     4.1280    -2.6010    65.7620    15.8190    18.3750    16.1780     2.1180 
  126.7500   123.3400    21.2360     4.1380    -2.9790    64.3100    15.9920    18.5610    16.5570     2.1200 
  126.8750   123.4510    21.2920     4.1480    -2.8760    64.1780    16.4360    19.0210    18.1810     2.1270 
  127.0000   123.5620    21.3490     4.1580    -2.2300    64.2750    16.9920    19.6130    17.9470     2.1450 
  127.1250   123.6730    21.4050     4.1670    -1.5840    63.7850    17.5340    20.1530    18.8230     2.1750 
  127.2500   123.7840    21.4620     4.1770    -1.1550    63.4550    17.8490    20.3670    27.3340     2.2040 
  127.3750   123.8950    21.5190     4.1870    -0.7770    61.7420    17.8560    20.1560    34.0320     2.2110 
  127.5000   124.0060    21.5760     4.1960    -0.4360    57.5500    17.4850    19.5250    27.3080     2.1810 
  127.6250   124.1160    21.6330     4.2060    -0.2110    54.2900    16.8810    18.7130    19.9050     2.1360 
  127.7500   124.2270    21.6900     4.2150    -0.1770    54.9060    16.1830    17.8700    17.8610     2.1000 
  127.8750   124.3380    21.7460     4.2250    -0.3120    57.8880    15.5320    17.1570    16.9370     2.0830 
  128.0000   124.4490    21.8040     4.2340    -0.5410    59.5730    15.0540    16.6130    17.5990     2.0770 
  128.1250   124.5600    21.8610     4.2440    -0.6950    59.8860    14.7450    16.2700    17.2430     2.0740 
  128.2500   124.6710    21.9180     4.2540    -0.8620    60.6980    14.8020    16.3410    15.2200     2.0700 
  128.3750   124.7810    21.9750     4.2640    -1.1770    60.9710    15.1880    16.7810    14.6540     2.0650 
  128.5000   124.8920    22.0320     4.2730    -1.4430    58.5260    15.7990    17.5000    15.8820     2.0570 
  128.6250   125.0030    22.0890     4.2840    -1.5530    54.5950    16.3870    18.1470    17.8270     2.0470 
  128.7500   125.1130    22.1460     4.2940    -1.5210    51.8880    16.6860    18.4070    20.9330     2.0430 
  128.8750   125.2240    22.2040     4.3040    -1.1500    52.4090    16.6490    18.2860    22.9000     2.0490 
  129.0000   125.3350    22.2610     4.3140    -0.3480    54.7430    16.4250    17.9390    21.3550     2.0600 
  129.1250   125.4450    22.3180     4.3240     0.6200    56.9480    16.2680    17.7380    17.8400     2.0700 
  129.2500   125.5560    22.3750     4.3340     1.5600    58.3760    16.4900    18.0340    15.9610     2.0730 
  129.3750   125.6670    22.4330     4.3450     2.3020    58.5840    17.1660    18.8300    19.1600     2.0710 
  129.5000   125.7770    22.4900     4.3550     2.6460    56.1620    18.0610    19.8270    24.6050     2.0640 
  129.6250   125.8880    22.5470     4.3650     2.7700    52.2430    18.9120    20.7440    26.3590     2.0570 
  129.7500   125.9990    22.6040     4.3750     2.7160    49.4860    19.5270    21.3490    25.7370     2.0520 
  129.8750   126.1090    22.6620     4.3860     2.5230    49.8110    19.7550    21.5430    25.4770     2.0520 
  130.0000   126.2200    22.7190     4.3960     2.5500    52.1630    19.8250    21.5500    25.5460     2.0540 
  130.1250   126.3300    22.7760     4.4060     2.9570    53.7070    19.7150    21.3240    25.6780     2.0540 
  130.2500   126.4410    22.8340     4.4160     3.3790    53.4590    19.4890    21.0240    25.1990     2.0540 
  130.3750   126.5520    22.8910     4.4270     3.5060    53.1800    19.3210    20.8110    25.4680     2.0550 
  130.5000   126.6620    22.9480     4.4370     3.4650    55.2490    19.2530    20.7610    26.7800     2.0600 
  130.6250   126.7730    23.0060     4.4470     3.3230    57.6350    19.3050    20.8960    25.8140     2.0670 
  130.7500   126.8830    23.0630     4.4570     2.9260    58.8560    19.3590    21.0400    23.5270     2.0710 
  130.8750   126.9940    23.1200     4.4670     2.3290    59.0540    19.3290    21.1020    24.6840     2.0690 
  131.0000   127.1050    23.1780     4.4780     1.7510    58.5220    19.1410    20.9340    27.6430     2.0670 
  131.1250   127.2150    23.2350     4.4880     1.1970    57.4290    18.6940    20.4650    26.2110     2.0680 
  131.2500   127.3260    23.2920     4.4980     0.6780    56.7440    18.0830    19.7810    21.5370     2.0710 
  131.3750   127.4360    23.3500     4.5090     0.1790    57.3980    17.5500    19.2340    19.8740     2.0760 
  131.5000   127.5470    23.4070     4.5190    -0.1100    57.6960    17.5960    19.4590    19.9380     2.0830 
  131.6250   127.6580    23.4640     4.5290    -0.2380    57.5340    18.4490    20.6000    17.8100     2.1020 
  131.7500   127.7680    23.5220     4.5390    -0.4730    56.8630    19.9880    22.6440    18.5700     2.1400 
  131.8750   127.8790    23.5790     4.5490    -1.1230    57.7620    21.9580    25.2300    24.8320     2.1970 
  132.0000   127.9900    23.6360     4.5590    -2.1090    60.3820    23.5210    27.2510    37.1850     2.2600 
  132.1250   128.1000    23.6940     4.5690    -2.9470    62.4570    24.0520    27.9820    56.1950     2.3020 
  132.2500   128.2110    23.7510     4.5800    -3.3350    64.0260    23.0090    26.7210    59.6990     2.3020 
  132.3750   128.3210    23.8080     4.5900    -3.4250    65.0900    21.0920    24.4340    41.6970     2.2650 
  132.5000   128.4320    23.8650     4.6000    -3.3660    64.8450    19.0050    21.9940    27.7300     2.2110 
  132.6250   128.5430    23.9230     4.6100    -3.5710    62.9870    17.4980    20.3270    22.7650     2.1660 
  132.7500   128.6530    23.9800     4.6200    -4.1520    60.6590    16.6360    19.3700    19.8700     2.1380 
  132.8750   128.7640    24.0370     4.6300    -4.7920    59.1170    16.0230    18.6430    18.4780     2.1230 
  133.0000   128.8750    24.0950     4.6400    -5.3490    58.3280    15.5990    18.0490    16.7840     2.1140 
  133.1250   128.9850    24.1520     4.6500    -5.6700    59.0470    15.3110    17.5590    16.1330     2.1110 
  133.2500   129.0960    24.2090     4.6600    -5.5830    60.6100    15.1850    17.2400    17.4280     2.1150 
