~V
VERS. 2.00: Ver 2.00
~W
STRT.M 20.0000:
STOP.M 242.0000:
STEP.M 0.1250:
NULL. -999.2500:
UWI. FD10624:
~C
DEPT.M :
TVD. :
DX. :
DY. :
GR.API :
RML.OHMM :
RI. :
RXO.OHMM :
CALI.CM :
DEN.GM/CC :
SP.MV :
~A
   20.0000    20.0000    -0.1240     0.0330  -999.2500  -999.2500  -999.2500  -999.2500  -999.2500     1.8630   137.1390 
   20.1250    20.1250    -0.1250     0.0330  -999.2500  -999.2500  -999.2500  -999.2500  -999.2500     1.8630   137.1390 
   20.2500    20.2500    -0.1260     0.0330  -999.2500  -999.2500  -999.2500  -999.2500  -999.2500     1.8620   136.0920 
   20.3750    20.3750    -0.1270     0.0330  -999.2500  -999.2500  -999.2500  -999.2500  -999.2500     1.8630   133.5940 
   20.5000    20.5000    -0.1280     0.0330  -999.2500  -999.2500  -999.2500  -999.2500  -999.2500     1.8680   131.3970 
   20.6250    20.6250    -0.1280     0.0340  -999.2500  -999.2500  -999.2500  -999.2500  -999.2500     1.8760   129.5720 
   20.7500    20.7500    -0.1290     0.0340  -999.2500  -999.2500  -999.2500  -999.2500  -999.2500     1.8840   128.2990 
   20.8750    20.8750    -0.1300     0.0340  -999.2500  -999.2500  -999.2500  -999.2500  -999.2500     1.8900   127.6250 
   21.0000    21.0000    -0.1310     0.0340  -999.2500  -999.2500  -999.2500  -999.2500  -999.2500     1.8920   127.1710 
   21.1250    21.1250    -0.1310     0.0340  -999.2500  -999.2500  -999.2500  -999.2500  -999.2500     1.8860   126.7320 
   21.2500    21.2500    -0.1320     0.0350  -999.2500  -999.2500  -999.2500  -999.2500  -999.2500     1.8750   126.2740 
   21.3750    21.3750    -0.1330     0.0350  -999.2500  -999.2500  -999.2500  -999.2500  -999.2500     1.8630   125.7610 
   21.5000    21.5000    -0.1340     0.0350  -999.2500  -999.2500  -999.2500  -999.2500  -999.2500     1.8570   125.2370 
   21.6250    21.6250    -0.1350     0.0350  -999.2500  -999.2500  -999.2500  -999.2500  -999.2500     1.8610   124.7690 
   21.7500    21.7500    -0.1350     0.0350  -999.2500  -999.2500  -999.2500  -999.2500  -999.2500     1.8740   124.3000 
   21.8750    21.8750    -0.1360     0.0360  -999.2500  -999.2500  -999.2500  -999.2500  -999.2500     1.8900   123.9140 
   22.0000    22.0000    -0.1370     0.0360  -999.2500  -999.2500  -999.2500  -999.2500  -999.2500     1.9040   123.6040 
   22.1250    22.1250    -0.1380     0.0360  -999.2500  -999.2500  -999.2500  -999.2500  -999.2500     1.9130   123.2650 
   22.2500    22.2500    -0.1380     0.0360  -999.2500  -999.2500  -999.2500  -999.2500  -999.2500     1.9200   123.0260 
   22.3750    22.3750    -0.1390     0.0370  -999.2500  -999.2500  -999.2500  -999.2500  -999.2500     1.9300   122.9510 
   22.5000    22.5000    -0.1400     0.0370  -999.2500  -999.2500  -999.2500  -999.2500  -999.2500     1.9450   122.9670 
   22.6250    22.6250    -0.1410     0.0370  -999.2500  -999.2500  -999.2500  -999.2500  -999.2500     1.9660   123.0710 
   22.7500    22.7490    -0.1420     0.0370  -999.2500  -999.2500  -999.2500  -999.2500  -999.2500     1.9820   123.2420 
   22.8750    22.8740    -0.1420     0.0370    39.1500   204.8760     4.6700     1.1710    25.7820     1.9850   123.3900 
   23.0000    22.9990    -0.1430     0.0380    39.1500   204.8760     4.6700     1.1710    25.7820     1.9710   123.3620 
   23.1250    23.1240    -0.1440     0.0380    39.1500   206.6280     4.6700     1.1710    25.7820     1.9440   123.0180 
   23.2500    23.2490    -0.1450     0.0380    40.2420   213.0850     4.7050     1.2840    25.7610     1.9200   122.3220 
   23.3750    23.3740    -0.1450     0.0380    41.4740   211.4260     5.0350     1.3640    25.4890     1.9080   121.1100 
   23.5000    23.4990    -0.1460     0.0380    42.0920   202.8610     5.0140     1.3940    25.4240     1.9100   119.3490 
   23.6250    23.6240    -0.1470     0.0390    41.6630   194.8090     4.8560     1.4420    25.5840     1.9220   117.0690 
   23.7500    23.7490    -0.1480     0.0390    38.0430   192.5390     4.6840     1.1630    25.7900     1.9330   114.3500 
   23.8750    23.8740    -0.1490     0.0390    36.1430   199.5720     4.8280     1.1880    25.8110     1.9380   111.1860 
   24.0000    23.9990    -0.1490     0.0390    35.9450   217.1440     5.1910     1.3200    25.8220     1.9360   107.5420 
   24.1250    24.1240    -0.1500     0.0390    36.6100   240.0880     5.6590     1.5150    25.8050     1.9320   103.4480 
   24.2500    24.2490    -0.1510     0.0400    36.2750   257.4900     6.0140     1.6850    25.7950     1.9260    99.2990 
   24.3750    24.3740    -0.1520     0.0400    35.4100   262.9140     6.1420     1.6860    25.7920     1.9220    95.4680 
   24.5000    24.4990    -0.1520     0.0400    36.1050   256.0770     6.0440     1.3870    25.7990     1.9210    92.0950 
   24.6250    24.6240    -0.1530     0.0400    38.6400   241.8730     5.8320     1.0320    25.8170     1.9250    89.3070 
   24.7500    24.7490    -0.1540     0.0400    40.4350   228.0810     5.6500     0.8600    25.8290     1.9350    86.9910 
   24.8750    24.8740    -0.1550     0.0410    41.3300   217.9350     5.5210     0.7920    25.8190     1.9470    85.1080 
   25.0000    24.9990    -0.1560     0.0410    43.3770   212.4170     5.4400     0.7320    25.8160     1.9620    83.8920 
   25.1250    25.1240    -0.1560     0.0410    45.7820   211.7960     5.4310     0.6660    25.8360     1.9760    83.4950 
   25.2500    25.2490    -0.1570     0.0410    45.8340   213.7730     5.4660     0.6190    25.8480     1.9900    83.3980 
   25.3750    25.3740    -0.1580     0.0410    44.2820   215.9430     5.4760     0.5990    25.8510     2.0020    83.3450 
   25.5000    25.4990    -0.1590     0.0420    42.5220   213.6570     5.3850     0.5950    25.8510     2.0110    83.3210 
   25.6250    25.6240    -0.1590     0.0420    41.6210   195.2160     5.0400     0.5890    25.8510     2.0180    83.1430 
   25.7500    25.7490    -0.1600     0.0420    41.7920   157.2090     4.2960     0.5880    25.8510     2.0270    82.8080 
   25.8750    25.8740    -0.1610     0.0420    42.4240   107.1720     3.1530     0.5920    25.8510     2.0420    82.3410 
   26.0000    25.9990    -0.1620     0.0420    42.5110    61.0360     1.9320     0.5970    25.8510     2.0670    81.5190 
   26.1250    26.1240    -0.1630     0.0430    43.2100    33.7740     1.0710     0.5910    25.8510     2.1170    79.7600 
   26.2500    26.2490    -0.1630     0.0430    45.8390    21.9400     0.5940     0.6070    25.8520     2.2070    76.8100 
   26.3750    26.3740    -0.1640     0.0430    49.0700    20.1500     0.4120     0.7950    25.8540     2.3350    72.3160 
   26.5000    26.4990    -0.1650     0.0430    52.0960    24.9990     0.4420     2.1680    25.8660     2.4740    65.8530 
   26.6250    26.6240    -0.1660     0.0430    58.6230    36.1530     0.6900     4.1380    25.8980     2.5650    57.2960 
   26.7500    26.7490    -0.1660     0.0440    69.6370    51.5600     1.1660     5.7500    25.9640     2.5750    47.7290 
   26.8750    26.8740    -0.1670     0.0440    80.4450    67.8060     1.9040     5.7200    26.0290     2.5160    37.6730 
   27.0000    26.9990    -0.1680     0.0440    86.8290    79.1610     2.8390     5.2930    26.0480     2.4260    27.6130 
   27.1250    27.1240    -0.1690     0.0440    89.7920    79.4650     3.6800     5.1300    26.0360     2.3580    18.2510 
   27.2500    27.2490    -0.1700     0.0440    93.4080    72.1390     4.1690     5.0440    25.9790     2.3260     9.9660 
   27.3750    27.3740    -0.1700     0.0450    96.5130    62.6690     4.3340     4.9840    25.8410     2.3170     3.2020 
   27.5000    27.4990    -0.1710     0.0450    95.1360    55.2140     4.3440     5.0170    25.6570     2.3150    -1.6980 
   27.6250    27.6240    -0.1720     0.0450    90.2750    50.9580     4.3430     5.1250    25.5870     2.3090    -4.5440 
   27.7500    27.7490    -0.1730     0.0450    89.7100    48.5040     4.4090     5.2400    25.6360     2.3000    -6.2580 
   27.8750    27.8740    -0.1730     0.0450    94.0880    47.8250     4.6160     5.2800    25.7410     2.2950    -7.4280 
   28.0000    27.9990    -0.1740     0.0460    96.4520    49.9900     5.0320     5.2690    25.8640     2.3020    -8.4290 
   28.1250    28.1240    -0.1750     0.0460    89.8710    57.4600     5.7170     6.4000    25.9440     2.3270    -9.3890 
