~V
VERS. 2.00: Ver 2.00
~W
STRT.M 43.0000:
STOP.M 257.0000:
STEP.M 0.1250:
NULL. -999.2500:
UWI. FD10872:
~C
DEPT.M :
TVD. :
DX. :
DY. :
SP.MV :
GR.API :
RI. :
RML.OHMM :
RXO.OHMM :
DEN.GM/CC :
~A
# ...
  125.1250   123.3200    11.6630    -8.9930   -11.5840    65.9320    24.4200    26.9320    52.8190     2.1210 
  125.2500   123.4360    11.7010    -9.0180   -11.8090    64.7670    25.4840    28.3770    51.1010     2.1180 
  125.3750   123.5530    11.7380    -9.0430   -11.9730    66.3190    26.9100    30.2140    34.8850     2.1140 
  125.5000   123.6700    11.7750    -9.0690   -12.0150    69.0940    28.3340    32.0280    27.5900     2.1110 
  125.6250   123.7860    11.8120    -9.0940   -11.8510    67.5950    29.4400    33.4380    29.3390     2.1090 
  125.7500   123.9030    11.8500    -9.1190   -11.4910    62.6560    30.0470    34.2510    30.4980     2.1090 
  125.8750   124.0190    11.8870    -9.1440   -11.0010    59.4840    30.1890    34.5130    30.6380     2.1090 
  126.0000   124.1360    11.9250    -9.1700   -10.5280    60.6560    29.9810    34.3450    30.6550     2.1110 
  126.1250   124.2520    11.9620    -9.1950   -10.2330    63.4090    29.6050    33.9340    30.4880     2.1130 
  126.2500   124.3690    12.0000    -9.2210   -10.1900    63.6370    29.4390    33.6960    29.6490     2.1180 
  126.3750   124.4850    12.0370    -9.2460   -10.3780    61.7260    29.8010    33.9660    28.5520     2.1240 
  126.5000   124.6020    12.0750    -9.2720   -10.6490    60.5380    31.0070    35.1800    28.4310     2.1320 
  126.6250   124.7180    12.1130    -9.2970   -10.8330    60.6870    32.8880    37.1920    29.8850     2.1430 
  126.7500   124.8350    12.1500    -9.3230   -10.8230    59.7470    35.2980    39.8180    32.3410     2.1610 
  126.8750   124.9510    12.1880    -9.3490   -10.5890    57.6350    37.2900    41.9700    36.6930     2.1870 
  127.0000   125.0670    12.2250    -9.3750   -10.2200    57.1550    37.8160    42.1940    55.3280     2.2160 
  127.1250   125.1840    12.2630    -9.4010    -9.8240    58.4230    36.0710    39.8090    73.7060     2.2400 
  127.2500   125.3000    12.3010    -9.4270    -9.4870    60.7040    32.3330    35.3470    60.0830     2.2470 
  127.3750   125.4160    12.3390    -9.4530    -9.2630    63.8290    28.0270    30.4960    36.3280     2.2340 
  127.5000   125.5320    12.3770    -9.4790    -9.1470    66.7200    24.5230    26.8940    26.0830     2.2080 
  127.6250   125.6480    12.4150    -9.5040    -9.1030    69.1660    22.6590    25.1660    20.9290     2.1830 
  127.7500   125.7650    12.4540    -9.5300    -9.0680    71.2980    21.9430    24.6620    20.2480     2.1680 
  127.8750   125.8810    12.4920    -9.5560    -8.9850    72.4480    22.6470    25.6760    22.6430     2.1650 
  128.0000   125.9970    12.5300    -9.5820    -8.8270    72.6780    24.5050    27.9560    26.2000     2.1690 
  128.1250   126.1130    12.5690    -9.6080    -8.6030    71.8250    27.7350    31.8920    34.4250     2.1740 
  128.2500   126.2290    12.6070    -9.6340    -8.3590    69.9510    32.2880    37.4970    47.2550     2.1740 
  128.3750   126.3450    12.6460    -9.6600    -8.1280    65.9650    38.8810    45.8250    60.9640     2.1660 
  128.5000   126.4610    12.6840    -9.6860    -7.9000    61.0780    47.6720    56.8660    70.4510     2.1510 
  128.6250   126.5770    12.7230    -9.7120    -7.6070    56.5340    55.8120    66.9370    75.7620     2.1320 
  128.7500   126.6930    12.7620    -9.7370    -7.1590    52.5680    61.3580    73.7810    74.9680     2.1140 
  128.8750   126.8090    12.8000    -9.7630    -6.4650    50.6780    62.8350    75.7780    68.1870     2.1000 
  129.0000   126.9250    12.8390    -9.7890    -5.5690    51.8450    61.9680    75.2590    63.8100     2.0890 
  129.1250   127.0410    12.8780    -9.8150    -4.5990    55.0810    60.2570    73.8120    63.5940     2.0800 
  129.2500   127.1570    12.9170    -9.8410    -3.7600    57.0140    56.5190    69.4290    62.9960     2.0720 
  129.3750   127.2730    12.9550    -9.8670    -3.2680    56.0000    49.8350    61.0240    63.5180     2.0690 
  129.5000   127.3890    12.9940    -9.8930    -3.1810    54.0360    41.6590    50.7340    68.3400     2.0710 
  129.6250   127.5050    13.0330    -9.9190    -3.4500    55.1790    34.4440    41.8010    64.5680     2.0790 
  129.7500   127.6210    13.0720    -9.9450    -3.8610    59.5540    29.9040    36.5020    44.5260     2.0890 
  129.8750   127.7370    13.1110    -9.9710    -4.1870    63.3380    27.8620    34.1360    26.3240     2.0990 
  130.0000   127.8530    13.1500    -9.9970    -4.3000    64.8080    26.7500    32.7570    30.0160     2.1070 
  130.1250   127.9680    13.1890   -10.0230    -4.2050    65.2610    25.5740    31.0460    45.1300     2.1100 
  130.2500   128.0840    13.2280   -10.0490    -4.0530    66.3860    23.8900    28.6470    45.3190     2.1090 
  130.3750   128.2000    13.2680   -10.0740    -4.0150    67.5880    22.1170    26.2900    32.3830     2.1070 
  130.5000   128.3160    13.3070   -10.1000    -4.1810    68.8410    20.7010    24.5410    22.5170     2.1050 
  130.6250   128.4320    13.3460   -10.1250    -4.5800    69.5210    19.2880    23.0080    24.4200     2.1080 
  130.7500   128.5480    13.3850   -10.1510    -5.1460    68.4510    17.2030    20.6390    36.9220     2.1160 
  130.8750   128.6640    13.4250   -10.1770    -5.8160    66.8450    14.4540    17.3380    55.7310     2.1290 
  131.0000   128.7800    13.4640   -10.2020    -6.5410    68.0420    11.3270    13.5220    63.9360     2.1450 
  131.1250   128.8960    13.5030   -10.2280    -7.3100    72.9720     9.0210    10.6840    41.6590     2.1650 
  131.2500   129.0110    13.5430   -10.2530    -8.0970    78.1530     7.3340     8.6120    14.2410     2.1900 
  131.3750   129.1270    13.5820   -10.2780    -8.8690    81.3220     6.1940     7.2640     5.8550     2.2180 
  131.5000   129.2430    13.6220   -10.3040    -9.5840    83.9340     5.4940     6.4860     5.4500     2.2440 
  131.6250   129.3590    13.6610   -10.3290   -10.1860    86.3780     5.2360     6.2140     5.3690     2.2650 
  131.7500   129.4750    13.7000   -10.3550   -10.6490    86.8840     5.2050     6.1600     5.0900     2.2790 
  131.8750   129.5910    13.7400   -10.3810   -10.9180    84.5740     5.2810     6.2190     4.8560     2.2840 
  132.0000   129.7070    13.7790   -10.4060   -10.9590    80.5210     5.5390     6.5080     5.2410     2.2840 
  132.1250   129.8220    13.8180   -10.4320   -10.7420    76.5110     5.9400     6.9930     5.4770     2.2780 
  132.2500   129.9380    13.8570   -10.4580   -10.3610    73.8330     6.3840     7.5320     5.5710     2.2680 
  132.3750   130.0540    13.8970   -10.4840    -9.9730    73.6900     6.7700     7.9830     6.1100     2.2550 
  132.5000   130.1700    13.9360   -10.5100    -9.7630    74.4800     6.9020     8.1100     7.8060     2.2420 
  132.6250   130.2850    13.9760   -10.5350    -9.8620    74.4450     6.8320     7.9900     9.9970     2.2320 
  132.7500   130.4010    14.0150   -10.5610   -10.2200    74.0880     6.5780     7.6930     9.3600     2.2290 
  132.8750   130.5170    14.0550   -10.5870   -10.6980    75.2630     6.2450     7.3560     6.9230     2.2380 
  133.0000   130.6330    14.0950   -10.6120   -11.1040    76.8320     5.9590     7.1220     6.1670     2.2530 
  133.1250   130.7480    14.1340   -10.6380   -11.3040    76.6270     5.7680     7.0340     6.5200     2.2720 
  133.2500   130.8640    14.1740   -10.6640   -11.2980    75.0190     5.6730     7.0480     6.6480     2.2880 
  133.3750   130.9800    14.2140   -10.6900   -11.1590    74.2820     5.6270     7.0950     6.3720     2.2960 
  133.5000   131.0950    14.2540   -10.7160   -11.0070    73.7890     5.5650     7.0920     6.0480     2.2960 
  133.6250   131.2110    14.2930   -10.7420   -10.9280    72.7840     5.4710     6.9970     6.0470     2.2910 
  133.7500   131.3270    14.3330   -10.7670   -10.9470    72.6540     5.3720     6.8720     6.1860     2.2860 
  133.8750   131.4420    14.3730   -10.7940   -11.0590    74.8820     5.3570     6.8460     6.2180     2.2860 
  134.0000   131.5580    14.4130   -10.8200   -11.2190    75.8150     5.5730     7.1430     5.9520     2.2920 
  134.1250   131.6740    14.4520   -10.8460   -11.3880    74.7070     6.1210     7.9220     5.6260     2.3060 
