~V
VERS. 2.00: Ver 2.00
~W
STRT.M 65.0000:
STOP.M 248.0000:
STEP.M 0.1250:
NULL. -999.2500:
UWI. FD10900:
~C
DEPT.M :
TVD. :
DX. :
DY. :
SP.MV :
GR.API :
RI. :
RML.OHMM :
RXO.OHMM :
DEN.GM/CC :
~A
# ...
  156.2500   155.4610    -8.8650     5.3270   -27.6440    48.1770    15.7110    18.3840    16.2480     2.4040 
  156.3750   155.5830    -8.8860     5.3440   -27.8030    48.7640    15.3140    17.8630    16.1390     2.4020 
  156.5000   155.7050    -8.9080     5.3610   -27.9780    50.0990    14.8290    17.2430    16.2730     2.4110 
  156.6250   155.8270    -8.9290     5.3770   -28.1940    52.5390    14.1920    16.4430    16.9480     2.4240 
  156.7500   155.9490    -8.9500     5.3940   -28.3460    54.6560    13.4430    15.5160    16.9990     2.4290 
  156.8750   156.0710    -8.9720     5.4110   -28.4840    55.7440    12.7120    14.6260    16.0300     2.4220 
  157.0000   156.1930    -8.9930     5.4280   -28.6200    56.3550    12.0990    13.8980    15.7590     2.4090 
  157.1250   156.3150    -9.0150     5.4450   -28.7660    56.7260    11.6020    13.3190    15.8850     2.4000 
  157.2500   156.4370    -9.0360     5.4610   -28.8990    57.7620    11.1770    12.8310    14.6870     2.3980 
  157.3750   156.5590    -9.0580     5.4780   -29.0120    58.4630    10.7970    12.3910    13.0880     2.3940 
  157.5000   156.6810    -9.0790     5.4950   -29.1280    58.3390    10.5130    12.0520    11.8270     2.3840 
  157.6250   156.8030    -9.1010     5.5120   -29.1450    57.7500    10.3840    11.8880    10.4180     2.3700 
  157.7500   156.9250    -9.1230     5.5290   -28.8970    56.5070    10.4910    12.0130     9.9290     2.3650 
  157.8750   157.0460    -9.1440     5.5460   -28.1290    56.9410    10.8310    12.4310    11.1990     2.3740 
  158.0000   157.1680    -9.1660     5.5630   -26.8030    57.6350    11.3360    13.0510    12.9460     2.3850 
  158.1250   157.2900    -9.1880     5.5800   -25.1670    58.5140    11.8440    13.6580    13.7120     2.3850 
  158.2500   157.4120    -9.2090     5.5970   -23.9100    56.3310    12.2120    14.0700    13.8710     2.3690 
  158.3750   157.5340    -9.2310     5.6150   -23.3410    52.8690    12.3860    14.2380    14.1000     2.3580 
  158.5000   157.6560    -9.2530     5.6320   -23.2450    50.6630    12.3390    14.1440    14.0710     2.3630 
  158.6250   157.7780    -9.2750     5.6490   -23.1960    50.7730    12.0940    13.8260    13.6880     2.3810 
  158.7500   157.9000    -9.2970     5.6660   -23.1660    52.5750    11.6760    13.3150    13.2310     2.3970 
  158.8750   158.0220    -9.3190     5.6830   -23.1330    53.9120    11.1770    12.7100    12.7250     2.4020 
  159.0000   158.1430    -9.3410     5.7010   -23.1220    56.1790    10.7130    12.1560    12.0160     2.3960 
  159.1250   158.2650    -9.3630     5.7180   -23.0970    58.9060    10.3780    11.7710    11.3780     2.3790 
  159.2500   158.3870    -9.3850     5.7350   -23.1130    60.6800    10.2440    11.6410    11.2940     2.3570 
  159.3750   158.5090    -9.4070     5.7530   -23.0990    59.7240    10.2970    11.7360    11.7160     2.3400 
  159.5000   158.6310    -9.4290     5.7700   -23.0940    56.4980    10.4950    11.9970    12.1380     2.3430 
  159.6250   158.7520    -9.4510     5.7880   -23.1000    53.3970    10.7560    12.3200    12.2230     2.3630 
  159.7500   158.8740    -9.4730     5.8050   -23.1020    51.3300    10.9910    12.6000    12.1230     2.3880 
  159.8750   158.9960    -9.4950     5.8230   -23.0910    51.0430    11.1530    12.7900    11.6890     2.4030 
  160.0000   159.1180    -9.5170     5.8400   -23.1050    52.1910    11.2490    12.9050    10.8360     2.3980 
  160.1250   159.2390    -9.5390     5.8580   -23.1740    54.1040    11.3300    13.0120    10.2640     2.3800 
  160.2500   159.3610    -9.5620     5.8760   -23.2880    55.1990    11.4610    13.1920    10.5230     2.3620 
  160.3750   159.4830    -9.5840     5.8940   -23.4160    54.6960    11.6810    13.4880    11.4600     2.3560 
  160.5000   159.6050    -9.6060     5.9110   -23.5790    53.9130    12.0060    13.9110    12.3760     2.3720 
  160.6250   159.7260    -9.6290     5.9290   -23.7220    53.8400    12.3990    14.4070    12.6500     2.4010 
  160.7500   159.8480    -9.6510     5.9470   -23.8180    54.6550    12.8160    14.9130    12.6730     2.4230 
  160.8750   159.9700    -9.6730     5.9650   -23.8420    55.8520    13.2050    15.3680    13.0030     2.4220 
  161.0000   160.0910    -9.6960     5.9830   -23.8260    57.1880    13.5110    15.7060    13.8160     2.3990 
  161.1250   160.2130    -9.7180     6.0010   -23.7620    57.8010    13.7260    15.9270    15.4100     2.3740 
  161.2500   160.3350    -9.7410     6.0190   -23.7140    56.6930    13.8340    16.0140    17.0250     2.3610 
  161.3750   160.4560    -9.7630     6.0370   -23.7740    54.5990    13.8180    15.9510    17.0460     2.3620 
  161.5000   160.5780    -9.7860     6.0550   -23.9340    53.7610    13.6530    15.7190    15.5980     2.3740 
  161.6250   160.6990    -9.8080     6.0730   -24.0670    55.4010    13.3630    15.3540    14.0020     2.3910 
  161.7500   160.8210    -9.8310     6.0910   -24.1320    58.3690    12.9530    14.8700    12.7410     2.4080 
  161.8750   160.9430    -9.8530     6.1090   -24.1900    60.5490    12.4530    14.2880    12.0960     2.4170 
  162.0000   161.0640    -9.8760     6.1270   -24.2160    60.4350    11.8960    13.6340    11.9030     2.4110 
  162.1250   161.1860    -9.8980     6.1450   -24.2250    59.3320    11.3500    12.9920    11.4860     2.3930 
  162.2500   161.3070    -9.9210     6.1630   -24.2380    59.1850    10.9360    12.5140    10.8440     2.3700 
  162.3750   161.4290    -9.9440     6.1820   -24.2330    59.7330    10.7350    12.3020    10.3310     2.3570 
  162.5000   161.5510    -9.9660     6.2000   -24.1970    59.6300    10.8090    12.4340    10.1180     2.3670 
  162.6250   161.6720    -9.9890     6.2180   -24.1640    57.6840    11.1450    12.8760    10.2530     2.3940 
  162.7500   161.7940   -10.0120     6.2360   -24.1200    56.0330    11.6960    13.5520    10.5430     2.4170 
  162.8750   161.9150   -10.0340     6.2550   -24.1170    56.0410    12.3370    14.3100    10.9530     2.4230 
  163.0000   162.0370   -10.0570     6.2730   -24.1040    56.5800    12.9650    15.0360    12.0190     2.4130 
  163.1250   162.1580   -10.0800     6.2910   -24.0850    57.6550    13.4870    15.6440    13.5150     2.4020 
  163.2500   162.2800   -10.1030     6.3090   -24.0240    56.6560    13.8340    16.0630    14.3310     2.3970 
  163.3750   162.4010   -10.1250     6.3280   -23.9200    56.0640    13.9790    16.2510    14.2430     2.4000 
  163.5000   162.5230   -10.1480     6.3460   -23.8360    54.4800    13.8690    16.1270    13.7630     2.4060 
  163.6250   162.6450   -10.1710     6.3650   -23.7550    54.6810    13.5520    15.7540    13.1150     2.4120 
  163.7500   162.7660   -10.1940     6.3830   -23.6930    54.9460    13.1340    15.2860    13.1440     2.4160 
  163.8750   162.8880   -10.2170     6.4010   -23.6750    55.5600    12.7690    14.9260    14.7640     2.4180 
  164.0000   163.0090   -10.2400     6.4200   -23.6420    55.2560    12.5590    14.7880    16.4930     2.4210 
  164.1250   163.1310   -10.2620     6.4380   -23.5270    54.9640    12.4880    14.8240    16.5970     2.4260 
  164.2500   163.2520   -10.2850     6.4570   -23.4450    54.5180    12.4810    14.9090    15.9710     2.4280 
  164.3750   163.3740   -10.3080     6.4750   -23.4000    54.7420    12.4440    14.9180    15.3130     2.4250 
  164.5000   163.4950   -10.3310     6.4940   -23.3730    54.9600    12.3470    14.8210    14.0770     2.4210 
  164.6250   163.6160   -10.3540     6.5120   -23.3810    54.1270    12.2310    14.6860    12.7970     2.4200 
  164.7500   163.7380   -10.3770     6.5310   -23.3780    52.8240    12.1340    14.5670    12.0960     2.4210 
  164.8750   163.8590   -10.4000     6.5490   -23.3820    52.1340    12.0560    14.4750    11.9650     2.4250 
  165.0000   163.9810   -10.4230     6.5680   -23.4110    53.3130    11.9820    14.3900    12.7160     2.4300 
  165.1250   164.1020   -10.4460     6.5870   -23.3970    55.0450    11.9100    14.3170    14.0000     2.4300 
  165.2500   164.2240   -10.4690     6.6050   -23.3590    54.6860    11.9060    14.3650    14.7770     2.4240 
