~V
VERS. 2.00: Ver 2.00
~W
STRT.M 50.0000:
STOP.M 219.0000:
STEP.M 0.1250:
NULL. -999.2500:
UWI. FD10804:
~C
DEPT.M :
TVD. :
DX. :
DY. :
SP.MV :
GR.API :
RI. :
RML.OHMM :
RXO.OHMM :
DEN.GM/CC :
~A
# ...
   68.2500    68.2460    -0.3540    -0.0580  -126.3720    66.8890     2.4970     4.7400     4.4100     2.0070 
   68.3750    68.3700    -0.3590    -0.0600  -126.4540    65.2740     2.4890     4.7310     4.4500     2.0020 
   68.5000    68.4950    -0.3640    -0.0610  -126.5380    63.5040     2.4990     4.7460     4.4950     2.0000 
   68.6250    68.6200    -0.3690    -0.0630  -126.6420    62.5290     2.5390     4.8520     4.5650     2.0060 
   68.7500    68.7450    -0.3740    -0.0640  -126.7830    62.0400     2.6310     5.0470     4.7480     2.0310 
   68.8750    68.8700    -0.3790    -0.0660  -126.9740    60.5560     2.7450     5.2830     4.9980     2.0840 
   69.0000    68.9950    -0.3850    -0.0680  -127.2110    60.2730     2.8440     5.4840     5.2340     2.1450 
   69.1250    69.1200    -0.3900    -0.0690  -127.4790    61.1060     2.8890     5.5690     5.2960     2.1680 
   69.2500    69.2450    -0.3950    -0.0710  -127.7360    63.0060     2.8550     5.5050     5.1730     2.1350 
   69.3750    69.3690    -0.4010    -0.0720  -127.9370    63.0650     2.7600     5.3150     5.1550     2.0710 
   69.5000    69.4940    -0.4060    -0.0740  -128.0620    62.1630     2.6590     5.0960     5.2200     2.0180 
   69.6250    69.6190    -0.4120    -0.0760  -128.0940    62.0680     2.5860     4.9380     5.1900     1.9910 
   69.7500    69.7440    -0.4180    -0.0780  -128.0530    63.5510     2.5620     4.8790     5.4330     1.9790 
   69.8750    69.8690    -0.4230    -0.0790  -127.9520    65.9340     2.5630     4.8870     5.9800     1.9730 
   70.0000    69.9940    -0.4290    -0.0810  -127.8120    67.6890     2.5690     4.9020     5.9680     1.9660 
   70.1250    70.1190    -0.4350    -0.0830  -127.6350    66.5940     2.5680     4.9010     5.4570     1.9590 
   70.2500    70.2430    -0.4410    -0.0850  -127.4130    64.3410     2.5730     4.8910     5.1930     1.9560 
   70.3750    70.3680    -0.4470    -0.0870  -127.1180    63.2190     2.6060     4.8920     5.3020     1.9570 
   70.5000    70.4930    -0.4530    -0.0890  -126.7160    64.9400     2.6540     4.9300     5.5520     1.9620 
   70.6250    70.6180    -0.4590    -0.0900  -126.1550    66.5680     2.7280     5.0070     5.5400     1.9660 
   70.7500    70.7430    -0.4650    -0.0920  -125.4170    66.9640     2.7550     5.0410     5.3620     1.9700 
   70.8750    70.8680    -0.4710    -0.0940  -124.4850    67.1310     2.6710     4.9070     5.3830     1.9780 
   71.0000    70.9930    -0.4770    -0.0960  -123.4250    69.3060     2.4580     4.5560     5.4600     1.9890 
   71.1250    71.1170    -0.4830    -0.0980  -122.3750    73.7580     2.1430     4.0480     4.9000     1.9990 
   71.2500    71.2420    -0.4890    -0.1000  -121.5190    79.0080     1.8580     3.5640     3.6890     2.0010 
   71.3750    71.3670    -0.4960    -0.1020  -121.0610    84.6890     1.6740     3.2780     2.8410     1.9970 
   71.5000    71.4920    -0.5020    -0.1040  -121.0590    87.2630     1.6430     3.2520     2.9480     2.0000 
   71.6250    71.6170    -0.5080    -0.1060  -121.4710    85.4290     1.7830     3.4710     3.7950     2.0240 
   71.7500    71.7410    -0.5150    -0.1080  -122.0570    80.5210     2.0310     3.7760     4.4670     2.0620 
   71.8750    71.8660    -0.5210    -0.1100  -122.5500    77.1910     2.2840     3.9820     4.7050     2.0980 
   72.0000    71.9910    -0.5280    -0.1120  -122.7470    76.9360     2.4620     3.9980     4.9180     2.1190 
   72.1250    72.1160    -0.5340    -0.1140  -122.5080    78.0760     2.5330     3.8540     4.9050     2.1270 
   72.2500    72.2410    -0.5410    -0.1160  -121.8490    77.5970     2.5460     3.6540     4.7210     2.1280 
   72.3750    72.3660    -0.5480    -0.1180  -120.7720    74.9290     2.5050     3.4610     4.7690     2.1300 
   72.5000    72.4900    -0.5540    -0.1200  -119.3560    72.3650     2.4300     3.2820     4.9650     2.1370 
   72.6250    72.6150    -0.5610    -0.1220  -117.6600    73.2930     2.3170     3.0700     4.9890     2.1590 
   72.7500    72.7400    -0.5680    -0.1240  -115.8380    78.3120     2.1250     2.8070     4.4520     2.2020 
   72.8750    72.8650    -0.5750    -0.1260  -114.0760    86.7830     1.9310     2.5170     6.1190     2.2660 
   73.0000    72.9890    -0.5820    -0.1290  -112.5610    95.6300     1.6960     2.2250     8.1320     2.3300 
   73.1250    73.1140    -0.5890    -0.1310  -111.4520   103.1400     1.4960     1.9690     5.2840     2.3280 
   73.2500    73.2390    -0.5960    -0.1330  -110.7620   108.3690     1.3330     1.7730     2.5000     2.2800 
   73.3750    73.3640    -0.6030    -0.1360  -110.4910   111.2530     1.2360     1.6440     2.3780     2.2330 
   73.5000    73.4890    -0.6110    -0.1380  -110.5480   112.4410     1.1650     1.5580     2.3050     2.2050 
   73.6250    73.6130    -0.6180    -0.1400  -110.9090   113.1010     1.1370     1.5060     2.3140     2.1910 
   73.7500    73.7380    -0.6250    -0.1430  -111.5250   111.9360     1.1500     1.4870     2.3990     2.1810 
   73.8750    73.8630    -0.6330    -0.1450  -112.3920   108.6260     1.2070     1.5150     2.4750     2.1770 
   74.0000    73.9880    -0.6400    -0.1480  -113.4340   104.1450     1.3420     1.6280     2.5860     2.1760 
   74.1250    74.1120    -0.6480    -0.1500  -114.5630    98.7550     1.6060     1.9110     3.3140     2.1690 
   74.2500    74.2370    -0.6560    -0.1530  -115.6610    90.9320     2.0640     2.4720     4.7510     2.1680 
   74.3750    74.3620    -0.6630    -0.1560  -116.6210    82.3090     2.9430     3.4570     7.7720     2.2050 
   74.5000    74.4870    -0.6710    -0.1580  -117.4340    74.1610     4.1140     4.6930    11.5420     2.2950 
   74.6250    74.6110    -0.6790    -0.1610  -118.1630    68.6290     5.1610     5.7240    13.6090     2.4120 
   74.7500    74.7360    -0.6870    -0.1640  -118.9170    63.2890     5.6050     6.1010    14.9320     2.5050 
   74.8750    74.8610    -0.6950    -0.1670  -119.7820    59.6600     5.1560     5.5940    13.6360     2.5210 
   75.0000    74.9850    -0.7040    -0.1700  -120.7580    58.2520     4.1830     4.5540     8.6920     2.4510 
   75.1250    75.1100    -0.7120    -0.1730  -121.7870    59.9980     3.1740     3.4710     5.0750     2.3140 
   75.2500    75.2350    -0.7200    -0.1760  -122.7780    61.6100     2.4690     2.6900     4.3100     2.1730 
   75.3750    75.3590    -0.7290    -0.1790  -123.6750    62.4210     2.1360     2.3240     4.3300     2.1130 
   75.5000    75.4840    -0.7370    -0.1820  -124.4820    62.4380     2.0320     2.2480     4.4150     2.0920 
   75.6250    75.6090    -0.7460    -0.1850  -125.2190    62.5270     2.0740     2.3250     4.5510     2.0880 
   75.7500    75.7330    -0.7550    -0.1880  -125.9020    63.2830     2.1570     2.4330     4.5530     2.0710 
   75.8750    75.8580    -0.7640    -0.1910  -126.5030    64.2400     2.2480     2.5240     4.1940     2.0340 
   76.0000    75.9830    -0.7720    -0.1940  -126.9850    65.0940     2.3360     2.5930     3.8440     1.9960 
   76.1250    76.1070    -0.7810    -0.1980  -127.2980    66.0420     2.4070     2.6410     4.0910     1.9900 
   76.2500    76.2320    -0.7910    -0.2010  -127.4590    66.2370     2.4740     2.6700     4.5820     2.0120 
   76.3750    76.3570    -0.8000    -0.2050  -127.5030    65.0180     2.5140     2.6820     4.9480     2.0390 
   76.5000    76.4810    -0.8090    -0.2080  -127.4820    61.9030     2.5410     2.6820     5.2820     2.0520 
   76.6250    76.6060    -0.8180    -0.2120  -127.4210    60.2630     2.5370     2.6640     5.4250     2.0530 
   76.7500    76.7300    -0.8280    -0.2150  -127.3290    60.9770     2.4770     2.6170     5.3310     2.0500 
   76.8750    76.8550    -0.8370    -0.2190  -127.1940    64.9370     2.3780     2.5350     5.2240     2.0490 
   77.0000    76.9800    -0.8470    -0.2230  -127.0400    69.0420     2.2360     2.4170     5.0180     2.0540 
   77.1250    77.1040    -0.8560    -0.2260  -126.9190    73.1190     2.0830     2.2860     4.6060     2.0660 
   77.2500    77.2290    -0.8660    -0.2300  -126.8740    75.0700     1.9710     2.1850     4.2750     2.0760 
