~V
VERS. 2.00: Ver 2.00
~W
STRT.M 63.0000:
STOP.M 266.0000:
STEP.M 0.1250:
NULL. -999.2500:
UWI. FD10888:
~C
DEPT.M :
TVD. :
DX. :
DY. :
SP.MV :
GR.API :
RI. :
RML.OHMM :
RXO.OHMM :
DEN.GM/CC :
~A
# ...
   72.1250    72.1240    -0.0770    -0.0940   -29.5170    82.7710     4.5790     4.8340     4.2220     2.2380 
   72.2500    72.2490    -0.0780    -0.0960   -29.5250    80.8180     4.7980     5.0690     4.2740     2.2340 
   72.3750    72.3740    -0.0790    -0.0970   -29.5700    82.2740     5.1700     5.4850     4.7530     2.2270 
   72.5000    72.4990    -0.0800    -0.0980   -29.7230    82.6860     5.7080     6.0990     5.5520     2.2140 
   72.6250    72.6240    -0.0810    -0.1000   -29.9070    80.2040     6.3250     6.8100     7.2030     2.1910 
   72.7500    72.7490    -0.0830    -0.1010   -30.0540    78.8460     6.7270     7.2870    10.2430     2.1630 
   72.8750    72.8740    -0.0840    -0.1020   -30.1600    79.7310     6.6750     7.2640    12.1840     2.1420 
   73.0000    72.9990    -0.0850    -0.1030   -30.2520    79.5100     6.2150     6.7650    10.3900     2.1380 
   73.1250    73.1240    -0.0860    -0.1050   -30.2970    75.9490     5.5150     5.9790     6.8460     2.1580 
   73.2500    73.2490    -0.0880    -0.1060   -30.2710    73.0810     4.9880     5.3880     4.7790     2.1920 
   73.3750    73.3740    -0.0890    -0.1070   -30.2630    75.0130     4.8420     5.3040     4.5500     2.2270 
   73.5000    73.4990    -0.0900    -0.1090   -30.2490    77.9380     5.2580     5.8730     6.3270     2.2500 
   73.6250    73.6240    -0.0910    -0.1100   -30.2430    76.4710     6.3610     7.2230    11.6580     2.2510 
   73.7500    73.7490    -0.0920    -0.1110   -30.3250    70.3220     7.7880     8.9380    17.8560     2.2260 
   73.8750    73.8740    -0.0940    -0.1120   -30.5220    64.2390     9.0660    10.4270    19.1890     2.1760 
   74.0000    73.9990    -0.0950    -0.1140   -30.7710    61.3590     9.5760    11.0480    15.5490     2.1210 
   74.1250    74.1240    -0.0960    -0.1150   -30.9270    63.0060     9.2250    10.5550    11.2520     2.0830 
   74.2500    74.2490    -0.0970    -0.1160   -31.0740    66.6210     8.3940     9.4620     8.9160     2.0740 
   74.3750    74.3740    -0.0980    -0.1180   -31.2270    68.7200     7.5660     8.3660     8.0330     2.0950 
   74.5000    74.4990    -0.0990    -0.1190   -31.2930    66.9650     7.1090     7.7740     7.4710     2.1290 
   74.6250    74.6240    -0.1010    -0.1200   -31.2560    63.5320     7.0360     7.6880     7.1500     2.1580 
   74.7500    74.7490    -0.1020    -0.1210   -31.1690    63.9510     7.2030     7.8790     7.2620     2.1690 
   74.8750    74.8740    -0.1030    -0.1230   -31.0490    68.2290     7.3490     8.0430     7.6710     2.1610 
   75.0000    74.9990    -0.1040    -0.1240   -30.9230    69.8060     7.2310     7.9270     8.2180     2.1450 
   75.1250    75.1240    -0.1050    -0.1250   -30.9240    66.9800     6.7500     7.4130     9.1870     2.1440 
   75.2500    75.2490    -0.1060    -0.1260   -30.9850    67.7380     5.9920     6.5780     9.6530     2.1720 
   75.3750    75.3740    -0.1070    -0.1280   -31.0180    75.6800     5.2240     5.7200     8.0550     2.2260 
   75.5000    75.4990    -0.1090    -0.1290   -30.9290    84.2540     4.6380     5.0740     5.6280     2.2820 
   75.6250    75.6240    -0.1100    -0.1300   -30.9830    90.8000     4.3040     4.7390     4.3980     2.3190 
   75.7500    75.7490    -0.1110    -0.1310   -31.0870    95.4730     4.2020     4.5010     4.3890     2.3280 
   75.8750    75.8740    -0.1120    -0.1330   -31.0590    97.4140     4.2420     4.5240     4.7920     2.3110 
   76.0000    75.9990    -0.1130    -0.1340   -30.9360    96.7590     4.3260     4.6700     4.8860     2.2790 
   76.1250    76.1240    -0.1140    -0.1350   -30.8300    95.7520     4.3690     4.7460     4.6230     2.2480 
   76.2500    76.2490    -0.1160    -0.1360   -30.8630    95.2430     4.3810     4.7740     4.4090     2.2260 
   76.3750    76.3740    -0.1170    -0.1380   -30.9980    93.2170     4.3900     4.7760     4.4380     2.2150 
   76.5000    76.4990    -0.1180    -0.1390   -31.1870    89.7450     4.4150     4.7770     4.6110     2.2120 
   76.6250    76.6240    -0.1190    -0.1400   -31.3620    87.5350     4.4730     4.8010     4.6830     2.2150 
   76.7500    76.7490    -0.1200    -0.1410   -31.3210    86.4350     4.5330     4.8200     4.5580     2.2190 
   76.8750    76.8740    -0.1210    -0.1430   -31.1840    85.4840     4.6130     4.8700     4.4100     2.2140 
   77.0000    76.9990    -0.1220    -0.1440   -31.1460    85.5690     4.7230     4.9620     4.4930     2.1970 
   77.1250    77.1240    -0.1240    -0.1450   -31.2250    88.1770     4.8570     5.0850     4.9510     2.1770 
   77.2500    77.2490    -0.1250    -0.1460   -31.3950    88.0490     5.0600     5.2880     5.5210     2.1710 
   77.3750    77.3740    -0.1260    -0.1480   -31.5870    80.1970     5.2900     5.5400     6.0030     2.1960 
   77.5000    77.4990    -0.1270    -0.1490   -31.7050    73.2710     5.4530     5.7180     7.1330     2.2410 
   77.6250    77.6240    -0.1280    -0.1500   -31.7480    77.3140     5.5090     5.7860     8.9340     2.2790 
   77.7500    77.7490    -0.1290    -0.1510   -31.7240    84.9940     5.4420     5.7200     9.1110     2.2850 
   77.8750    77.8740    -0.1300    -0.1530   -31.5770    87.0940     5.2570     5.5060     7.0740     2.2560 
   78.0000    77.9990    -0.1320    -0.1540   -31.4470    84.5810     5.0170     5.2460     5.4370     2.2160 
   78.1250    78.1240    -0.1330    -0.1550   -31.4860    84.2830     4.7760     4.9860     5.0580     2.1930 
   78.2500    78.2490    -0.1340    -0.1560   -31.5980    90.1920     4.5540     4.7490     4.8570     2.1940 
   78.3750    78.3740    -0.1350    -0.1580   -31.7480    98.1380     4.4460     4.6430     4.5820     2.2130 
   78.5000    78.4990    -0.1360    -0.1590   -31.9120   101.9080     4.4150     4.6150     4.4840     2.2350 
   78.6250    78.6240    -0.1370    -0.1600   -32.0690    97.9190     4.3860     4.6000     4.5890     2.2500 
   78.7500    78.7490    -0.1380    -0.1610   -32.1740    92.3100     4.3480     4.6320     4.6720     2.2620 
   78.8750    78.8740    -0.1400    -0.1630   -32.3060    90.8040     4.3290     4.7350     4.6050     2.2730 
   79.0000    78.9990    -0.1410    -0.1640   -32.5050    92.2360     4.3340     4.9100     4.8860     2.2860 
   79.1250    79.1240    -0.1420    -0.1650   -32.7620    94.7110     4.4210     5.1810     6.5620     2.2920 
   79.2500    79.2490    -0.1430    -0.1660   -32.9170    94.8720     4.6370     5.6110     8.7290     2.2800 
   79.3750    79.3740    -0.1440    -0.1680   -33.0230    92.7660     4.9740     6.1080     8.8370     2.2470 
   79.5000    79.4980    -0.1450    -0.1690   -33.2340    90.1560     5.3590     6.5020     7.1910     2.2080 
   79.6250    79.6230    -0.1470    -0.1700   -33.5130    85.1480     5.7010     6.7480     6.0000     2.1770 
   79.7500    79.7480    -0.1480    -0.1710   -33.8290    77.5060     5.9460     6.8400     5.7710     2.1530 
   79.8750    79.8730    -0.1490    -0.1730   -34.0370    67.4760     6.0780     6.9290     5.9500     2.1240 
   80.0000    79.9980    -0.1500    -0.1740   -34.1020    61.0200     6.1540     7.0700     6.1920     2.0880 
   80.1250    80.1230    -0.1510    -0.1750   -34.0920    59.3930     6.1950     7.2130     6.3450     2.0570 
   80.2500    80.2480    -0.1520    -0.1760   -33.9780    60.6020     6.2210     7.3280     6.3910     2.0400 
   80.3750    80.3730    -0.1540    -0.1780   -33.6630    62.3120     6.2440     7.4500     6.4040     2.0410 
   80.5000    80.4980    -0.1550    -0.1790   -33.2540    63.2360     6.2750     7.6120     6.3460     2.0550 
   80.6250    80.6230    -0.1560    -0.1800   -32.9770    64.0970     6.3210     7.7670     6.1280     2.0720 
   80.7500    80.7480    -0.1570    -0.1820   -32.7570    62.5530     6.3910     7.9460     5.9500     2.0830 
   80.8750    80.8730    -0.1580    -0.1830   -32.5730    59.1340     6.4680     8.1410     6.0970     2.0800 
   81.0000    80.9980    -0.1590    -0.1840   -32.3990    56.8590     6.5120     8.3250     6.4640     2.0680 
   81.1250    81.1230    -0.1610    -0.1850   -32.2050    57.2680     6.4850     8.4440     6.7290     2.0560 
