~V
VERS. 2.00: Ver 2.00
~W
STRT.M 15.0000:
STOP.M 282.0000:
STEP.M 0.1250:
NULL. -999.2500:
UWI. FD10218:
~C
DEPT.M :
TVD. :
DX. :
DY. :
DEN.GM/CC :
GR.API :
RML.OHMM :
RI. :
RXO.OHMM :
CALI.CM :
SP.MV :
~A
# ...
   97.5000    97.4870     0.1140     0.4580     2.1530    75.7680     7.7000     6.3830     8.2250    23.8130   -18.3450 
   97.6250    97.6110     0.1220     0.4650     2.1500    75.3470     7.6260     6.2720     8.1250    23.8340   -18.5610 
   97.7500    97.7360     0.1300     0.4730     2.1530    71.3090     7.5970     6.2060     8.0870    23.8540   -18.6400 
   97.8750    97.8600     0.1370     0.4800     2.1610    69.8050     7.5760     6.1590     8.0900    23.8520   -18.5310 
   98.0000    97.9850     0.1450     0.4880     2.1700    71.8540     7.5400     6.1090     7.9950    23.8270   -18.2700 
   98.1250    98.1090     0.1530     0.4950     2.1790    73.1920     7.4890     6.0530     7.7000    23.7960   -18.0040 
   98.2500    98.2340     0.1610     0.5020     2.1880    72.9350     7.4520     6.0090     7.3550    23.7660   -17.7130 
   98.3750    98.3590     0.1690     0.5100     2.1970    73.3080     7.4520     5.9970     7.1720    23.7800   -17.3770 
   98.5000    98.4830     0.1770     0.5170     2.2060    73.3310     7.4970     6.0270     7.3440    23.8390   -17.1380 
   98.6250    98.6080     0.1850     0.5250     2.2110    73.0310     7.5800     6.1000     7.6020    23.9580   -17.0540 
   98.7500    98.7320     0.1930     0.5320     2.2090    73.0540     7.6660     6.1930     7.8040    24.0780   -17.0150 
   98.8750    98.8570     0.2010     0.5400     2.2000    70.9910     7.7330     6.2840     7.9580    24.2260   -17.0590 
   99.0000    98.9810     0.2090     0.5470     2.1870    67.7040     7.7660     6.3580     8.1020    24.2860   -17.1660 
   99.1250    99.1060     0.2170     0.5550     2.1780    67.4950     7.7540     6.3970     8.1730    24.1690   -17.3140 
   99.2500    99.2300     0.2250     0.5620     2.1740    71.0760     7.7110     6.4050     8.1270    23.9950   -17.5010 
   99.3750    99.3550     0.2330     0.5700     2.1720    75.4970     7.6470     6.3820     8.2050    23.8120   -17.6560 
   99.5000    99.4790     0.2410     0.5770     2.1700    76.8010     7.5770     6.3390     8.1640    23.6590   -17.7190 
   99.6250    99.6040     0.2490     0.5850     2.1680    74.3260     7.5190     6.2940     7.9510    23.5530   -17.7480 
   99.7500    99.7280     0.2570     0.5920     2.1680    70.8090     7.4820     6.2630     7.6930    23.5550   -17.7300 
   99.8750    99.8530     0.2640     0.5990     2.1720    69.7890     7.4580     6.2510     7.5120    23.6450   -17.6220 
  100.0000    99.9770     0.2720     0.6070     2.1800    73.2150     7.4180     6.2400     7.4780    23.7190   -17.4000 
  100.1250   100.1020     0.2800     0.6140     2.1880    77.7800     7.2980     6.1750     7.5740    23.7290   -16.9310 
  100.2500   100.2260     0.2880     0.6220     2.1940    79.0450     7.0690     6.0130     7.6920    23.7070   -16.2210 
  100.3750   100.3510     0.2960     0.6290     2.2010    78.0820     6.7290     5.7330     7.5820    23.6620   -15.3550 
  100.5000   100.4750     0.3040     0.6370     2.2110    78.3620     6.3260     5.3660     6.9390    23.6400   -14.3940 
  100.6250   100.6000     0.3120     0.6440     2.2270    81.0860     5.9650     4.9930     5.7950    23.6880   -13.3780 
  100.7500   100.7240     0.3200     0.6520     2.2440    83.9270     5.7410     4.7110     4.8200    23.7970   -12.5190 
  100.8750   100.8490     0.3280     0.6590     2.2550    84.7170     5.7110     4.5850     4.5240    23.9380   -11.8990 
  101.0000   100.9730     0.3360     0.6670     2.2550    83.2060     5.8800     4.6430     4.9210    23.9890   -11.6330 
  101.1250   101.0980     0.3440     0.6740     2.2430    81.1760     6.2180     4.9020     5.6170    23.9230   -11.8940 
  101.2500   101.2220     0.3520     0.6820     2.2260    79.8110     6.6070     5.2700     7.2120    23.7900   -12.4350 
  101.3750   101.3470     0.3600     0.6890     2.2070    77.1960     6.9550     5.6590     8.6520    23.6380   -13.1410 
  101.5000   101.4710     0.3680     0.6960     2.1890    72.2590     7.1950     5.9780     8.7830    23.5030   -13.9560 
  101.6250   101.5960     0.3760     0.7040     2.1750    69.5980     7.2840     6.1400     7.9130    23.4320   -14.7490 
  101.7500   101.7200     0.3830     0.7110     2.1670    70.8700     7.2740     6.1730     7.3770    23.5090   -15.3530 
  101.8750   101.8450     0.3910     0.7190     2.1670    72.4290     7.2120     6.1210     7.1960    23.6580   -15.7830 
  102.0000   101.9690     0.3990     0.7260     2.1740    71.0760     7.1370     6.0330     7.0560    23.7840   -15.9440 
  102.1250   102.0940     0.4070     0.7340     2.1840    69.2290     7.0810     5.9460     7.0570    23.8220   -15.7840 
  102.2500   102.2180     0.4150     0.7410     2.1910    70.9930     7.0550     5.8800     7.1560    23.7720   -15.6190 
  102.3750   102.3430     0.4230     0.7490     2.1910    75.8800     7.0620     5.8420     7.2440    23.6740   -15.4860 
  102.5000   102.4670     0.4310     0.7560     2.1840    80.7390     7.1030     5.8370     7.3660    23.5600   -15.3430 
  102.6250   102.5920     0.4390     0.7640     2.1750    81.8430     7.1690     5.8650     7.6090    23.4920   -15.3110 
  102.7500   102.7160     0.4470     0.7710     2.1720    80.1980     7.2380     5.9100     7.7570    23.5010   -15.3570 
  102.8750   102.8410     0.4550     0.7790     2.1780    77.2720     7.2950     5.9550     8.1350    23.6190   -15.4220 
  103.0000   102.9650     0.4630     0.7860     2.1920    74.2430     7.3310     5.9890     8.4030    23.8060   -15.5730 
  103.1250   103.0900     0.4710     0.7930     2.2090    72.1130     7.3480     6.0080     8.2010    23.8730   -15.7550 
  103.2500   103.2140     0.4790     0.8010     2.2200    71.9950     7.3640     6.0230     7.9650    23.7800   -15.9260 
  103.3750   103.3390     0.4870     0.8080     2.2220    71.7260     7.3960     6.0470     8.0460    23.6750   -16.2100 
  103.5000   103.4640     0.4950     0.8160     2.2150    68.3990     7.4550     6.0930     8.4490    23.6740   -16.5470 
  103.6250   103.5880     0.5030     0.8230     2.2060    63.8840     7.5520     6.1700     8.9110    23.8280   -16.8190 
  103.7500   103.7130     0.5100     0.8310     2.2000    62.0010     7.6700     6.2710     8.8930    24.1100   -17.1320 
  103.8750   103.8370     0.5180     0.8380     2.1990    61.9270     7.7890     6.3800     8.6290    24.5370   -17.4210 
  104.0000   103.9620     0.5260     0.8460     2.2030    61.6830     7.8850     6.4780     8.4470    25.1710   -17.5760 
  104.1250   104.0860     0.5340     0.8530     2.2100    62.4910     7.9250     6.5400     8.3270    25.6420   -17.7110 
  104.2500   104.2110     0.5420     0.8610     2.2160    64.1260     7.9080     6.5560     8.4250    25.7870   -17.8100 
  104.3750   104.3350     0.5500     0.8680     2.2120    63.9310     7.8440     6.5230     8.6170    25.7430   -17.7390 
  104.5000   104.4600     0.5580     0.8760     2.1960    61.8900     7.7550     6.4540     8.6150    25.8060   -17.6350 
  104.6250   104.5840     0.5660     0.8830     2.1670    62.0000     7.6770     6.3710     8.3250    26.1650   -17.5580 
  104.7500   104.7090     0.5740     0.8900     2.1390    63.7400     7.6360     6.3040     7.9310    26.5650   -17.3950 
  104.8750   104.8330     0.5820     0.8980     2.1240    63.6230     7.6480     6.2720     7.6710    26.7380   -17.2650 
  105.0000   104.9580     0.5900     0.9050     2.1230    62.2810     7.7160     6.2870     7.4900    26.6340   -17.2360 
  105.1250   105.0820     0.5980     0.9130     2.1300    61.6510     7.8400     6.3580     7.5000    26.4470   -17.1880 
  105.2500   105.2070     0.6060     0.9200     2.1370    61.4480     7.9910     6.4670     7.6270    26.3880   -17.1550 
  105.3750   105.3310     0.6140     0.9280     2.1430    60.9300     8.1370     6.5970     7.6880    26.3020   -17.1640 
  105.5000   105.4560     0.6220     0.9350     2.1570    62.0280     8.2460     6.7230     7.3280    26.0470   -17.0810 
  105.6250   105.5800     0.6290     0.9430     2.1800    66.0330     8.2790     6.8070     6.7250    25.3130   -16.9610 
