~V
VERS. 2.00: Ver 2.00
~W
STRT.M 1.0000:
STOP.M 198.0000:
STEP.M 0.1250:
NULL. -999.2500:
UWI. FD10802:
~C
DEPT.M :
TVD. :
DX. :
DY. :
SP.MV :
GR.API :
RI. :
RML.OHMM :
RXO.OHMM :
DEN.GM/CC :
~A
# ...
   74.0000    73.9740    -0.2380     0.6330   -19.2140    62.3140     6.1940     9.2970     7.3230     2.0880 
   74.1250    74.0990    -0.2440     0.6450   -19.2690    61.9680     6.1270     8.8990     7.2210     2.0870 
   74.2500    74.2230    -0.2500     0.6570   -19.2510    61.5700     6.0660     8.4870     7.3840     2.0870 
   74.3750    74.3470    -0.2560     0.6690   -19.3200    61.2840     6.0310     8.1310     7.7230     2.0890 
   74.5000    74.4720    -0.2620     0.6810   -19.3410    62.0500     6.0270     7.9200     7.9520     2.0840 
   74.6250    74.5960    -0.2680     0.6930   -19.3160    63.4910     6.0440     7.7660     7.9760     2.0780 
   74.7500    74.7200    -0.2740     0.7050   -19.2070    63.9220     6.0480     7.6300     7.6600     2.0730 
   74.8750    74.8440    -0.2810     0.7170   -19.0980    63.3420     6.0300     7.5050     7.1290     2.0780 
   75.0000    74.9690    -0.2870     0.7300   -19.0860    62.6090     5.9570     7.3270     6.8470     2.0900 
   75.1250    75.0930    -0.2940     0.7430   -19.1110    61.6260     5.8360     7.0920     6.8720     2.1040 
   75.2500    75.2170    -0.3000     0.7550   -18.9270    61.3820     5.7030     6.8450     7.0090     2.1040 
   75.3750    75.3410    -0.3070     0.7680   -18.5810    61.1630     5.6100     6.6350     7.0930     2.0880 
   75.5000    75.4650    -0.3130     0.7810   -18.3090    62.5470     5.6260     6.5850     7.1490     2.0720 
   75.6250    75.5890    -0.3200     0.7940   -18.1870    63.5040     5.8190     6.7610     7.3140     2.0760 
   75.7500    75.7140    -0.3270     0.8070   -18.0530    64.7560     6.3620     7.4250     7.6760     2.1050 
   75.8750    75.8380    -0.3340     0.8200   -17.7760    64.4160     7.3320     8.6580     8.7150     2.1580 
   76.0000    75.9620    -0.3410     0.8340   -17.4400    63.8450     8.5130    10.1160    12.5380     2.2340 
   76.1250    76.0860    -0.3480     0.8470   -17.0430    63.3680     9.2150    10.9040    19.2140     2.3110 
   76.2500    76.2100    -0.3550     0.8610   -16.6560    63.9350     9.1590    10.6640    21.5370     2.3450 
   76.3750    76.3340    -0.3620     0.8750   -16.3840    64.4360     8.2990     9.3940    15.7370     2.3070 
   76.5000    76.4580    -0.3700     0.8880   -16.2900    63.9790     7.0950     7.7880     9.0810     2.2180 
   76.6250    76.5820    -0.3770     0.9020   -16.1290    63.1990     6.0950     6.5440     6.7190     2.1350 
   76.7500    76.7060    -0.3850     0.9160   -15.7150    61.8330     5.5290     5.9350     6.5480     2.0900 
   76.8750    76.8300    -0.3920     0.9310   -15.0160    60.7640     5.4010     5.8960     6.5580     2.0780 
   77.0000    76.9540    -0.4000     0.9450   -13.8950    60.0100     5.4990     6.1170     6.6200     2.0820 
   77.1250    77.0780    -0.4070     0.9590   -12.4650    60.7040     5.4930     6.1670     6.7840     2.1030 
   77.2500    77.2020    -0.4150     0.9740   -10.6120    63.9030     5.2240     5.8680     6.5730     2.1390 
   77.3750    77.3250    -0.4230     0.9880    -8.4530    70.8870     4.7590     5.3300     5.6320     2.1790 
   77.5000    77.4490    -0.4310     1.0030    -6.2440    80.8700     4.2600     4.7480     4.7100     2.2070 
   77.6250    77.5730    -0.4390     1.0180    -4.3700    91.7620     3.8300     4.3150     4.3750     2.2220 
   77.7500    77.6970    -0.4470     1.0330    -3.1400   100.1210     3.5390     3.9940     4.3010     2.2400 
   77.8750    77.8210    -0.4550     1.0480    -2.4160   105.6750     3.3680     3.7820     4.2600     2.2550 
   78.0000    77.9450    -0.4640     1.0640    -2.0950   106.5920     3.3020     3.6770     4.2260     2.2630 
   78.1250    78.0680    -0.4720     1.0790    -2.1680   105.8060     3.4050     3.7890     4.2700     2.2530 
   78.2500    78.1920    -0.4800     1.0940    -2.5270   103.0680     3.9350     4.4160     4.4200     2.2550 
   78.3750    78.3160    -0.4890     1.1100    -3.0220    97.7400     5.0340     5.6430     6.7690     2.2950 
   78.5000    78.4400    -0.4970     1.1260    -3.5350    89.4140     6.4030     7.1800    18.9130     2.3900 
   78.6250    78.5630    -0.5060     1.1410    -3.8480    81.2380     7.5580     8.4300    37.8030     2.4900 
   78.7500    78.6870    -0.5150     1.1570    -4.0820    78.6090     7.8900     8.6880    40.8170     2.5130 
   78.8750    78.8110    -0.5230     1.1730    -4.4650    80.6890     7.1860     7.8920    23.5160     2.4370 
   79.0000    78.9340    -0.5320     1.1900    -5.0360    86.9170     5.9420     6.4500     8.2470     2.3190 
   79.1250    79.0580    -0.5410     1.2060    -5.6410    92.8070     4.7020     5.0700     4.2900     2.2360 
   79.2500    79.1810    -0.5500     1.2220    -6.2730    97.0210     4.0550     4.3540     4.3460     2.2030 
   79.3750    79.3050    -0.5590     1.2390    -7.0370    97.0030     3.9610     4.2630     4.4780     2.1850 
   79.5000    79.4290    -0.5690     1.2550    -8.0050    95.8870     4.2670     4.5760     4.8780     2.1750 
   79.6250    79.5520    -0.5780     1.2720    -9.0330    93.5990     4.7190     5.0280     5.2510     2.1740 
   79.7500    79.6760    -0.5870     1.2890    -9.6990    91.8030     5.1960     5.4830     5.2180     2.1740 
   79.8750    79.7990    -0.5970     1.3060    -9.8800    89.4100     5.6070     5.8580     5.2130     2.1550 
   80.0000    79.9230    -0.6060     1.3230    -9.4850    86.9430     5.8350     6.0470     5.3580     2.1300 
   80.1250    80.0460    -0.6160     1.3400    -8.7370    86.0900     5.8550     6.0370     5.4680     2.1170 
   80.2500    80.1690    -0.6260     1.3570    -7.6990    87.3930     5.6970     5.8660     5.4130     2.1310 
   80.3750    80.2930    -0.6360     1.3750    -6.5960    91.1350     5.4460     5.6050     5.1670     2.1510 
   80.5000    80.4160    -0.6460     1.3920    -5.6080    94.3450     5.1020     5.2810     5.0710     2.1630 
   80.6250    80.5400    -0.6560     1.4100    -5.0050    97.2450     4.7200     4.9380     5.1430     2.1690 
   80.7500    80.6630    -0.6660     1.4280    -4.6950   100.3780     4.3600     4.6110     5.1120     2.1800 
   80.8750    80.7860    -0.6760     1.4460    -4.4350   102.8930     4.0440     4.3030     4.8860     2.2040 
   81.0000    80.9090    -0.6860     1.4640    -4.2800   104.0100     3.8080     4.0720     4.5270     2.2300 
   81.1250    81.0330    -0.6970     1.4820    -4.4480   103.4340     3.7800     4.0750     4.3950     2.2400 
   81.2500    81.1560    -0.7070     1.5000    -5.1140   102.1790     4.2190     4.5890     4.5460     2.2440 
   81.3750    81.2790    -0.7180     1.5180    -5.9830    99.6910     5.1880     5.8310     5.5500     2.2730 
   81.5000    81.4020    -0.7280     1.5370    -6.9170    94.4920     7.1780     8.1450    12.5770     2.3560 
   81.6250    81.5250    -0.7390     1.5550    -7.8440    88.1640     9.9590    11.1570    24.0800     2.4590 
   81.7500    81.6490    -0.7500     1.5740    -8.7900    82.3560    12.5000    13.7010    29.8030     2.5250 
   81.8750    81.7720    -0.7610     1.5930    -9.8510    78.9340    13.4160    14.5700    29.2060     2.5270 
   82.0000    81.8950    -0.7720     1.6120   -11.0880    76.5380    12.5680    13.4240    24.7640     2.4500 
   82.1250    82.0180    -0.7830     1.6310   -12.3320    74.9730    10.3880    11.0660    16.2750     2.3290 
   82.2500    82.1410    -0.7940     1.6500   -13.4200    74.7940     8.2970     8.8070     8.7240     2.2090 
   82.3750    82.2640    -0.8050     1.6690   -14.1490    75.3680     7.0180     7.3530     5.9610     2.1320 
   82.5000    82.3870    -0.8160     1.6890   -14.4600    76.7590     6.2540     6.5900     5.7370     2.1000 
   82.6250    82.5100    -0.8280     1.7080   -14.7040    75.9910     5.9340     6.3090     5.7760     2.0860 
   82.7500    82.6330    -0.8390     1.7280   -14.9190    73.9620     5.9340     6.3220     5.7640     2.0760 
   82.8750    82.7550    -0.8510     1.7480   -15.0660    71.1140     6.0100     6.4640     5.4880     2.0710 
   83.0000    82.8780    -0.8630     1.7670   -15.1180    70.3860     6.0230     6.4980     5.1930     2.0720 
