~V
VERS. 2.00: Ver 2.00
~W
STRT.M 20.0000:
STOP.M 282.0000:
STEP.M 0.1250:
NULL. -999.2500:
UWI. FD10228:
~C
DEPT.M :
TVD. :
DX. :
DY. :
GR.API :
RML.OHMM :
RI. :
RXO.OHMM :
CALI.CM :
SP.MV :
DEN.GM/CC :
~A
# ...
  102.5000   102.4760    -1.4230     0.9620    80.2940    11.8440    10.1340    13.3770    24.2520   -24.0700     2.2580 
  102.6250   102.6000    -1.4230     0.9640    78.6660    12.9340    10.5470    12.6750    24.4010   -24.0460     2.3220 
  102.7500   102.7250    -1.4240     0.9650    72.4490    15.1360    11.8690    15.5980    24.3870   -24.1620     2.3890 
  102.8750   102.8500    -1.4240     0.9670    68.9610    18.1570    14.0990    23.2020    24.3280   -24.3740     2.4360 
  103.0000   102.9750    -1.4250     0.9680    67.7980    21.2260    16.8590    37.6140    24.4570   -24.6260     2.4430 
  103.1250   103.1000    -1.4250     0.9700    64.7130    22.8180    18.9840    47.8560    24.5730   -24.9010     2.4030 
  103.2500   103.2250    -1.4260     0.9710    60.8850    22.3670    19.5250    41.1840    24.5120   -25.1940     2.3290 
  103.3750   103.3500    -1.4260     0.9730    59.5600    20.4200    18.5580    28.7260    24.3300   -25.5100     2.2660 
  103.5000   103.4750    -1.4270     0.9740    58.7550    18.0940    16.8950    23.3490    24.3000   -25.8230     2.2390 
  103.6250   103.6000    -1.4280     0.9760    56.6510    16.2750    15.3230    26.0530    24.4880   -26.0280     2.2530 
  103.7500   103.7250    -1.4280     0.9770    57.3390    14.9950    14.0780    32.8990    25.2090   -26.1110     2.2860 
  103.8750   103.8500    -1.4290     0.9790    61.0860    14.0750    13.1010    33.1590    26.2880   -26.1020     2.3040 
  104.0000   103.9750    -1.4290     0.9800    64.5680    13.3890    12.3140    22.7030    27.2230   -26.0380     2.2910 
  104.1250   104.1000    -1.4300     0.9820    64.8890    12.9820    11.7490    17.6380    27.3200   -25.9330     2.2550 
  104.2500   104.2250    -1.4300     0.9830    65.1970    12.8520    11.4190    16.7100    27.2740   -25.8160     2.2150 
  104.3750   104.3500    -1.4310     0.9850    67.0530    12.9670    11.3340    17.3570    27.1280   -25.6850     2.1870 
  104.5000   104.4750    -1.4310     0.9860    67.5440    13.2140    11.4470    18.2680    28.6070   -25.5260     2.1700 
  104.6250   104.6000    -1.4320     0.9880    65.3010    13.4180    11.6490    19.1330    26.5520   -25.4120     2.1630 
  104.7500   104.7250    -1.4320     0.9890    63.8660    13.4650    11.7850    19.0920    27.0680   -25.3560     2.1630 
  104.8750   104.8500    -1.4330     0.9910    64.9560    13.3640    11.7920    18.4930    28.1050   -25.3410     2.1670 
  105.0000   104.9750    -1.4340     0.9920    67.3520    13.1900    11.6880    18.0300    25.8740   -25.3560     2.1700 
  105.1250   105.1000    -1.4320     0.9940    66.7870    13.0280    11.5280    17.8620    24.7510   -25.4040     2.1710 
  105.2500   105.2250    -1.4310     0.9960    65.2580    12.9240    11.3830    17.5140    24.0510   -25.4850     2.1680 
  105.3750   105.3500    -1.4290     0.9980    65.4850    12.9010    11.2910    17.2810    23.8550   -25.6160     2.1630 
  105.5000   105.4750    -1.4280     0.9990    65.7920    12.9590    11.2670    17.4660    23.7480   -25.7900     2.1600 
  105.6250   105.6000    -1.4270     1.0010    63.5180    13.0760    11.2970    17.7530    23.7010   -25.9600     2.1600 
  105.7500   105.7250    -1.4250     1.0030    60.5510    13.1850    11.3320    17.8150    23.6580   -26.1230     2.1620 
  105.8750   105.8500    -1.4240     1.0040    61.1210    13.2160    11.3290    17.8000    23.6560   -26.3100     2.1630 
  106.0000   105.9750    -1.4220     1.0060    64.9980    13.1100    11.2530    17.6650    23.6770   -26.4990     2.1610 
  106.1250   106.1000    -1.4210     1.0080    68.4420    12.8410    11.0830    17.5320    23.7180   -26.6550     2.1570 
  106.2500   106.2250    -1.4190     1.0090    68.9850    12.5120    10.8570    17.4130    23.7220   -26.7440     2.1540 
  106.3750   106.3500    -1.4180     1.0110    66.7330    12.2190    10.6120    17.2500    23.7330   -26.7590     2.1530 
  106.5000   106.4750    -1.4170     1.0130    64.9760    12.0310    10.3830    17.1800    23.7440   -26.7500     2.1550 
  106.6250   106.6000    -1.4150     1.0140    65.6390    11.9720    10.2020    17.1600    23.7760   -26.7280     2.1590 
  106.7500   106.7250    -1.4140     1.0160    67.4140    11.9740    10.0660    16.8140    23.7920   -26.6720     2.1620 
  106.8750   106.8500    -1.4120     1.0180    67.7370    11.9830     9.9620    16.2030    23.7790   -26.5700     2.1650 
  107.0000   106.9750    -1.4110     1.0200    66.5250    11.9710     9.8780    15.8110    23.7060   -26.4340     2.1660 
  107.1250   107.1000    -1.4100     1.0210    65.2650    11.9540     9.8120    15.7380    23.6250   -26.2820     2.1660 
  107.2500   107.2250    -1.4080     1.0230    64.2380    11.9590     9.7690    15.6940    23.5330   -26.1570     2.1640 
  107.3750   107.3500    -1.4070     1.0250    64.4700    11.9940     9.7550    15.5790    23.4300   -26.0590     2.1620 
  107.5000   107.4750    -1.4050     1.0260    65.8340    12.0460     9.7590    15.7280    23.4050   -25.9410     2.1590 
  107.6250   107.6000    -1.4040     1.0280    66.3700    12.0760     9.7480    16.0440    23.4170   -25.7850     2.1570 
  107.7500   107.7250    -1.4020     1.0300    65.3280    12.0570     9.6990    16.3420    23.4180   -25.6360     2.1550 
  107.8750   107.8500    -1.4010     1.0310    62.6520    11.9920     9.6110    16.3080    23.4220   -25.4960     2.1550 
  108.0000   107.9750    -1.4000     1.0330    59.9240    11.9140     9.5120    15.9380    23.5210   -25.3490     2.1570 
  108.1250   108.1000    -1.3980     1.0350    58.3770    11.8900     9.4540    15.7770    23.7970   -25.1800     2.1600 
  108.2500   108.2250    -1.3970     1.0360    58.9050    11.9590     9.4590    16.1130    23.8700   -24.9740     2.1630 
  108.3750   108.3500    -1.3950     1.0380    61.6530    12.1120     9.5220    16.7730    23.8810   -24.7460     2.1650 
  108.5000   108.4750    -1.3940     1.0400    64.6050    12.2980     9.6110    17.5510    23.8820   -24.5320     2.1680 
  108.6250   108.6000    -1.3930     1.0420    66.6440    12.4300     9.6730    17.8880    23.8440   -24.3040     2.1720 
  108.7500   108.7250    -1.3910     1.0430    67.3090    12.4700     9.6850    17.8970    23.8100   -23.9930     2.1770 
  108.8750   108.8500    -1.3900     1.0450    66.2280    12.4360     9.6470    17.6880    23.8050   -23.5950     2.1800 
  109.0000   108.9750    -1.3880     1.0470    63.5750    12.3890     9.5860    17.7790    23.8070   -23.1480     2.1790 
  109.1250   109.1000    -1.3870     1.0480    60.8240    12.3940     9.5270    17.9610    23.8220   -22.6930     2.1740 
  109.2500   109.2240    -1.3850     1.0500    60.1990    12.4290     9.4690    18.0760    23.8180   -22.2180     2.1650 
  109.3750   109.3490    -1.3840     1.0520    61.6950    12.4380     9.4000    17.8570    23.8080   -21.6820     2.1550 
  109.5000   109.4740    -1.3830     1.0530    66.5160    12.3840     9.3180    17.3900    23.8070   -21.0680     2.1460 
  109.6250   109.5990    -1.3810     1.0550    72.5890    12.2810     9.2500    17.0500    23.8250   -20.3960     2.1400 
  109.7500   109.7240    -1.3800     1.0570    74.7210    12.2070     9.2350    17.2830    23.8690   -19.7100     2.1380 
  109.8750   109.8490    -1.3780     1.0580    70.7560    12.2490     9.3050    17.5740    23.9400   -19.0370     2.1380 
  110.0000   109.9740    -1.3770     1.0600    63.4490    12.4590     9.4750    17.7560    24.1400   -18.3460     2.1380 
  110.1250   110.0990    -1.3760     1.0620    59.2020    12.8340     9.7450    18.2550    24.3590   -17.5410     2.1370 
  110.2500   110.2240    -1.3740     1.0640    59.1000    13.2220    10.0490    18.2390    24.3630   -16.6560     2.1320 
  110.3750   110.3490    -1.3730     1.0650    61.7330    13.4100    10.2860    18.0990    24.2710   -15.7440     2.1270 
  110.5000   110.4740    -1.3710     1.0670    62.8210    13.1520    10.2990    17.9440    24.2120   -14.7950     2.1250 
  110.6250   110.5990    -1.3700     1.0690    59.9060    12.2460     9.8800    17.8090    24.2690   -13.7450     2.1300 
