~V
VERS. 2.00: Ver 2.00
~W
STRT.M 20.0000:
STOP.M 206.0000:
STEP.M 0.1250:
NULL. -999.2500:
UWI. FD10809:
~C
DEPT.M :
TVD. :
DX. :
DY. :
SP.MV :
GR.API :
RI. :
RML.OHMM :
DEN.GM/CC :
RXO.OHMM :
~A
# ...
  102.1250    98.0620     2.6810    20.1980   -20.5160    60.1270     7.8330     9.0040     2.4790    19.0690 
  102.2500    98.1650     2.6870    20.2680   -20.2520    62.0140     7.1300     8.1350     2.4470    11.7800 
  102.3750    98.2680     2.6920    20.3390   -19.5410    66.3390     6.0340     6.8680     2.4270     6.6400 
  102.5000    98.3710     2.6970    20.4090   -18.1960    73.9080     4.8880     5.6310     2.3860     7.6080 
  102.6250    98.4740     2.7020    20.4800   -16.5460    82.2350     4.1110     4.7660     2.3200     6.7950 
  102.7500    98.5770     2.7070    20.5510   -15.0180    90.0540     3.7470     4.3660     2.2560     4.7280 
  102.8750    98.6800     2.7110    20.6220   -14.0730    94.1440     3.6310     4.2530     2.2120     3.6880 
  103.0000    98.7830     2.7160    20.6930   -13.7450    95.6920     3.6400     4.3120     2.1860     3.5850 
  103.1250    98.8850     2.7210    20.7640   -13.6300    95.4920     3.7700     4.4460     2.1750     3.7140 
  103.2500    98.9880     2.7260    20.8360   -13.5760    95.3940     3.8880     4.5430     2.1830     4.0280 
  103.3750    99.0900     2.7310    20.9070   -13.5680    96.1530     3.9330     4.5480     2.1980     4.3420 
  103.5000    99.1920     2.7360    20.9790   -13.6230    96.4450     3.9330     4.5360     2.2110     4.4810 
  103.6250    99.2950     2.7410    21.0510   -13.6820    96.4210     4.0640     4.6490     2.2300     4.4180 
  103.7500    99.3970     2.7460    21.1230   -13.8970    94.3410     4.3910     4.9510     2.2710     4.2310 
  103.8750    99.4990     2.7520    21.1950   -14.1450    91.7590     4.7970     5.3370     2.3320     4.2860 
  104.0000    99.6010     2.7570    21.2670   -14.3650    89.0870     5.1200     5.6200     2.3720     6.1340 
  104.1250    99.7020     2.7620    21.3390   -14.4390    87.7300     5.2230     5.6500     2.3530    11.0110 
  104.2500    99.8040     2.7670    21.4120   -14.3870    88.6260     5.0130     5.3830     2.2760    13.1850 
  104.3750    99.9060     2.7720    21.4840   -14.3940    90.2890     4.6730     4.9810     2.1970     8.8440 
  104.5000   100.0070     2.7780    21.5570   -14.4660    91.7570     4.3570     4.6250     2.1560     4.9400 
  104.6250   100.1090     2.7830    21.6300   -14.6060    91.8580     4.1560     4.4320     2.1600     4.7770 
  104.7500   100.2100     2.7880    21.7030   -14.6820    92.9650     4.1550     4.4160     2.1850     5.3390 
  104.8750   100.3110     2.7930    21.7760   -14.6180    93.6950     4.2090     4.4610     2.2050     5.2990 
  105.0000   100.4130     2.7990    21.8490   -14.4480    94.5460     4.2210     4.4640     2.2020     4.9090 
  105.1250   100.5140     2.8040    21.9220   -14.3630    94.2450     4.2020     4.4280     2.1890     4.8480 
  105.2500   100.6150     2.8090    21.9950   -14.4010    95.5100     4.1810     4.4110     2.1770     4.8170 
  105.3750   100.7160     2.8150    22.0690   -14.5480    96.1670     4.1940     4.4410     2.1720     4.3390 
  105.5000   100.8170     2.8200    22.1420   -14.7320    96.1930     4.2350     4.5170     2.1710     4.1420 
  105.6250   100.9180     2.8250    22.2150   -14.9400    94.4170     4.2870     4.5860     2.1780     4.6040 
  105.7500   101.0190     2.8300    22.2890   -15.2850    92.3740     4.2910     4.6060     2.1900     5.2000 
  105.8750   101.1200     2.8360    22.3630   -15.5860    90.4840     4.3030     4.6260     2.2100     5.5180 
  106.0000   101.2210     2.8410    22.4360   -15.6230    89.2590     4.4110     4.7930     2.2470     5.5570 
  106.1250   101.3220     2.8460    22.5100   -15.4760    88.1190     4.8110     5.3170     2.3060     5.2120 
  106.2500   101.4230     2.8520    22.5830   -15.4860    86.9090     5.7640     6.5460     2.3880     4.5510 
  106.3750   101.5240     2.8570    22.6570   -15.7460    84.1020     7.5500     8.6280     2.4650     9.4900 
  106.5000   101.6240     2.8630    22.7310   -16.3930    80.6030    10.0930    11.2410     2.5090    24.3120 
  106.6250   101.7250     2.8690    22.8040   -17.2000    77.8050    12.2680    13.3940     2.5000    36.6430 
  106.7500   101.8260     2.8740    22.8780   -18.1750    77.3400    13.1280    14.0520     2.4390    37.0950 
  106.8750   101.9270     2.8800    22.9520   -19.2400    78.6760    12.2340    13.0930     2.3480    32.6420 
  107.0000   102.0270     2.8860    23.0260   -20.3430    81.1600    10.3510    11.1780     2.2620    27.0100 
  107.1250   102.1280     2.8910    23.1000   -21.5070    83.7920     8.6460     9.4330     2.2140    19.0180 
  107.2500   102.2290     2.8960    23.1730   -22.4470    87.0910     7.7570     8.4690     2.2270    11.7770 
  107.3750   102.3290     2.9020    23.2470   -23.1740    87.8330     7.4590     8.1450     2.2980     8.4810 
  107.5000   102.4300     2.9070    23.3210   -23.7460    86.6020     7.4420     8.1470     2.3910     8.0290 
  107.6250   102.5310     2.9120    23.3950   -24.2610    82.4030     7.4500     8.1620     2.4310     8.1310 
  107.7500   102.6310     2.9170    23.4690   -24.6600    79.1070     7.3240     8.0090     2.3720     8.0470 
  107.8750   102.7320     2.9230    23.5440   -24.9820    76.4360     7.0150     7.6640     2.2570     7.9180 
  108.0000   102.8320     2.9280    23.6180   -25.2270    75.9580     6.6260     7.1950     2.1690     7.9740 
  108.1250   102.9330     2.9330    23.6920   -25.4210    76.3060     6.2410     6.7410     2.1300     8.0540 
  108.2500   103.0330     2.9380    23.7660   -25.5730    78.2130     5.9700     6.4010     2.1200     7.8330 
  108.3750   103.1340     2.9440    23.8400   -25.6130    79.8100     5.8200     6.2110     2.1100     7.7430 
  108.5000   103.2340     2.9490    23.9150   -25.6120    79.9710     5.7180     6.1960     2.1070     8.0010 
  108.6250   103.3340     2.9540    23.9890   -25.5410    78.0090     5.7720     6.3590     2.1220     7.9080 
  108.7500   103.4350     2.9600    24.0630   -25.5060    74.4240     6.0370     6.7410     2.1630     7.8310 
  108.8750   103.5350     2.9650    24.1380   -25.5260    70.6990     6.4380     7.2380     2.2250     7.9190 
  109.0000   103.6350     2.9700    24.2120   -25.7170    68.4580     6.8630     7.7110     2.2770     7.6770 
  109.1250   103.7360     2.9760    24.2870   -26.0130    67.0730     7.1580     8.0190     2.2880     7.7100 
  109.2500   103.8360     2.9810    24.3610   -26.3800    65.5180     7.1700     8.0070     2.2460     8.2010 
  109.3750   103.9360     2.9870    24.4360   -26.7570    64.2390     6.8920     7.6890     2.1820     8.7290 
  109.5000   104.0360     2.9930    24.5100   -27.1400    64.8240     6.4390     7.1850     2.1310     9.0060 
  109.6250   104.1360     2.9980    24.5850   -27.5020    65.5690     5.9740     6.7010     2.1050     8.5690 
  109.7500   104.2360     3.0040    24.6590   -27.7470    66.4540     5.6740     6.4030     2.1000     8.0820 
  109.8750   104.3370     3.0100    24.7340   -27.8940    66.8200     5.5480     6.3000     2.0990     9.2590 
  110.0000   104.4370     3.0160    24.8080   -27.9630    66.7120     5.5270     6.3190     2.0920    10.3860 
  110.1250   104.5370     3.0220    24.8830   -28.0150    65.5120     5.5230     6.3570     2.0800     9.2370 
  110.2500   104.6370     3.0280    24.9580   -28.0290    64.2410     5.4840     6.3480     2.0700     8.6800 
  110.3750   104.7370     3.0330    25.0320   -28.0580    65.1750     5.3920     6.2740     2.0610     8.9910 
  110.5000   104.8370     3.0390    25.1070   -28.0320    67.0900     5.2670     6.1440     2.0530     8.0920 
  110.6250   104.9370     3.0450    25.1820   -27.9550    68.0050     5.1190     5.9900     2.0500     7.2650 
  110.7500   105.0370     3.0510    25.2560   -27.8370    68.1480     4.9900     5.8450     2.0550     6.5710 
  110.8750   105.1370     3.0570    25.3310   -27.7670    67.6100     4.8830     5.7220     2.0610     5.7150 
  111.0000   105.2370     3.0620    25.4060   -27.7360    67.8970     4.8030     5.6420     2.0640     5.4360 
  111.1250   105.3370     3.0680    25.4800   -27.6910    67.9670     4.7710     5.6080     2.0650     5.5440 
