~V
VERS. 2.00: Ver 2.00
~W
STRT.M 62.0000:
STOP.M 282.0000:
STEP.M 0.1250:
NULL. -999.2500:
UWI. FD10887:
~C
DEPT.M :
TVD. :
DX. :
DY. :
SP.MV :
GR.API :
RI. :
RML.OHMM :
RXO.OHMM :
DEN.GM/CC :
~A
# ...
  135.0000   133.9580    -1.2350    10.4040     8.6740    57.2040    14.5600    17.1970     6.3760     2.1110 
  135.1250   134.0770    -1.2380    10.4400     9.1590    57.4450    15.8160    18.7390     6.7160     2.1150 
  135.2500   134.1970    -1.2400    10.4770     9.9060    58.2830    17.0770    20.2210     7.0380     2.1190 
  135.3750   134.3160    -1.2430    10.5130    10.8670    59.9660    17.9090    21.1140     7.9990     2.1220 
  135.5000   134.4360    -1.2450    10.5490    11.9030    60.0300    18.3210    21.4650     8.6410     2.1210 
  135.6250   134.5550    -1.2480    10.5860    12.8780    58.6930    18.3470    21.3910     8.7100     2.1200 
  135.7500   134.6750    -1.2500    10.6220    13.7040    57.7380    18.1800    21.1020     9.1670     2.1180 
  135.8750   134.7950    -1.2530    10.6590    14.3470    57.6900    17.9400    20.7120     9.8790     2.1170 
  136.0000   134.9140    -1.2560    10.6950    14.8550    57.2720    17.7290    20.4030     9.6380     2.1180 
  136.1250   135.0340    -1.2590    10.7310    15.2840    55.7010    17.6290    20.2100     8.7250     2.1220 
  136.2500   135.1530    -1.2610    10.7680    15.6870    54.7390    17.6420    20.1970     8.4470     2.1300 
  136.3750   135.2730    -1.2640    10.8040    16.0860    55.5140    17.7520    20.3540     8.9480     2.1370 
  136.5000   135.3920    -1.2670    10.8410    16.4830    56.1070    17.9350    20.5820     9.4760     2.1390 
  136.6250   135.5120    -1.2700    10.8770    16.8460    55.4180    18.0460    20.6990     9.3740     2.1370 
  136.7500   135.6310    -1.2730    10.9140    17.1250    55.1700    17.8710    20.4290     8.6730     2.1340 
  136.8750   135.7510    -1.2760    10.9500    17.2350    56.8860    17.4650    19.9690     8.0590     2.1360 
  137.0000   135.8700    -1.2790    10.9870    17.1410    57.9470    17.0550    19.5410     7.7970     2.1420 
  137.1250   135.9900    -1.2820    11.0240    16.8320    57.8260    16.7890    19.3480     7.8980     2.1480 
  137.2500   136.1090    -1.2850    11.0600    16.3760    58.3990    16.8570    19.4950     8.1050     2.1500 
  137.3750   136.2290    -1.2880    11.0970    15.8320    58.8020    17.1800    19.8890     8.0970     2.1480 
  137.5000   136.3480    -1.2910    11.1340    15.2540    59.0250    17.5490    20.2670     8.3880     2.1490 
  137.6250   136.4670    -1.2940    11.1710    14.6620    60.1100    17.7790    20.4610     8.8610     2.1550 
  137.7500   136.5870    -1.2970    11.2080    14.0580    61.2030    17.7510    20.3300     9.0040     2.1610 
  137.8750   136.7060    -1.3000    11.2440    13.4230    60.8610    17.4630    19.9070     8.7020     2.1600 
  138.0000   136.8260    -1.3020    11.2810    12.7330    60.0660    17.0780    19.4430     7.8750     2.1530 
  138.1250   136.9450    -1.3050    11.3180    11.9530    59.6930    16.7220    19.0230     7.2710     2.1450 
  138.2500   137.0640    -1.3080    11.3560    11.0690    59.2220    16.3870    18.6490     7.5460     2.1390 
  138.3750   137.1840    -1.3110    11.3930    10.0680    58.7320    15.9330    18.0750     7.6080     2.1380 
  138.5000   137.3030    -1.3140    11.4300     8.9680    58.9190    15.2530    17.1820     7.2680     2.1390 
  138.6250   137.4220    -1.3170    11.4670     7.7780    59.8090    14.2960    15.9520     7.9200     2.1400 
  138.7500   137.5410    -1.3200    11.5050     6.5170    60.4530    13.2720    14.6500     7.8440     2.1380 
  138.8750   137.6610    -1.3230    11.5420     5.2020    60.5190    12.3830    13.5680     5.7210     2.1340 
  139.0000   137.7800    -1.3260    11.5800     3.8750    60.0140    11.8280    12.8970     4.2930     2.1320 
  139.1250   137.8990    -1.3290    11.6170     2.5980    60.1320    11.5850    12.6120     4.1800     2.1310 
  139.2500   138.0180    -1.3320    11.6550     1.4200    61.1300    11.5780    12.6120     4.2050     2.1330 
  139.3750   138.1370    -1.3350    11.6930     0.3820    61.3600    11.6110    12.6620     4.2710     2.1400 
  139.5000   138.2560    -1.3370    11.7310    -0.5290    60.9980    11.4750    12.5540     4.2510     2.1560 
  139.6250   138.3750    -1.3400    11.7690    -1.3160    60.6440    11.1740    12.2370     4.2370     2.1760 
  139.7500   138.4940    -1.3430    11.8070    -1.9930    60.8820    10.6530    11.6500     4.3050     2.1890 
  139.8750   138.6130    -1.3460    11.8450    -2.5300    62.4530    10.0390    10.9490     4.3700     2.1860 
  140.0000   138.7320    -1.3490    11.8830    -2.9110    64.5760     9.3850    10.2340     4.3560     2.1720 
  140.1250   138.8510    -1.3520    11.9210    -3.0950    65.7620     8.9150     9.7140     4.2820     2.1630 
  140.2500   138.9700    -1.3540    11.9590    -3.0740    66.3670     8.7540     9.5830     4.3740     2.1690 
  140.3750   139.0890    -1.3570    11.9980    -2.7970    67.7900     9.0940    10.0540     4.5210     2.1850 
  140.5000   139.2080    -1.3600    12.0360    -2.2510    69.5750    10.1320    11.3430     4.5200     2.1980 
  140.6250   139.3270    -1.3630    12.0750    -1.4070    67.8250    12.0660    13.7000     5.1190     2.1970 
  140.7500   139.4460    -1.3660    12.1130    -0.3390    63.4330    14.7030    16.8350     6.6300     2.1840 
  140.8750   139.5650    -1.3680    12.1520     0.8410    58.8390    17.3380    19.8260     7.9450     2.1650 
  141.0000   139.6840    -1.3710    12.1900     1.9600    56.2740    18.7980    21.3390     8.5180     2.1450 
  141.1250   139.8030    -1.3740    12.2290     2.8410    55.8080    18.3750    20.6190     9.0300     2.1270 
  141.2500   139.9210    -1.3760    12.2680     3.3960    55.7040    16.5890    18.3940     9.3330     2.1130 
  141.3750   140.0400    -1.3790    12.3070     3.5720    55.7940    14.2100    15.5690     8.2680     2.1070 
  141.5000   140.1590    -1.3820    12.3460     3.4600    56.7330    12.2680    13.3690     6.1960     2.1100 
  141.6250   140.2780    -1.3840    12.3850     3.1940    58.3760    11.0990    12.1500     4.6310     2.1160 
  141.7500   140.3960    -1.3870    12.4240     2.9780    60.2890    10.7140    11.8410     4.0930     2.1230 
  141.8750   140.5150    -1.3900    12.4630     3.0240    61.8800    11.1450    12.5060     4.4600     2.1260 
  142.0000   140.6330    -1.3920    12.5030     3.4350    61.1300    12.2190    13.8780     5.4740     2.1260 
  142.1250   140.7520    -1.3950    12.5420     4.2490    58.3060    13.7230    15.6650     6.1380     2.1230 
  142.2500   140.8710    -1.3980    12.5820     5.3350    56.6560    14.9810    17.0980     5.8940     2.1180 
  142.3750   140.9890    -1.4000    12.6210     6.5550    57.6640    15.6330    17.8330     5.3820     2.1090 
  142.5000   141.1080    -1.4030    12.6610     7.7660    58.5420    15.9010    18.1170     4.7470     2.0930 
  142.6250   141.2260    -1.4060    12.7010     8.8800    58.3820    15.8340    18.0770     3.8290     2.0700 
  142.7500   141.3440    -1.4080    12.7410     9.8530    56.4940    15.9210    18.2890     3.2400     2.0520 
  142.8750   141.4630    -1.4110    12.7810    10.6310    52.5430    16.3930    18.9770     3.2900     2.0540 
  143.0000   141.5810    -1.4130    12.8210    11.1990    49.3840    17.0030    19.8080     3.3230     2.0780 
  143.1250   141.7000    -1.4160    12.8610    11.5210    51.0590    17.7170    20.6780     3.3670     2.1110 
  143.2500   141.8180    -1.4180    12.9010    11.6130    54.8020    18.4150    21.4150     4.4760     2.1350 
  143.3750   141.9360    -1.4210    12.9420    11.4490    56.8670    18.8960    21.7550     5.8030     2.1390 
  143.5000   142.0550    -1.4230    12.9820    11.0430    56.6680    19.2630    21.9320     5.9960     2.1300 
  143.6250   142.1730    -1.4260    13.0220    10.3910    54.5710    19.8340    22.3490     5.7560     2.1200 
  143.7500   142.2910    -1.4280    13.0630     9.5620    51.8790    20.8320    23.2750     5.3160     2.1130 
  143.8750   142.4090    -1.4310    13.1030     8.6050    50.8740    22.4780    24.9940     4.8730     2.1120 
  144.0000   142.5280    -1.4330    13.1440     7.5490    50.9220    24.5980    27.3500     5.8910     2.1100 
