~V
VERS. 2.00: Ver 2.00
~W
STRT.M 40.0000:
STOP.M 276.0000:
STEP.M 0.1250:
NULL. -999.2500:
UWI. FD10882:
~C
DEPT.M :
TVD. :
DX. :
DY. :
SP.MV :
GR.API :
RI. :
RML.OHMM :
RXO.OHMM :
DEN.GM/CC :
~A
# ...
  222.5000   209.4270   -46.5250   -35.0600   -18.9010    63.3620     6.4430     6.8650     7.3300     2.2250 
  222.6250   209.5340   -46.5770   -35.0970   -19.1920    66.5590     6.0800     6.5330     7.1000     2.2340 
  222.7500   209.6420   -46.6290   -35.1340   -19.5300    70.0940     5.9210     6.4060     6.9280     2.2400 
  222.8750   209.7490   -46.6810   -35.1710   -19.9010    72.5600     5.8880     6.3830     6.8370     2.2490 
  223.0000   209.8570   -46.7330   -35.2080   -20.2380    72.9490     5.9110     6.4080     6.8150     2.2560 
  223.1250   209.9640   -46.7850   -35.2440   -20.5010    73.7620     5.9430     6.4210     6.8200     2.2660 
  223.2500   210.0720   -46.8370   -35.2810   -20.7020    74.0310     5.9670     6.4010     6.7960     2.2730 
  223.3750   210.1790   -46.8900   -35.3180   -20.8880    74.1390     5.9940     6.3900     6.7610     2.2730 
  223.5000   210.2870   -46.9420   -35.3540   -21.0070    72.9880     6.0690     6.4450     6.7490     2.2600 
  223.6250   210.3940   -46.9940   -35.3910   -21.0400    71.0210     6.2160     6.5910     6.8080     2.2320 
  223.7500   210.5020   -47.0460   -35.4270   -21.0160    69.7400     6.4130     6.8010     6.9560     2.1920 
  223.8750   210.6090   -47.0980   -35.4640   -20.9990    67.4660     6.6300     7.0470     7.2140     2.1490 
  224.0000   210.7170   -47.1510   -35.5000   -20.9000    65.8730     6.8680     7.3240     7.5510     2.1260 
  224.1250   210.8250   -47.2030   -35.5370   -20.7400    64.9730     7.1180     7.6260     7.9530     2.1260 
  224.2500   210.9320   -47.2550   -35.5730   -20.5430    65.2370     7.3840     7.9510     8.4850     2.1430 
  224.3750   211.0400   -47.3070   -35.6100   -20.4480    64.7550     7.6910     8.3420     9.2080     2.1620 
  224.5000   211.1470   -47.3590   -35.6470   -20.4240    64.6870     8.0350     8.7930     9.9610     2.1680 
  224.6250   211.2550   -47.4110   -35.6830   -20.4710    64.6560     8.3750     9.2470    10.3930     2.1640 
  224.7500   211.3630   -47.4620   -35.7200   -20.4700    66.6960     8.6720     9.6370    10.3660     2.1570 
  224.8750   211.4700   -47.5140   -35.7570   -20.4120    66.8390     8.8780     9.8780    10.0030     2.1610 
  225.0000   211.5780   -47.5660   -35.7940   -20.2730    65.4730     9.0010    10.0210     9.6590     2.1690 
  225.1250   211.6850   -47.6180   -35.8310   -20.2540    61.8700     9.0980    10.1390     9.6480     2.1810 
  225.2500   211.7930   -47.6690   -35.8680   -20.3130    59.4840     9.2150    10.2860    10.0560     2.1880 
  225.3750   211.9010   -47.7210   -35.9050   -20.4230    59.4180     9.3510    10.4610    10.7530     2.1960 
  225.5000   212.0080   -47.7730   -35.9420   -20.5760    61.3360     9.4920    10.6240    11.3810     2.1950 
  225.6250   212.1160   -47.8240   -35.9790   -20.8000    62.0180     9.5820    10.7100    11.5980     2.1880 
  225.7500   212.2230   -47.8760   -36.0160   -20.9890    61.8930     9.5710    10.6780    11.2940     2.1750 
  225.8750   212.3310   -47.9280   -36.0530   -21.1230    60.0420     9.4600    10.5290    10.5480     2.1650 
  226.0000   212.4390   -47.9800   -36.0900   -21.0800    59.9760     9.2830    10.3090     9.7320     2.1550 
  226.1250   212.5460   -48.0320   -36.1280   -21.0250    59.6370     9.0710    10.0650     9.2520     2.1530 
  226.2500   212.6540   -48.0840   -36.1650   -21.0830    59.5720     8.8980     9.8710     9.2610     2.1560 
  226.3750   212.7610   -48.1360   -36.2020   -21.1520    57.1920     8.7870     9.7630     9.6930     2.1650 
  226.5000   212.8680   -48.1880   -36.2390   -21.1530    55.6440     8.7500     9.7400    10.2450     2.1710 
  226.6250   212.9760   -48.2400   -36.2760   -21.0970    55.4730     8.7820     9.8060    10.5750     2.1740 
  226.7500   213.0830   -48.2920   -36.3130   -20.9460    56.7660     8.8580     9.9240    10.5340     2.1720 
  226.8750   213.1910   -48.3440   -36.3500   -20.7860    57.7650     8.9550    10.0620    10.2690     2.1760 
  227.0000   213.2980   -48.3960   -36.3870   -20.7040    60.5620     9.0860    10.2300    10.1200     2.1890 
  227.1250   213.4050   -48.4490   -36.4240   -20.7160    64.5180     9.2280    10.4020    10.2780     2.2020 
  227.2500   213.5130   -48.5010   -36.4610   -20.7910    68.2480     9.3490    10.5390    10.6610     2.2020 
  227.3750   213.6200   -48.5530   -36.4980   -20.8370    68.1230     9.4040    10.6070    11.1710     2.1890 
  227.5000   213.7270   -48.6060   -36.5340   -21.0180    66.3480     9.3590    10.5420    11.5300     2.1760 
  227.6250   213.8350   -48.6580   -36.5710   -21.2120    64.7460     9.2160    10.3760    11.7400     2.1750 
  227.7500   213.9420   -48.7100   -36.6080   -21.2070    63.8670     9.0100    10.1520    11.6230     2.1800 
  227.8750   214.0500   -48.7630   -36.6450   -21.0680    62.1970     8.7970     9.9190    11.1140     2.1860 
  228.0000   214.1570   -48.8150   -36.6820   -20.9550    61.2040     8.5610     9.6740    10.3850     2.1910 
  228.1250   214.2640   -48.8670   -36.7190   -20.8890    60.6270     8.3090     9.4000     9.6500     2.1990 
  228.2500   214.3720   -48.9190   -36.7560   -20.8970    60.5480     8.0700     9.1280     9.1710     2.2050 
  228.3750   214.4790   -48.9710   -36.7930   -20.9030    60.7400     7.8860     8.9130     8.6680     2.2050 
  228.5000   214.5870   -49.0230   -36.8300   -20.8380    62.6660     7.7430     8.7380     7.8670     2.1960 
  228.6250   214.6940   -49.0760   -36.8670   -20.5770    63.8150     7.6220     8.5940     7.7690     2.1860 
  228.7500   214.8010   -49.1280   -36.9040   -20.3600    64.7720     7.4940     8.4450     7.6920     2.1820 
  228.8750   214.9090   -49.1800   -36.9410   -20.4010    64.0090     7.3480     8.2640     7.3870     2.1880 
  229.0000   215.0160   -49.2320   -36.9780   -20.5210    64.0380     7.1900     8.0680     7.0780     2.2010 
  229.1250   215.1240   -49.2840   -37.0150   -20.6720    61.3030     7.0170     7.8540     6.9400     2.2140 
  229.2500   215.2310   -49.3360   -37.0520   -20.9000    59.6190     6.8400     7.6400     7.0040     2.2260 
  229.3750   215.3390   -49.3880   -37.0890   -21.1630    58.4940     6.6880     7.4500     7.2380     2.2240 
  229.5000   215.4460   -49.4400   -37.1260   -21.4460    61.7690     6.5750     7.2890     7.5010     2.2140 
  229.6250   215.5530   -49.4920   -37.1630   -21.6940    64.6940     6.5010     7.1720     7.6090     2.1950 
  229.7500   215.6610   -49.5440   -37.2000   -21.8080    66.7210     6.4520     7.0850     7.4840     2.1780 
  229.8750   215.7680   -49.5960   -37.2370   -21.8510    67.1310     6.4160     7.0150     7.2110     2.1720 
  230.0000   215.8760   -49.6480   -37.2750   -21.9460    65.9820     6.3940     6.9680     6.9960     2.1790 
  230.1250   215.9830   -49.7010   -37.3120   -21.9320    63.0750     6.3800     6.9360     6.9780     2.1880 
  230.2500   216.0900   -49.7530   -37.3490   -21.7790    59.3950     6.3420     6.8880     7.1310     2.1960 
  230.3750   216.1980   -49.8050   -37.3870   -21.6280    60.4270     6.2740     6.8320     7.3400     2.1960 
  230.5000   216.3050   -49.8560   -37.4240   -21.4360    64.3560     6.1990     6.7850     7.4490     2.1920 
  230.6250   216.4120   -49.9080   -37.4620   -21.0880    67.4550     6.0110     6.6180     7.3310     2.1860 
  230.7500   216.5200   -49.9610   -37.4990   -20.5800    67.1420     5.6090     6.1930     6.9700     2.1930 
  230.8750   216.6270   -50.0130   -37.5360   -20.0190    66.1120     5.0780     5.6010     6.3420     2.2160 
  231.0000   216.7340   -50.0650   -37.5730   -19.4130    66.6570     4.4710     4.9140     5.4140     2.2500 
  231.1250   216.8420   -50.1170   -37.6100   -18.8190    69.3580     4.0560     4.4420     4.2970     2.2760 
  231.2500   216.9490   -50.1700   -37.6470   -18.2930    71.3390     3.8760     4.2520     4.0140     2.2910 
  231.3750   217.0570   -50.2220   -37.6840   -18.0930    73.0160     3.9500     4.3690     4.5400     2.2880 
  231.5000   217.1640   -50.2740   -37.7210   -18.2450    72.2450     4.2680     4.7830     5.2820     2.2770 
