~V
VERS. 2.00: Ver 2.00
~W
STRT.M 40.0000:
STOP.M 276.0000:
STEP.M 0.1250:
NULL. -999.2500:
UWI. FD10882:
~C
DEPT.M :
TVD. :
DX. :
DY. :
SP.MV :
GR.API :
RI. :
RML.OHMM :
RXO.OHMM :
DEN.GM/CC :
~A
# ...
  131.2500   129.2920   -11.6910    -9.0000     6.8800    60.7500    22.3690    27.1310    26.2000     2.2140 
  131.3750   129.4070   -11.7290    -9.0300     6.0920    62.7310    22.7740    27.6340    25.0780     2.2460 
  131.5000   129.5230   -11.7660    -9.0590     5.2900    66.4730    23.4070    28.4940    24.2530     2.2650 
  131.6250   129.6380   -11.8040    -9.0890     4.5140    69.6170    23.9800    29.2630    24.5600     2.2730 
  131.7500   129.7530   -11.8420    -9.1190     3.8940    69.0890    23.4800    28.4860    25.3900     2.2760 
  131.8750   129.8690   -11.8790    -9.1490     3.5220    67.2580    21.2870    25.4410    25.1250     2.2790 
  132.0000   129.9840   -11.9170    -9.1790     3.2340    67.5180    17.7110    20.7150    22.6600     2.2760 
  132.1250   130.0990   -11.9550    -9.2090     2.9510    71.9420    14.0190    15.9510    18.3050     2.2700 
  132.2500   130.2140   -11.9930    -9.2390     2.5970    75.8500    11.3150    12.6680    14.2730     2.2600 
  132.3750   130.3300   -12.0310    -9.2690     2.3580    77.3360    10.3320    11.5970    12.6120     2.2430 
  132.5000   130.4450   -12.0690    -9.3000     2.5230    73.3430    10.7570    12.2160    13.0720     2.2150 
  132.6250   130.5600   -12.1070    -9.3300     3.4240    68.8360    12.3080    14.0980    14.4840     2.1830 
  132.7500   130.6750   -12.1450    -9.3610     4.8770    65.8290    14.4320    16.5730    16.2430     2.1620 
  132.8750   130.7900   -12.1830    -9.3910     6.4680    65.3520    16.6870    19.0690    18.2990     2.1530 
  133.0000   130.9050   -12.2210    -9.4220     7.6520    63.2210    18.3660    20.8440    20.4460     2.1500 
  133.1250   131.0200   -12.2590    -9.4520     8.2690    58.7540    19.4710    21.9860    22.4920     2.1410 
  133.2500   131.1350   -12.2980    -9.4830     8.4260    56.2220    20.0300    22.5260    24.3710     2.1290 
  133.3750   131.2500   -12.3360    -9.5140     8.2680    55.8410    19.9560    22.4070    25.6460     2.1180 
  133.5000   131.3650   -12.3740    -9.5440     7.9280    57.4270    19.5030    21.9310    26.0310     2.1200 
  133.6250   131.4800   -12.4130    -9.5750     7.4130    58.3300    18.8710    21.3260    25.6530     2.1350 
  133.7500   131.5950   -12.4510    -9.6060     6.8030    59.9630    18.1740    20.7210    25.0740     2.1520 
  133.8750   131.7100   -12.4900    -9.6360     6.3170    61.0250    17.4890    20.1660    24.5900     2.1500 
  134.0000   131.8250   -12.5290    -9.6670     6.0240    60.8570    17.2410    20.1720    24.5740     2.1380 
  134.1250   131.9390   -12.5670    -9.6980     5.8850    58.7390    18.1520    21.6370    28.4930     2.1470 
  134.2500   132.0540   -12.6060    -9.7290     5.8080    55.6290    20.2650    24.6870    46.0370     2.1980 
  134.3750   132.1690   -12.6450    -9.7600     5.7440    54.1430    23.2110    28.8520    77.9320     2.2730 
  134.5000   132.2840   -12.6840    -9.7900     5.6900    54.3580    26.1020    32.7740    98.5320     2.3200 
  134.6250   132.3980   -12.7230    -9.8210     5.5170    55.4620    27.9190    34.9200    85.4860     2.3120 
  134.7500   132.5130   -12.7620    -9.8520     5.2530    55.2680    28.2660    34.9700    54.0950     2.2770 
  134.8750   132.6280   -12.8010    -9.8830     4.7550    54.3860    27.0210    33.0270    32.4260     2.2430 
  135.0000   132.7420   -12.8400    -9.9140     4.0570    53.8530    24.5920    29.9900    25.8610     2.2180 
  135.1250   132.8570   -12.8790    -9.9450     3.1320    53.9550    21.8770    26.8500    24.8500     2.2040 
  135.2500   132.9720   -12.9180    -9.9760     1.9960    54.9890    19.5030    24.1400    23.6380     2.2030 
  135.3750   133.0860   -12.9570   -10.0070     0.6280    57.7760    17.4380    21.6670    21.7110     2.2030 
  135.5000   133.2010   -12.9960   -10.0380    -1.0280    60.2280    15.6430    19.4460    19.4550     2.1910 
  135.6250   133.3150   -13.0350   -10.0690    -2.9700    61.4160    13.9820    17.3830    17.1440     2.1790 
  135.7500   133.4300   -13.0750   -10.1000    -4.9260    60.6810    12.6480    15.7270    15.1920     2.1750 
  135.8750   133.5440   -13.1140   -10.1310    -6.7350    60.6950    11.7970    14.6770    14.3350     2.1750 
  136.0000   133.6590   -13.1530   -10.1620    -8.4930    61.8130    11.3630    14.1570    14.6600     2.1730 
  136.1250   133.7730   -13.1930   -10.1930   -10.0270    63.1790    11.3040    14.1120    15.8950     2.1750 
  136.2500   133.8880   -13.2320   -10.2240   -11.1640    66.6070    11.4280    14.2760    17.5530     2.1850 
  136.3750   134.0020   -13.2720   -10.2550   -11.7760    69.0980    11.6410    14.5310    18.8590     2.1950 
  136.5000   134.1170   -13.3110   -10.2860   -11.9670    71.1500    11.7990    14.7020    18.9570     2.1960 
  136.6250   134.2310   -13.3510   -10.3170   -11.7260    68.5560    11.8480    14.7640    17.7340     2.1850 
  136.7500   134.3460   -13.3900   -10.3480   -11.2340    66.0800    11.8760    14.8360    16.1740     2.1770 
  136.8750   134.4600   -13.4300   -10.3790   -10.6470    63.3160    11.9420    14.9780    15.1470     2.1750 
  137.0000   134.5750   -13.4690   -10.4110   -10.0360    63.2620    12.0490    15.2070    14.8750     2.1790 
  137.1250   134.6890   -13.5090   -10.4420    -9.4250    63.3970    12.2060    15.5340    15.1850     2.1750 
  137.2500   134.8030   -13.5480   -10.4730    -8.8140    65.2770    12.4030    15.9330    15.5510     2.1700 
  137.3750   134.9180   -13.5880   -10.5040    -8.1610    66.0320    12.5710    16.3040    15.5470     2.1600 
  137.5000   135.0320   -13.6280   -10.5360    -7.4170    66.1290    12.6680    16.5470    15.1920     2.1500 
  137.6250   135.1460   -13.6670   -10.5670    -6.4820    64.5540    12.6840    16.6680    14.6890     2.1430 
  137.7500   135.2610   -13.7070   -10.5980    -5.4390    62.3240    12.7100    16.7970    14.2060     2.1490 
  137.8750   135.3750   -13.7470   -10.6290    -4.4010    60.9520    12.8060    17.0150    13.9470     2.1670 
  138.0000   135.4890   -13.7870   -10.6610    -3.4990    60.8850    13.0540    17.4720    14.0940     2.1810 
  138.1250   135.6030   -13.8270   -10.6920    -2.8470    62.4880    13.4530    18.1230    14.5830     2.1760 
  138.2500   135.7180   -13.8670   -10.7230    -2.5110    62.6630    13.8590    18.7550    15.0620     2.1590 
  138.3750   135.8320   -13.9070   -10.7550    -2.2820    62.1940    14.2130    19.2900    15.3460     2.1460 
  138.5000   135.9460   -13.9470   -10.7870    -2.1950    60.3100    14.4050    19.5620    15.5150     2.1450 
  138.6250   136.0600   -13.9880   -10.8180    -2.2130    59.2920    14.3840    19.5350    15.6460     2.1550 
  138.7500   136.1740   -14.0280   -10.8500    -2.2550    58.7750    14.2640    19.3780    15.7930     2.1700 
  138.8750   136.2880   -14.0680   -10.8820    -2.2450    58.3860    14.1410    19.2300    16.0580     2.1880 
  139.0000   136.4010   -14.1090   -10.9140    -2.2310    58.4700    14.0700    19.1540    16.4680     2.1980 
  139.1250   136.5150   -14.1500   -10.9460    -2.1570    58.9970    14.0740    19.1800    16.8710     2.2040 
  139.2500   136.6290   -14.1910   -10.9770    -2.1150    61.8820    14.1810    19.3500    17.1150     2.1950 
  139.3750   136.7430   -14.2320   -11.0090    -2.0530    63.4650    14.3500    19.5960    17.5050     2.1870 
  139.5000   136.8560   -14.2730   -11.0410    -1.9780    63.6080    14.4730    19.7830    18.3800     2.1840 
  139.6250   136.9700   -14.3140   -11.0730    -1.9220    61.8990    14.4670    19.7760    19.1370     2.1920 
  139.7500   137.0830   -14.3550   -11.1050    -1.8890    62.3410    14.3030    19.5130    18.7920     2.1940 
  139.8750   137.1970   -14.3970   -11.1380    -1.7770    63.8900    14.0520    19.0580    17.4390     2.1870 
  140.0000   137.3100   -14.4380   -11.1700    -1.6140    63.8190    13.8410    18.6000    16.4000     2.1830 
  140.1250   137.4240   -14.4800   -11.2020    -1.3680    62.9270    13.7900    18.3110    16.4010     2.2040 
  140.2500   137.5370   -14.5210   -11.2340    -1.0880    60.1990    13.9380    18.2470    16.8420     2.2300 
