~V
VERS. 2.00: Ver 2.00
~W
STRT.M 20.0000:
STOP.M 282.0000:
STEP.M 0.1250:
NULL. -999.2500:
UWI. FD10228:
~C
DEPT.M :
TVD. :
DX. :
DY. :
GR.API :
RML.OHMM :
RI. :
RXO.OHMM :
CALI.CM :
SP.MV :
DEN.GM/CC :
~A
# ...
  226.2500   223.5190    20.3100     4.4030    42.3500     8.0890     6.6670     6.7670    18.3760   -14.2050     2.3480 
  226.3750   223.6370    20.3490     4.4080    40.2480     7.7700     6.2320     6.6950    18.3790   -14.4020     2.3420 
  226.5000   223.7560    20.3880     4.4130    41.8150     7.5750     5.8920     6.5640    18.3800   -14.5570     2.3340 
  226.6250   223.8750    20.4260     4.4190    46.1090     7.5650     5.7110     6.3440    18.3790   -14.7390     2.3260 
  226.7500   223.9930    20.4650     4.4240    48.5090     7.7130     5.6770     6.3910    18.3770   -14.9270     2.3230 
  226.8750   224.1120    20.5040     4.4290    49.8020     8.0020     5.7870     6.6030    18.3850   -15.1190     2.3260 
  227.0000   224.2310    20.5430     4.4350    51.3460     8.4160     6.0390     6.7810    18.4010   -15.3270     2.3330 
  227.1250   224.3500    20.5810     4.4400    51.2510     8.9660     6.4530     6.9570    18.4490   -15.5710     2.3410 
  227.2500   224.4680    20.6200     4.4450    48.5550     9.6290     6.9830     7.4180    18.4570   -15.8150     2.3480 
  227.3750   224.5870    20.6590     4.4510    46.0230    10.3610     7.5820     8.3680    18.4580   -16.0280     2.3540 
  227.5000   224.7060    20.6980     4.4560    46.2650    11.0510     8.1630     9.5720    18.4580   -16.2250     2.3580 
  227.6250   224.8250    20.7360     4.4610    48.7380    11.4670     8.5630     9.9350    18.4570   -16.3690     2.3610 
  227.7500   224.9430    20.7750     4.4660    51.6140    11.4930     8.6850     9.5020    18.4510   -16.4210     2.3600 
  227.8750   225.0620    20.8140     4.4720    55.5300    11.1200     8.4980     9.0370    18.4120   -16.3860     2.3540 
  228.0000   225.1810    20.8520     4.4770    59.9520    10.4580     8.0480     8.3480    18.3850   -16.3050     2.3450 
  228.1250   225.2990    20.8910     4.4820    62.1610     9.6600     7.4190     7.6020    18.3720   -16.1330     2.3330 
  228.2500   225.4180    20.9300     4.4880    61.7190     8.3740     6.7540     7.0120    18.3710   -15.8840     2.3210 
  228.3750   225.5370    20.9690     4.4930    60.6250     7.4180     6.1450     6.4890    18.3710   -15.6630     2.3110 
  228.5000   225.6560    21.0070     4.4980    63.4660     6.6810     5.6720     6.1150    18.3710   -15.5070     2.3060 
  228.6250   225.7740    21.0460     4.5040    72.7390     6.3380     5.4410     6.1130    18.3710   -15.3590     2.3080 
  228.7500   225.8930    21.0850     4.5090    82.7780     6.3740     5.4500     6.5080    18.3710   -15.2750     2.3170 
  228.8750   226.0120    21.1240     4.5140    88.6450     6.7430     5.6900     7.1040    18.3710   -15.2650     2.3300 
  229.0000   226.1310    21.1620     4.5190    88.5500     7.3070     6.1150     7.4710    18.3710   -15.2880     2.3420 
  229.1250   226.2490    21.2010     4.5250    85.5170     7.9430     6.6480     7.8630    18.3700   -15.3350     2.3480 
  229.2500   226.3680    21.2400     4.5300    83.4790     8.4810     7.1460     8.0440    18.3660   -15.4190     2.3500 
  229.3750   226.4870    21.2790     4.5350    85.0910     8.8160     7.5050     8.0880    18.3630   -15.5170     2.3500 
  229.5000   226.6060    21.3170     4.5410    91.1530     8.9150     7.6630     8.0780    18.3760   -15.5750     2.3500 
  229.6250   226.7240    21.3560     4.5460    97.7250     8.8190     7.6010     8.1060    18.3710   -15.6370     2.3530 
  229.7500   226.8430    21.3950     4.5510   101.1110     8.7000     7.4470     8.1100    18.3700   -15.7220     2.3570 
  229.8750   226.9620    21.4330     4.5570   102.0500     8.7160     7.3250     8.0670    18.3630   -15.8400     2.3580 
  230.0000   227.0800    21.4730     4.5620   101.4660     9.0020     7.3520     8.0000    18.3600   -15.9610     2.3550 
  230.1250   227.1990    21.5120     4.5670    97.3920     9.7210     7.6740     8.1150    18.3600   -16.1090     2.3470 
  230.2500   227.3170    21.5520     4.5710    91.2310    10.8610     8.3250     8.7060    18.3640   -16.2700     2.3360 
  230.3750   227.4360    21.5910     4.5760    86.2140    12.4270     9.3430     9.9890    18.3880   -16.3890     2.3230 
  230.5000   227.5540    21.6310     4.5810    83.7150    14.3890    10.7340    11.6070    18.4360   -16.4870     2.3120 
  230.6250   227.6730    21.6710     4.5860    80.5940    16.8050    12.5480    12.6330    18.4380   -16.5970     2.3030 
  230.7500   227.7910    21.7100     4.5910    77.1960    19.6540    14.7380    14.0960    18.4410   -16.6640     2.2960 
  230.8750   227.9090    21.7500     4.5960    75.3930    22.9810    17.3380    16.3730    18.4370   -16.6350     2.2900 
  231.0000   228.0280    21.7900     4.6010    75.1110    26.7440    20.3660    18.8300    18.4360   -16.5850     2.2840 
  231.1250   228.1460    21.8290     4.6060    75.5740    30.7310    23.7690    19.7580    18.4350   -16.4910     2.2770 
  231.2500   228.2650    21.8690     4.6100    76.5460    34.4460    27.1650    20.2910    18.4280   -16.3140     2.2710 
  231.3750   228.3830    21.9080     4.6150    75.1600    37.3870    30.1050    20.8520    18.3850   -16.0960     2.2660 
  231.5000   228.5020    21.9480     4.6200    69.0830    39.2200    32.2040    20.9110    18.3650   -15.8660     2.2650 
  231.6250   228.6200    21.9880     4.6250    62.8950    39.8120    33.2050    19.9790    18.3660   -15.5500     2.2680 
  231.7500   228.7390    22.0270     4.6300    62.6210    39.6820    33.4620    18.9860    18.3600   -15.1830     2.2740 
  231.8750   228.8570    22.0670     4.6350    66.5670    39.1940    33.2670    18.3660    18.3600   -14.8380     2.2800 
  232.0000   228.9760    22.1070     4.6400    69.7170    38.6180    32.8910    18.5660    18.3600   -14.4570     2.2870 
  232.1250   229.0940    22.1460     4.6450    68.9830    38.0260    32.4710    18.8470    18.3600   -14.0270     2.2970 
  232.2500   229.2120    22.1860     4.6490    68.3440    37.2920    31.9590    18.7730    18.3600   -13.6090     2.3110 
  232.3750   229.3310    22.2250     4.6540    69.9900    36.2260    31.2170    18.5550    18.3600   -13.2190     2.3300 
  232.5000   229.4490    22.2650     4.6590    72.9500    34.6880    30.1110    18.7560    18.3610   -12.8160     2.3480 
  232.6250   229.5680    22.3050     4.6640    71.7080    32.6060    28.5450    18.7950    18.3720   -12.4240     2.3620 
  232.7500   229.6860    22.3440     4.6690    65.9860    30.2460    26.7130    18.2630    18.4110   -12.0720     2.3660 
  232.8750   229.8050    22.3840     4.6740    62.3430    27.8390    24.7970    17.4150    18.4330   -11.7430     2.3630 
  233.0000   229.9230    22.4240     4.6790    63.3840    25.5720    22.9430    16.3690    18.4310   -11.4320     2.3560 
  233.1250   230.0420    22.4630     4.6840    64.6430    23.5890    21.2760    15.2000    18.4080   -11.1970     2.3460 
  233.2500   230.1600    22.5030     4.6880    64.1120    21.8610    19.8170    14.3720    18.4200   -11.0050     2.3330 
  233.3750   230.2790    22.5420     4.6930    62.9040    20.3730    18.5750    13.9420    18.4290   -10.7940     2.3170 
  233.5000   230.3970    22.5820     4.6980    62.7150    19.1370    17.5510    13.6690    18.3990   -10.6020     2.2970 
  233.6250   230.5150    22.6220     4.7030    61.5470    18.2370    16.7840    13.3180    18.3910   -10.4990     2.2760 
  233.7500   230.6340    22.6610     4.7080    60.7180    17.6360    16.2300    12.9830    18.4230   -10.4010     2.2570 
  233.8750   230.7520    22.7010     4.7130    62.1970    17.3040    15.8740    12.7430    18.4490   -10.2810     2.2420 
  234.0000   230.8710    22.7410     4.7180    64.2290    17.1780    15.6920    12.5530    18.5240   -10.2070     2.2320 
  234.1250   230.9890    22.7800     4.7230    64.4610    17.1720    15.6450    12.3760    18.6040   -10.1270     2.2290 
  234.2500   231.1080    22.8200     4.7270    62.3260    17.1320    15.6060    12.2980    18.6510   -10.0240     2.2290 
  234.3750   231.2260    22.8590     4.7320    60.4990    16.9120    15.4480    12.0750    18.7740    -9.9570     2.2310 
