~V
VERS. 2.00: Ver 2.00
~W
STRT.M 1.0000:
STOP.M 198.0000:
STEP.M 0.1250:
NULL. -999.2500:
UWI. FD10802:
~C
DEPT.M :
TVD. :
DX. :
DY. :
SP.MV :
GR.API :
RI. :
RML.OHMM :
RXO.OHMM :
DEN.GM/CC :
~A
# ...
  192.6250   185.3920   -27.4870    29.2430    -7.9190    87.7180     5.1330     6.3340     5.6200     2.2800 
  192.7500   185.5070   -27.5230    29.2780    -7.9190    87.7180     5.1280     6.3410     5.6120     2.2790 
  192.8750   185.6210   -27.5590    29.3130    -7.9190    87.7180     5.1250     6.3430     5.5230     2.2840 
  193.0000   185.7360   -27.5940    29.3480    -7.9190    87.7180     5.1250     6.3430     5.2110     2.2780 
  193.1250   185.8510   -27.6300    29.3830    -7.9190    87.7180     5.1250     6.3430     4.8360     2.2660 
  193.2500   185.9650   -27.6660    29.4170    -7.9190    87.7180     5.1250     6.3430     4.9830     2.2570 
  193.3750   186.0800   -27.7020    29.4520    -7.9190    87.7180     5.1250     6.3430     5.5180     2.2590 
  193.5000   186.1940   -27.7370    29.4870    -7.9190    87.7180     5.1250     6.3430     5.9510     2.2720 
  193.6250   186.3090   -27.7730    29.5220    -7.9190    87.7180     5.1250     6.3430     6.3110     2.2890 
  193.7500   186.4240   -27.8090    29.5560    -7.9190    87.7180     5.1250     6.3430     6.7340     2.3020 
  193.8750   186.5380   -27.8450    29.5910    -7.9190    87.7180     5.1250     6.3430     6.6230     2.3110 
  194.0000   186.6530   -27.8800    29.6260    -7.9190    87.7180     5.1250     6.3430     5.9190     2.3020 
  194.1250   186.7670   -27.9160    29.6610    -7.9190    87.7180     5.1250     6.3430     5.3940     2.2820 
  194.2500   186.8820   -27.9520    29.6960    -7.9190    87.7180     5.1250     6.3430     5.0420     2.2620 
  194.3750   186.9970   -27.9870    29.7300    -7.9190    87.7180     5.1250     6.3430     4.7940     2.2550 
  194.5000   187.1110   -28.0230    29.7650    -7.9190    87.7180     5.1250     6.3430     4.6080     2.2550 
  194.6250   187.2260   -28.0590    29.8000    -7.9190    87.7180     5.1250     6.3430     4.3970     2.2460 
  194.7500   187.3410   -28.0950    29.8350    -7.9190    87.7180     5.1250     6.3430     4.5260     2.2260 
  194.8750   187.4550   -28.1300    29.8700    -7.9190    87.7180     5.1250     6.3430     5.0970     2.2070 
  195.0000   187.5700   -28.1660    29.9040    -7.9190    87.7180     5.1250     6.3430     5.3390     2.1960 
  195.1250   187.6840   -28.2020    29.9390    -7.9190    87.7180     5.1250     6.3430     4.8190     2.1850 
  195.2500   187.7990   -28.2380    29.9740    -7.9190    87.7180     5.1250     6.3430     4.5240     2.1580 
  195.3750   187.9140   -28.2730    30.0090    -7.9190    87.7180     5.1250     6.3430     4.7370     2.1270 
  195.5000   188.0280   -28.3090    30.0440    -7.9190    87.7180     5.1250     6.3430     4.8410     2.1050 
  195.6250   188.1430   -28.3450    30.0780    -7.9190    87.7180     5.1250     6.3430     4.6680     2.1010 
  195.7500   188.2580   -28.3800    30.1130    -7.9190    87.7180     5.1250     6.3430     4.4040     2.0980 
  195.8750   188.3720   -28.4160    30.1480    -7.9190    87.7180     5.1250     6.3430     4.2610     2.0920 
  196.0000   188.4870   -28.4520    30.1830    -7.9190    87.7180     5.1250     6.3430     4.2300     2.0860 
  196.1250   188.6010   -28.4880    30.2170    -7.9190    87.7180     5.1250     6.3430     4.2290     2.0830 
  196.2500   188.7160   -28.5230    30.2520    -7.9190    87.7180     5.1250     6.3430     4.2290     2.0850 
  196.3750   188.8310   -28.5590    30.2870    -7.9190    87.7180     5.1250     6.3430     4.2290     2.0890 
  196.5000   188.9450   -28.5950    30.3220    -7.9190    87.7180     5.1250     6.3430     4.2290     2.0950 
  196.6250   189.0600   -28.6300    30.3570    -7.9190    87.7180     5.1250     6.3430     4.2290     2.0970 
  196.7500   189.1750   -28.6660    30.3910    -7.9190    87.7180     5.1250     6.3430     4.2290     2.0920 
  196.8750   189.2890   -28.7020    30.4260    -7.9190    87.7180     5.1250     6.3430     4.2290     2.0860 
  197.0000   189.4040   -28.7380    30.4610    -7.9190    87.7180     5.1250     6.3430     4.2290     2.0870 
  197.1250   189.5180   -28.7730    30.4960    -7.9190    87.7180     5.1250     6.3430     4.2290     2.0880 
  197.2500   189.6330   -28.8090    30.5310    -7.9190    87.7180     5.1250     6.3430     4.2290     2.0850 
  197.3750   189.7480   -28.8450    30.5650    -7.9190    87.7180     5.1250     6.3430     4.2290     2.0840 
  197.5000   189.8620   -28.8810    30.6000    -7.9190    87.7180     5.1250     6.3430     4.2290     2.0880 
  197.6250   189.9770   -28.9160    30.6350    -7.9190    87.7180     5.1250     6.3430     4.2290     2.0920 
  197.7500   190.0920   -28.9520    30.6700    -7.9190    87.7180     5.1250     6.3430     4.2290     2.0930 
  197.8750   190.2060   -28.9880    30.7050    -7.9190    87.7180     5.1250     6.3430     4.2290     2.0910 
  198.0000   190.3210   -29.0230    30.7390    -7.9190    87.7180     5.1250     6.3430     4.2290     2.0900 
