~V
VERS. 2.00: Ver 2.00
~W
STRT.M 30.0000:
STOP.M 262.0000:
STEP.M 0.1250:
NULL. -999.2500:
UWI. FD10852:
~C
DEPT.M :
TVD. :
DX. :
DY. :
SP.MV :
GR.API :
RI. :
RML.OHMM :
RXO.OHMM :
DEN.GM/CC :
~A
# ...
  157.7500   148.2400   -41.6200    -2.7080    -6.9960    59.9200    16.5860    19.6710    17.6000     2.4350 
  157.8750   148.3420   -41.6930    -2.7100    -6.2180    58.6660    18.7520    22.0760    22.4830     2.4300 
  158.0000   148.4430   -41.7660    -2.7120    -5.3370    60.1300    19.4950    22.6810    20.5790     2.3860 
  158.1250   148.5440   -41.8390    -2.7140    -4.6390    61.5590    19.7340    22.7760    18.2650     2.3670 
  158.2500   148.6460   -41.9120    -2.7160    -4.4170    60.7580    20.0750    23.1820    16.8550     2.3930 
  158.3750   148.7470   -41.9860    -2.7180    -4.6760    57.1760    20.5880    24.0500    17.1470     2.4360 
  158.5000   148.8480   -42.0590    -2.7210    -5.2230    53.7700    20.9950    24.9690    21.4670     2.4720 
  158.6250   148.9500   -42.1320    -2.7230    -5.8270    52.3930    20.9840    25.4770    22.8130     2.5070 
  158.7500   149.0510   -42.2050    -2.7260    -6.2060    53.6240    20.5720    25.4050    20.5410     2.5440 
  158.8750   149.1530   -42.2780    -2.7280    -6.1110    54.5670    19.7470    24.7430    19.6580     2.5680 
  159.0000   149.2540   -42.3510    -2.7300    -5.6190    54.9630    19.0490    24.1000    19.4970     2.5640 
  159.1250   149.3550   -42.4240    -2.7320    -5.1270    55.7680    18.5540    23.6870    19.5120     2.5500 
  159.2500   149.4570   -42.4970    -2.7330    -4.7730    57.5080    18.5970    23.8410    19.0200     2.5420 
  159.3750   149.5580   -42.5710    -2.7350    -4.5090    58.4670    19.0590    24.4500    18.4340     2.5350 
  159.5000   149.6590   -42.6440    -2.7360    -4.3790    57.6480    19.8290    25.4030    19.2630     2.5200 
  159.6250   149.7600   -42.7170    -2.7380    -4.3800    56.3090    20.6350    26.3290    21.6330     2.5140 
  159.7500   149.8620   -42.7900    -2.7400    -4.4370    56.1920    21.6530    27.4900    24.4730     2.5260 
  159.8750   149.9630   -42.8640    -2.7420    -4.4920    56.1520    22.5360    28.4060    24.9090     2.5470 
  160.0000   150.0640   -42.9370    -2.7440    -4.4710    54.9040    23.3450    29.2510    23.4910     2.5570 
  160.1250   150.1650   -43.0110    -2.7460    -4.3860    53.9950    24.0220    29.9420    22.5720     2.5550 
  160.2500   150.2660   -43.0840    -2.7480    -4.3200    54.4110    24.4570    30.3570    22.4240     2.5530 
  160.3750   150.3670   -43.1580    -2.7500    -4.3310    55.7880    24.6850    30.4950    24.8170     2.5590 
  160.5000   150.4680   -43.2310    -2.7520    -4.4230    56.1790    24.6540    30.3190    27.2050     2.5520 
  160.6250   150.5690   -43.3050    -2.7530    -4.6200    55.9740    24.3290    29.7370    26.8260     2.5230 
  160.7500   150.6700   -43.3780    -2.7550    -4.7650    54.9340    23.8970    29.1990    25.2520     2.4840 
  160.8750   150.7710   -43.4520    -2.7560    -4.5740    53.8920    23.7830    29.1510    23.0170     2.4610 
  161.0000   150.8720   -43.5260    -2.7570    -3.8940    56.1250    23.6380    29.0830    21.5450     2.4610 
  161.1250   150.9730   -43.6000    -2.7580    -2.9060    59.7070    23.4240    28.8200    21.1690     2.4700 
  161.2500   151.0740   -43.6740    -2.7600    -1.9050    60.5960    23.0400    28.2210    21.7420     2.4750 
  161.3750   151.1750   -43.7470    -2.7610    -1.3010    58.3320    22.6890    27.6520    22.5120     2.4720 
  161.5000   151.2760   -43.8210    -2.7630    -1.2890    56.9080    22.5130    27.3350    22.0030     2.4640 
  161.6250   151.3770   -43.8950    -2.7640    -1.6100    57.5210    22.5790    27.4260    20.8780     2.4580 
  161.7500   151.4770   -43.9690    -2.7650    -2.0450    58.8750    22.8230    27.7330    20.9010     2.4560 
  161.8750   151.5780   -44.0430    -2.7670    -2.3340    60.8680    23.1140    28.0720    23.2260     2.4560 
  162.0000   151.6790   -44.1160    -2.7680    -2.1770    63.1680    23.6170    28.6500    25.5210     2.4450 
  162.1250   151.7800   -44.1900    -2.7690    -1.6260    64.3210    24.3890    29.5490    24.5070     2.4310 
  162.2500   151.8810   -44.2640    -2.7710    -1.0070    64.0670    25.3350    30.6900    22.9910     2.4220 
  162.3750   151.9820   -44.3380    -2.7720    -0.5540    63.1860    26.4460    32.0390    25.0800     2.4140 
  162.5000   152.0830   -44.4120    -2.7730    -0.2550    60.8250    27.5140    33.2460    26.9740     2.4060 
  162.6250   152.1840   -44.4850    -2.7750    -0.1450    59.4830    28.3990    34.1540    27.7930     2.4020 
  162.7500   152.2850   -44.5590    -2.7770    -0.2930    62.1300    28.9970    34.6630    30.8440     2.3860 
  162.8750   152.3850   -44.6330    -2.7790    -0.5220    66.2860    29.1330    34.6740    30.3360     2.3420 
  163.0000   152.4860   -44.7070    -2.7800    -0.7250    68.4390    28.9420    34.3390    28.5430     2.2990 
  163.1250   152.5870   -44.7800    -2.7820    -0.8070    68.4320    28.4020    33.5970    33.5010     2.2960 
  163.2500   152.6880   -44.8540    -2.7840    -0.7310    67.8470    27.6520    32.5160    36.5780     2.3220 
  163.3750   152.7890   -44.9280    -2.7860    -0.6330    66.5100    27.1240    31.6970    32.8640     2.3320 
  163.5000   152.8900   -45.0010    -2.7880    -0.6100    65.6050    27.1580    31.6010    27.9030     2.3220 
  163.6250   152.9910   -45.0750    -2.7900    -0.7370    66.1120    28.0210    32.6030    24.9760     2.3170 
  163.7500   153.0920   -45.1490    -2.7910    -1.0710    66.4790    29.5960    34.5500    25.5980     2.3290 
  163.8750   153.1930   -45.2230    -2.7930    -1.3920    65.7950    31.1480    36.3470    29.1350     2.3570 
  164.0000   153.2940   -45.2960    -2.7950    -1.3430    64.3190    31.6700    36.7890    34.1580     2.3840 
  164.1250   153.3950   -45.3700    -2.7970    -0.7990    62.9560    31.1760    36.0450    35.0450     2.3960 
  164.2500   153.4960   -45.4440    -2.7990     0.1650    60.9930    30.0930    34.6460    31.4730     2.3950 
  164.3750   153.5970   -45.5180    -2.8010     1.1940    58.5250    28.8470    33.1800    29.4510     2.4000 
  164.5000   153.6970   -45.5910    -2.8020     1.8300    57.1260    28.0130    32.2160    27.2870     2.4170 
  164.6250   153.7980   -45.6650    -2.8040     1.9550    57.9930    27.6220    31.7920    25.2440     2.4420 
  164.7500   153.8990   -45.7390    -2.8060     1.6930    60.2440    27.7420    31.9980    26.3040     2.4710 
  164.8750   154.0000   -45.8120    -2.8080     1.2720    62.6640    28.1110    32.4700    27.7210     2.4940 
  165.0000   154.1010   -45.8860    -2.8100     0.8620    65.1400    28.5100    33.0770    28.7290     2.5060 
  165.1250   154.2020   -45.9600    -2.8110     0.7390    66.4560    28.8430    33.5750    31.1870     2.5060 
  165.2500   154.3030   -46.0340    -2.8130     0.9380    64.0430    29.1190    34.0000    33.0140     2.4940 
  165.3750   154.4040   -46.1070    -2.8150     1.2020    61.6670    29.5260    34.5880    32.5740     2.4720 
  165.5000   154.5050   -46.1810    -2.8170     1.4300    61.4250    30.0120    35.2350    31.6830     2.4570 
  165.6250   154.6060   -46.2550    -2.8190     1.6490    60.7180    30.1780    35.4610    29.8700     2.4600 
  165.7500   154.7070   -46.3280    -2.8210     1.7670    57.7570    29.6420    34.8100    28.6100     2.4750 
  165.8750   154.8080   -46.4020    -2.8220     1.7420    55.5680    28.5330    33.4200    31.0420     2.4940 
  166.0000   154.9090   -46.4750    -2.8250     1.5160    56.2680    27.0060    31.4990    32.8090     2.4910 
  166.1250   155.0100   -46.5490    -2.8270     1.0750    56.1620    25.7370    29.9870    30.0370     2.4610 
  166.2500   155.1110   -46.6230    -2.8290     0.6660    54.5450    25.2940    29.5980    25.9760     2.4130 
  166.3750   155.2120   -46.6960    -2.8310     0.4510    54.2510    25.7150    30.3460    24.0570     2.3740 
  166.5000   155.3130   -46.7700    -2.8330     0.2090    55.6200    26.3370    31.3140    24.1750     2.3720 
  166.6250   155.4140   -46.8430    -2.8350    -0.3780    58.2030    26.5510    31.6940    24.8670     2.4070 
  166.7500   155.5150   -46.9170    -2.8370    -1.2210    60.5470    25.7950    30.7690    26.1600     2.4500 
