~V
VERS. 2.00: Ver 2.00
~W
STRT.M 40.0000:
STOP.M 276.0000:
STEP.M 0.1250:
NULL. -999.2500:
UWI. FD10882:
~C
DEPT.M :
TVD. :
DX. :
DY. :
SP.MV :
GR.API :
RI. :
RML.OHMM :
RXO.OHMM :
DEN.GM/CC :
~A
# ...
  103.8750   103.3780    -5.0350    -3.3190   -13.1200    82.0690     8.6620    10.5550     8.9360     2.1750 
  104.0000   103.4990    -5.0590    -3.3390   -12.8470    80.7190     9.0100    10.9440     9.7800     2.1890 
  104.1250   103.6200    -5.0830    -3.3590   -12.7170    79.8210     8.8220    10.6390    10.2480     2.2390 
  104.2500   103.7410    -5.1080    -3.3790   -12.9320    80.6640     8.1720     9.7880     9.8690     2.2870 
  104.3750   103.8610    -5.1320    -3.3990   -13.4410    81.7110     7.2530     8.6560     8.7830     2.2960 
  104.5000   103.9820    -5.1570    -3.4200   -13.9670    83.4130     6.3950     7.6300     7.6530     2.2790 
  104.6250   104.1030    -5.1820    -3.4400   -14.3130    85.0290     5.7480     6.8480     6.8600     2.2680 
  104.7500   104.2240    -5.2060    -3.4600   -14.5230    89.6980     5.5070     6.5580     6.5770     2.2810 
  104.8750   104.3450    -5.2310    -3.4810   -14.6290    94.2250     5.9440     7.2020     8.3110     2.3090 
  105.0000   104.4650    -5.2560    -3.5010   -14.5650    95.5150     7.2750     9.1010    14.9720     2.3650 
  105.1250   104.5860    -5.2810    -3.5220   -14.2530    89.7560     9.8530    12.6400    28.0990     2.4520 
  105.2500   104.7070    -5.3050    -3.5430   -13.8360    81.4840    13.1400    17.0860    41.4360     2.5400 
  105.3750   104.8280    -5.3300    -3.5640   -13.3000    75.6340    15.9450    20.7100    44.8940     2.5640 
  105.5000   104.9480    -5.3550    -3.5850   -12.6530    72.4970    16.9890    21.7540    36.6280     2.4970 
  105.6250   105.0690    -5.3800    -3.6060   -11.9390    70.6380    15.8390    19.9410    23.4560     2.3610 
  105.7500   105.1900    -5.4050    -3.6260   -11.2050    67.3290    13.6330    16.8320    13.7700     2.2280 
  105.8750   105.3110    -5.4300    -3.6470   -10.5310    63.7420    11.5700    14.1620     9.8200     2.1470 
  106.0000   105.4310    -5.4550    -3.6680    -9.9410    62.1660    10.5360    12.9970     8.9240     2.1160 
  106.1250   105.5520    -5.4800    -3.6890    -9.5340    63.3060    10.2740    12.8180     9.0380     2.1120 
  106.2500   105.6720    -5.5050    -3.7100    -9.3580    67.7910    10.4130    13.1030     9.2610     2.1180 
  106.3750   105.7930    -5.5300    -3.7310    -9.3820    71.2320    10.6530    13.4670     9.5130     2.1290 
  106.5000   105.9140    -5.5560    -3.7520    -9.5280    72.6690    10.9360    13.8340     9.8240     2.1420 
  106.6250   106.0340    -5.5810    -3.7740    -9.8760    72.9870    11.1620    14.0770    10.0610     2.1460 
  106.7500   106.1550    -5.6060    -3.7950   -10.3520    74.4940    11.2920    14.1730    10.1610     2.1450 
  106.8750   106.2750    -5.6320    -3.8160   -10.8920    76.6150    11.3150    14.1240    10.3230     2.1430 
  107.0000   106.3960    -5.6570    -3.8380   -11.3430    77.6860    11.2150    13.9550    10.7010     2.1460 
  107.1250   106.5160    -5.6820    -3.8590   -11.6990    76.8950    10.9910    13.6440    11.0680     2.1500 
  107.2500   106.6370    -5.7080    -3.8810   -12.0420    76.6900    10.6290    13.1780    11.0110     2.1500 
  107.3750   106.7570    -5.7330    -3.9030   -12.3900    76.8960    10.1230    12.5190    10.3740     2.1460 
  107.5000   106.8770    -5.7590    -3.9260   -12.6660    77.8530     9.4800    11.6690     9.4530     2.1510 
  107.6250   106.9980    -5.7840    -3.9480   -12.9140    78.9680     8.7260    10.6510     8.6060     2.1710 
  107.7500   107.1180    -5.8090    -3.9700   -13.1890    79.1730     7.8730     9.5020     8.0510     2.2010 
  107.8750   107.2380    -5.8350    -3.9930   -13.4770    81.8450     7.1200     8.5050     7.7380     2.2260 
  108.0000   107.3590    -5.8600    -4.0160   -13.8270    85.0080     6.6260     7.8520     7.5060     2.2430 
  108.1250   107.4790    -5.8860    -4.0380   -14.0850    88.9040     6.5030     7.6940     7.4730     2.2550 
  108.2500   107.5990    -5.9120    -4.0610   -14.1630    90.1190     6.8060     8.0890     7.7640     2.2600 
  108.3750   107.7190    -5.9370    -4.0830   -14.0980    88.1270     7.3750     8.8040     8.1920     2.2500 
  108.5000   107.8390    -5.9630    -4.1060   -13.9120    84.4230     7.9820     9.5220     8.4070     2.2280 
  108.6250   107.9600    -5.9890    -4.1290   -13.6120    80.3840     8.3810     9.9530     8.3250     2.2090 
  108.7500   108.0800    -6.0150    -4.1520   -13.2650    80.2960     8.3880     9.8820     8.1060     2.2100 
  108.8750   108.2000    -6.0410    -4.1750   -13.0620    83.2760     8.1060     9.4820     7.8910     2.2380 
  109.0000   108.3200    -6.0670    -4.1980   -13.2140    88.0010     7.7160     9.0150     7.8200     2.2740 
  109.1250   108.4400    -6.0940    -4.2210   -13.7370    89.8070     7.4190     8.7060     7.9270     2.2820 
  109.2500   108.5600    -6.1200    -4.2440   -14.1510    89.0540     7.2310     8.5500     8.0960     2.2640 
  109.3750   108.6800    -6.1460    -4.2670   -14.2750    87.2980     7.1100     8.4700     8.2900     2.2360 
  109.5000   108.8000    -6.1730    -4.2890   -14.2770    86.0110     7.0150     8.3840     8.4760     2.2240 
  109.6250   108.9200    -6.2000    -4.3120   -14.2260    85.9430     6.9250     8.2780     8.5320     2.2300 
  109.7500   109.0400    -6.2260    -4.3350   -14.2630    84.7540     6.9870     8.3620     8.5070     2.2460 
  109.8750   109.1600    -6.2530    -4.3580   -14.3640    83.0470     7.4410     8.9700     9.6490     2.2660 
  110.0000   109.2800    -6.2800    -4.3810   -14.5550    80.9420     8.4290    10.2810    15.2770     2.3080 
  110.1250   109.3990    -6.3070    -4.4040   -14.7390    79.3640     9.5450    11.7480    27.8590     2.3940 
  110.2500   109.5190    -6.3330    -4.4280   -14.9080    78.2690    10.5020    12.9810    40.2810     2.4920 
  110.3750   109.6390    -6.3600    -4.4510   -15.0370    76.6420    10.9320    13.3720    40.8180     2.5220 
  110.5000   109.7590    -6.3870    -4.4740   -15.1530    75.4700    10.4770    12.5780    29.4290     2.4480 
  110.6250   109.8790    -6.4140    -4.4980   -15.2260    74.2660     9.5110    11.2140    16.4700     2.3240 
  110.7500   109.9990    -6.4410    -4.5210   -15.2920    75.3730     8.2990     9.6430     9.9080     2.2280 
  110.8750   110.1180    -6.4680    -4.5450   -15.3320    78.3810     7.2560     8.4550     8.4360     2.2010 
  111.0000   110.2380    -6.4950    -4.5680   -15.3370    83.6080     6.5870     7.7130     7.8680     2.2130 
  111.1250   110.3580    -6.5230    -4.5920   -15.3520    88.5140     6.1000     7.1420     7.2460     2.2480 
  111.2500   110.4770    -6.5500    -4.6160   -15.3610    92.6360     5.6190     6.5690     6.7330     2.2810 
  111.3750   110.5970    -6.5770    -4.6390   -15.2760    96.1690     5.2060     6.1080     6.3530     2.3060 
  111.5000   110.7170    -6.6050    -4.6630   -15.1750    99.1880     4.9270     5.8180     5.9740     2.3140 
  111.6250   110.8360    -6.6320    -4.6870   -15.1920    99.8820     4.7730     5.6700     5.6320     2.3140 
  111.7500   110.9560    -6.6600    -4.7110   -15.2570    98.1100     4.7170     5.6160     5.4600     2.3100 
  111.8750   111.0750    -6.6870    -4.7350   -15.2960    94.9880     4.7190     5.5910     5.5050     2.3100 
  112.0000   111.1950    -6.7150    -4.7590   -15.2880    94.6660     4.8520     5.7200     5.6740     2.3090 
  112.1250   111.3140    -6.7420    -4.7840   -15.1960    95.9930     5.3020     6.2680     6.1010     2.3070 
  112.2500   111.4340    -6.7700    -4.8080   -14.9760    97.1120     6.0550     7.2300     7.2210     2.3040 
  112.3750   111.5530    -6.7980    -4.8320   -14.5490    92.1990     7.1060     8.6200     9.1780     2.2970 
  112.5000   111.6730    -6.8250    -4.8570   -13.9860    83.8850     8.4270    10.3800    11.0400     2.2850 
  112.6250   111.7920    -6.8530    -4.8810   -13.2220    76.5780     9.7110    12.0370    11.8090     2.2610 
  112.7500   111.9110    -6.8810    -4.9060   -12.3390    72.4780    10.6980    13.2610    11.6620     2.2220 
  112.8750   112.0310    -6.9090    -4.9300   -11.4450    70.2170    11.1290    13.7270    11.3100     2.1800 
