~V
VERS. 2.00: Ver 2.00
~W
STRT.M 32.0000:
STOP.M 269.0000:
STEP.M 0.1250:
NULL. -999.2500:
UWI. FD10881:
~C
DEPT.M :
TVD. :
DX. :
DY. :
SP.MV :
GR.API :
RI. :
RML.OHMM :
RXO.OHMM :
~A
   32.0000    32.0000     0.0000     0.0000    45.3430    33.2660     0.1570     0.1190     0.3740 
   32.1250    32.1250    -0.0020     0.0000    46.5670    32.7780     0.1600     0.1190     0.3180 
   32.2500    32.2500    -0.0040     0.0000    47.4960    32.6200     0.1560     0.1190     0.2260 
   32.3750    32.3750    -0.0060     0.0000    47.9120    33.8590     0.1390     0.1080     0.2000 
   32.5000    32.5000    -0.0080     0.0000    47.7270    34.8630     0.1200     0.0950     0.2140 
   32.6250    32.6250    -0.0100     0.0010    47.0130    35.2390     0.0940     0.0840     0.2310 
   32.7500    32.7500    -0.0120     0.0010    46.0790    35.8280     0.0680     0.0640     0.2270 
   32.8750    32.8750    -0.0140     0.0010    45.1450    35.9660     0.0470     0.0410     0.1940 
   33.0000    33.0000    -0.0160     0.0010    43.9490    34.5320     0.0360     0.0270     0.2110 
   33.1250    33.1250    -0.0180     0.0010    42.0210    33.1330     0.0450     0.0300     0.5090 
   33.2500    33.2500    -0.0200     0.0010    38.6990    35.0060     0.0900     0.0590     0.9520 
   33.3750    33.3750    -0.0220     0.0010    33.9870    38.5270     0.2010     0.1540     2.0590 
   33.5000    33.5000    -0.0240     0.0010    27.9860    41.4060     0.4680     0.4530     5.0370 
   33.6250    33.6250    -0.0260     0.0010    21.4720    44.8480     0.9350     1.1980     7.4030 
   33.7500    33.7500    -0.0280     0.0020    15.3600    49.3660     1.5850     2.6900     6.8200 
   33.8750    33.8750    -0.0300     0.0020    10.0040    53.6670     2.2480     3.9710     5.7400 
   34.0000    34.0000    -0.0320     0.0020     5.9000    55.6560     2.7220     4.6130     5.5260 
   34.1250    34.1250    -0.0340     0.0020     3.0000    55.2360     2.9920     4.4710     5.4980 
   34.2500    34.2500    -0.0360     0.0030     1.0590    53.9520     3.1310     3.8320     5.5390 
   34.3750    34.3750    -0.0380     0.0030    -0.4280    53.5130     3.2530     3.5110     5.6220 
   34.5000    34.5000    -0.0410     0.0030    -1.7440    54.6170     3.4080     3.5680     5.6870 
   34.6250    34.6250    -0.0430     0.0030    -2.8290    55.4140     3.5450     3.7250     5.7580 
   34.7500    34.7500    -0.0450     0.0040    -3.9220    56.4760     3.6300     3.8630     5.6300 
   34.8750    34.8750    -0.0470     0.0040    -4.7590    57.2650     3.6740     3.9630     5.2970 
   35.0000    35.0000    -0.0490     0.0040    -5.2890    57.8390     3.6870     4.0160     5.3010 
   35.1250    35.1250    -0.0510     0.0040    -5.6260    57.8200     3.6950     4.0680     5.4830 
   35.2500    35.2500    -0.0530     0.0040    -5.5910    57.6390     3.7230     4.1420     5.6090 
   35.3750    35.3750    -0.0550     0.0050    -5.5690    58.0240     3.7860     4.2770     5.8330 
   35.5000    35.5000    -0.0570     0.0050    -5.7110    58.8380     3.8600     4.4470     6.0480 
   35.6250    35.6250    -0.0590     0.0050    -6.0660    59.6790     3.9210     4.6070     6.3150 
   35.7500    35.7490    -0.0610     0.0050    -6.5530    59.6230     3.9510     4.7480     6.3840 
   35.8750    35.8740    -0.0630     0.0060    -7.0040    59.6430     3.9440     4.7750     6.1160 
   36.0000    35.9990    -0.0650     0.0060    -7.2860    60.1400     3.9080     4.7500     6.0690 
   36.1250    36.1240    -0.0680     0.0060    -7.3560    59.7990     3.8720     4.6950     6.2880 
   36.2500    36.2490    -0.0700     0.0060    -7.2740    58.0100     3.8360     4.6650     6.3700 
   36.3750    36.3740    -0.0720     0.0070    -7.0780    57.0540     3.7770     4.6680     6.4820 
   36.5000    36.4990    -0.0740     0.0070    -6.8700    57.9150     3.7000     4.6340     6.7390 
   36.6250    36.6240    -0.0760     0.0070    -6.6480    59.3960     3.5890     4.5350     6.4840 
   36.7500    36.7490    -0.0780     0.0070    -6.4850    60.6020     3.4610     4.3900     5.6210 
   36.8750    36.8740    -0.0800     0.0080    -6.4160    62.0840     3.3410     4.2370     5.1640 
   37.0000    36.9990    -0.0820     0.0080    -6.4530    63.7410     3.2520     4.1450     5.3510 
   37.1250    37.1240    -0.0840     0.0080    -6.5420    64.3260     3.1880     4.0810     5.5720 
   37.2500    37.2490    -0.0860     0.0080    -6.6530    64.7920     3.1690     4.0710     5.6420 
   37.3750    37.3740    -0.0880     0.0090    -6.8040    67.8050     3.1870     4.0760     5.6440 
   37.5000    37.4990    -0.0900     0.0090    -7.0810    69.6710     3.2270     4.0990     5.6570 
   37.6250    37.6240    -0.0930     0.0090    -7.2980    67.7950     3.2830     4.1460     5.5460 
   37.7500    37.7490    -0.0950     0.0090    -7.4340    64.1310     3.3470     4.2040     5.2490 
   37.8750    37.8740    -0.0970     0.0100    -7.5140    62.3450     3.4080     4.2690     5.0710 
   38.0000    37.9990    -0.0990     0.0100    -7.5060    62.3460     3.4510     4.3140     5.0980 
   38.1250    38.1240    -0.1010     0.0100    -7.3190    61.6260     3.4450     4.3080     5.1970 
   38.2500    38.2490    -0.1030     0.0100    -6.9230    60.5930     3.3390     4.1830     5.2380 
   38.3750    38.3740    -0.1050     0.0100    -6.5040    61.4380     3.1570     3.9490     5.2020 
   38.5000    38.4990    -0.1070     0.0110    -5.9810    65.9790     2.9110     3.6140     4.9110 
   38.6250    38.6240    -0.1090     0.0110    -5.4930    74.2150     2.6800     3.2910     4.2370 
   38.7500    38.7490    -0.1110     0.0110    -5.2560    85.1200     2.5280     3.0770     3.7090 
   38.8750    38.8740    -0.1140     0.0110    -5.1900    95.4470     2.4680     2.9970     3.6230 
   39.0000    38.9990    -0.1160     0.0110    -5.3000    99.1320     2.5220     3.0710     3.8000 
   39.1250    39.1240    -0.1180     0.0110    -5.4890    94.7950     2.6420     3.2190     4.1790 
   39.2500    39.2490    -0.1200     0.0120    -5.5000    87.1880     2.8000     3.4280     4.4610 
   39.3750    39.3740    -0.1220     0.0120    -5.3010    83.1960     2.9460     3.6180     4.3930 
   39.5000    39.4990    -0.1240     0.0120    -5.0660    81.8290     3.0620     3.7760     4.4280 
   39.6250    39.6240    -0.1260     0.0120    -4.8830    80.7840     3.1500     3.9270     4.7410 
   39.7500    39.7490    -0.1290     0.0120    -4.7210    80.1050     3.1740     4.0170     4.9500 
   39.8750    39.8740    -0.1310     0.0120    -4.6310    80.3730     3.1200     3.9930     4.8720 
   40.0000    39.9990    -0.1330     0.0130    -4.6320    81.0130     2.9800     3.8450     4.5240 
   40.1250    40.1240    -0.1350     0.0130    -4.6300    83.5270     2.7600     3.5500     4.2100 
   40.2500    40.2490    -0.1370     0.0130    -4.6160    88.9900     2.5090     3.1710     4.0680 
   40.3750    40.3740    -0.1400     0.0130    -4.6130    92.8960     2.3510     2.9200     3.9430 
   40.5000    40.4990    -0.1420     0.0130    -4.6060    92.6310     2.4880     3.0820     3.9140 
   40.6250    40.6240    -0.1440     0.0130    -4.6680    90.8160     3.2260     4.1800     4.4320 
   40.7500    40.7490    -0.1460     0.0130    -4.8340    87.4530     4.5070     6.2030    12.4890 
   40.8750    40.8740    -0.1480     0.0130    -5.0890    81.8290     6.1480     8.9400    27.9090 
   41.0000    40.9990    -0.1510     0.0130    -5.4140    73.5900     7.2200    10.7530    35.5680 
   41.1250    41.1240    -0.1530     0.0130    -5.7850    66.3600     7.2180    10.7160    29.3240 
   41.2500    41.2490    -0.1550     0.0130    -6.1250    61.9780     6.3140     9.1710    16.3720 
   41.3750    41.3740    -0.1570     0.0130    -6.2680    61.3930     4.9180     6.7580     7.6820 
   41.5000    41.4990    -0.1600     0.0130    -6.2170    61.5650     4.0100     5.3430     5.9710 
   41.6250    41.6240    -0.1620     0.0130    -6.0980    60.0250     3.5950     4.7790     5.9450 
   41.7500    41.7490    -0.1640     0.0130    -6.1000    58.7100     3.5640     4.7830     5.7090 
   41.8750    41.8740    -0.1660     0.0120    -6.3310    58.2000     3.7020     5.0470     5.7270 
