~V
VERS. 2.00: Ver 2.00
~W
STRT.M 32.0000:
STOP.M 275.0000:
STEP.M 0.1250:
NULL. -999.2500:
UWI. FD10902:
~C
DEPT.M :
TVD. :
DX. :
DY. :
SP.MV :
GR.API :
RI. :
RML.OHMM :
RXO.OHMM :
DEN.GM/CC :
~A
# ...
  141.5000   138.2430    22.0570    -6.1970     2.2850    79.1090    10.8030    12.5900    11.5580     2.1550 
  141.6250   138.3580    22.1030    -6.2110     2.7580    78.0930    11.0840    12.9960    11.3760     2.1410 
  141.7500   138.4730    22.1500    -6.2240     3.1450    77.3180    11.8970    14.0420    11.4990     2.1220 
  141.8750   138.5890    22.1960    -6.2380     3.1920    75.2880    13.1340    15.5830    13.0320     2.1060 
  142.0000   138.7040    22.2420    -6.2510     2.9700    72.4310    14.6140    17.4090    16.3070     2.0990 
  142.1250   138.8190    22.2890    -6.2640     2.6390    69.5230    16.0470    19.1280    19.1290     2.1060 
  142.2500   138.9350    22.3350    -6.2780     2.3560    68.1080    16.9620    20.1660    19.4360     2.1190 
  142.3750   139.0500    22.3810    -6.2910     2.2080    67.9100    17.2720    20.4450    17.1890     2.1250 
  142.5000   139.1650    22.4280    -6.3040     2.2000    68.3700    16.9970    20.0540    14.7530     2.1240 
  142.6250   139.2810    22.4740    -6.3180     2.3370    68.9610    16.5980    19.6120    14.9220     2.1200 
  142.7500   139.3960    22.5200    -6.3310     2.6840    68.7820    16.4540    19.5540    17.0050     2.1230 
  142.8750   139.5110    22.5670    -6.3440     3.0900    67.7500    16.5850    19.8620    19.1070     2.1270 
  143.0000   139.6270    22.6130    -6.3580     3.1570    67.1250    16.9400    20.4200    20.6600     2.1280 
  143.1250   139.7420    22.6590    -6.3710     2.9540    67.6060    17.3090    20.9280    21.4210     2.1250 
  143.2500   139.8570    22.7060    -6.3850     2.8160    68.0650    17.5920    21.2750    21.1560     2.1260 
  143.3750   139.9730    22.7520    -6.3980     2.7500    67.9560    17.7450    21.4290    20.4060     2.1340 
  143.5000   140.0880    22.7980    -6.4110     2.7260    67.6300    17.7840    21.4340    20.2430     2.1460 
  143.6250   140.2030    22.8440    -6.4250     2.6380    69.2010    17.8300    21.4470    20.5980     2.1550 
  143.7500   140.3190    22.8910    -6.4380     2.5620    69.8870    17.8620    21.4270    20.9690     2.1540 
  143.8750   140.4340    22.9370    -6.4510     2.5160    69.1630    17.8800    21.3630    21.9430     2.1500 
  144.0000   140.5490    22.9830    -6.4650     2.6110    67.0200    17.8340    21.1990    22.3280     2.1470 
  144.1250   140.6650    23.0300    -6.4780     2.6680    65.8350    17.7830    21.0560    20.8670     2.1460 
  144.2500   140.7800    23.0760    -6.4910     2.7070    66.7840    17.7460    20.9510    19.7280     2.1370 
  144.3750   140.8950    23.1220    -6.5050     2.6920    67.9760    17.7190    20.9030    20.3750     2.1310 
  144.5000   141.0110    23.1690    -6.5180     2.6970    68.4430    17.8660    21.0830    21.2690     2.1290 
  144.6250   141.1260    23.2150    -6.5310     2.7830    67.1870    18.0620    21.3290    20.4860     2.1350 
  144.7500   141.2410    23.2610    -6.5440     2.8320    65.7160    18.3900    21.7370    19.0070     2.1390 
  144.8750   141.3570    23.3080    -6.5580     2.9190    64.6250    18.7220    22.1680    18.6490     2.1440 
  145.0000   141.4720    23.3540    -6.5710     3.1100    65.2890    18.9670    22.4880    19.1140     2.1450 
  145.1250   141.5870    23.4000    -6.5840     3.3560    67.4270    19.0060    22.4940    19.8620     2.1440 
  145.2500   141.7030    23.4470    -6.5980     3.4150    68.6090    19.0180    22.4500    20.5850     2.1620 
  145.3750   141.8180    23.4930    -6.6110     3.2030    67.6210    19.3850    22.8300    21.0680     2.2170 
  145.5000   141.9330    23.5390    -6.6240     2.8810    63.4790    20.6060    24.3190    22.5890     2.3230 
  145.6250   142.0490    23.5860    -6.6380     2.5930    60.0300    23.1900    27.5700    30.7080     2.4480 
  145.7500   142.1640    23.6320    -6.6510     2.3220    56.3780    27.9480    33.7990    49.4630     2.5480 
  145.8750   142.2790    23.6780    -6.6650     2.1080    54.0650    34.5990    42.2320    62.7430     2.6070 
  146.0000   142.3950    23.7250    -6.6780     1.9250    52.0840    39.6060    48.2780    66.2630     2.6180 
  146.1250   142.5100    23.7710    -6.6920     1.8190    52.0780    41.5920    50.3110    59.7980     2.6040 
  146.2500   142.6250    23.8180    -6.7050     1.6620    54.4350    39.3670    46.7650    53.4490     2.5770 
  146.3750   142.7400    23.8640    -6.7180     1.5750    57.5320    34.3450    40.0830    46.4710     2.5630 
  146.5000   142.8560    23.9100    -6.7320     1.4870    59.7490    29.8400    34.4420    37.4540     2.5670 
  146.6250   142.9710    23.9570    -6.7450     1.4940    60.4520    26.6410    30.6970    31.8620     2.5760 
  146.7500   143.0860    24.0030    -6.7580     1.5770    59.9570    25.3030    29.3160    29.6020     2.5800 
  146.8750   143.2020    24.0500    -6.7710     1.7750    60.0050    25.3220    29.4700    29.2470     2.5950 
  147.0000   143.3170    24.0970    -6.7840     2.1380    60.6120    26.2250    30.5290    29.2310     2.6260 
  147.1250   143.4320    24.1430    -6.7970     2.3580    61.8210    27.2390    31.6230    29.2310     2.6500 
  147.2500   143.5470    24.1900    -6.8110     2.4120    61.5280    28.3120    32.7930    28.9550     2.6470 
  147.3750   143.6620    24.2370    -6.8240     2.4830    60.5190    29.1480    33.6360    27.8920     2.6250 
  147.5000   143.7770    24.2840    -6.8370     2.7140    59.8270    28.8670    33.0870    26.4470     2.6000 
  147.6250   143.8930    24.3300    -6.8500     2.9140    61.5100    27.7210    31.5060    24.8840     2.5790 
  147.7500   144.0080    24.3770    -6.8630     3.0820    63.6870    25.7210    28.9550    23.8260     2.5430 
  147.8750   144.1230    24.4240    -6.8760     3.1820    65.5470    23.6050    26.3650    23.1000     2.4940 
  148.0000   144.2380    24.4710    -6.8900     3.1730    64.2370    21.9990    24.4930    22.3020     2.4460 
  148.1250   144.3530    24.5180    -6.9030     3.0800    63.0580    21.0250    23.4450    21.8950     2.4180 
  148.2500   144.4680    24.5650    -6.9170     3.0020    62.1060    20.9300    23.4930    21.6720     2.4170 
  148.3750   144.5830    24.6120    -6.9300     3.0350    63.4420    21.1870    23.9080    21.6450     2.4240 
  148.5000   144.6980    24.6590    -6.9440     3.4420    63.7410    21.4010    24.2270    21.6930     2.4300 
  148.6250   144.8130    24.7070    -6.9580     3.9030    63.7270    21.4310    24.2680    21.9310     2.4370 
  148.7500   144.9280    24.7540    -6.9710     4.2050    62.2160    21.1660    23.9050    22.0940     2.4640 
  148.8750   145.0430    24.8010    -6.9850     4.5200    60.6450    21.0390    23.7130    22.3420     2.5080 
  149.0000   145.1570    24.8490    -6.9990     4.8410    58.0720    21.1940    23.8820    22.9620     2.5450 
  149.1250   145.2720    24.8960    -7.0130     5.1300    55.8020    21.8450    24.6730    23.2770     2.5560 
  149.2500   145.3870    24.9440    -7.0260     5.3190    54.6290    22.7840    25.7760    23.8320     2.5470 
  149.3750   145.5020    24.9920    -7.0400     5.3980    55.2620    23.6530    26.7520    24.1090     2.5370 
  149.5000   145.6160    25.0390    -7.0540     5.3950    55.8360    24.0240    27.0740    24.1440     2.5400 
  149.6250   145.7310    25.0870    -7.0680     5.4150    55.1540    23.8520    26.7870    24.1440     2.5500 
  149.7500   145.8460    25.1350    -7.0820     5.4100    54.3270    23.3360    26.1470    24.2020     2.5670 
  149.8750   145.9600    25.1830    -7.0970     5.3950    54.6460    22.6720    25.4050    24.0560     2.5740 
  150.0000   146.0750    25.2310    -7.1110     5.3420    56.6770    21.9680    24.6630    22.4770     2.5630 
  150.1250   146.1890    25.2790    -7.1250     5.2760    58.0250    21.3620    24.0450    21.6080     2.5260 
  150.2500   146.3040    25.3270    -7.1390     5.1650    58.1020    20.8550    23.5410    23.6030     2.4950 
  150.3750   146.4180    25.3760    -7.1540     5.1500    57.0710    20.4320    23.1030    25.1510     2.4860 
  150.5000   146.5320    25.4240    -7.1680     5.2420    56.1270    20.0660    22.7190    23.8590     2.5020 
