~V
VERS. 2.00: Ver 2.00
~W
STRT.M 33.0000:
STOP.M 273.0000:
STEP.M 0.1250:
NULL. -999.2500:
UWI. FD10880:
~C
DEPT.M :
TVD. :
DX. :
DY. :
SP.MV :
GR.API :
RI. :
RML.OHMM :
RXO.OHMM :
DEN.GM/CC :
~A
# ...
   60.3750    60.2890     1.9390     0.3080    -6.3140    70.6820     6.0400     7.1860     6.6910     2.2440 
   60.5000    60.4130     1.9550     0.3130    -5.9040    72.9400     6.8620     8.1910     7.3270     2.3690 
   60.6250    60.5370     1.9720     0.3180    -5.2260    71.7770     7.3460     8.7180     8.1030     2.4820 
   60.7500    60.6600     1.9880     0.3220    -4.7030    66.6970     7.1480     8.3940     7.7820     2.5420 
   60.8750    60.7840     2.0050     0.3270    -4.4490    63.0660     6.4930     7.5530     7.3370     2.5320 
   61.0000    60.9080     2.0210     0.3320    -4.4610    63.0930     5.6330     6.5380     7.3140     2.4490 
   61.1250    61.0320     2.0380     0.3360    -4.8080    64.0120     4.8940     5.7180     7.1280     2.3250 
   61.2500    61.1560     2.0550     0.3410    -5.4370    64.4120     4.4010     5.2180     6.8260     2.2030 
   61.3750    61.2790     2.0720     0.3460    -6.1310    64.9700     4.1800     5.0170     6.7240     2.1200 
   61.5000    61.4030     2.0880     0.3510    -6.8650    65.0820     4.1260     5.0010     6.8850     2.0830 
   61.6250    61.5270     2.1050     0.3560    -7.5350    64.5540     4.1940     5.1020     7.2590     2.0690 
   61.7500    61.6510     2.1220     0.3610    -8.1500    65.3890     4.3040     5.2240     7.4800     2.0630 
   61.8750    61.7740     2.1390     0.3660    -8.8300    67.7530     4.3980     5.3270     7.2390     2.0590 
   62.0000    61.8980     2.1570     0.3710    -9.4960    70.0560     4.4450     5.3770     7.0950     2.0620 
   62.1250    62.0220     2.1740     0.3760    -9.9960    70.2600     4.4390     5.3530     7.2260     2.0710 
   62.2500    62.1450     2.1910     0.3810   -10.2930    69.5390     4.3760     5.2700     7.1960     2.0810 
   62.3750    62.2690     2.2080     0.3860   -10.4340    69.1750     4.2950     5.1550     6.9470     2.0840 
   62.5000    62.3930     2.2260     0.3910   -10.1910    69.5810     4.2160     5.0480     6.6330     2.0810 
   62.6250    62.5160     2.2430     0.3960    -9.5620    71.5320     4.1460     4.9840     6.5070     2.0740 
   62.7500    62.6400     2.2610     0.4010    -8.7610    76.3990     4.1020     4.9400     6.6520     2.0660 
   62.8750    62.7640     2.2780     0.4060    -8.0300    81.5520     4.0790     4.9290     6.8290     2.0620 
   63.0000    62.8870     2.2960     0.4110    -7.7380    81.5290     4.0850     4.9500     6.9040     2.0630 
   63.1250    63.0110     2.3140     0.4170    -8.1080    76.3040     4.1220     4.9920     6.9280     2.0670 
   63.2500    63.1350     2.3310     0.4220    -8.8470    71.6560     4.1710     5.0470     6.8900     2.0720 
   63.3750    63.2580     2.3490     0.4270    -9.6470    69.8650     4.2180     5.0900     6.8420     2.0740 
   63.5000    63.3820     2.3670     0.4330   -10.2320    68.0890     4.2560     5.1230     6.9100     2.0750 
   63.6250    63.5050     2.3850     0.4380   -10.3190    64.8370     4.2790     5.1390     6.9530     2.0740 
   63.7500    63.6290     2.4030     0.4430    -9.9290    63.0780     4.2930     5.1440     6.8760     2.0730 
   63.8750    63.7530     2.4210     0.4490    -9.4980    63.8400     4.3140     5.1630     6.8060     2.0740 
   64.0000    63.8760     2.4390     0.4540    -9.1350    65.5640     4.3560     5.2300     6.7900     2.0740 
   64.1250    64.0000     2.4580     0.4600    -8.7420    66.2470     4.3930     5.2870     6.7770     2.0750 
   64.2500    64.1230     2.4760     0.4650    -8.4420    65.9820     4.3700     5.2500     6.8890     2.0800 
   64.3750    64.2470     2.4940     0.4700    -8.2330    66.4670     4.2630     5.1000     7.1220     2.0950 
   64.5000    64.3700     2.5130     0.4760    -8.0130    68.2320     4.0880     4.8750     6.8730     2.1220 
   64.6250    64.4940     2.5320     0.4810    -7.7350    72.4960     3.8830     4.6110     6.0030     2.1530 
   64.7500    64.6170     2.5500     0.4870    -7.2670    77.5760     3.6380     4.3220     5.2950     2.1740 
   64.8750    64.7410     2.5690     0.4920    -6.6260    80.5030     3.3980     4.0370     5.5110     2.1820 
   65.0000    64.8640     2.5880     0.4980    -6.0460    81.1920     3.1650     3.7700     5.8240     2.1820 
   65.1250    64.9880     2.6070     0.5030    -5.8490    80.4270     2.9990     3.5880     5.0800     2.1860 
   65.2500    65.1110     2.6260     0.5090    -5.8850    80.1980     2.9100     3.4800     4.1880     2.2010 
   65.3750    65.2340     2.6450     0.5150    -5.8430    81.5230     2.8940     3.4430     4.0290     2.2190 
   65.5000    65.3580     2.6640     0.5210    -5.8660    83.0090     2.9770     3.5380     4.3840     2.2280 
   65.6250    65.4810     2.6840     0.5270    -5.8800    83.9380     3.1660     3.7510     4.8460     2.2230 
   65.7500    65.6040     2.7030     0.5330    -5.5380    83.7260     3.4460     4.0750     5.3690     2.2130 
   65.8750    65.7280     2.7230     0.5380    -4.9070    82.8430     3.7150     4.3720     5.7310     2.2100 
   66.0000    65.8510     2.7420     0.5440    -4.2340    82.0500     3.9230     4.5820     5.6960     2.2120 
   66.1250    65.9740     2.7620     0.5500    -3.8420    80.9410     4.0300     4.6770     5.7190     2.2090 
   66.2500    66.0980     2.7820     0.5560    -4.0660    79.7960     4.0190     4.6380     5.7620     2.1960 
   66.3750    66.2210     2.8020     0.5620    -4.6590    78.4710     3.9160     4.4940     5.8230     2.1800 
   66.5000    66.3440     2.8220     0.5680    -5.3820    78.1350     3.7280     4.2560     5.8550     2.1730 
   66.6250    66.4670     2.8420     0.5740    -5.9950    78.8540     3.5150     3.9890     5.4840     2.1800 
   66.7500    66.5910     2.8620     0.5800    -6.1630    80.0170     3.3340     3.7710     4.9620     2.1980 
   66.8750    66.7140     2.8820     0.5860    -5.8360    83.5320     3.2260     3.6650     4.5720     2.2170 
   67.0000    66.8370     2.9020     0.5930    -5.3880    88.5670     3.2120     3.6770     4.5100     2.2310 
   67.1250    66.9600     2.9230     0.5990    -5.0760    90.3840     3.2920     3.8050     4.8800     2.2380 
   67.2500    67.0830     2.9430     0.6050    -4.8310    87.3990     3.4440     4.0170     5.3680     2.2380 
   67.3750    67.2060     2.9640     0.6110    -4.6760    84.9540     3.5930     4.1990     5.5180     2.2330 
   67.5000    67.3300     2.9840     0.6170    -4.7530    85.5620     3.7080     4.3180     5.4980     2.2240 
   67.6250    67.4530     3.0050     0.6240    -4.9610    87.8190     3.8030     4.3930     5.8090     2.2180 
   67.7500    67.5760     3.0260     0.6300    -5.2240    88.8040     3.9940     4.6030     5.8220     2.2200 
   67.8750    67.6990     3.0470     0.6360    -5.5340    87.4440     4.3350     5.0150     5.4130     2.2270 
   68.0000    67.8220     3.0680     0.6420    -5.8170    83.0370     4.8320     5.6320     6.2670     2.2280 
   68.1250    67.9450     3.0890     0.6490    -6.1140    76.7600     5.4960     6.4640     8.1830     2.2140 
   68.2500    68.0680     3.1100     0.6550    -6.4800    72.3050     6.1620     7.2650     9.1440     2.1850 
   68.3750    68.1910     3.1310     0.6610    -6.8700    71.0500     6.7050     7.8600     9.2510     2.1530 
   68.5000    68.3140     3.1520     0.6680    -7.2990    71.1070     7.0200     8.1650     9.2860     2.1290 
   68.6250    68.4370     3.1730     0.6740    -7.7790    68.5130     7.1010     8.1650     9.3090     2.1130 
   68.7500    68.5600     3.1940     0.6810    -8.0620    62.8410     7.0960     8.1110     9.5770     2.1030 
   68.8750    68.6830     3.2160     0.6870    -7.8840    58.6640     7.1120     8.1120     9.8820     2.0940 
   69.0000    68.8060     3.2370     0.6930    -7.2470    59.1250     7.1420     8.1360     9.9090     2.0860 
   69.1250    68.9290     3.2580     0.7000    -6.4800    62.0320     7.1520     8.1410     9.8480     2.0790 
   69.2500    69.0520     3.2800     0.7060    -5.9140    63.1720     7.1430     8.1230     9.6980     2.0720 
   69.3750    69.1750     3.3020     0.7130    -5.8730    61.4910     7.1130     8.0790     9.4640     2.0680 
