~V
VERS. 2.00: Ver 2.00
~W
STRT.M 25.0000:
STOP.M 295.0000:
STEP.M 0.1250:
NULL. -999.2500:
UWI. FD10906:
~C
DEPT.M :
TVD. :
DX. :
DY. :
SP.MV :
GR.API :
RI. :
RML.OHMM :
RXO.OHMM :
DEN.GM/CC :
~A
# ...
  116.2500   112.7540   -20.9240     5.2980   -17.0350    81.2690     3.4470     4.4620     4.7080     2.2730 
  116.3750   112.8650   -20.9820     5.2930   -16.6160    78.5270     3.5770     4.6770     4.9790     2.2710 
  116.5000   112.9760   -21.0390     5.2890   -16.3670    76.7750     3.7370     4.8990     5.3050     2.2560 
  116.6250   113.0870   -21.0970     5.2840   -16.2800    79.1750     3.8740     5.0660     5.3700     2.2420 
  116.7500   113.1980   -21.1540     5.2790   -16.3100    82.2530     3.9520     5.1440     5.1860     2.2410 
  116.8750   113.3080   -21.2120     5.2750   -16.3750    85.4970     3.9700     5.1450     5.0270     2.2520 
  117.0000   113.4190   -21.2700     5.2710   -16.4190    84.5690     3.9460     5.0910     5.0100     2.2710 
  117.1250   113.5300   -21.3280     5.2660   -16.4160    84.5990     3.9160     5.0190     5.0650     2.2910 
  117.2500   113.6400   -21.3860     5.2620   -16.3820    84.1450     3.9000     4.9670     5.1760     2.3070 
  117.3750   113.7510   -21.4440     5.2570   -16.3540    84.9340     3.9060     4.9560     5.2920     2.3060 
  117.5000   113.8610   -21.5020     5.2530   -16.3630    83.1070     3.9340     4.9960     5.3050     2.2850 
  117.6250   113.9720   -21.5610     5.2490   -16.4140    83.1440     3.9790     5.0730     5.2700     2.2580 
  117.7500   114.0820   -21.6190     5.2440   -16.5160    84.8390     4.0400     5.1810     5.3210     2.2390 
  117.8750   114.1930   -21.6780     5.2400   -16.6780    85.5980     4.1270     5.3240     5.4440     2.2340 
  118.0000   114.3030   -21.7360     5.2360   -16.9110    83.6040     4.2540     5.5280     5.5720     2.2330 
  118.1250   114.4130   -21.7950     5.2320   -17.2040    79.6390     4.4120     5.7740     5.7320     2.2290 
  118.2500   114.5230   -21.8540     5.2270   -17.5350    78.9400     4.5510     5.9850     6.0650     2.2200 
  118.3750   114.6340   -21.9130     5.2230   -17.8540    79.4150     4.6120     6.0650     6.7150     2.2140 
  118.5000   114.7440   -21.9720     5.2190   -18.0930    80.9290     4.5760     5.9760     7.5010     2.2170 
  118.6250   114.8540   -22.0310     5.2140   -18.1940    81.2350     4.5190     5.8380     7.6530     2.2270 
  118.7500   114.9640   -22.0900     5.2100   -18.1100    83.3330     4.5510     5.8470     6.8540     2.2490 
  118.8750   115.0740   -22.1490     5.2050   -17.8740    86.0000     4.7190     6.1050     6.3470     2.2890 
  119.0000   115.1840   -22.2080     5.2010   -17.5570    87.5880     4.9920     6.5600     8.3890     2.3440 
  119.1250   115.2940   -22.2680     5.1970   -17.2530    85.1760     5.2380     6.9650    12.8540     2.3870 
  119.2500   115.4040   -22.3270     5.1920   -17.0240    82.4070     5.2920     7.0290    15.1190     2.3800 
  119.3750   115.5130   -22.3870     5.1880   -16.8830    81.1520     5.0830     6.6760    12.5850     2.3270 
  119.5000   115.6230   -22.4460     5.1830   -16.8310    84.1800     4.6400     6.0120     8.6750     2.2670 
  119.6250   115.7330   -22.5060     5.1790   -16.8440    86.8230     4.1190     5.2990     6.3740     2.2350 
  119.7500   115.8430   -22.5660     5.1750   -16.8980    86.8870     3.6800     4.7450     5.2630     2.2290 
  119.8750   115.9520   -22.6250     5.1700   -16.9570    85.3180     3.4130     4.4170     4.8770     2.2300 
  120.0000   116.0620   -22.6850     5.1660   -17.0030    84.5790     3.3710     4.3540     4.9910     2.2360 
  120.1250   116.1720   -22.7450     5.1620   -17.0440    85.8880     3.5750     4.6040     4.8380     2.2610 
  120.2500   116.2810   -22.8050     5.1570   -17.1080    86.6950     4.1190     5.3180     4.4180     2.3130 
  120.3750   116.3910   -22.8650     5.1530   -17.2180    85.0350     5.0090     6.5150     4.8320     2.3820 
  120.5000   116.5000   -22.9250     5.1480   -17.4100    80.9060     6.1480     8.0480     6.8020     2.4560 
  120.6250   116.6100   -22.9850     5.1430   -17.7250    75.2280     7.2060     9.4470     8.8690     2.5180 
  120.7500   116.7190   -23.0460     5.1390   -18.2280    71.0910     7.7810    10.1550     9.1340     2.5500 
  120.8750   116.8290   -23.1060     5.1340   -18.9360    67.9350     7.7120     9.9660     8.1050     2.5370 
  121.0000   116.9380   -23.1660     5.1290   -19.8180    67.4140     7.0500     8.9910     7.2640     2.4690 
  121.1250   117.0470   -23.2270     5.1240   -20.7360    66.3130     6.1490     7.7530     6.9860     2.3710 
  121.2500   117.1560   -23.2870     5.1190   -21.4960    67.8030     5.3090     6.6780     6.9750     2.2800 
  121.3750   117.2660   -23.3480     5.1140   -21.9380    71.3140     4.6580     5.9100     6.9350     2.2230 
  121.5000   117.3750   -23.4090     5.1090   -21.9360    77.9160     4.1940     5.3940     6.5850     2.2080 
  121.6250   117.4840   -23.4700     5.1040   -21.5450    84.5470     3.8290     4.9760     6.0530     2.2150 
  121.7500   117.5930   -23.5310     5.0990   -20.8600    88.0280     3.5230     4.5890     5.6880     2.2320 
  121.8750   117.7020   -23.5910     5.0930   -20.0760    89.8420     3.2880     4.2700     5.2960     2.2520 
  122.0000   117.8110   -23.6530     5.0880   -19.3740    90.5820     3.1920     4.1340     4.6880     2.2720 
  122.1250   117.9200   -23.7140     5.0830   -18.8880    90.4170     3.2760     4.2590     4.3090     2.2790 
  122.2500   118.0290   -23.7750     5.0770   -18.7310    88.0330     3.5590     4.6800     4.6600     2.2610 
  122.3750   118.1370   -23.8360     5.0720   -18.9160    84.3950     3.9550     5.2690     5.6620     2.2220 
  122.5000   118.2460   -23.8980     5.0670   -19.4640    80.5290     4.3280     5.8010     6.7480     2.1760 
  122.6250   118.3550   -23.9590     5.0610   -20.2650    76.8120     4.5520     6.0750     7.3430     2.1460 
  122.7500   118.4640   -24.0210     5.0560   -21.1380    74.1740     4.5700     6.0180     7.2250     2.1480 
  122.8750   118.5720   -24.0820     5.0510   -21.8200    72.8520     4.4520     5.7670     6.4440     2.1760 
  123.0000   118.6810   -24.1440     5.0450   -22.0490    74.2630     4.2930     5.5000     5.5980     2.2080 
  123.1250   118.7890   -24.2060     5.0400   -21.7880    76.0490     4.1780     5.3500     5.6630     2.2200 
  123.2500   118.8980   -24.2680     5.0350   -21.1410    76.8960     4.1280     5.3380     6.5320     2.2110 
  123.3750   119.0060   -24.3300     5.0290   -20.3700    77.4790     4.1100     5.3760     7.0030     2.2020 
  123.5000   119.1150   -24.3920     5.0240   -19.6470    79.4300     4.0800     5.3690     6.5020     2.2070 
  123.6250   119.2230   -24.4540     5.0190   -18.9870    84.7730     4.0240     5.2830     5.6850     2.2250 
  123.7500   119.3310   -24.5160     5.0130   -18.3050    89.4100     3.9660     5.1680     5.1990     2.2500 
  123.8750   119.4390   -24.5780     5.0080   -17.5600    92.1330     3.9590     5.1260     4.9950     2.2790 
  124.0000   119.5480   -24.6410     5.0020   -16.8220    91.6980     4.0320     5.2130     5.0200     2.2980 
  124.1250   119.6560   -24.7030     4.9970   -16.2100    91.4300     4.1450     5.3660     5.2940     2.2960 
  124.2500   119.7640   -24.7660     4.9910   -15.8060    90.8550     4.2290     5.4830     5.6170     2.2750 
  124.3750   119.8720   -24.8280     4.9860   -15.5750    91.2930     4.2340     5.4900     5.8260     2.2560 
  124.5000   119.9800   -24.8910     4.9800   -15.4520    92.7240     4.1380     5.3530     5.7410     2.2540 
  124.6250   120.0880   -24.9540     4.9740   -15.3520    94.6350     3.9800     5.1310     5.3030     2.2700 
  124.7500   120.1960   -25.0170     4.9680   -15.2200    95.1820     3.8320     4.9310     4.8710     2.2930 
  124.8750   120.3030   -25.0800     4.9620   -15.0440    96.2870     3.7820     4.8850     4.7040     2.3130 
  125.0000   120.4110   -25.1430     4.9570   -14.8390    96.6560     3.9120     5.1110     4.6540     2.3240 
  125.1250   120.5190   -25.2060     4.9510   -14.6470    95.8800     4.2030     5.5740     4.7470     2.3380 
  125.2500   120.6270   -25.2690     4.9450   -14.5040    93.2710     4.5680     6.1240     5.7600     2.3640 
