~V
VERS. 2.00: Ver 2.00
~W
STRT.M 15.0000:
STOP.M 236.0000:
STEP.M 0.1250:
NULL. -999.2500:
UWI. FD10614:
~C
DEPT.M :
TVD. :
DX. :
DY. :
DEN.GM/CC :
GR.API :
RML.OHMM :
RI. :
RXO.OHMM :
CALI.CM :
SP.MV :
~A
# ...
  114.0000   112.1480    11.8550     4.6090     2.1510    67.1460    28.4250    28.6380    19.8330    21.5380    -2.4160 
  114.1250   112.2660    11.8910     4.6280     2.1510    64.2850    29.3640    29.5300    20.7180    21.5850    -2.3580 
  114.2500   112.3840    11.9260     4.6470     2.1580    63.5160    30.1700    30.2750    22.2200    21.6770    -2.3140 
  114.3750   112.5020    11.9620     4.6660     2.1670    61.3480    30.7400    30.7530    23.5730    21.7230    -2.2540 
  114.5000   112.6200    11.9970     4.6850     2.1730    57.8930    31.0590    30.9540    23.4380    21.6930    -2.1980 
  114.6250   112.7390    12.0330     4.7040     2.1710    59.4590    31.1650    30.9280    22.9440    21.6580    -2.1980 
  114.7500   112.8570    12.0680     4.7230     2.1640    63.6940    31.1700    30.8100    23.7160    21.7310    -2.3210 
  114.8750   112.9750    12.1040     4.7430     2.1560    64.7370    31.0940    30.6400    24.7320    21.7940    -2.4550 
  115.0000   113.0930    12.1390     4.7620     2.1510    61.8450    30.9020    30.3920    24.0690    21.8560    -2.5920 
  115.1250   113.2120    12.1750     4.7810     2.1510    61.5700    30.5170    29.9950    23.1800    21.9810    -2.7880 
  115.2500   113.3300    12.2100     4.8000     2.1530    65.2020    29.9830    29.4740    22.8210    22.0870    -2.9840 
  115.3750   113.4480    12.2460     4.8190     2.1580    67.8970    29.3960    28.9110    22.3510    22.1130    -3.1790 
  115.5000   113.5660    12.2810     4.8380     2.1660    67.3870    28.8930    28.4260    21.9070    22.0590    -3.3680 
  115.6250   113.6840    12.3170     4.8580     2.1760    67.1040    28.6290    28.1670    21.3380    22.0120    -3.4630 
  115.7500   113.8030    12.3520     4.8770     2.1850    68.0800    28.5820    28.1290    21.1440    22.0150    -3.5230 
  115.8750   113.9210    12.3880     4.8960     2.1890    67.4760    28.6450    28.2170    22.1310    22.0630    -3.6150 
  116.0000   114.0390    12.4230     4.9150     2.1870    65.6040    28.6360    28.2420    24.9030    22.1180    -3.7490 
  116.1250   114.1570    12.4590     4.9340     2.1790    65.9120    28.2770    27.9050    23.4560    22.2010    -3.9020 
  116.2500   114.2760    12.4950     4.9530     2.1730    67.1740    27.4520    27.0750    22.3540    22.3210    -4.1290 
  116.3750   114.3940    12.5300     4.9730     2.1710    67.4600    26.1250    25.7060    21.5970    22.4090    -4.3670 
  116.5000   114.5120    12.5660     4.9920     2.1740    67.9530    24.3740    23.8820    21.2270    22.4270    -4.6300 
  116.6250   114.6300    12.6010     5.0110     2.1790    70.8790    22.3950    21.8230    19.3500    22.3990    -4.9770 
  116.7500   114.7480    12.6370     5.0300     2.1800    73.2090    20.5280    19.8830    16.5280    22.3960    -5.3380 
  116.8750   114.8670    12.6720     5.0490     2.1750    73.7640    19.0500    18.3290    14.3500    22.4100    -5.7520 
  117.0000   114.9850    12.7080     5.0680     2.1720    72.9670    18.1940    17.3620    13.2900    22.3960    -6.1450 
  117.1250   115.1030    12.7430     5.0880     2.1990    70.0540    18.2780    17.2550    13.0360    22.3250    -6.5840 
  117.2500   115.2210    12.7790     5.1070     2.2750    66.1160    19.2440    17.9740    14.1040    22.2190    -6.9810 
  117.3750   115.3390    12.8140     5.1260     2.3950    63.9650    21.0300    19.5290    17.0640    22.1180    -7.3980 
  117.5000   115.4580    12.8500     5.1450     2.5260    63.9040    23.4100    21.7920    22.7520    22.0500    -7.7670 
  117.6250   115.5760    12.8850     5.1640     2.6040    64.4720    25.8840    24.3660    27.1700    22.0100    -8.0380 
  117.7500   115.6940    12.9210     5.1830     2.6020    64.6870    27.7390    26.4780    30.5370    22.0070    -8.1860 
  117.8750   115.8120    12.9560     5.2030     2.5310    64.3040    28.4310    27.4300    30.8810    22.0660    -8.2810 
  118.0000   115.9310    12.9920     5.2220     2.4330    64.1230    27.7490    26.8630    26.2290    22.2250    -8.3520 
  118.1250   116.0490    13.0270     5.2410     2.3670    65.4010    25.8920    24.9740    21.1660    22.4470    -8.4070 
  118.2500   116.1670    13.0630     5.2600     2.3480    68.0580    23.8230    22.8420    18.3780    22.4520    -8.4960 
  118.3750   116.2850    13.0980     5.2790     2.3670    69.9090    22.2930    21.1690    15.8170    22.2140    -8.5600 
  118.5000   116.4030    13.1340     5.2980     2.3990    69.9760    21.9030    20.4370    12.8680    21.9220    -8.6130 
  118.6250   116.5220    13.1690     5.3180     2.4250    69.8350    23.2350    21.2050    12.4010    21.8240    -8.7100 
  118.7500   116.6400    13.2050     5.3370     2.4400    69.4510    25.7780    23.3030    17.8920    21.8540    -8.8450 
  118.8750   116.7580    13.2400     5.3560     2.4460    67.9150    28.5200    26.1340    28.2950    21.9030    -8.9710 
  119.0000   116.8760    13.2760     5.3750     2.4460    66.5570    29.8860    28.2330    34.4610    21.9280    -9.0920 
  119.1250   116.9940    13.3110     5.3940     2.4400    66.7410    28.0270    27.0790    36.0020    21.9460    -9.1940 
  119.2500   117.1130    13.3470     5.4130     2.4300    70.4850    23.6120    22.9060    31.8970    21.9610    -9.2190 
  119.3750   117.2310    13.3820     5.4330     2.4200    78.7780    18.1420    17.6020    18.5950    21.9580    -9.2170 
  119.5000   117.3490    13.4180     5.4520     2.4100    88.5760    13.2340    13.0150     9.5890    21.9750    -9.2750 
  119.6250   117.4670    13.4540     5.4710     2.4040    94.1220    10.0070    10.0690     6.9760    22.0240    -9.3350 
  119.7500   117.5860    13.4890     5.4900     2.4000    96.2030     8.1720     8.3310     6.5940    22.0390    -9.4760 
  119.8750   117.7040    13.5250     5.5090     2.3940    98.0960     7.3760     7.4890     6.7290    22.0360    -9.6330 
  120.0000   117.8220    13.5600     5.5280     2.3840    98.2180     7.2870     7.3100     6.8590    22.0340    -9.8320 
  120.1250   117.9340    13.6090     5.5550     2.3690    94.3720     7.6780     7.6670     7.3370    21.9480    -9.9450 
  120.2500   118.0460    13.6570     5.5820     2.3570    93.6130     8.2450     8.2810     8.0350    21.7530   -10.0400 
  120.3750   118.1580    13.7060     5.6090     2.3510    98.0180     8.8140     8.9660     8.5080    21.5830   -10.1200 
  120.5000   118.2700    13.7550     5.6350     2.3510    99.8800     9.2310     9.5450     9.1300    21.5030   -10.1210 
  120.6250   118.3810    13.8040     5.6620     2.3530    96.5970     9.3090     9.7800    10.2650    21.5540   -10.1020 
  120.7500   118.4930    13.8520     5.6890     2.3550    94.5150     9.0390     9.5880    10.2500    21.7000   -10.0470 
  120.8750   118.6050    13.9010     5.7150     2.3580    94.9060     8.4860     9.0190     8.5740    21.8600    -9.9660 
  121.0000   118.7170    13.9500     5.7420     2.3710    95.1190     7.8180     8.2830     7.1980    21.9160    -9.8180 
  121.1250   118.8290    13.9980     5.7690     2.4010    94.8410     7.2760     7.6590     6.9370    21.8520    -9.7390 
  121.2500   118.9410    14.0470     5.7960     2.4440    96.6450     7.0030     7.2910     6.5410    21.6630    -9.7020 
  121.3750   119.0530    14.0960     5.8220     2.4840    96.9640     7.0410     7.2300     7.5630    21.3850    -9.6910 
  121.5000   119.1650    14.1440     5.8490     2.5030    94.1040     7.3500     7.4560    10.4260    21.1530    -9.6910 
  121.6250   119.2760    14.1930     5.8760     2.4820    91.4170     7.8440     7.9050    12.7340    21.0880    -9.7110 
  121.7500   119.3880    14.2420     5.9020     2.4330    90.7470     8.3890     8.4270    10.5070    21.1410    -9.6980 
  121.8750   119.5000    14.2900     5.9290     2.3770    91.4300     8.9150     8.9350     8.7340    21.2380    -9.7340 
  122.0000   119.6120    14.3390     5.9560     2.3360    90.3230     9.3630     9.3610     8.8460    21.3960    -9.8180 
  122.1250   119.7240    14.3880     5.9830     2.3280    86.7510     9.6150     9.5930     9.9160    21.5950    -9.9150 
