~V
VERS. 2.00: Ver 2.00
~W
STRT.M 30.0000:
STOP.M 262.0000:
STEP.M 0.1250:
NULL. -999.2500:
UWI. FD10852:
~C
DEPT.M :
TVD. :
DX. :
DY. :
SP.MV :
GR.API :
RI. :
RML.OHMM :
RXO.OHMM :
DEN.GM/CC :
~A
# ...
  230.7500   207.7360   -83.8860    -4.1100    -3.9240    62.4170    26.2810    27.6570    27.1340     2.6100 
  230.8750   207.8380   -83.9590    -4.1130    -3.6240    59.7630    18.0160    18.5290    24.8070     2.5930 
  231.0000   207.9390   -84.0320    -4.1160    -3.5000    56.0350    11.6480    11.9100    21.1410     2.5550 
  231.1250   208.0410   -84.1050    -4.1180    -3.5390    49.3530     8.0030     8.2500    16.4350     2.5290 
  231.2500   208.1430   -84.1780    -4.1210    -3.7330    39.5760     6.2860     6.8390    11.0060     2.5350 
  231.3750   208.2440   -84.2500    -4.1230    -3.9650    29.4950     5.6630     6.6180     6.6130     2.5830 
  231.5000   208.3460   -84.3230    -4.1260    -4.1420    21.6530     5.2490     6.5190     5.1510     2.6490 
  231.6250   208.4470   -84.3960    -4.1290    -4.4040    17.8060     4.7100     6.0750     5.0250     2.6830 
  231.7500   208.5490   -84.4690    -4.1310    -4.8890    18.0380     3.8110     4.9720     4.3340     2.6380 
  231.8750   208.6510   -84.5410    -4.1330    -5.5150    20.9180     2.8350     3.6940     3.4450     2.5280 
  232.0000   208.7530   -84.6140    -4.1350    -6.2390    23.8690     2.0600     2.6690     2.9610     2.3970 
  232.1250   208.8540   -84.6860    -4.1370    -7.0600    25.9450     1.5450     2.0530     2.8310     2.2870 
  232.2500   208.9560   -84.7590    -4.1390    -7.7870    26.3940     1.3540     1.9010     2.8110     2.2240 
  232.3750   209.0580   -84.8310    -4.1400    -8.0480    26.1860     1.3340     1.9670     2.7990     2.1970 
  232.5000   209.1600   -84.9030    -4.1420    -7.6870    25.7430     1.3960     2.1060     2.7900     2.1910 
  232.6250   209.2620   -84.9760    -4.1440    -7.0260    25.0670     1.4590     2.2060     2.7820     2.1930 
  232.7500   209.3640   -85.0480    -4.1470    -6.4700    24.3550     1.5080     2.2560     2.7710     2.1960 
  232.8750   209.4660   -85.1200    -4.1500    -6.3880    24.5360     1.5400     2.2870     2.7620     2.1900 
  233.0000   209.5680   -85.1920    -4.1530    -6.8400    25.1370     1.5670     2.3260     2.7590     2.1750 
  233.1250   209.6700   -85.2640    -4.1560    -7.5610    25.8110     1.5830     2.3590     2.7390     2.1640 
  233.2500   209.7730   -85.3360    -4.1590    -8.2490    26.9800     1.5950     2.3950     2.7280     2.1680 
  233.3750   209.8750   -85.4080    -4.1620    -8.5770    29.8360     1.6120     2.4320     2.7600     2.1750 
  233.5000   209.9770   -85.4790    -4.1660    -8.4450    32.4510     1.6180     2.4540     2.8000     2.1730 
  233.6250   210.0800   -85.5510    -4.1690    -8.2270    33.8150     1.6200     2.4840     2.8120     2.1730 
  233.7500   210.1820   -85.6230    -4.1730    -8.1520    34.7500     1.6010     2.4950     2.8140     2.1900 
  233.8750   210.2840   -85.6940    -4.1770    -8.1330    35.1810     1.5800     2.5040     2.8280     2.2110 
  234.0000   210.3870   -85.7660    -4.1800    -8.2380    33.6910     1.5610     2.5090     2.8490     2.2250 
  234.1250   210.4890   -85.8370    -4.1840    -8.5100    31.1740     1.5560     2.5300     2.8610     2.2350 
  234.2500   210.5920   -85.9090    -4.1880    -8.7370    30.0320     1.5780     2.6010     2.8910     2.2300 
  234.3750   210.6940   -85.9800    -4.1920    -8.7820    30.5560     1.6120     2.6790     2.9350     2.2120 
  234.5000   210.7970   -86.0520    -4.1960    -8.7160    31.6270     1.6570     2.7770     2.9570     2.1970 
  234.6250   210.8990   -86.1230    -4.2000    -8.5600    32.5130     1.6980     2.8580     2.9850     2.2030 
  234.7500   211.0020   -86.1940    -4.2030    -8.3790    32.6070     1.7290     2.9210     3.0490     2.2160 
  234.8750   211.1040   -86.2660    -4.2070    -8.2830    33.2490     1.7510     2.9590     3.1050     2.2180 
  235.0000   211.2070   -86.3370    -4.2100    -8.2470    34.7970     1.7700     2.9800     3.1340     2.2190 
  235.1250   211.3100   -86.4080    -4.2140    -8.2950    37.1680     1.7810     3.0050     3.1400     2.2210 
  235.2500   211.4120   -86.4800    -4.2170    -8.4840    38.1590     1.7920     3.0320     3.1260     2.2190 
  235.3750   211.5150   -86.5510    -4.2210    -8.4800    37.0410     1.7890     3.0500     3.1290     2.2160 
  235.5000   211.6180   -86.6220    -4.2240    -7.5800    34.5790     1.7560     3.0050     3.1120     2.2100 
  235.6250   211.7200   -86.6930    -4.2280    -6.2660    31.9470     1.7000     2.8730     3.0190     2.2030 
  235.7500   211.8230   -86.7640    -4.2320    -5.2750    28.9240     1.6490     2.7950     2.9250     2.1910 
  235.8750   211.9260   -86.8350    -4.2360    -4.6370    26.1500     1.6150     2.7460     2.8540     2.1870 
  236.0000   212.0280   -86.9060    -4.2400    -4.6270    25.5590     1.6340     2.8200     2.8320     2.2010 
  236.1250   212.1310   -86.9780    -4.2430    -4.9720    27.2920     1.7080     2.9620     2.8690     2.2200 
  236.2500   212.2340   -87.0490    -4.2470    -5.4130    29.3390     1.8080     3.1220     3.0280     2.2300 
  236.3750   212.3370   -87.1200    -4.2510    -5.7990    29.7900     1.9020     3.2840     3.4100     2.2330 
  236.5000   212.4390   -87.1910    -4.2550    -5.7810    29.6820     1.9270     3.3090     3.8630     2.2430 
  236.6250   212.5420   -87.2620    -4.2580    -5.4390    30.1340     1.8750     3.1900     3.8830     2.2560 
  236.7500   212.6450   -87.3330    -4.2620    -5.2480    31.1230     1.7810     3.0030     3.3790     2.2610 
  236.8750   212.7480   -87.4040    -4.2660    -5.1720    31.2050     1.7080     2.8400     2.9240     2.2580 
  237.0000   212.8500   -87.4750    -4.2690    -5.0480    29.6360     1.6860     2.8170     2.7740     2.2570 
  237.1250   212.9530   -87.5460    -4.2730    -4.9390    27.2210     1.7070     2.8910     2.7660     2.2620 
  237.2500   213.0560   -87.6180    -4.2760    -4.8740    25.4490     1.7520     2.9940     2.8390     2.2820 
  237.3750   213.1580   -87.6890    -4.2790    -4.8470    25.3370     1.7640     3.0190     2.9060     2.3040 
  237.5000   213.2610   -87.7600    -4.2830    -4.8880    27.0400     1.7590     3.0130     2.8970     2.2940 
  237.6250   213.3640   -87.8310    -4.2860    -4.9710    29.6350     1.7160     2.9130     2.8910     2.2580 
  237.7500   213.4660   -87.9030    -4.2900    -5.0480    31.3540     1.6780     2.8390     2.9170     2.2350 
  237.8750   213.5690   -87.9740    -4.2930    -5.2850    30.4240     1.6450     2.7660     2.9630     2.2310 
  238.0000   213.6720   -88.0450    -4.2960    -5.6010    27.8740     1.6460     2.7340     3.0150     2.2230 
  238.1250   213.7740   -88.1170    -4.2990    -5.9030    26.4590     1.6830     2.7530     3.0370     2.2120 
  238.2500   213.8770   -88.1880    -4.3020    -6.3410    27.6040     1.7510     2.8400     3.0610     2.2210 
  238.3750   213.9790   -88.2600    -4.3060    -6.8480    29.9200     1.8500     2.9720     3.1110     2.2430 
  238.5000   214.0820   -88.3310    -4.3090    -7.0810    33.3180     1.9730     3.1770     3.1830     2.2550 
  238.6250   214.1840   -88.4030    -4.3120    -6.8910    37.8410     2.0880     3.3460     3.2660     2.2500 
  238.7500   214.2860   -88.4740    -4.3150    -6.3220    41.3570     2.1490     3.4160     3.3550     2.2450 
  238.8750   214.3890   -88.5460    -4.3190    -5.6690    41.9760     2.1600     3.4120     3.4280     2.2500 
  239.0000   214.4910   -88.6170    -4.3220    -5.3790    39.8050     2.1090     3.2880     3.4260     2.2590 
  239.1250   214.5940   -88.6890    -4.3250    -5.5120    36.2880     2.0270     3.1450     3.3570     2.2650 
  239.2500   214.6960   -88.7600    -4.3280    -5.8020    31.9280     1.9470     3.0180     3.3050     2.2710 
  239.3750   214.7990   -88.8320    -4.3310    -6.0690    28.4860     1.8920     2.9430     3.2860     2.2760 
  239.5000   214.9020   -88.9030    -4.3340    -6.0830    27.9700     1.8700     2.9440     3.2720     2.2690 
  239.6250   215.0040   -88.9750    -4.3370    -5.7360    28.0580     1.8820     2.9780     3.2650     2.2490 
  239.7500   215.1070   -89.0460    -4.3390    -5.4490    26.6700     1.9000     3.0010     3.2660     2.2290 
