~V
VERS. 2.00: Ver 2.00
~W
STRT.M 12.0000:
STOP.M 226.0000:
STEP.M 0.1250:
NULL. -999.2500:
UWI. FD10605:
~C
DEPT.M :
TVD. :
DX. :
DY. :
GR.API :
RML.OHMM :
RI. :
RXO.OHMM :
CALI.CM :
DEN.GM/CC :
SP.MV :
~A
# ...
   94.5000    93.3250    10.9880     4.3260    88.9550     8.4750     6.7770    10.5830    21.3890     2.4470   -21.6200 
   94.6250    93.4430    11.0250     4.3460    78.5610     9.5960     7.7840     9.9690    21.6550     2.3870   -22.1620 
   94.7500    93.5610    11.0620     4.3650    72.1490    10.4970     8.6530     9.7520    21.9180     2.3060   -22.7740 
   94.8750    93.6780    11.0990     4.3850    69.7030    11.0370     9.2240     9.8210    22.0960     2.2290   -23.3770 
   95.0000    93.7960    11.1360     4.4050    67.1180    11.1890     9.4350     9.6460    22.1620     2.1740   -23.9630 
   95.1250    93.9130    11.1730     4.4240    63.9300    11.0200     9.3270     9.1890    22.1570     2.1490   -24.5590 
   95.2500    94.0310    11.2100     4.4440    63.9350    10.7630     9.1010     9.1990    22.1500     2.1440   -25.0240 
   95.3750    94.1490    11.2470     4.4630    66.7510    10.5580     8.8750     9.3850    22.1530     2.1520   -25.4180 
   95.5000    94.2660    11.2840     4.4830    68.7720    10.4840     8.7180     9.4000    22.1860     2.1610   -25.7550 
   95.6250    94.3840    11.3210     4.5030    68.5840    10.5730     8.6760     9.3520    22.2300     2.1620   -26.0790 
   95.7500    94.5020    11.3580     4.5220    68.9530    10.7600     8.7200     9.2310    22.2360     2.1570   -26.3600 
   95.8750    94.6190    11.3950     4.5420    69.9100    11.0040     8.8250     9.1810    22.2020     2.1490   -26.6800 
   96.0000    94.7370    11.4320     4.5620    70.3040    11.2780     8.9740     9.3940    22.1630     2.1440   -26.9840 
   96.1250    94.8550    11.4690     4.5810    68.6800    11.5640     9.1600     9.7930    22.1270     2.1480   -27.1850 
   96.2500    94.9720    11.5060     4.6010    66.8200    11.8150     9.3460    10.3870    22.1140     2.1530   -27.3530 
   96.3750    95.0900    11.5430     4.6200    65.4060    11.9560     9.4740    10.8820    22.1110     2.1560   -27.4200 
   96.5000    95.2070    11.5800     4.6400    64.9900    11.9120     9.4730    11.1230    22.1100     2.1540   -27.4070 
   96.6250    95.3250    11.6170     4.6600    65.8020    11.6210     9.2760    10.7530    22.0660     2.1560   -27.2540 
   96.7500    95.4430    11.6540     4.6790    68.7880    11.1980     8.9600    10.1660    21.9490     2.1670   -27.0550 
   96.8750    95.5600    11.6910     4.6990    73.9150    10.7900     8.6360     9.7300    21.7960     2.1880   -26.8550 
   97.0000    95.6780    11.7280     4.7190    78.3060    10.5520     8.4290     9.5420    21.6950     2.2100   -26.6890 
   97.1250    95.7960    11.7650     4.7380    78.0560    10.6510     8.4850     9.4950    21.6920     2.2230   -26.6220 
   97.2500    95.9130    11.8020     4.7580    76.0110    11.0530     8.8050     9.8190    21.7530     2.2230   -26.6220 
   97.3750    96.0310    11.8390     4.7770    74.6110    11.6670     9.3460    10.5600    21.8600     2.2110   -26.6970 
   97.5000    96.1480    11.8760     4.7970    73.2730    12.3380    10.0010    11.5420    21.9510     2.1940   -26.7560 
   97.6250    96.2660    11.9130     4.8170    71.6640    12.8440    10.5750    12.0800    21.9850     2.1760   -26.8950 
   97.7500    96.3840    11.9500     4.8360    68.9350    13.0700    10.9180    11.9750    21.9790     2.1630   -27.0610 
   97.8750    96.5010    11.9870     4.8560    64.5720    12.9930    10.9730    11.6580    21.9380     2.1580   -27.1220 
   98.0000    96.6190    12.0240     4.8760    60.9910    12.6760    10.7770    11.8800    21.8530     2.1630   -27.0710 
   98.1250    96.7370    12.0610     4.8950    62.7930    12.2250    10.4110    12.1450    21.7930     2.1760   -26.9240 
   98.2500    96.8540    12.0980     4.9150    67.8390    11.7820    10.0120    11.7180    21.8420     2.1900   -26.6890 
   98.3750    96.9720    12.1350     4.9350    71.6840    11.4180     9.6560    10.9910    21.9990     2.1970   -26.4230 
   98.5000    97.0890    12.1720     4.9540    73.0500    11.1680     9.3860    10.6820    22.2210     2.1890   -26.2190 
   98.6250    97.2070    12.2090     4.9740    70.1760    11.0990     9.2430    10.7350    22.5010     2.1600   -25.9430 
   98.7500    97.3250    12.2460     4.9930    65.4950    11.2980     9.2710    10.9120    22.8160     2.1190   -25.6410 
   98.8750    97.4420    12.2830     5.0130    62.0900    11.9630     9.6150    10.7570    22.9650     2.0860   -25.3140 
   99.0000    97.5600    12.3200     5.0330    62.0090    13.2990    10.4740    10.6200    22.8130     2.0980   -24.9830 
   99.1250    97.6780    12.3570     5.0520    62.3290    15.4150    12.0750    11.9310    22.4810     2.1900   -24.5520 
   99.2500    97.7950    12.3940     5.0720    60.5240    17.6760    14.0960    17.1510    22.0910     2.3310   -24.0400 
   99.3750    97.9130    12.4310     5.0920    59.1590    19.1670    15.8230    35.6400    21.8140     2.4670   -23.4680 
   99.5000    98.0310    12.4680     5.1110    62.3850    19.0260    16.2260    51.1010    21.7170     2.5460   -22.7410 
   99.6250    98.1480    12.5050     5.1310    72.2570    16.8900    14.6150    30.4050    21.6970     2.5330   -21.9720 
   99.7500    98.2660    12.5420     5.1500    82.7860    13.9990    12.2090    13.1570    21.6680     2.4700   -21.1870 
   99.8750    98.3830    12.5790     5.1700    88.9120    11.3750    10.0080     8.4390    21.6120     2.4020   -20.4670 
  100.0000    98.5010    12.6160     5.1900    90.2710     9.5740     8.4740     7.5080    21.5700     2.3540   -19.7800 
  100.1250    98.6190    12.6530     5.2090    91.1670     8.7450     7.7420     7.6300    21.6470     2.3300   -19.1760 
  100.2500    98.7360    12.6900     5.2290    93.8970     8.4700     7.5180     7.7000    21.8650     2.3140   -18.7260 
  100.3750    98.8540    12.7270     5.2490    96.1920     8.4510     7.5730     7.3690    22.0870     2.3010   -18.3520 
  100.5000    98.9720    12.7640     5.2680    96.8920     8.4430     7.6840     6.9000    22.1710     2.2920   -18.1620 
  100.6250    99.0890    12.8010     5.2880    98.0160     8.3150     7.7030     6.4470    22.0760     2.2920   -18.0950 
  100.7500    99.2070    12.8380     5.3080   101.6410     8.1050     7.6330     6.5010    21.8540     2.2990   -18.1250 
  100.8750    99.3240    12.8750     5.3270   105.3980     7.8640     7.5160     6.7030    21.5290     2.3130   -18.1650 
  101.0000    99.4420    12.9120     5.3470   105.9730     7.6220     7.3790     6.6470    21.2110     2.3310   -18.2290 
  101.1250    99.5600    12.9490     5.3660   103.0070     7.3870     7.2200     6.4800    21.0140     2.3530   -18.3670 
  101.2500    99.6770    12.9860     5.3860   100.1390     7.1610     7.0270     6.3390    20.9520     2.3750   -18.4410 
  101.3750    99.7950    13.0230     5.4060    99.7510     6.9640     6.8080     6.2630    20.9420     2.3920   -18.4690 
  101.5000    99.9130    13.0600     5.4250   101.4070     6.8360     6.5970     6.1480    20.9370     2.4020   -18.4310 
  101.6250   100.0300    13.0970     5.4450   105.4590     6.8470     6.4720     5.9080    20.8820     2.4000   -18.3620 
  101.7500   100.1480    13.1340     5.4650   108.7520     7.0050     6.4750     5.9140    20.7650     2.3920   -18.2690 
  101.8750   100.2660    13.1710     5.4840   108.5230     7.2870     6.6110     6.1690    20.6520     2.3870   -18.2280 
  102.0000   100.3830    13.2080     5.5040   105.4660     7.6240     6.8360     6.7480    20.5940     2.3890   -18.1420 
  102.1250   100.5010    13.2450     5.5230   101.6120     7.8840     7.0420     7.5120    20.5610     2.4000   -18.0430 
  102.2500   100.6180    13.2820     5.5430    97.7420     7.9840     7.1190     7.9770    20.5420     2.4130   -17.9470 
  102.3750   100.7360    13.3190     5.5630    94.0440     7.9430     7.0410     8.0740    20.5390     2.4240   -17.9020 
  102.5000   100.8540    13.3560     5.5820    94.1760     7.8980     6.9020     7.9450    20.5760     2.4300   -17.8730 
  102.6250   100.9710    13.3930     5.6020    98.4860     8.1540     6.9350     7.8640    20.6470     2.4200   -17.8080 
