~V
VERS. 2.00: Ver 2.00
~W
STRT.M 22.0000:
STOP.M 238.0000:
STEP.M 0.1250:
NULL. -999.2500:
UWI. FD10612:
~C
DEPT.M :
TVD. :
DX. :
DY. :
GR.API :
RML.OHMM :
RI. :
RXO.OHMM :
CALI.CM :
DEN.GM/CC :
SP.MV :
~A
# ...
   46.7500    46.7330     0.5790     0.6030    58.5870     7.7250     6.8270     7.3940    26.6950     2.1530   -24.2420 
   46.8750    46.8580     0.5830     0.6070    59.7950     7.7730     6.8960     7.4090    26.6780     2.1600   -24.5110 
   47.0000    46.9830     0.5870     0.6100    61.7230     7.8150     6.9580     7.4150    26.6920     2.1660   -24.8090 
   47.1250    47.1080     0.5900     0.6140    63.7360     7.8120     6.9800     7.4960    26.7120     2.1700   -25.1270 
   47.2500    47.2330     0.5940     0.6170    61.8230     7.7480     6.9440     7.5720    26.6950     2.1710   -25.4750 
   47.3750    47.3580     0.5970     0.6210    56.4540     7.6300     6.8560     7.5030    26.6810     2.1690   -25.8230 
   47.5000    47.4830     0.6010     0.6240    53.2670     7.4890     6.7390     7.2430    26.7820     2.1640   -26.1410 
   47.6250    47.6080     0.6040     0.6280    56.7380     7.3770     6.6350     7.1080    27.1120     2.1580   -26.2920 
   47.7500    47.7330     0.6080     0.6310    60.3060     7.3250     6.5750     7.1560    27.5190     2.1530   -26.3230 
   47.8750    47.8570     0.6120     0.6350    59.9570     7.3320     6.5690     7.1870    27.9620     2.1480   -26.1370 
   48.0000    47.9820     0.6150     0.6380    57.0690     7.3700     6.6000     7.2010    28.3710     2.1460   -25.8760 
   48.1250    48.1070     0.6190     0.6420    55.9130     7.3830     6.6270     7.1680    28.6560     2.1520   -25.6160 
   48.2500    48.2320     0.6220     0.6450    56.6320     7.3240     6.6080     7.2150    28.8140     2.1630   -25.2850 
   48.3750    48.3570     0.6260     0.6490    57.5160     7.1710     6.5120     7.2820    29.0090     2.1710   -25.0340 
   48.5000    48.4820     0.6290     0.6520    58.4310     6.9330     6.3370     7.2250    29.3690     2.1690   -24.7510 
   48.6250    48.6070     0.6330     0.6560    60.4220     6.6500     6.1120     7.0780    29.8380     2.1490   -24.4240 
   48.7500    48.7320     0.6370     0.6590    62.4950     6.3980     5.9060     6.6200    30.0010     2.1170   -24.2210 
   48.8750    48.8560     0.6400     0.6620    64.3900     6.2400     5.7740     5.8660    29.7180     2.0800   -24.1430 
   49.0000    48.9810     0.6440     0.6660    66.0330     6.2120     5.7590     5.2700    29.2550     2.0480   -24.0060 
   49.1250    49.1060     0.6470     0.6690    66.2060     6.3340     5.8950     5.4320    28.4890     2.0320   -23.8920 
   49.2500    49.2310     0.6510     0.6730    65.5440     6.5210     6.1220     5.8930    27.4050     2.0350   -23.7370 
   49.3750    49.3560     0.6540     0.6760    66.7810     6.6840     6.3660     6.4930    26.5730     2.0550   -23.5070 
   49.5000    49.4810     0.6580     0.6800    69.5430     6.7300     6.5280     6.8940    26.2130     2.0820   -23.2360 
   49.6250    49.6060     0.6610     0.6830    71.7850     6.5700     6.4880     6.9680    26.1430     2.1040   -22.8250 
   49.7500    49.7310     0.6650     0.6870    74.6850     6.2490     6.2560     6.6600    26.0720     2.1190   -22.2890 
   49.8750    49.8550     0.6690     0.6900    80.5030     5.8350     5.8880     6.0760    25.8910     2.1320   -21.5790 
   50.0000    49.9800     0.6720     0.6940    86.6860     5.4160     5.4720     5.5400    25.6290     2.1540   -20.7530 
   50.1250    50.1050     0.6760     0.6970    90.2100     5.0780     5.0990     5.0790    25.4650     2.1870   -19.9380 
   50.2500    50.2300     0.6790     0.7010    92.4680     4.8400     4.8050     4.7350    25.4360     2.2250   -19.2020 
   50.3750    50.3550     0.6830     0.7040    95.1950     4.6840     4.5910     4.6850    25.4940     2.2540   -18.5390 
   50.5000    50.4800     0.6860     0.7080    96.6640     4.5670     4.4310     4.8610    25.5690     2.2660   -17.9810 
   50.6250    50.6050     0.6900     0.7110    94.7780     4.4330     4.2840     5.0720    25.6330     2.2580   -17.5810 
   50.7500    50.7300     0.6940     0.7150    91.2330     4.2780     4.1280     5.0500    25.6710     2.2440   -17.2570 
   50.8750    50.8550     0.6970     0.7180    88.1080     4.1800     4.0080     4.8640    25.6660     2.2320   -17.0190 
   51.0000    50.9790     0.7010     0.7210    86.7950     4.2840     4.0370     4.7770    25.6130     2.2330   -16.8880 
   51.1250    51.1040     0.7040     0.7250    85.5570     4.9660     4.4570     4.9730    25.5120     2.2570   -16.8010 
   51.2500    51.2290     0.7080     0.7280    81.5810     6.5530     5.4450     6.1250    25.4460     2.3080   -16.7190 
   51.3750    51.3540     0.7110     0.7320    74.0510     9.2240     7.2190    10.1370    25.3780     2.3860   -16.5240 
   51.5000    51.4790     0.7150     0.7350    65.3670    12.7120     9.8750    22.4450    25.2880     2.4720   -16.2680 
   51.6250    51.6040     0.7190     0.7390    58.6080    16.0040    13.0040    34.0800    25.2490     2.5250   -16.0830 
   51.7500    51.7290     0.7220     0.7420    53.6100    17.9000    15.2250    31.9900    25.2770     2.5190   -15.9200 
   51.8750    51.8540     0.7260     0.7460    51.3970    17.8670    15.5460    20.5210    25.4370     2.4520   -15.8500 
   52.0000    51.9780     0.7290     0.7490    52.7610    16.2780    14.2670    12.7680    25.7740     2.3500   -15.8950 
   52.1250    52.1030     0.7330     0.7530    57.5860    14.2450    12.5740    10.5490    26.1220     2.2550   -15.9030 
   52.2500    52.2280     0.7360     0.7560    63.7080    12.7480    11.3190     9.9770    26.2950     2.1930   -15.9490 
   52.3750    52.3530     0.7400     0.7600    67.9330    11.9640    10.6190     9.9820    26.3390     2.1630   -16.0940 
   52.5000    52.4780     0.7430     0.7630    68.0920    11.7160    10.3550    10.1600    26.3460     2.1520   -16.2350 
   52.6250    52.6030     0.7470     0.7670    66.4640    11.7640    10.3820    10.1350    26.3560     2.1470   -16.4190 
   52.7500    52.7280     0.7510     0.7700    65.6900    11.8700    10.5100     9.9780    26.3730     2.1410   -16.6070 
   52.8750    52.8530     0.7540     0.7740    65.4300    11.9640    10.6730     9.8340    26.4000     2.1350   -16.6960 
   53.0000    52.9780     0.7580     0.7770    64.9730    12.0390    10.8550     9.6920    26.4440     2.1320   -16.6980 
   53.1250    53.1020     0.7610     0.7810    64.4150    12.0940    11.0410     9.8220    26.4660     2.1300   -16.6710 
   53.2500    53.2270     0.7650     0.7840    62.3240    12.0980    11.1780    10.1650    26.4720     2.1270   -16.7310 
   53.3750    53.3520     0.7680     0.7870    58.4820    11.9810    11.1850    10.1220    26.4720     2.1200   -16.9030 
   53.5000    53.4770     0.7720     0.7910    58.4810    11.6540    10.9690     9.7230    26.4660     2.1130   -17.2690 
   53.6250    53.6020     0.7760     0.7940    65.4870    10.9830    10.3920     9.0970    26.3970     2.1110   -17.7100 
   53.7500    53.7270     0.7790     0.7980    72.3930    10.0130     9.4950     8.3860    26.2210     2.1200   -18.1460 
   53.8750    53.8520     0.7830     0.8010    74.4590     8.8340     8.3770     7.4540    25.9850     2.1430   -18.6140 
   54.0000    53.9770     0.7860     0.8050    75.7360     7.6060     7.2040     6.7240    25.7970     2.1800   -19.0650 
   54.1250    54.1010     0.7900     0.8080    82.3440     6.5410     6.1800     6.0080    25.7140     2.2300   -19.3880 
   54.2500    54.2260     0.7930     0.8120    89.9660     5.7480     5.3960     5.2210    25.6920     2.2790   -19.5410 
   54.3750    54.3510     0.7970     0.8150    94.5390     5.2770     4.8900     4.7010    25.7010     2.3130   -19.5140 
   54.5000    54.4760     0.8010     0.8190    95.1570     5.1420     4.6660     4.7330    25.7220     2.3240   -19.2640 
   54.6250    54.6010     0.8040     0.8220    91.2160     5.3880     4.7690     5.1980    25.7000     2.3100   -18.9220 
   54.7500    54.7260     0.8080     0.8260    84.4030     5.9380     5.1490     5.7290    25.5840     2.2840   -18.7050 
   54.8750    54.8510     0.8110     0.8290    78.2170     6.7400     5.7870     6.2300    25.4640     2.2580   -18.5190 
