~V
VERS. 2.00: Ver 2.00
~W
STRT.M 43.0000:
STOP.M 257.0000:
STEP.M 0.1250:
NULL. -999.2500:
UWI. FD10872:
~C
DEPT.M :
TVD. :
DX. :
DY. :
SP.MV :
GR.API :
RI. :
RML.OHMM :
RXO.OHMM :
DEN.GM/CC :
~A
# ...
  207.2500   198.8680    38.8850   -26.1680     4.5490    93.3670     5.4350     6.5180     6.6120     2.3460 
  207.3750   198.9830    38.9290   -26.1920     4.2740    97.8520     5.4620     6.6570     6.6410     2.3430 
  207.5000   199.0970    38.9730   -26.2170     3.9410   100.3690     5.6480     6.9480     6.6510     2.3460 
  207.6250   199.2120    39.0160   -26.2420     3.5610   101.7770     6.0790     7.5260     6.6920     2.3570 
  207.7500   199.3260    39.0600   -26.2660     3.1520   103.1620     6.7460     8.4290     6.6970     2.3740 
  207.8750   199.4400    39.1040   -26.2910     2.7220   101.2110     7.6950     9.7210     7.6820     2.3900 
  208.0000   199.5550    39.1490   -26.3160     2.2790    96.1780     8.8450    11.2820     9.8260     2.3990 
  208.1250   199.6690    39.1930   -26.3410     1.8460    91.4730     9.9960    12.7960    12.0940     2.3940 
  208.2500   199.7830    39.2370   -26.3660     1.4570    88.8270    11.0440    14.1390    13.8710     2.3790 
  208.3750   199.8970    39.2810   -26.3910     1.1790    85.7710    12.0370    15.3860    14.5190     2.3610 
  208.5000   200.0120    39.3250   -26.4160     1.0810    81.2970    13.0990    16.7340    14.9050     2.3480 
  208.6250   200.1260    39.3700   -26.4410     1.2480    76.9090    14.5290    18.5780    15.9030     2.3400 
  208.7500   200.2400    39.4140   -26.4660     1.6640    73.6540    16.5850    21.3010    17.6630     2.3350 
  208.8750   200.3540    39.4580   -26.4910     2.2560    71.8560    19.3290    24.9830    21.6550     2.3250 
  209.0000   200.4680    39.5030   -26.5160     2.8540    70.8790    22.1540    28.6320    28.4620     2.3110 
  209.1250   200.5820    39.5470   -26.5410     3.2870    68.9880    24.1570    31.1100    36.9130     2.2920 
  209.2500   200.6960    39.5920   -26.5660     3.4770    65.6960    25.0000    31.9460    45.7320     2.2760 
  209.3750   200.8100    39.6360   -26.5910     3.4450    65.0350    24.6330    31.1930    48.5500     2.2650 
  209.5000   200.9240    39.6810   -26.6160     3.3280    68.7510    23.8550    30.0520    38.6640     2.2600 
  209.6250   201.0380    39.7250   -26.6420     3.2640    72.7500    23.1910    29.1670    26.9710     2.2590 
  209.7500   201.1520    39.7700   -26.6670     3.3300    72.6730    22.6950    28.5140    27.0750     2.2590 
  209.8750   201.2660    39.8150   -26.6930     3.5240    69.3590    22.2220    27.7960    34.7150     2.2570 
  210.0000   201.3800    39.8590   -26.7180     3.7580    67.4500    21.6210    26.8460    37.8990     2.2550 
  210.1250   201.4940    39.9040   -26.7430     3.9420    68.2210    20.8820    25.6550    31.6900     2.2550 
  210.2500   201.6080    39.9490   -26.7690     4.0140    69.5840    20.1940    24.5550    23.5430     2.2570 
  210.3750   201.7220    39.9930   -26.7950     3.9090    69.6230    19.7850    23.8880    19.6800     2.2590 
  210.5000   201.8360    40.0380   -26.8200     3.6240    70.0960    19.7490    23.7120    23.8480     2.2600 
  210.6250   201.9500    40.0830   -26.8460     3.1560    72.9100    19.8490    23.6540    37.3470     2.2590 
  210.7500   202.0640    40.1280   -26.8720     2.5580    76.0700    19.9440    23.5130    42.1560     2.2570 
  210.8750   202.1770    40.1720   -26.8970     1.8960    78.4950    20.0570    23.3620    30.3380     2.2550 
  211.0000   202.2910    40.2170   -26.9230     1.2360    79.9960    20.4280    23.5070    20.8840     2.2540 
  211.1250   202.4050    40.2620   -26.9490     0.6280    80.5360    21.1970    24.2120    20.3790     2.2520 
  211.2500   202.5190    40.3070   -26.9750     0.0930    79.4870    22.2700    25.3010    23.0560     2.2480 
  211.3750   202.6330    40.3510   -27.0010    -0.3430    77.7120    23.3740    26.3930    24.9180     2.2420 
  211.5000   202.7460    40.3960   -27.0270    -0.6450    76.3350    24.2040    27.1220    24.6090     2.2350 
  211.6250   202.8600    40.4410   -27.0530    -0.7230    75.6740    24.7580    27.5460    27.6890     2.2300 
  211.7500   202.9740    40.4850   -27.0790    -0.5110    75.1230    25.1480    27.8210    30.5080     2.2260 
  211.8750   203.0880    40.5300   -27.1050     0.0590    73.4380    25.2400    27.7390    28.9430     2.2250 
  212.0000   203.2020    40.5740   -27.1320     0.8940    70.4260    25.0690    27.3670    31.2770     2.2250 
  212.1250   203.3150    40.6190   -27.1580     1.8380    69.4430    24.8790    26.9280    34.3210     2.2270 
  212.2500   203.4290    40.6640   -27.1840     2.6740    71.9320    24.8430    26.6450    30.6570     2.2280 
  212.3750   203.5430    40.7080   -27.2100     3.2300    74.5620    25.5490    27.2360    25.3010     2.2280 
  212.5000   203.6570    40.7530   -27.2370     3.5110    74.3040    27.6100    29.4650    23.9650     2.2270 
  212.6250   203.7700    40.7970   -27.2640     3.6170    71.2660    31.0660    33.3660    30.5620     2.2230 
  212.7500   203.8840    40.8420   -27.2900     3.7230    69.0950    36.4280    39.3590    40.0270     2.2170 
  212.8750   203.9980    40.8860   -27.3170     3.9570    67.1220    42.6470    46.2340    45.0370     2.2120 
  213.0000   204.1120    40.9300   -27.3440     4.3520    64.1670    48.9980    53.0080    52.2200     2.2080 
  213.1250   204.2260    40.9750   -27.3700     4.8840    61.0860    55.2460    59.5940    64.5080     2.2050 
  213.2500   204.3390    41.0190   -27.3970     5.4950    59.6850    60.7900    65.3970    72.5540     2.2010 
  213.3750   204.4530    41.0630   -27.4240     6.1660    60.5720    65.5560    70.3130    75.2660     2.1950 
  213.5000   204.5670    41.1080   -27.4500     6.8780    62.1270    69.2110    74.0760    79.5240     2.1880 
  213.6250   204.6810    41.1520   -27.4770     7.6180    62.8570    71.6200    76.5800    85.9510     2.1820 
  213.7500   204.7940    41.1970   -27.5030     8.3620    63.3190    73.6280    78.6250    92.2460     2.1780 
  213.8750   204.9080    41.2410   -27.5300     9.0780    62.5090    76.0070    81.0280    94.6870     2.1760 
  214.0000   205.0220    41.2860   -27.5560     9.7360    61.2630    79.2580    84.3080    93.3900     2.1750 
  214.1250   205.1360    41.3310   -27.5830    10.3070    61.0740    83.7200    88.8350    97.4870     2.1720 
  214.2500   205.2490    41.3750   -27.6090    10.7660    61.2430    89.4430    94.6990   103.5560     2.1680 
  214.3750   205.3630    41.4200   -27.6350    11.0790    59.2890    96.7340   102.1580   105.5100     2.1630 
  214.5000   205.4770    41.4650   -27.6620    11.2520    55.8910   103.9950   109.4810   113.3820     2.1600 
  214.6250   205.5910    41.5090   -27.6880    11.3010    54.8860   110.9170   116.4360   128.8880     2.1570 
  214.7500   205.7040    41.5540   -27.7150    11.3010    56.7370   117.6290   123.0850   140.5540     2.1570 
  214.8750   205.8180    41.5980   -27.7410    11.3410    59.4910   123.7790   128.8960   145.9940     2.1590 
  215.0000   205.9320    41.6430   -27.7680    11.4970    61.4320   129.2350   133.8280   150.6950     2.1620 
  215.1250   206.0450    41.6880   -27.7950    11.7930    61.7400   132.5540   136.3210   152.3080     2.1640 
  215.2500   206.1590    41.7330   -27.8210    12.0970    61.2410   133.3330   136.2540   149.8620     2.1660 
  215.3750   206.2730    41.7780   -27.8470    12.1680    61.1040   132.3780   134.5750   145.7800     2.1650 
  215.5000   206.3860    41.8220   -27.8740    11.8070    61.6830   130.5020   132.1880   141.6050     2.1630 
  215.6250   206.5000    41.8670   -27.9000    10.8820    64.0400   128.7270   130.0370   138.8330     2.1590 
  215.7500   206.6130    41.9120   -27.9270     9.5840    65.4290   125.6560   126.3780   138.3120     2.1540 
  215.8750   206.7270    41.9570   -27.9530     8.2080    63.7480   119.9360   120.2870   139.4520     2.1510 
  216.0000   206.8400    42.0020   -27.9800     7.0490    61.0340   114.4330   114.5840   139.7830     2.1500 
  216.1250   206.9540    42.0470   -28.0060     6.3220    61.0270   110.2830   110.5340   137.1410     2.1500 
  216.2500   207.0680    42.0930   -28.0330     6.0220    62.1790   109.5600   110.0850   126.3230     2.1510 
