~V
VERS. 2.00: Ver 2.00
~W
STRT.M 20.0000:
STOP.M 206.0000:
STEP.M 0.1250:
NULL. -999.2500:
UWI. FD10809:
~C
DEPT.M :
TVD. :
DX. :
DY. :
SP.MV :
GR.API :
RI. :
RML.OHMM :
DEN.GM/CC :
RXO.OHMM :
~A
# ...
  138.6250   127.3100     3.7080    41.9980   -10.2570    53.8950    19.3170    22.2450     2.4650    26.0110 
  138.7500   127.4100     3.7070    42.0730   -10.6780    53.6350    18.2700    21.0660     2.4480    18.2550 
  138.8750   127.5100     3.7060    42.1480   -11.0960    51.6740    17.6490    20.4330     2.4370    16.4130 
  139.0000   127.6100     3.7050    42.2230   -11.4820    49.6810    17.6900    20.4750     2.4380    16.5640 
  139.1250   127.7100     3.7040    42.2980   -11.8880    49.3840    18.1310    20.9230     2.4450    16.5730 
  139.2500   127.8100     3.7030    42.3740   -12.2220    50.4760    18.6430    21.4360     2.4510    18.2130 
  139.3750   127.9100     3.7020    42.4490   -12.4530    51.5680    18.9980    21.7650     2.4460    19.4490 
  139.5000   128.0100     3.7010    42.5240   -12.4950    50.7940    19.1090    21.8300     2.4360    18.4220 
  139.6250   128.1100     3.6990    42.5990   -12.4830    50.1690    19.0650    21.6770     2.4280    17.4270 
  139.7500   128.2100     3.6980    42.6740   -12.4770    49.5840    18.8080    21.3570     2.4330    17.6620 
  139.8750   128.3090     3.6970    42.7490   -12.4340    49.9980    18.5540    20.9960     2.4460    18.0030 
  140.0000   128.4090     3.6960    42.8240   -12.2910    50.5820    18.2870    20.6460     2.4570    17.6140 
  140.1250   128.5090     3.6940    42.8990   -12.1780    52.4840    18.0240    20.3530     2.4540    17.8510 
  140.2500   128.6090     3.6930    42.9740   -12.1270    55.1650    17.9170    20.2120     2.4390    17.9800 
  140.3750   128.7090     3.6910    43.0490   -12.0450    57.2720    17.9200    20.2650     2.4240    17.2790 
  140.5000   128.8090     3.6900    43.1240   -11.9200    56.5720    18.1700    20.5550     2.4300    17.3340 
  140.6250   128.9090     3.6880    43.2000   -11.7250    53.8370    18.5660    21.0190     2.4460    17.1740 
  140.7500   129.0090     3.6870    43.2750   -11.5490    49.9000    19.0710    21.5630     2.4500    16.6180 
  140.8750   129.1090     3.6850    43.3500   -11.3270    46.8070    19.5680    22.0620     2.4420    17.3880 
  141.0000   129.2090     3.6840    43.4250   -11.1240    46.4110    19.9640    22.4180     2.4300    20.4630 
  141.1250   129.3090     3.6820    43.5000   -10.8470    48.7380    20.2240    22.6190     2.4260    23.0340 
  141.2500   129.4090     3.6800    43.5750   -10.6040    52.1500    20.3650    22.6800     2.4370    20.6620 
  141.3750   129.5090     3.6790    43.6500   -10.5440    54.3210    20.4080    22.6390     2.4530    17.4620 
  141.5000   129.6090     3.6770    43.7250   -10.6720    55.1570    20.3500    22.5140     2.4580    17.1200 
  141.6250   129.7090     3.6750    43.8000   -10.8280    54.6390    20.2190    22.3360     2.4490    18.8870 
  141.7500   129.8090     3.6740    43.8750   -10.9420    54.0290    20.0220    22.1110     2.4380    20.5520 
  141.8750   129.9080     3.6720    43.9500   -11.0810    52.8110    19.7550    21.8660     2.4320    18.7800 
  142.0000   130.0080     3.6700    44.0250   -11.2040    51.7370    19.5370    21.7100     2.4300    16.5870 
  142.1250   130.1080     3.6680    44.1000   -11.3470    50.6420    19.5110    21.7360     2.4290    16.1150 
  142.2500   130.2080     3.6660    44.1750   -11.4630    49.1120    19.6810    21.9840     2.4290    14.9760 
  142.3750   130.3090     3.6640    44.2500   -11.5900    47.7380    20.0280    22.4290     2.4290    13.8560 
  142.5000   130.4090     3.6620    44.3250   -11.6500    46.3420    20.5930    23.0810     2.4370    15.2460 
  142.6250   130.5090     3.6600    44.4000   -11.6870    45.7170    21.3130    23.8560     2.4500    18.2390 
  142.7500   130.6090     3.6580    44.4750   -11.7300    45.6320    22.0130    24.6290     2.4620    20.5480 
  142.8750   130.7090     3.6570    44.5500   -11.7980    46.7050    22.6530    25.3510     2.4680    21.0270 
  143.0000   130.8090     3.6550    44.6250   -11.9360    47.1700    23.2550    26.0270     2.4720    21.1610 
  143.1250   130.9090     3.6530    44.6990   -12.1010    46.5100    23.8020    26.6650     2.4760    22.0930 
  143.2500   131.0090     3.6510    44.7740   -12.2750    44.3740    24.3330    27.2870     2.4800    22.6640 
  143.3750   131.1090     3.6490    44.8490   -12.3540    43.2790    24.8540    27.8730     2.4830    24.3180 
  143.5000   131.2090     3.6470    44.9240   -12.4350    42.9160    25.2640    28.3640     2.4900    26.2690 
  143.6250   131.3090     3.6450    44.9990   -12.4950    43.0280    25.6010    28.7580     2.4980    25.3540 
  143.7500   131.4090     3.6430    45.0740   -12.5320    43.3240    25.8950    29.0530     2.5050    24.0370 
  143.8750   131.5090     3.6410    45.1490   -12.4940    43.4100    26.0990    29.2640     2.5030    24.4380 
  144.0000   131.6090     3.6390    45.2250   -12.4340    43.3380    26.2770    29.4600     2.4970    24.2660 
  144.1250   131.7080     3.6370    45.3000   -12.4320    42.3570    26.5590    29.6650     2.4940    23.6340 
  144.2500   131.8080     3.6350    45.3750   -12.4380    42.8970    26.7000    29.7430     2.5020    24.6120 
  144.3750   131.9080     3.6330    45.4500   -12.4780    44.0750    26.6800    29.6710     2.5130    26.3740 
  144.5000   132.0080     3.6310    45.5250   -12.5130    45.5550    26.6410    29.5120     2.5130    27.6580 
  144.6250   132.1080     3.6290    45.6000   -12.5410    44.9310    26.5050    29.3250     2.5000    27.4450 
  144.7500   132.2080     3.6270    45.6750   -12.4950    43.4320    26.4550    29.2190     2.4800    24.5970 
  144.8750   132.3080     3.6250    45.7500   -12.4110    42.6460    26.5010    29.2040     2.4650    23.3510 
  145.0000   132.4080     3.6230    45.8250   -12.3070    43.8640    26.5280    29.1640     2.4540    27.0250 
  145.1250   132.5080     3.6210    45.9010   -12.2910    46.2930    26.4310    29.0130     2.4440    29.5550 
  145.2500   132.6070     3.6190    45.9760   -12.2530    48.1550    26.2170    28.6890     2.4390    28.3670 
  145.3750   132.7070     3.6170    46.0510   -12.2350    48.6600    25.7680    28.1900     2.4410    27.5280 
  145.5000   132.8070     3.6150    46.1260   -12.2060    47.7160    25.2330    27.6390     2.4490    25.8000 
  145.6250   132.9070     3.6120    46.2010   -12.0440    46.6030    24.8090    27.1890     2.4560    22.5380 
  145.7500   133.0070     3.6100    46.2760   -11.8080    46.6060    24.5270    26.9770     2.4580    20.6870 
  145.8750   133.1070     3.6080    46.3510   -11.4900    46.9180    24.6510    27.1240     2.4500    21.0320 
  146.0000   133.2070     3.6060    46.4260   -11.2060    47.8810    25.1350    27.6790     2.4370    23.0200 
  146.1250   133.3070     3.6030    46.5020   -10.9840    49.3860    25.9370    28.5660     2.4310    23.8450 
  146.2500   133.4070     3.6010    46.5770   -10.7930    50.9840    26.9660    29.6970     2.4360    24.0390 
  146.3750   133.5070     3.5990    46.6520   -10.6090    51.0520    28.0490    30.8010     2.4430    26.5300 
  146.5000   133.6060     3.5970    46.7270   -10.4680    48.7250    28.7270    31.4850     2.4460    28.6110 
  146.6250   133.7060     3.5940    46.8020   -10.3540    45.1530    28.7790    31.5170     2.4380    29.3710 
  146.7500   133.8060     3.5920    46.8770   -10.2850    43.1260    28.0940    30.7490     2.4270    30.6890 
  146.8750   133.9060     3.5900    46.9520   -10.2910    44.1750    26.7520    29.3410     2.4180    29.7450 
  147.0000   134.0060     3.5870    47.0270   -10.3210    47.4930    25.0690    27.4810     2.4180    25.1310 
  147.1250   134.1060     3.5850    47.1020   -10.3880    50.3330    23.1780    25.4570     2.4180    21.0890 
  147.2500   134.2060     3.5830    47.1770   -10.3770    50.3580    21.4260    23.6090     2.4140    19.9820 
  147.3750   134.3060     3.5800    47.2520   -10.4450    50.0470    20.1030    22.2170     2.4130    19.5850 
  147.5000   134.4060     3.5780    47.3270   -10.5900    50.5490    19.3980    21.4420     2.4180    17.9290 
  147.6250   134.5060     3.5760    47.4020   -10.7890    51.6760    19.1170    21.1620     2.4240    16.6340 
