~V
VERS. 2.00: Ver 2.00
~W
STRT.M 24.0000:
STOP.M 309.0000:
STEP.M 0.1250:
NULL. -999.2500:
UWI. FD10911:
~C
DEPT.M :
TVD. :
DX. :
DY. :
SP.MV :
GR.API :
RI. :
RML.OHMM :
RXO.OHMM :
DEN.GM/CC :
~A
# ...
   97.0000    96.2900    -0.8040    -8.1400   -23.8820    90.4120     3.6590     4.4690     5.1660     2.1070 
   97.1250    96.4110    -0.7920    -8.1690   -24.0960    92.8500     3.4730     4.2160     4.8220     2.1240 
   97.2500    96.5320    -0.7810    -8.1980   -24.0650    94.3360     3.3220     4.0230     4.4280     2.1510 
   97.3750    96.6530    -0.7690    -8.2260   -23.8710    95.4780     3.2740     3.9860     4.1960     2.1780 
   97.5000    96.7740    -0.7570    -8.2550   -23.6460    95.3320     3.3760     4.1580     4.3460     2.1910 
   97.6250    96.8950    -0.7450    -8.2840   -23.5360    93.3620     3.6020     4.4830     4.9780     2.1860 
   97.7500    97.0160    -0.7330    -8.3130   -23.6410    91.6990     3.8760     4.8320     6.6870     2.1680 
   97.8750    97.1370    -0.7210    -8.3420   -23.9140    88.4150     4.0810     5.0530     9.7090     2.1460 
   98.0000    97.2580    -0.7090    -8.3710   -24.2120    85.9520     4.1150     5.0380    11.7840     2.1270 
   98.1250    97.3790    -0.6970    -8.4000   -24.3530    84.1150     3.9830     4.8200    10.4030     2.1170 
   98.2500    97.5000    -0.6840    -8.4290   -24.2130    86.4700     3.7410     4.4910     7.0050     2.1210 
   98.3750    97.6210    -0.6720    -8.4580   -23.8180    91.6990     3.4720     4.1560     4.7370     2.1390 
   98.5000    97.7420    -0.6600    -8.4870   -23.2360    96.7070     3.2400     3.8910     4.0280     2.1650 
   98.6250    97.8630    -0.6470    -8.5170   -22.5840    99.3940     3.0710     3.7200     3.8530     2.1940 
   98.7500    97.9840    -0.6350    -8.5460   -21.9330    98.5240     2.9790     3.6540     3.7530     2.2220 
   98.8750    98.1040    -0.6220    -8.5750   -21.3400    97.3800     2.9490     3.6570     3.6650     2.2440 
   99.0000    98.2250    -0.6090    -8.6050   -20.8440    97.9460     2.9450     3.6760     3.7420     2.2480 
   99.1250    98.3460    -0.5970    -8.6340   -20.4460   100.5310     2.9290     3.6620     3.9370     2.2350 
   99.2500    98.4670    -0.5840    -8.6640   -20.1520   101.3560     2.8850     3.5920     4.0010     2.2180 
   99.3750    98.5880    -0.5710    -8.6940   -19.9460   100.9640     2.8320     3.4910     3.8630     2.2100 
   99.5000    98.7080    -0.5580    -8.7230   -19.8230   100.2920     2.8400     3.4570     3.6570     2.2150 
   99.6250    98.8290    -0.5450    -8.7530   -19.7560   101.6900     3.0020     3.6280     3.5050     2.2330 
   99.7500    98.9500    -0.5320    -8.7830   -19.7250   102.6870     3.4400     4.1830     3.6490     2.2680 
   99.8750    99.0700    -0.5190    -8.8130   -19.7110   102.6530     4.1820     5.1630     4.7060     2.3220 
  100.0000    99.1910    -0.5060    -8.8430   -19.7210    99.1900     5.0860     6.3540     7.1560     2.3910 
  100.1250    99.3120    -0.4930    -8.8720   -19.7660    93.6740     5.7870     7.2410    10.0700     2.4570 
  100.2500    99.4320    -0.4790    -8.9020   -19.8550    88.6810     5.9170     7.3330    11.7340     2.4870 
  100.3750    99.5530    -0.4660    -8.9320   -19.9850    86.9360     5.4370     6.6260    10.9580     2.4660 
  100.5000    99.6730    -0.4520    -8.9630   -20.1460    88.6610     4.5690     5.4690     8.0800     2.4010 
  100.6250    99.7940    -0.4390    -8.9930   -20.3210    91.5240     3.7290     4.4280     5.3620     2.3250 
  100.7500    99.9150    -0.4250    -9.0230   -20.4890    94.9280     3.1860     3.8250     4.0850     2.2660 
  100.8750   100.0350    -0.4120    -9.0530   -20.6330    98.0610     2.9470     3.6170     3.7530     2.2320 
  101.0000   100.1560    -0.3980    -9.0830   -20.7480    98.7980     2.9450     3.6850     3.8130     2.2150 
  101.1250   100.2760    -0.3840    -9.1140   -20.8650    96.4860     3.0560     3.8610     4.0110     2.2000 
  101.2500   100.3960    -0.3700    -9.1440   -21.0230    93.6550     3.1980     4.0370     4.2930     2.1830 
  101.3750   100.5170    -0.3560    -9.1750   -21.2330    92.2990     3.3070     4.1470     4.5360     2.1680 
  101.5000   100.6370    -0.3420    -9.2050   -21.4630    92.7990     3.3500     4.1580     4.6610     2.1640 
  101.6250   100.7580    -0.3280    -9.2360   -21.6530    92.2580     3.3440     4.1110     4.6960     2.1690 
  101.7500   100.8780    -0.3140    -9.2660   -21.7450    91.1400     3.3290     4.0670     4.5900     2.1800 
  101.8750   100.9980    -0.3000    -9.2970   -21.7360    91.4830     3.3390     4.0660     4.3830     2.1900 
  102.0000   101.1190    -0.2860    -9.3280   -21.6580    90.9420     3.3660     4.0970     4.3290     2.1960 
  102.1250   101.2390    -0.2710    -9.3590   -21.5780    90.3810     3.3740     4.1080     4.5770     2.1940 
  102.2500   101.3590    -0.2570    -9.3890   -21.5450    87.6380     3.3310     4.0550     4.8670     2.1870 
  102.3750   101.4800    -0.2430    -9.4200   -21.5510    87.6820     3.2360     3.9350     4.7780     2.1840 
  102.5000   101.6000    -0.2280    -9.4510   -21.5390    88.9330     3.1140     3.7840     4.3120     2.1910 
  102.6250   101.7200    -0.2140    -9.4820   -21.4510    94.2540     3.0070     3.6540     3.8830     2.2040 
  102.7500   101.8400    -0.1990    -9.5140   -21.2770    98.4650     2.9540     3.5950     3.7350     2.2170 
  102.8750   101.9600    -0.1850    -9.5450   -21.0910   100.8420     2.9810     3.6340     3.7650     2.2280 
  103.0000   102.0810    -0.1700    -9.5760   -20.9940    99.8290     3.0850     3.7650     3.8360     2.2340 
  103.1250   102.2010    -0.1550    -9.6070   -21.0400    97.2840     3.2230     3.9310     4.0600     2.2310 
  103.2500   102.3210    -0.1410    -9.6390   -21.2430    93.7680     3.3550     4.0820     4.5810     2.2150 
  103.3750   102.4410    -0.1260    -9.6700   -21.5530    90.5040     3.4560     4.1810     5.0650     2.1950 
  103.5000   102.5610    -0.1110    -9.7020   -21.8940    88.9890     3.5140     4.2110     5.0280     2.1890 
  103.6250   102.6810    -0.0970    -9.7330   -22.1750    89.8610     3.5380     4.1940     4.6170     2.1990 
  103.7500   102.8010    -0.0820    -9.7650   -22.3040    89.5470     3.5410     4.1650     4.3800     2.2110 
  103.8750   102.9210    -0.0670    -9.7970   -22.2700    88.6210     3.5420     4.1550     4.4460     2.2090 
  104.0000   103.0410    -0.0530    -9.8290   -22.1130    85.8590     3.5450     4.1570     4.4950     2.1970 
  104.1250   103.1610    -0.0380    -9.8610   -21.9090    84.1260     3.5200     4.1130     4.4050     2.1890 
  104.2500   103.2810    -0.0230    -9.8930   -21.7130    83.2010     3.4240     3.9670     4.3690     2.1910 
  104.3750   103.4010    -0.0080    -9.9250   -21.5430    85.4550     3.2660     3.7420     4.3750     2.1980 
  104.5000   103.5210     0.0060    -9.9570   -21.4170    91.5910     3.0920     3.5040     4.1070     2.2120 
  104.6250   103.6410     0.0210    -9.9890   -21.3500    99.1420     2.9530     3.3210     3.6150     2.2340 
  104.7500   103.7600     0.0360   -10.0210   -21.3650   104.8550     2.9050     3.2590     3.3530     2.2570 
  104.8750   103.8800     0.0510   -10.0530   -21.4720   106.4010     2.9800     3.3540     3.4920     2.2710 
  105.0000   104.0000     0.0660   -10.0860   -21.7070   106.0640     3.1910     3.6220     3.8360     2.2710 
  105.1250   104.1200     0.0810   -10.1180   -22.1010   103.7780     3.4880     3.9980     4.1720     2.2610 
  105.2500   104.2400     0.0960   -10.1510   -22.6880    98.2330     3.7670     4.3500     4.6400     2.2370 
  105.3750   104.3590     0.1110   -10.1830   -23.4180    91.9050     3.8860     4.4910     5.2430     2.2050 
  105.5000   104.4790     0.1260   -10.2160   -24.1980    87.6660     3.7590     4.3060     5.5420     2.1750 
  105.6250   104.5990     0.1410   -10.2490   -24.8760    86.4350     3.4710     3.9100     5.3820     2.1630 
  105.7500   104.7180     0.1560   -10.2810   -25.2950    88.0440     3.1840     3.5210     4.8280     2.1810 
  105.8750   104.8380     0.1710   -10.3140   -25.3910    91.7000     3.1040     3.4120     4.0320     2.2220 
  106.0000   104.9580     0.1870   -10.3470   -25.1940    94.7050     3.3770     3.7790     4.0760     2.2760 
