~V
VERS. 2.00: Ver 2.00
~W
STRT.M 22.0000:
STOP.M 238.0000:
STEP.M 0.1250:
NULL. -999.2500:
UWI. FD10612:
~C
DEPT.M :
TVD. :
DX. :
DY. :
GR.API :
RML.OHMM :
RI. :
RXO.OHMM :
CALI.CM :
DEN.GM/CC :
SP.MV :
~A
# ...
  228.2500   206.3400    62.4360    42.2650    33.8330     4.1880     3.7250     3.9220    21.0450     2.3160   -12.5390 
  228.3750   206.4330    62.5030    42.3140    33.8330     4.1930     3.7350     3.9890    20.6810     2.3110   -12.7340 
  228.5000   206.5270    62.5700    42.3630    33.8330     4.2110     3.7590     4.1150    20.5360     2.3140   -12.9160 
  228.6250   206.6200    62.6370    42.4130    33.8330     4.2510     3.8030     4.3680    20.7850     2.3320   -13.1450 
  228.7500   206.7130    62.7040    42.4620    33.8330     4.3080     3.8600     4.6860    21.2580     2.3590   -13.4040 
  228.8750   206.8070    62.7710    42.5110    33.8330     4.3730     3.9190     4.7580    21.6270     2.3900   -13.5820 
  229.0000   206.9000    62.8380    42.5610    33.8330     4.4290     3.9650     4.6840    21.8040     2.4160   -13.6520 
  229.1250   206.9930    62.9050    42.6100    33.8330     4.4580     3.9810     4.5200    21.9140     2.4290   -13.6360 
  229.2500   207.0870    62.9720    42.6590    33.8330     4.4600     3.9700     4.4190    21.9730     2.4340   -13.5120 
  229.3750   207.1800    63.0390    42.7080    33.8330     4.4470     3.9440     4.3740    21.9710     2.4390   -13.3190 
  229.5000   207.2730    63.1060    42.7580    33.8330     4.4360     3.9150     4.3390    21.9300     2.4440   -13.1560 
  229.6250   207.3670    63.1730    42.8070    33.8330     4.4510     3.9000     4.3780    21.8920     2.4430   -13.0480 
  229.7500   207.4600    63.2400    42.8560    33.8330     4.4950     3.9060     4.3710    21.8850     2.4250   -12.9900 
  229.8750   207.5530    63.3070    42.9060    33.8330     4.5630     3.9380     4.3010    21.8800     2.3900   -13.0250 
  230.0000   207.6470    63.3740    42.9550    33.8330     4.6440     3.9940     4.2200    21.8340     2.3490   -13.1560 
  230.1250   207.7400    63.4410    43.0040    33.8330     4.7210     4.0670     4.5000    21.7300     2.3200   -13.2840 
  230.2500   207.8330    63.5080    43.0530    33.8330     4.7780     4.1370     4.7620    21.6430     2.3090   -13.4580 
  230.3750   207.9270    63.5750    43.1030    33.8330     4.8090     4.1900     4.9280    21.5720     2.3130   -13.6630 
  230.5000   208.0200    63.6420    43.1520    33.8330     4.8130     4.2200     4.9460    21.4570     2.3230   -13.8260 
  230.6250   208.1130    63.7090    43.2010    33.8330     4.8010     4.2310     4.9380    21.3050     2.3340   -13.9050 
  230.7500   208.2070    63.7760    43.2510    33.8330     4.7960     4.2440     5.1840    21.1870     2.3440   -13.9130 
  230.8750   208.3000    63.8430    43.3000    33.8330     4.8050     4.2690     5.6800    21.1350     2.3530   -13.8650 
  231.0000   208.3930    63.9100    43.3490    33.8330     4.8270     4.3030     5.8370    21.1050     2.3610   -13.7350 
  231.1250   208.4860    63.9760    43.3980    33.8330     4.8370     4.3260     5.0370    21.0940     2.3630   -13.6270 
  231.2500   208.5800    64.0430    43.4480    33.8330     4.8130     4.3170     4.5930    21.1080     2.3560   -13.5900 
  231.3750   208.6730    64.1100    43.4970    33.8330     4.7430     4.2640     4.4530    21.1840     2.3420   -13.5470 
  231.5000   208.7660    64.1770    43.5460    33.8330     4.6390     4.1760     4.3930    21.3390     2.3270   -13.5200 
  231.6250   208.8600    64.2440    43.5960    33.8330     4.5320     4.0770     4.2400    21.4630     2.3200   -13.4760 
  231.7500   208.9530    64.3110    43.6450    33.8330     4.4510     3.9950     4.1490    21.4920     2.3240   -13.4160 
  231.8750   209.0460    64.3780    43.6940    33.8330     4.4050     3.9410     4.2020    21.5200     2.3340   -13.3560 
  232.0000   209.1400    64.4450    43.7430    33.8330     4.3880     3.9140     4.3110    21.7430     2.3430   -13.3630 
  232.1250   209.2330    64.5120    43.7930    33.8330     4.3880     3.9060     4.3030    22.3870     2.3470   -13.3630 
  232.2500   209.3260    64.5790    43.8420    33.8330     4.3910     3.9040     4.2230    23.0090     2.3500   -13.3630 
  232.3750   209.4200    64.6460    43.8910    33.8330     4.3910     3.9050     4.2840    22.9040     2.3530  -999.2500 
  232.5000   209.5130    64.7130    43.9410    33.8330     4.3910     3.9050     4.4270    22.0940     2.3560  -999.2500 
  232.6250   209.6060    64.7800    43.9900    33.8330     4.3910     3.9050     4.5210    21.6230     2.3540  -999.2500 
  232.7500   209.7000    64.8470    44.0390    33.8330     4.3910     3.9050     4.4780    21.5210     2.3460  -999.2500 
  232.8750   209.7930    64.9140    44.0880    33.8330     4.3910     3.9050     4.4640    21.5690     2.3310  -999.2500 
  233.0000   209.8860    64.9810    44.1380    33.8330     4.3910     3.9050     4.5030    21.6300     2.3120  -999.2500 
  233.1250   209.9800    65.0480    44.1870    33.8330     4.3910     3.9050     4.4080    21.7330     2.2920  -999.2500 
  233.2500   210.0730    65.1150    44.2360    33.8330     4.3910     3.9050     4.3770    21.8010     2.2750  -999.2500 
  233.3750   210.1660    65.1820    44.2860    33.8330     4.3910     3.9050     4.4850    21.6930     2.2640  -999.2500 
  233.5000   210.2600    65.2490    44.3350    33.8330     4.3910     3.9050     4.5360    21.5510     2.2570  -999.2500 
  233.6250   210.3530    65.3160    44.3840    33.8330     4.3910     3.9050     4.4590    21.4810     2.2550  -999.2500 
  233.7500   210.4460    65.3830    44.4330    33.8330     4.3910     3.9050     4.3840    21.4760     2.2530  -999.2500 
  233.8750   210.5400    65.4500    44.4830    33.8330     4.3910     3.9050     4.3400    21.4740     2.2470  -999.2500 
  234.0000   210.6330    65.5170    44.5320    33.8330     4.3910     3.9050     4.3000    21.4980     2.2360  -999.2500 
  234.1250   210.7260    65.5840    44.5810    33.8330     4.3910     3.9050     4.4290    21.5800     2.2220  -999.2500 
  234.2500   210.8200    65.6510    44.6310    33.8330     4.3910     3.9050     4.6680    21.7460     2.2100  -999.2500 
  234.3750   210.9130    65.7180    44.6800    33.8330     4.3910     3.9050     4.7670    22.0260     2.2000  -999.2500 
  234.5000   211.0060    65.7850    44.7290    33.8330     4.3910     3.9050     4.5140    22.4820     2.1890  -999.2500 
  234.6250   211.1000    65.8520    44.7780    33.8330     4.3910     3.9050     4.1640    22.9570     2.1710  -999.2500 
  234.7500   211.1930    65.9190    44.8280    33.8330     4.3910     3.9050     4.0470    23.1740     2.1460  -999.2500 
  234.8750   211.2860    65.9860    44.8770    33.8330     4.3910     3.9050     3.9510    23.1410     2.1220  -999.2500 
  235.0000   211.3800    66.0530    44.9260    33.8330     4.3910     3.9050     3.9500    22.9600     2.1040  -999.2500 
  235.1250   211.4730    66.1200    44.9760    33.8330     4.3910     3.9050     3.9870    22.6340     2.0960  -999.2500 
  235.2500   211.5660    66.1870    45.0250    33.8330     4.3910     3.9050     3.8870    22.4670     2.0900  -999.2500 
  235.3750   211.6600    66.2540    45.0740    33.8330     4.3910     3.9050     3.7040    22.4510     2.0790  -999.2500 
  235.5000   211.7530    66.3210    45.1230    33.8330     4.3910     3.9050     3.5510    22.6020     2.0640  -999.2500 
  235.6250   211.8460    66.3870    45.1730    33.8330     4.3910     3.9050     3.6250    22.7270     2.0470  -999.2500 
  235.7500   211.9400    66.4540    45.2220    33.8330     4.3910     3.9050     3.7330    22.7470     2.0290  -999.2500 
  235.8750   212.0330    66.5210    45.2710    33.8330     4.3910     3.9050     3.5940    22.6990     2.0030  -999.2500 
  236.0000   212.1260    66.5880    45.3210    33.8330     4.3910     3.9050     3.3190    22.7360     1.9660  -999.2500 
  236.1250   212.2200    66.6550    45.3700    33.8330     4.3910     3.9050     3.2070    22.9850     1.9200  -999.2500 
  236.2500   212.3130    66.7220    45.4190    33.8330     4.3910     3.9050     3.3050    23.3320     1.8810  -999.2500 
  236.3750   212.4060    66.7890    45.4680    33.8330     4.3910     3.9050     3.4650    23.0290     1.8590  -999.2500 
