~V
VERS. 2.00: Ver 2.00
~W
STRT.M 53.0000:
STOP.M 258.0000:
STEP.M 0.1250:
NULL. -999.2500:
UWI. FD10870:
~C
DEPT.M :
TVD. :
DX. :
DY. :
SP.MV :
GR.API :
RI. :
RML.OHMM :
RXO.OHMM :
DEN.GM/CC :
~A
# ...
  235.5000   221.7000   -50.0750    17.9100    -3.8750    75.9450     3.5800     4.9710     4.8410     2.3470 
  235.6250   221.8020   -50.1290    17.9580    -3.9840    73.5170     3.6630     5.0850     4.6560     2.3400 
  235.7500   221.9040   -50.1830    18.0050    -4.1810    73.0230     3.8010     5.2920     4.3880     2.3420 
  235.8750   222.0060   -50.2370    18.0520    -4.4100    75.8390     3.9790     5.5610     4.3930     2.3450 
  236.0000   222.1090   -50.2910    18.1000    -4.6620    82.6950     4.1260     5.7950     4.9100     2.3410 
  236.1250   222.2110   -50.3450    18.1470    -5.0930    90.6040     4.1670     5.8500     5.8490     2.3270 
  236.2500   222.3130   -50.3990    18.1950    -5.1670    96.6190     4.0730     5.6730     6.1450     2.3230 
  236.3750   222.4150   -50.4520    18.2430    -4.9440    99.8030     3.8400     5.2950     5.3210     2.3310 
  236.5000   222.5180   -50.5060    18.2900    -4.5710    98.5680     3.5710     4.8980     4.3950     2.3480 
  236.6250   222.6200   -50.5600    18.3380    -4.4060    94.1630     3.3540     4.6130     4.0420     2.3550 
  236.7500   222.7220   -50.6140    18.3860    -4.4480    88.6030     3.2420     4.5030     3.9860     2.3620 
  236.8750   222.8250   -50.6680    18.4330    -4.6010    85.3050     3.2400     4.5360     3.9510     2.3710 
  237.0000   222.9270   -50.7210    18.4810    -4.8450    84.6760     3.3170     4.6570     3.9890     2.3850 
  237.1250   223.0290   -50.7750    18.5290    -5.1200    85.8340     3.4290     4.8110     4.1030     2.3860 
  237.2500   223.1310   -50.8290    18.5760    -5.3130    87.1670     3.5460     4.9600     4.2930     2.3780 
  237.3750   223.2340   -50.8820    18.6240    -4.8930    87.5730     3.6510     5.0910     4.4910     2.3680 
  237.5000   223.3360   -50.9360    18.6720    -3.5160    86.6280     3.7220     5.1720     4.5460     2.3700 
  237.6250   223.4380   -50.9890    18.7200    -1.2750    85.4130     3.7590     5.2090     4.5420     2.3820 
  237.7500   223.5410   -51.0430    18.7680     0.0240    83.3670     3.7640     5.2060     4.5310     2.3980 
  237.8750   223.6430   -51.0960    18.8160     0.2530    82.5720     3.7490     5.1810     4.5500     2.4040 
  238.0000   223.7450   -51.1500    18.8640     0.2780    82.4990     3.7320     5.1520     4.5580     2.4010 
  238.1250   223.8480   -51.2030    18.9120     0.2560    85.0020     3.7340     5.1490     4.4480     2.3900 
  238.2500   223.9500   -51.2570    18.9590    -0.0400    85.5830     3.7600     5.1810     4.3870     2.3850 
  238.3750   224.0520   -51.3100    19.0070    -0.2150    85.1750     3.7950     5.2280     4.4690     2.3850 
  238.5000   224.1550   -51.3640    19.0540    -0.2400    81.7700     3.8280     5.2690     4.5020     2.3870 
  238.6250   224.2570   -51.4180    19.1020    -0.5200    80.3790     3.8430     5.2700     4.5050     2.3850 
  238.7500   224.3600   -51.4710    19.1490    -0.6710    79.3180     3.8670     5.2830     4.5500     2.3710 
  238.8750   224.4620   -51.5250    19.1970    -0.2590    79.9010     3.8810     5.2760     4.6510     2.3540 
  239.0000   224.5650   -51.5780    19.2440    -0.1460    80.3180     3.8950     5.2710     4.8120     2.3350 
  239.1250   224.6670   -51.6320    19.2910    -0.2590    82.2040     3.9350     5.3150     4.8680     2.3210 
  239.2500   224.7700   -51.6860    19.3390    -0.1860    83.2290     3.9960     5.3890     4.9350     2.3100 
  239.3750   224.8720   -51.7390    19.3860    -0.2240    84.8580     4.0950     5.5270     5.3710     2.3110 
  239.5000   224.9750   -51.7930    19.4330    -0.3220    86.4960     4.2280     5.7170     6.1970     2.3140 
  239.6250   225.0770   -51.8470    19.4800    -0.2790    90.7640     4.4110     5.9660     6.5550     2.3180 
  239.7500   225.1800   -51.9000    19.5270    -0.1420    93.8410     4.6510     6.2800     5.8850     2.3170 
  239.8750   225.2830   -51.9540    19.5750    -0.3350    94.7610     4.8580     6.5310     5.4250     2.3250 
  240.0000   225.3850   -52.0080    19.6220    -0.5180    93.9930     4.9710     6.6450     6.0070     2.3410 
  240.1250   225.4880   -52.0610    19.6690    -0.8710    94.2390     4.9870     6.6190     6.7520     2.3530 
  240.2500   225.5900   -52.1150    19.7160    -0.8680    95.2820     4.9440     6.5090     6.8460     2.3490 
  240.3750   225.6930   -52.1680    19.7640    -0.2170    96.0510     4.9250     6.4360     6.1260     2.3270 
  240.5000   225.7950   -52.2220    19.8110     0.0680    95.9750     4.9330     6.4320     5.4350     2.3130 
  240.6250   225.8980   -52.2760    19.8580     0.1390    95.2300     5.0580     6.6200     5.6750     2.3230 
  240.7500   226.0010   -52.3290    19.9060     0.4950    92.9830     5.3250     7.0160     6.2780     2.3500 
  240.8750   226.1030   -52.3820    19.9530     0.6730    91.0850     5.7210     7.5630     6.8450     2.3720 
  241.0000   226.2060   -52.4360    20.0010     0.7430    90.6370     6.0930     8.0410     7.8630     2.3680 
  241.1250   226.3080   -52.4890    20.0480     0.6510    92.7480     6.3030     8.2740     8.6440     2.3570 
  241.2500   226.4110   -52.5430    20.0960     0.4210    93.5400     6.3550     8.3040     8.5510     2.3460 
  241.3750   226.5130   -52.5960    20.1430     0.1140    93.3810     6.2500     8.1050     8.5290     2.3370 
  241.5000   226.6160   -52.6500    20.1910    -0.1730    92.2690     6.0590     7.7960     8.3660     2.3210 
  241.6250   226.7180   -52.7030    20.2380     0.1530    92.2670     5.8510     7.4740     7.8840     2.3100 
  241.7500   226.8210   -52.7570    20.2850     0.8140    92.5470     5.6690     7.2150     8.4660     2.3060 
  241.8750   226.9230   -52.8100    20.3330     1.2700    94.5060     5.5560     7.0550     8.5160     2.3110 
  242.0000   227.0260   -52.8640    20.3800     1.6860    96.1970     5.4320     6.8860     6.9570     2.3150 
  242.1250   227.1280   -52.9180    20.4270     2.1160    96.4950     5.3170     6.7320     6.6240     2.3200 
  242.2500   227.2310   -52.9710    20.4750     1.8180    94.3750     5.1330     6.4570     6.9880     2.3240 
  242.3750   227.3340   -53.0250    20.5220     1.5910    90.7560     4.9090     6.1450     6.1220     2.3250 
  242.5000   227.4360   -53.0780    20.5690     1.5910    88.2040     4.6970     5.8220     5.2760     2.3220 
  242.6250   227.5390   -53.1310    20.6170     1.5910    87.5370     4.5210     5.5500     5.2410     2.3120 
  242.7500   227.6410   -53.1850    20.6650     1.5910    88.3260     4.4160     5.4130     5.2180     2.2980 
  242.8750   227.7440   -53.2380    20.7120     1.5910    89.7540     4.3860     5.3790     5.0310     2.2870 
  243.0000   227.8460   -53.2910    20.7600     1.5910    91.2070     4.3780     5.3920     5.0710     2.2900 
  243.1250   227.9490   -53.3440    20.8080     1.5910    91.4510     4.3090     5.2880     5.0880     2.3110 
  243.2500   228.0510   -53.3980    20.8550     1.5910    90.9640     4.1960     5.1150     4.9570     2.3380 
  243.3750   228.1540   -53.4510    20.9030     1.5910    89.7270     4.0950     4.9050     4.8840     2.3650 
  243.5000   228.2560   -53.5050    20.9500     1.5910    88.6740     3.9620     4.6990     4.9100     2.3790 
  243.6250   228.3590   -53.5580    20.9980     1.5910    87.3090     3.8940     4.5790     4.9930     2.3770 
  243.7500   228.4610   -53.6120    21.0450     1.5910    86.5610     3.8920     4.5560     5.0080     2.3550 
  243.8750   228.5640   -53.6650    21.0930     1.5910    87.6550     4.0060     4.6960     4.8830     2.3290 
  244.0000   228.6660   -53.7180    21.1410     1.5910    91.6130     4.2450     4.9390     4.8200     2.3050 
  244.1250   228.7690   -53.7710    21.1890     1.5910    98.7790     4.4770     5.1680     5.1970     2.2990 
  244.2500   228.8710   -53.8250    21.2370     1.5910   105.0810     4.6410     5.2960     6.0510     2.3030 
  244.3750   228.9740   -53.8780    21.2840     1.5910   108.0100     4.6560     5.2370     6.6140     2.3160 
  244.5000   229.0760   -53.9310    21.3320     1.5910   105.0660     4.5510     5.0620     6.1750     2.3270 
