~V
VERS. 2.00: Ver 2.00
~W
STRT.M 30.0000:
STOP.M 262.0000:
STEP.M 0.1250:
NULL. -999.2500:
UWI. FD10852:
~C
DEPT.M :
TVD. :
DX. :
DY. :
SP.MV :
GR.API :
RI. :
RML.OHMM :
RXO.OHMM :
DEN.GM/CC :
~A
# ...
  103.0000   101.1720   -14.0130    -1.4000   -12.0840    82.5290    12.8270    16.8380    13.2670     2.1370 
  103.1250   101.2880   -14.0600    -1.4040   -13.1230    85.1540    11.8030    15.2380    12.5140     2.0990 
  103.2500   101.4030   -14.1070    -1.4070   -14.1760    88.2260    10.8550    13.8320    10.3360     2.1010 
  103.3750   101.5190   -14.1540    -1.4100   -15.0520    88.8350    10.4570    13.3630     8.6140     2.1240 
  103.5000   101.6350   -14.2010    -1.4140   -15.7730    86.3040    10.4830    13.5310     8.2650     2.1450 
  103.6250   101.7510   -14.2490    -1.4170   -16.3520    83.2730    10.5920    13.7200     8.5990     2.1480 
  103.7500   101.8660   -14.2960    -1.4210   -16.8380    83.4800    10.3680    13.4130     9.1670     2.1330 
  103.8750   101.9820   -14.3430    -1.4240   -17.4710    86.3630     9.7860    12.5370    10.1100     2.1170 
  104.0000   102.0970   -14.3910    -1.4280   -18.2940    89.7580     8.8000    11.1130    10.6280     2.1260 
  104.1250   102.2130   -14.4380    -1.4310   -18.9180    91.1930     7.9140    10.0000     9.4970     2.1580 
  104.2500   102.3290   -14.4860    -1.4350   -18.9690    90.8100     7.3550     9.3730     7.9600     2.1960 
  104.3750   102.4440   -14.5340    -1.4380   -18.6550    91.5860     6.9950     9.0030     7.7090     2.2010 
  104.5000   102.5600   -14.5810    -1.4420   -18.3530    94.6560     6.7420     8.7110     7.8140     2.1750 
  104.6250   102.6750   -14.6290    -1.4450   -18.4070    96.5620     6.5940     8.4490     7.6760     2.1630 
  104.7500   102.7900   -14.6770    -1.4490   -18.8440    94.9670     6.5710     8.2740     7.6810     2.1760 
  104.8750   102.9060   -14.7250    -1.4520   -19.3550    92.4670     6.9060     8.5770     7.4520     2.2000 
  105.0000   103.0210   -14.7730    -1.4560   -19.7400    90.3190     7.8660     9.7480     7.0830     2.2090 
  105.1250   103.1360   -14.8210    -1.4590   -19.7990    87.3560     9.7380    12.2300     9.6940     2.1870 
  105.2500   103.2520   -14.8690    -1.4630   -19.3640    81.8160    12.5890    16.0700    17.9610     2.1410 
  105.3750   103.3670   -14.9170    -1.4660   -18.7590    75.8890    15.8460    20.3000    38.0650     2.0970 
  105.5000   103.4820   -14.9660    -1.4700   -18.5220    73.4220    18.3650    23.3820    67.3880     2.0700 
  105.6250   103.5970   -15.0140    -1.4730   -18.7360    74.2410    18.7430    23.4470    69.0310     2.0540 
  105.7500   103.7130   -15.0630    -1.4770   -19.2980    75.1750    16.7320    20.5360    39.2480     2.0510 
  105.8750   103.8280   -15.1110    -1.4810   -20.0930    75.5670    13.5310    16.2810    20.8150     2.0650 
  106.0000   103.9430   -15.1600    -1.4850   -20.9850    78.4950    10.3500    12.3060    16.4160     2.0930 
  106.1250   104.0580   -15.2090    -1.4890   -21.7810    84.1440     8.3060     9.8900    11.6380     2.1280 
  106.2500   104.1730   -15.2570    -1.4920   -22.2810    88.9660     7.2450     8.7840     8.3350     2.1590 
  106.3750   104.2880   -15.3060    -1.4960   -22.3410    90.7410     6.7950     8.4610     7.1350     2.1730 
  106.5000   104.4030   -15.3550    -1.4990   -22.0430    91.0530     6.7230     8.5690     7.6950     2.1680 
  106.6250   104.5180   -15.4040    -1.5030   -21.8250    92.5710     6.8050     8.8160     8.3980     2.1650 
  106.7500   104.6330   -15.4530    -1.5060   -21.9110    94.0450     6.9460     9.0220     8.1760     2.1720 
  106.8750   104.7470   -15.5030    -1.5100   -22.0860    94.3430     6.9450     8.9500     7.4120     2.1840 
  107.0000   104.8620   -15.5520    -1.5140   -21.9950    94.5200     6.8480     8.7360     7.0930     2.1990 
  107.1250   104.9770   -15.6010    -1.5170   -21.5430    95.8590     6.8810     8.6570     7.8630     2.2270 
  107.2500   105.0920   -15.6510    -1.5210   -20.6560    98.7790     7.2530     9.0000     8.7020     2.2510 
  107.3750   105.2060   -15.7000    -1.5250   -19.2470    98.4830     8.0480     9.8920     8.4530     2.2510 
  107.5000   105.3210   -15.7500    -1.5280   -17.2870    90.9660     9.3830    11.5190    11.9010     2.2140 
  107.6250   105.4360   -15.8000    -1.5320   -15.2090    81.1480    11.4540    14.1290    21.0440     2.1600 
  107.7500   105.5500   -15.8500    -1.5350   -13.8380    76.7900    13.7620    16.8880    23.5790     2.1170 
  107.8750   105.6650   -15.8990    -1.5390   -13.5340    78.4570    15.7110    19.2480    17.7060     2.0970 
  108.0000   105.7790   -15.9500    -1.5420   -14.2500    80.2640    16.6070    20.2220    15.3530     2.0900 
  108.1250   105.8940   -16.0000    -1.5460   -15.8550    81.1610    15.9070    19.2750    15.3420     2.0830 
  108.2500   106.0080   -16.0500    -1.5490   -17.9230    83.1750    13.8220    16.8070    13.0160     2.0730 
  108.3750   106.1230   -16.1000    -1.5530   -19.4220    88.2490    11.2530    13.7230    10.9260     2.0690 
  108.5000   106.2370   -16.1510    -1.5560   -20.3920    95.7890     8.6130    10.6060    10.2530     2.0810 
  108.6250   106.3510   -16.2010    -1.5590   -21.1990   103.9740     6.6900     8.3730     9.1240     2.1240 
  108.7500   106.4660   -16.2520    -1.5620   -21.7130   108.6710     5.4170     6.8620     6.8210     2.1880 
  108.8750   106.5800   -16.3020    -1.5650   -21.8460   108.6210     4.5930     5.8630     5.3770     2.2400 
  109.0000   106.6940   -16.3530    -1.5680   -21.8850   107.5050     4.1750     5.3140     5.2100     2.2690 
  109.1250   106.8080   -16.4040    -1.5720   -21.8880   107.3960     4.2390     5.3580     5.3010     2.2860 
  109.2500   106.9220   -16.4550    -1.5750   -21.5840   105.0420     4.9990     6.2860     5.3450     2.2900 
  109.3750   107.0360   -16.5060    -1.5780   -20.8080    96.0170     6.7370     8.5430     6.4050     2.2770 
  109.5000   107.1500   -16.5570    -1.5810   -19.5230    83.8620     9.8090    12.6750    17.3720     2.2370 
  109.6250   107.2640   -16.6080    -1.5840   -18.2640    74.9880    13.8450    17.8420    36.2730     2.1730 
  109.7500   107.3780   -16.6590    -1.5870   -17.5510    72.6680    17.3200    22.0420    44.3120     2.1100 
  109.8750   107.4920   -16.7100    -1.5900   -17.2770    72.7150    19.1450    23.9070    36.0070     2.0780 
  110.0000   107.6060   -16.7620    -1.5940   -17.3830    71.6460    18.4390    22.4950    21.8970     2.0780 
  110.1250   107.7200   -16.8130    -1.5970   -17.9360    69.3300    16.0460    19.2010    14.4010     2.0790 
  110.2500   107.8340   -16.8650    -1.6000   -18.9860    69.6110    13.1010    15.4600    14.0170     2.0910 
  110.3750   107.9480   -16.9160    -1.6030   -20.2640    74.6320    10.2120    11.8840    13.5920     2.1400 
  110.5000   108.0620   -16.9680    -1.6060   -21.3990    83.6930     7.8330     9.0430    10.8830     2.2070 
  110.6250   108.1750   -17.0200    -1.6090   -22.0860    91.6010     6.0980     7.0310     7.6420     2.2480 
  110.7500   108.2890   -17.0720    -1.6130   -22.2640    95.8720     5.0760     5.9520     6.2490     2.2520 
  110.8750   108.4030   -17.1240    -1.6160   -22.3590    97.3400     4.7130     5.7090     5.8220     2.2510 
  111.0000   108.5160   -17.1760    -1.6190   -22.7730    98.8500     4.7130     5.9090     5.1190     2.2600 
  111.1250   108.6300   -17.2280    -1.6220   -23.4600   100.6800     4.8690     6.2470     4.8970     2.2700 
  111.2500   108.7430   -17.2800    -1.6260   -24.2830   102.1170     4.9360     6.3770     5.5190     2.2670 
  111.3750   108.8570   -17.3320    -1.6290   -25.0350   103.6820     4.8900     6.3130     5.8960     2.2580 
  111.5000   108.9700   -17.3840    -1.6320   -25.2840   104.8390     4.6900     5.9970     5.4490     2.2560 
  111.6250   109.0840   -17.4370    -1.6360   -24.8170   104.0250     4.4460     5.6310     4.9750     2.2700 
  111.7500   109.1970   -17.4890    -1.6390   -23.7610   101.9080     4.3620     5.4830     4.8560     2.2830 
  111.8750   109.3110   -17.5420    -1.6420   -22.2730   100.8320     4.6090     5.7890     4.8840     2.2780 
  112.0000   109.4240   -17.5940    -1.6460   -20.4440    99.5750     5.3740     6.7920     5.1530     2.2590 
