~V
VERS. 2.00: Ver 2.00
~W
STRT.M 15.0000:
STOP.M 282.0000:
STEP.M 0.1250:
NULL. -999.2500:
UWI. FD10218:
~C
DEPT.M :
TVD. :
DX. :
DY. :
DEN.GM/CC :
GR.API :
RML.OHMM :
RI. :
RXO.OHMM :
CALI.CM :
SP.MV :
~A
# ...
   64.5000    64.5000    -0.0930    -0.0820     2.3200    99.8700    10.2050     6.3900     5.7270    25.1200    -4.1650 
   64.6250    64.6250    -0.0940    -0.0820     2.3570    90.4380    11.4420     7.3970     8.9410    24.9790    -5.1750 
   64.7500    64.7500    -0.0950    -0.0820     2.3800    80.2880    12.1970     8.2260    14.5380    24.8800    -6.2850 
   64.8750    64.8750    -0.0960    -0.0810     2.3770    75.6390    12.1950     8.5310    15.3780    25.1230    -7.3310 
   65.0000    65.0000    -0.0970    -0.0810     2.3530    78.5110    11.4850     8.2080    10.5010    25.6740    -8.2400 
   65.1250    65.1250    -0.0970    -0.0810     2.3260    85.4050    10.4380     7.4840     7.3760    25.9640    -9.0540 
   65.2500    65.2500    -0.0980    -0.0800     2.3060    88.8670     9.5890     6.8010     6.0800    25.8770    -9.8440 
   65.3750    65.3750    -0.0990    -0.0800     2.2900    87.8210     9.1720     6.3660     5.8000    25.6060   -10.5650 
   65.5000    65.5000    -0.1000    -0.0800     2.2690    84.5790     9.2000     6.2350     6.1490    25.5500   -11.1910 
   65.6250    65.6250    -0.1010    -0.0790     2.2420    80.1850     9.5510     6.3800     6.3080    25.9180   -11.7300 
   65.7500    65.7500    -0.1010    -0.0790     2.2230    74.5370     9.9890     6.6390     6.2820    26.2550   -12.1610 
   65.8750    65.8750    -0.1020    -0.0790     2.2190    69.9970    10.4260     6.9330     6.3450    26.3120   -12.5600 
   66.0000    65.9990    -0.1030    -0.0780     2.2270    68.3680    10.8570     7.2510     6.6940    26.2150   -13.0020 
   66.1250    66.1240    -0.1040    -0.0780     2.2310    67.5710    11.3190     7.6310     7.3480    26.0610   -13.4700 
   66.2500    66.2490    -0.1050    -0.0780     2.2220    67.0780    11.7770     8.0600     7.6020    25.7650   -13.8920 
   66.3750    66.3740    -0.1050    -0.0770     2.2030    68.8750    12.1150     8.4590     7.5710    25.2310   -14.2540 
   66.5000    66.4990    -0.1060    -0.0770     2.1840    72.0710    12.1820     8.6850     7.3600    24.6870   -14.5680 
   66.6250    66.6240    -0.1070    -0.0770     2.1760    74.1710    11.8290     8.5470     7.2750    24.3870   -14.8380 
   66.7500    66.7490    -0.1080    -0.0770     2.1790    75.1950    11.1890     8.1010     7.2290    24.1890   -15.1220 
   66.8750    66.8740    -0.1090    -0.0760     2.1840    74.1950    10.4460     7.4910     7.2570    24.1970   -15.4250 
   67.0000    66.9990    -0.1090    -0.0760     2.1850    71.2220     9.7960     6.8950     7.4140    24.5030   -15.7190 
   67.1250    67.1240    -0.1100    -0.0760     2.1780    68.7510     9.4150     6.4660     7.5870    25.0490   -15.9730 
   67.2500    67.2490    -0.1110    -0.0750     2.1670    69.2300     9.2940     6.2310     7.7640    25.6880   -16.1880 
   67.3750    67.3740    -0.1120    -0.0750     2.1570    70.7360     9.3890     6.1810     8.0810    26.3380   -16.3710 
   67.5000    67.4990    -0.1130    -0.0750     2.1490    70.7020     9.6270     6.2830     8.6840    27.0180   -16.5230 
   67.6250    67.6240    -0.1130    -0.0740     2.1430    68.8270     9.9270     6.4920     8.9330    27.5940   -16.5800 
   67.7500    67.7490    -0.1140    -0.0740     2.1430    65.6460    10.2010     6.7340     9.3230    27.8650   -16.5760 
   67.8750    67.8740    -0.1150    -0.0740     2.1500    63.6750    10.3870     6.9590    10.6150    27.6660   -16.5360 
   68.0000    67.9990    -0.1160    -0.0730     2.1680    65.2740    10.4440     7.1150    11.1220    27.1170   -16.4770 
   68.1250    68.1240    -0.1170    -0.0730     2.1940    68.4190    10.3390     7.1430    10.1850    26.5560   -16.4310 
   68.2500    68.2490    -0.1170    -0.0730     2.2190    68.2360    10.1320     7.0630     7.8220    26.2330   -16.3690 
   68.3750    68.3740    -0.1180    -0.0720     2.2330    64.8510     9.8890     6.9140     7.1920    26.1340   -16.2710 
   68.5000    68.4990    -0.1190    -0.0720     2.2310    63.6320     9.6820     6.7530     7.1620    26.1520   -16.1390 
   68.6250    68.6240    -0.1200    -0.0720     2.2120    66.6490     9.5790     6.6490     7.2430    26.6130   -16.0470 
   68.7500    68.7490    -0.1210    -0.0710     2.1890    68.9200     9.5720     6.6280     7.2780    27.2820   -15.9790 
   68.8750    68.8740    -0.1210    -0.0710     2.1710    69.2130     9.6240     6.6820     7.3000    27.8790   -15.9440 
   69.0000    68.9990    -0.1220    -0.0710     2.1660    69.1090     9.6780     6.7750     7.7860    28.0790   -16.0090 
   69.1250    69.1240    -0.1230    -0.0700     2.1760    67.9850     9.6670     6.8460     8.0990    27.7340   -16.0890 
   69.2500    69.2490    -0.1240    -0.0700     2.1920    66.4770     9.5850     6.8530     8.1540    27.2160   -16.1080 
   69.3750    69.3740    -0.1250    -0.0700     2.2050    67.7560     9.4620     6.7940     7.9080    26.7430   -16.1140 
   69.5000    69.4990    -0.1250    -0.0690     2.2120    72.9670     9.3590     6.7040     7.6260    26.3550   -16.1160 
   69.6250    69.6240    -0.1260    -0.0680     2.2150    75.2560     9.3350     6.6390     7.2180    26.1650   -16.0090 
   69.7500    69.7490    -0.1270    -0.0670     2.2180    72.0080     9.3590     6.6190     7.1700    26.2590   -15.7670 
   69.8750    69.8740    -0.1270    -0.0660     2.2220    66.8880     9.3460     6.6010     7.5780    26.5450   -15.3930 
   70.0000    69.9990    -0.1280    -0.0660     2.2210    62.7720     9.1970     6.5000     8.0340    26.7860   -14.7890 
   70.1250    70.1240    -0.1280    -0.0650     2.2110    63.7970     8.8890     6.2340     8.1460    26.8870   -13.9540 
   70.2500    70.2490    -0.1290    -0.0640     2.1940    72.0810     8.6470     5.9010     7.7950    26.8900   -12.9880 
   70.3750    70.3740    -0.1290    -0.0630     2.1870    82.0690     8.7980     5.6900     6.7660    26.5640   -11.8930 
   70.5000    70.4990    -0.1300    -0.0620     2.2070    87.6020     9.6810     5.8300     5.5710    25.7410   -10.8200 
   70.6250    70.6240    -0.1310    -0.0610     2.2760    89.1930    11.6350     6.6560     6.0160    25.0100   -10.0060 
   70.7500    70.7490    -0.1310    -0.0610     2.3810    91.7010    14.2590     8.1920     9.5250    24.5580    -9.4760 
   70.8750    70.8740    -0.1320    -0.0600     2.4990    93.0520    16.8260    10.2720    18.2450    24.3540    -9.2890 
   71.0000    70.9990    -0.1320    -0.0590     2.5920    90.3610    18.3010    12.2290    38.7230    24.3170    -9.5600 
   71.1250    71.1240    -0.1330    -0.0580     2.6150    84.4580    17.5910    12.6610    43.8070    24.3280   -10.2480 
   71.2500    71.2490    -0.1340    -0.0570     2.5700    75.9330    15.3280    11.4790    22.9270    24.4580   -11.2250 
   71.3750    71.3740    -0.1340    -0.0560     2.4750    68.3180    12.5800     9.5920    10.7480    25.0080   -12.4590 
   71.5000    71.4990    -0.1350    -0.0550     2.3640    66.0620    10.3580     7.9210     7.8630    25.7870   -13.7450 
   71.6250    71.6240    -0.1350    -0.0550     2.2740    69.6690     9.2560     6.9300     7.8340    26.3530   -14.9390 
   71.7500    71.7490    -0.1360    -0.0540     2.2160    71.3940     8.9380     6.4780     7.9280    26.5370   -16.0420 
   71.8750    71.8740    -0.1370    -0.0530     2.1850    68.8710     9.0730     6.4240     8.0870    26.4250   -16.9470 
   72.0000    71.9990    -0.1370    -0.0520     2.1690    65.9930     9.3680     6.6060     9.2810    26.4120   -17.6180 
   72.1250    72.1240    -0.1380    -0.0510     2.1670    67.6140     9.6070     6.8580    11.4630    26.9300   -18.1520 
   72.2500    72.2490    -0.1380    -0.0500     2.1760    70.4050     9.7220     7.0580    11.6710    27.6880   -18.5290 
   72.3750    72.3740    -0.1390    -0.0500     2.1940    69.1040     9.7300     7.1750     9.7390    27.9970   -18.8070 
   72.5000    72.4990    -0.1400    -0.0490     2.2110    65.1870     9.6770     7.2220     8.6530    27.6810   -19.0870 
   72.6250    72.6240    -0.1400    -0.0480     2.2170    64.2990     9.6080     7.2190     8.6780    27.2400   -19.2420 
