~V
VERS. 2.00: Ver 2.00
~W
STRT.M 44.0000:
STOP.M 206.0000:
STEP.M 0.1250:
NULL. -999.2500:
UWI. FD10808:
~C
DEPT.M :
TVD. :
DX. :
DY. :
SP.MV :
GR.API :
RI. :
RML.OHMM :
RXO.OHMM :
DEN.GM/CC :
~A
# ...
  117.0000   114.4760    -5.9430    14.6310   -10.4890    64.8000    13.4760    15.1260    17.7030     2.5250 
  117.1250   114.5880    -5.9690    14.6810   -10.3080    63.6750    14.6590    16.2200    18.5850     2.5030 
  117.2500   114.6990    -5.9950    14.7310   -10.2930    62.9440    14.9600    16.3330    18.8460     2.4140 
  117.3750   114.8110    -6.0210    14.7810   -10.3520    63.5970    14.3640    15.6240    19.0790     2.2900 
  117.5000   114.9220    -6.0460    14.8320   -10.3910    64.4530    13.4690    14.6750    18.3530     2.1900 
  117.6250   115.0330    -6.0720    14.8820   -10.4190    64.5180    12.8360    13.9730    16.5340     2.1360 
  117.7500   115.1450    -6.0980    14.9330   -10.4870    63.8810    12.5420    13.6720    15.0850     2.1190 
  117.8750   115.2560    -6.1240    14.9830   -10.6910    63.3630    12.6740    13.7840    15.1310     2.1130 
  118.0000   115.3670    -6.1500    15.0340   -10.9080    63.0780    12.9860    14.1330    16.1960     2.1120 
  118.1250   115.4790    -6.1760    15.0850   -11.0300    62.0220    13.3590    14.5360    17.2160     2.1070 
  118.2500   115.5900    -6.2020    15.1350   -11.0710    60.7660    13.6370    14.8090    17.7060     2.1010 
  118.3750   115.7010    -6.2290    15.1860   -11.1490    59.4600    13.6590    14.7690    17.4650     2.0910 
  118.5000   115.8120    -6.2550    15.2370   -11.1840    58.6020    13.3570    14.4030    16.5850     2.0830 
  118.6250   115.9230    -6.2810    15.2880   -11.1770    58.0800    12.8570    13.8270    15.6770     2.0840 
  118.7500   116.0340    -6.3070    15.3390   -11.1740    58.8570    12.3510    13.2550    15.0150     2.0960 
  118.8750   116.1450    -6.3330    15.3900   -11.2510    60.2840    11.9780    12.8560    14.2570     2.1110 
  119.0000   116.2560    -6.3600    15.4420   -11.3810    62.5050    11.8280    12.6910    13.5760     2.1210 
  119.1250   116.3670    -6.3860    15.4930   -11.4510    63.2070    11.8710    12.7590    13.6360     2.1250 
  119.2500   116.4780    -6.4120    15.5440   -11.4900    62.6610    12.0660    13.0060    13.7760     2.1220 
  119.3750   116.5890    -6.4380    15.5960   -11.4450    61.0450    12.4190    13.4390    13.3990     2.1230 
  119.5000   116.7000    -6.4650    15.6470   -11.3490    60.0760    12.9600    13.9920    13.4530     2.1450 
  119.6250   116.8100    -6.4910    15.6990   -11.1500    60.2030    13.4630    14.5010    14.3510     2.2010 
  119.7500   116.9210    -6.5170    15.7500   -10.9830    60.2870    13.8100    14.8240    15.4910     2.2700 
  119.8750   117.0320    -6.5440    15.8020   -10.6560    59.7080    13.9020    14.9050    17.0680     2.3180 
  120.0000   117.1430    -6.5700    15.8540   -10.2140    59.3240    13.8440    14.8480    17.6020     2.3440 
  120.1250   117.2530    -6.5970    15.9060    -9.7070    58.1490    13.8020    14.8380    15.3300     2.3720 
  120.2500   117.3640    -6.6230    15.9580    -9.2270    55.2040    13.9320    15.0840    13.9520     2.4300 
  120.3750   117.4740    -6.6500    16.0100    -8.9410    52.2330    14.5010    15.7770    16.3830     2.4950 
  120.5000   117.5850    -6.6760    16.0620    -8.9090    51.4560    15.4930    16.7400    20.1050     2.5430 
  120.6250   117.6950    -6.7030    16.1140    -9.0330    52.8100    16.2980    17.3620    21.5460     2.5490 
  120.7500   117.8060    -6.7290    16.1660    -9.1300    54.1790    16.2490    17.1200    22.1100     2.5240 
  120.8750   117.9160    -6.7560    16.2180    -9.1270    55.2040    15.2870    15.9770    24.3560     2.4610 
  121.0000   118.0260    -6.7830    16.2710    -9.0090    57.1840    13.9670    14.5040    23.2030     2.3940 
  121.1250   118.1360    -6.8100    16.3230    -8.9380    59.1810    12.9080    13.3850    17.2960     2.3450 
  121.2500   118.2470    -6.8370    16.3760    -8.8330    60.1920    12.5610    13.0510    13.5370     2.3390 
  121.3750   118.3570    -6.8640    16.4290    -8.7640    58.8410    13.0520    13.7200    14.1980     2.3620 
  121.5000   118.4670    -6.8910    16.4810    -8.7010    56.8010    14.4220    14.9940    15.4920     2.3880 
  121.6250   118.5770    -6.9190    16.5340    -8.5730    54.6630    15.4080    15.8530    15.2470     2.3990 
  121.7500   118.6870    -6.9460    16.5870    -8.4910    54.3780    15.0520    15.4800    16.6550     2.3860 
  121.8750   118.7960    -6.9730    16.6400    -8.5580    55.6800    12.8800    13.5000    21.3090     2.3560 
  122.0000   118.9060    -7.0010    16.6930    -8.6990    58.7450     9.7260    10.5530    22.3670     2.3090 
  122.1250   119.0160    -7.0290    16.7470    -8.7500    62.6280     7.3010     7.9550    15.2080     2.2680 
  122.2500   119.1250    -7.0560    16.8000    -8.7030    66.6590     5.9210     6.4440     7.4800     2.2490 
  122.3750   119.2350    -7.0840    16.8540    -8.5810    69.0960     5.6270     6.2010     4.9360     2.2770 
  122.5000   119.3440    -7.1120    16.9070    -8.5070    67.5360     6.3010     7.1410     5.4280     2.3370 
  122.6250   119.4530    -7.1390    16.9610    -8.5000    61.5240     8.2710     9.3320     9.6740     2.4050 
  122.7500   119.5630    -7.1670    17.0150    -8.6120    54.1600    11.1200    12.1570    15.6540     2.4470 
  122.8750   119.6720    -7.1950    17.0690    -8.6770    50.3930    13.8210    14.7520    17.7200     2.4420 
  123.0000   119.7810    -7.2230    17.1230    -8.6060    50.4360    15.7650    16.4650    16.5520     2.4100 
  123.1250   119.8900    -7.2500    17.1780    -8.4470    50.5480    16.1300    16.8700    15.8630     2.3690 
  123.2500   119.9990    -7.2780    17.2320    -8.2470    49.3060    15.6590    16.4760    16.4420     2.3520 
  123.3750   120.1080    -7.3060    17.2870    -8.0950    48.3520    15.0770    15.9250    16.6970     2.3460 
  123.5000   120.2170    -7.3330    17.3410    -7.9830    50.3810    14.5990    15.4480    16.3700     2.3440 
  123.6250   120.3260    -7.3610    17.3960    -7.8820    53.8090    14.1530    14.8490    15.7150     2.3240 
  123.7500   120.4350    -7.3890    17.4510    -7.7700    56.0330    13.4050    14.0400    14.7190     2.2650 
  123.8750   120.5440    -7.4170    17.5050    -7.6920    56.7450    12.4320    13.1590    15.6510     2.1690 
  124.0000   120.6530    -7.4450    17.5600    -7.5840    56.5690    11.5540    12.4180    18.0230     2.0940 
  124.1250   120.7620    -7.4730    17.6150    -7.4640    57.6870    11.1430    12.1200    16.4300     2.1170 
  124.2500   120.8710    -7.5010    17.6690    -7.4050    59.4670    11.3010    12.3570    12.3090     2.2150 
  124.3750   120.9800    -7.5290    17.7240    -7.3970    61.0050    11.8870    13.0790    12.4270     2.3070 
  124.5000   121.0880    -7.5570    17.7790    -7.4870    61.5900    12.7170    14.0670    15.5890     2.3320 
  124.6250   121.1970    -7.5850    17.8340    -7.5410    62.0500    13.6240    14.9830    18.8440     2.2980 
  124.7500   121.3060    -7.6130    17.8880    -7.5590    62.5390    14.0400    15.4210    19.7880     2.2490 
  124.8750   121.4150    -7.6410    17.9430    -7.6250    61.7530    13.8570    15.2620    16.5190     2.2160 
  125.0000   121.5240    -7.6690    17.9980    -7.6850    60.4350    13.3980    14.8360    14.5110     2.1910 
  125.1250   121.6320    -7.6970    18.0530    -7.6760    59.8590    12.9930    14.4760    15.8710     2.1800 
  125.2500   121.7410    -7.7240    18.1080    -7.7560    61.2190    12.8040    14.3180    15.5860     2.1690 
  125.3750   121.8500    -7.7520    18.1630    -7.8360    63.6990    12.7190    14.2800    14.5730     2.1630 
  125.5000   121.9590    -7.7800    18.2180    -7.7940    66.8900    12.5850    14.1780    16.3340     2.1570 
  125.6250   122.0670    -7.8080    18.2730    -7.7160    68.7780    12.3050    14.0030    17.4440     2.1730 
  125.7500   122.1760    -7.8360    18.3280    -7.6420    68.9580    12.2160    13.9230    15.6710     2.2120 
  125.8750   122.2850    -7.8630    18.3830    -7.5710    66.2660    12.3160    14.0740    14.9410     2.2830 
  126.0000   122.3930    -7.8910    18.4380    -7.4900    63.2250    12.7180    14.5260    15.9970     2.3570 
