~V
VERS. 2.00: Ver 2.00
~W
STRT.M 12.0000:
STOP.M 226.0000:
STEP.M 0.1250:
NULL. -999.2500:
UWI. FD10605:
~C
DEPT.M :
TVD. :
DX. :
DY. :
GR.API :
RML.OHMM :
RI. :
RXO.OHMM :
CALI.CM :
DEN.GM/CC :
SP.MV :
~A
# ...
  119.2500   116.6160    18.3140     8.2130    65.6640    20.9530    22.5810    24.7610    21.0140     2.5450    -3.7710 
  119.3750   116.7340    18.3510     8.2320    69.0270    19.0750    20.6000    16.7270    21.1440     2.4850    -3.6030 
  119.5000   116.8510    18.3880     8.2520    72.5250    16.3570    17.5540    12.1160    21.4870     2.4230    -3.4720 
  119.6250   116.9690    18.4250     8.2720    76.1780    14.1610    15.1480    12.0200    21.9080     2.3800    -3.3560 
  119.7500   117.0870    18.4620     8.2910    78.6860    13.1480    13.8970    12.3370    22.3160     2.3700    -3.2840 
  119.8750   117.2040    18.4990     8.3110    77.7500    13.4530    13.8320    11.9030    22.4100     2.3950    -3.1870 
  120.0000   117.3220    18.5360     8.3310    72.5530    14.9860    14.8920    13.8300    22.1540     2.4500    -3.1230 
  120.1250   117.4320    18.5880     8.3580    68.0340    17.6600    17.1100    17.8160    21.8390     2.5210    -3.1180 
  120.2500   117.5430    18.6390     8.3850    66.9920    20.9300    20.0170    23.4110    21.6130     2.5870    -3.1970 
  120.3750   117.6530    18.6910     8.4120    65.4350    24.4010    23.2040    24.4740    21.5340     2.6410    -3.3210 
  120.5000   117.7640    18.7420     8.4400    60.9490    27.7530    26.3170    21.9410    21.5220     2.6810    -3.4450 
  120.6250   117.8740    18.7940     8.4670    55.2310    30.8340    29.1900    24.6360    21.5190     2.7050    -3.5290 
  120.7500   117.9850    18.8450     8.4940    53.2780    33.8050    31.9880    28.2890    21.5040     2.7160    -3.5490 
  120.8750   118.0950    18.8970     8.5210    55.6310    36.8050    34.8760    32.1730    21.4440     2.7130    -3.5390 
  121.0000   118.2060    18.9490     8.5490    58.8560    39.7740    37.8270    35.6810    21.3230     2.6940    -3.4520 
  121.1250   118.3160    19.0000     8.5760    61.6580    42.2740    40.3260    37.2140    21.1540     2.6600    -3.3350 
  121.2500   118.4260    19.0520     8.6030    63.2020    43.9600    41.8790    35.7450    21.1250     2.6220    -3.1530 
  121.3750   118.5370    19.1030     8.6300    62.9050    44.7530    42.3910    34.0440    21.1950     2.5850    -2.9870 
  121.5000   118.6470    19.1550     8.6580    61.0040    44.9120    42.2130    35.4500    21.2750     2.5570    -2.7810 
  121.6250   118.7580    19.2070     8.6850    59.4700    44.9070    41.8820    39.4430    21.3790     2.5400    -2.6400 
  121.7500   118.8680    19.2580     8.7120    57.8650    45.1490    41.8320    38.4220    21.5200     2.5310    -2.4950 
  121.8750   118.9790    19.3100     8.7390    54.7210    45.7240    42.1990    37.7160    21.5580     2.5270    -2.4210 
  122.0000   119.0890    19.3610     8.7670    51.8950    46.4770    42.8770    39.7260    21.4120     2.5280    -2.4450 
  122.1250   119.2000    19.4130     8.7940    53.7230    47.0620    43.5180    41.1720    21.2530     2.5320    -2.4730 
  122.2500   119.3100    19.4650     8.8210    57.3970    47.2760    43.8530    37.7410    21.2350     2.5350    -2.5420 
  122.3750   119.4200    19.5160     8.8480    59.3620    47.1510    43.8780    36.7380    21.3590     2.5340    -2.6110 
  122.5000   119.5310    19.5680     8.8760    58.7420    46.8980    43.7710    36.4290    21.5450     2.5290    -2.7670 
  122.6250   119.6410    19.6190     8.9030    57.4690    46.8470    43.8230    40.0210    21.7390     2.5260    -2.9170 
  122.7500   119.7520    19.6710     8.9300    57.7740    47.1250    44.1900    43.8980    21.8760     2.5270    -3.1200 
  122.8750   119.8620    19.7230     8.9580    58.5400    47.6420    44.8120    45.5110    21.9340     2.5280    -3.2930 
  123.0000   119.9730    19.7740     8.9850    57.4270    48.1440    45.4300    44.5240    21.9350     2.5240    -3.3710 
  123.1250   120.0830    19.8260     9.0120    54.2140    48.3220    45.6800    37.8550    21.7950     2.5130    -3.5090 
  123.2500   120.1940    19.8770     9.0390    52.2460    48.2120    45.5760    33.5700    21.7050     2.5040    -3.6700 
  123.3750   120.3040    19.9290     9.0670    54.1850    48.0570    45.3630    34.3560    21.6940     2.5080    -3.8720 
  123.5000   120.4140    19.9800     9.0940    58.0520    48.1720    45.3780    36.4850    21.7180     2.5330    -4.0560 
  123.6250   120.5250    20.0320     9.1210    59.4950    48.8200    45.9500    38.4110    21.7430     2.5730    -4.2160 
  123.7500   120.6350    20.0840     9.1480    58.6380    49.7660    46.9110    40.6300    21.7680     2.6070    -4.2580 
  123.8750   120.7460    20.1350     9.1760    58.5380    50.6100    47.8740    42.0690    21.7820     2.6200    -4.2540 
  124.0000   120.8560    20.1870     9.2030    59.6060    50.9300    48.3420    41.3650    21.7850     2.6100    -4.2910 
  124.1250   120.9670    20.2380     9.2300    58.3730    50.4380    47.9000    37.3300    21.7940     2.5860    -4.2730 
  124.2500   121.0770    20.2900     9.2570    55.9090    49.5450    46.9320    36.7530    21.8140     2.5680    -4.1840 
  124.3750   121.1880    20.3420     9.2850    55.4580    48.7860    45.9930    39.2230    21.8350     2.5620    -4.0140 
  124.5000   121.2980    20.3930     9.3120    57.4930    48.6890    45.6600    44.4580    21.8360     2.5680    -3.7270 
  124.6250   121.4090    20.4450     9.3390    58.4180    49.6720    46.4590    45.7640    21.7500     2.5810    -3.4000 
  124.7500   121.5190    20.4960     9.3660    57.2820    51.3070    48.0770    45.1920    21.5550     2.5960    -3.2000 
  124.8750   121.6290    20.5480     9.3940    56.7220    52.9200    49.8630    43.7820    21.3330     2.6100    -3.0210 
  125.0000   121.7400    20.6000     9.4210    57.7530    53.7180    50.9340    41.6670    21.1820     2.6190    -2.8750 
  125.1250   121.8500    20.6510     9.4480    57.4330    52.9440    50.3810    42.5330    21.1100     2.6180    -2.7420 
  125.2500   121.9610    20.7030     9.4750    55.7910    51.0100    48.5350    41.2290    21.1520     2.6050    -2.6430 
  125.3750   122.0710    20.7540     9.5030    55.4360    48.6330    46.1060    36.3480    21.3440     2.5840    -2.5740 
  125.5000   122.1820    20.8060     9.5300    56.8950    46.6720    43.9820    32.4910    21.6090     2.5600    -2.5720 
  125.6250   122.2920    20.8580     9.5570    56.0850    45.9520    43.0410    32.5820    21.7240     2.5390    -2.6460 
  125.7500   122.4030    20.9090     9.5840    53.5270    46.3470    43.2370    33.5100    21.6190     2.5250    -2.6830 
  125.8750   122.5130    20.9610     9.6120    52.8350    47.4170    44.2110    35.7550    21.3680     2.5220    -2.7250 
  126.0000   122.6230    21.0120     9.6390    54.1960    48.4970    45.3490    38.8820    21.1560     2.5270    -2.7130 
  126.1250   122.7340    21.0640     9.6660    55.2770    48.8310    45.8630    41.2240    21.0290     2.5400    -2.7320 
  126.2500   122.8440    21.1150     9.6930    55.3080    48.3200    45.5430    41.8530    21.0250     2.5540    -2.7200 
  126.3750   122.9550    21.1670     9.7210    55.3900    47.2190    44.6160    36.6170    21.1800     2.5640    -2.6830 
  126.5000   123.0650    21.2190     9.7480    56.3370    45.9730    43.5210    33.5650    21.3760     2.5640    -2.6660 
  126.6250   123.1760    21.2700     9.7750    57.8910    45.0360    42.6940    34.2080    21.3040     2.5550    -2.6130 
  126.7500   123.2860    21.3220     9.8030    59.7770    44.4740    42.2390    34.4530    21.0510     2.5430    -2.5620 
  126.8750   123.3970    21.3730     9.8300    61.5560    44.1200    42.0400    33.9630    20.8740     2.5350    -2.5070 
  127.0000   123.5070    21.4250     9.8570    62.5060    43.6990    41.8140    32.8880    20.8310     2.5320    -2.4990 
  127.1250   123.6170    21.4770     9.8840    61.2400    42.9400    41.2320    35.4060    20.8680     2.5320    -2.4790 
  127.2500   123.7280    21.5280     9.9120    58.4400    41.9110    40.3340    36.2890    20.9160     2.5290    -2.5460 
  127.3750   123.8380    21.5800     9.9390    55.8050    40.7900    39.3160    35.2470    20.9400     2.5240    -2.6730 
