~V
VERS. 2.00: Ver 2.00
~W
STRT.M 1.0000:
STOP.M 198.0000:
STEP.M 0.1250:
NULL. -999.2500:
UWI. FD10802:
~C
DEPT.M :
TVD. :
DX. :
DY. :
SP.MV :
GR.API :
RI. :
RML.OHMM :
RXO.OHMM :
DEN.GM/CC :
~A
# ...
   10.1250    10.1250     0.0180    -0.0260     6.3400    42.5470     1.3930     4.1160     1.1080     2.2580 
   10.2500    10.2500     0.0180    -0.0270     5.7040    44.6030     1.4020     3.7690     1.1260     2.2580 
   10.3750    10.3750     0.0180    -0.0280     4.4720    45.4290     1.3860     3.7130     1.1410     2.2580 
   10.5000    10.5000     0.0180    -0.0280     3.1470    45.3240     1.3850     6.5860     1.1570     2.2580 
   10.6250    10.6250     0.0180    -0.0290     2.2550    44.1590     1.3860     6.5500     1.1760     2.2580 
   10.7500    10.7500     0.0180    -0.0290     2.1120    43.2590     1.4040     6.2420     1.2010     2.2580 
   10.8750    10.8750     0.0180    -0.0300     2.5750    42.7660     1.4110     5.5850     1.2290     2.2580 
   11.0000    11.0000     0.0190    -0.0300     3.5080    43.0200     1.3490     2.6320     1.2550     2.2580 
   11.1250    11.1250     0.0190    -0.0310     4.6640    43.3520     1.2350     2.5510     1.2710     2.2580 
   11.2500    11.2500     0.0190    -0.0310     5.3530    42.4890     1.1500     2.6210     1.2810     2.2580 
   11.3750    11.3750     0.0190    -0.0320     5.1570    41.7980     1.0530     2.6990     1.2940     2.2580 
   11.5000    11.5000     0.0190    -0.0320     3.9720    41.0240     1.0240     2.7000     1.3110     2.2580 
   11.6250    11.6250     0.0190    -0.0330     2.1840    41.3530     1.0170     2.7810     1.3270     2.2580 
   11.7500    11.7500     0.0190    -0.0330    -0.0790    40.5690     0.9920     2.4570     1.3330     2.2580 
   11.8750    11.8750     0.0190    -0.0340    -2.0470    39.6600     0.9780     2.2200     1.3310     2.2580 
   12.0000    12.0000     0.0190    -0.0340    -2.6100    38.5870     0.9690     2.1700     1.3250     2.2580 
   12.1250    12.1250     0.0190    -0.0350    -1.3180    39.2000     0.9880     1.9920     1.3230     2.2580 
   12.2500    12.2500     0.0190    -0.0360     2.1500    40.7230     1.0070     2.0890     1.3240     2.2580 
   12.3750    12.3750     0.0190    -0.0360     6.8040    42.3680     1.0230     2.1560     1.3270     2.2580 
   12.5000    12.5000     0.0190    -0.0370    11.2720    42.8160     1.0180     2.2250     1.3300     2.2580 
   12.6250    12.6250     0.0200    -0.0370    14.6280    42.8180     1.0100     2.6490     1.3340     2.2580 
   12.7500    12.7500     0.0200    -0.0380    16.4910    41.8750     0.9880     2.6520     1.3330     2.2580 
   12.8750    12.8750     0.0200    -0.0380    17.1040    40.3240     0.9550     2.9160     1.3270     2.2580 
   13.0000    13.0000     0.0200    -0.0390    16.6680    38.2590     0.9470     3.1210     1.3250     2.2580 
   13.1250    13.1250     0.0200    -0.0390    15.4500    36.1520     0.9430     3.1360     1.3250     2.2580 
   13.2500    13.2500     0.0200    -0.0400    14.2460    34.7040     0.9590     3.0770     1.3210     2.2580 
   13.3750    13.3750     0.0200    -0.0400    14.0260    33.9660     0.9850     2.6950     1.3180     2.2580 
   13.5000    13.5000     0.0200    -0.0410    15.1520    35.1900     0.9930     2.1820     1.3180     2.2580 
   13.6250    13.6250     0.0200    -0.0410    17.2760    37.3000     0.9920     1.9880     1.3170     2.2580 
   13.7500    13.7500     0.0200    -0.0420    20.3780    39.9010     0.9850     1.9420     1.3140     2.2580 
   13.8750    13.8750     0.0200    -0.0420    23.7460    41.4750     0.9600     1.9850     1.3110     2.2580 
   14.0000    14.0000     0.0200    -0.0430    26.2660    41.5270     0.9460     1.9970     1.3130     2.2580 
   14.1250    14.1250     0.0200    -0.0430    27.8670    38.8870     0.9310     2.1030     1.3140     2.2580 
   14.2500    14.2500     0.0200    -0.0440    26.9260    35.5220     0.9250     2.0770     1.3150     2.2580 
   14.3750    14.3750     0.0210    -0.0440    23.7030    33.5370     0.9270     1.9190     1.3110     2.2580 
   14.5000    14.5000     0.0210    -0.0450    29.1750    33.9940     0.9910     1.9510     1.3060     2.2580 
   14.6250    14.6250     0.0210    -0.0450    28.0990    35.7930     1.0300     1.8350     1.3120     2.2580 
   14.7500    14.7500     0.0210    -0.0460    26.7970    37.3590     1.0430     1.7820     1.3210     2.2580 
   14.8750    14.8750     0.0210    -0.0460    25.7560    38.5440     1.0180     1.8040     1.3240     2.2580 
   15.0000    15.0000     0.0210    -0.0470    26.6400    39.4840     0.9520     1.6940     1.3240     2.2580 
   15.1250    15.1250     0.0210    -0.0470    28.3920    40.6330     0.9240     1.8920     1.3190     2.2580 
   15.2500    15.2500     0.0210    -0.0480    30.7390    41.2840     0.9080     2.0090     1.3080     2.2580 
   15.3750    15.3750     0.0210    -0.0480    33.4110    41.3950     0.9110     1.9180     1.2980     2.2580 
   15.5000    15.5000     0.0210    -0.0490    36.0440    41.2840     0.9270     1.9560     1.2930     2.2580 
   15.6250    15.6250     0.0210    -0.0490    38.1550    41.6010     0.9560     1.7820     1.2920     2.2580 
   15.7500    15.7500     0.0210    -0.0500    39.6100    42.1170     0.9870     1.7650     1.2870     2.2580 
   15.8750    15.8750     0.0210    -0.0500    40.9330    41.5170     0.9890     1.8700     1.2780     2.2580 
   16.0000    16.0000     0.0220    -0.0510    42.3040    40.3370     0.9640     1.7150     1.2710     2.2580 
   16.1250    16.1250     0.0220    -0.0510    43.4400    38.7520     0.9520     1.8190     1.2660     2.2580 
   16.2500    16.2500     0.0220    -0.0520    44.5120    37.7700     0.9390     1.8090     1.2600     2.2580 
   16.3750    16.3750     0.0220    -0.0520    45.5160    36.9340     0.9270     1.6920     1.2550     2.2580 
   16.5000    16.5000     0.0220    -0.0530    47.4170    37.1970     0.9250     1.8640     1.2540     2.2580 
   16.6250    16.6250     0.0220    -0.0530    49.8330    37.4860     0.9230     1.8050     1.2550     2.2580 
   16.7500    16.7500     0.0220    -0.0540    52.9680    37.9110     0.9360     1.7350     1.2530     2.2580 
   16.8750    16.8750     0.0220    -0.0540    55.1470    37.9310     0.9620     1.7960     1.2520     2.2580 
   17.0000    17.0000     0.0220    -0.0550    55.5730    38.8960     0.9570     1.7210     1.2530     2.2580 
   17.1250    17.1250     0.0220    -0.0550    55.2160    40.4890     0.9240     1.6910     1.2570     2.2580 
   17.2500    17.2500     0.0220    -0.0560    54.6570    41.4280     0.9020     1.7050     1.2630     2.2580 
   17.3750    17.3750     0.0220    -0.0570    53.2910    41.1300     0.8870     1.6310     1.2690     2.2580 
   17.5000    17.5000     0.0220    -0.0570    50.7240    40.3050     0.8830     1.5490     1.2700     2.2580 
   17.6250    17.6250     0.0220    -0.0580    47.5060    40.0280     0.8670     1.6680     1.2650     2.2580 
   17.7500    17.7500     0.0220    -0.0580    44.7180    40.2610     0.8330     1.5130     1.2620     2.2580 
   17.8750    17.8750     0.0230    -0.0590    41.8000    39.3660     0.8080     1.5890     1.2590     2.2580 
   18.0000    18.0000     0.0230    -0.0600    38.8390    37.8830     0.8130     1.5690     1.2530     2.2580 
   18.1250    18.1250     0.0230    -0.0600    36.0470    36.8880     0.8330     1.4370     1.2490     2.2580 
   18.2500    18.2500     0.0230    -0.0610    34.7940    36.7770     0.8100     1.5480     1.2480     2.2580 
   18.3750    18.3750     0.0230    -0.0610    33.9280    37.4720     0.7620     1.4440     1.2460     2.2580 
   18.5000    18.5000     0.0230    -0.0620    33.2680    37.5310     0.6890     1.5750     1.2420     2.2580 
   18.6250    18.6250     0.0230    -0.0630    33.5870    37.8000     0.6110     1.5030     1.2340     2.2580 
   18.7500    18.7500     0.0240    -0.0630    34.0910    37.7260     0.5080     1.2930     1.2240     2.2580 
   18.8750    18.8750     0.0240    -0.0640    35.4390    38.2430     0.3960     1.0820     1.2120     2.2580 
   19.0000    19.0000     0.0240    -0.0650    35.6550    38.2020     0.2890     0.8030     1.2060     2.2580 
   19.1250    19.1250     0.0240    -0.0650    33.7030    37.3470     0.4070     1.0590     1.2040     2.2580 
