~V
VERS. 2.00: Ver 2.00
~W
STRT.M 34.0000:
STOP.M 260.0000:
STEP.M 0.1250:
NULL. -999.2500:
UWI. FD10858:
~C
DEPT.M :
TVD. :
DX. :
DY. :
SP.MV :
GR.API :
RI. :
RML.OHMM :
RXO.OHMM :
DEN.GM/CC :
~A
# ...
   52.2500    52.2440    -0.2200    -0.3480   -16.9740    64.6150     9.1540    13.1670     8.5010     2.1300 
   52.3750    52.3690    -0.2240    -0.3530   -17.1440    64.5060     9.2570    13.4270     9.1580     2.1190 
   52.5000    52.4940    -0.2270    -0.3580   -17.3910    62.4070     9.3150    13.5460     9.3520     2.1130 
   52.6250    52.6180    -0.2310    -0.3640   -17.6980    60.6470     9.2670    13.4650     8.9700     2.1160 
   52.7500    52.7430    -0.2340    -0.3690   -18.0150    60.5180     9.1700    13.2630     8.8320     2.1250 
   52.8750    52.8680    -0.2380    -0.3740   -18.2860    62.0940     9.0740    13.0540     8.8730     2.1340 
   53.0000    52.9930    -0.2410    -0.3800   -18.4710    63.1170     9.0140    12.8780     8.6930     2.1390 
   53.1250    53.1180    -0.2450    -0.3850   -18.5350    63.1640     8.9380    12.7270     8.4690     2.1390 
   53.2500    53.2430    -0.2490    -0.3910   -18.4830    63.9800     8.8640    12.5870     8.3840     2.1330 
   53.3750    53.3670    -0.2520    -0.3960   -18.3130    63.3360     8.7980    12.4520     8.1950     2.1250 
   53.5000    53.4920    -0.2560    -0.4020   -18.0500    60.9840     8.7890    12.4310     7.8520     2.1170 
   53.6250    53.6170    -0.2600    -0.4070   -17.7040    58.9020     8.8920    12.6150     8.0800     2.1160 
   53.7500    53.7420    -0.2650    -0.4130   -17.2950    59.1310     8.9680    12.7180     8.5430     2.1210 
   53.8750    53.8670    -0.2700    -0.4180   -16.8250    60.0920     8.7390    12.3360     8.2860     2.1280 
   54.0000    53.9910    -0.2750    -0.4240   -16.3040    60.8730     8.1410    11.3600     7.9340     2.1340 
   54.1250    54.1160    -0.2800    -0.4290   -15.7350    62.0470     7.1230     9.7710     7.7070     2.1450 
   54.2500    54.2410    -0.2850    -0.4350   -15.1330    65.2270     6.0300     8.0800     6.6090     2.1640 
   54.3750    54.3660    -0.2900    -0.4400   -14.5100    70.2110     5.2100     6.8400     4.7760     2.1930 
   54.5000    54.4900    -0.2950    -0.4460   -13.8790    75.4120     4.6560     6.0070     3.7540     2.2220 
   54.6250    54.6150    -0.3000    -0.4520   -13.2570    78.7230     4.4710     5.6840     4.3960     2.2380 
   54.7500    54.7400    -0.3050    -0.4580   -12.6560    79.5560     4.4700     5.6190     5.4340     2.2370 
   54.8750    54.8650    -0.3110    -0.4640   -12.1010    78.7150     4.6000     5.7410     5.0660     2.2230 
   55.0000    54.9890    -0.3160    -0.4700   -11.6100    78.1600     4.7340     5.8600     4.2060     2.2060 
   55.1250    55.1140    -0.3220    -0.4760   -11.2120    79.1740     4.7500     5.8570     4.6860     2.1920 
   55.2500    55.2390    -0.3270    -0.4830   -10.9120    79.8390     4.6860     5.7370     5.5150     2.1870 
   55.3750    55.3640    -0.3330    -0.4890   -10.7210    79.1660     4.5490     5.4880     5.1530     2.1950 
   55.5000    55.4880    -0.3380    -0.4960   -10.6230    79.0270     4.4260     5.2780     4.3550     2.2120 
   55.6250    55.6130    -0.3440    -0.5020   -10.6230    80.6820     4.4820     5.3070     4.0020     2.2280 
   55.7500    55.7380    -0.3500    -0.5090   -10.7090    82.4790     4.8030     5.7060     4.0510     2.2300 
   55.8750    55.8620    -0.3550    -0.5160   -10.8890    80.5200     5.4800     6.5740     5.1380     2.2080 
   56.0000    55.9870    -0.3610    -0.5220   -11.1480    74.3840     6.3870     7.7150     6.9480     2.1710 
   56.1250    56.1120    -0.3670    -0.5290   -11.4810    66.3090     7.3650     8.9430     7.9000     2.1330 
   56.2500    56.2360    -0.3730    -0.5360   -11.8550    60.4640     8.1500     9.8650     7.9560     2.1080 
   56.3750    56.3610    -0.3790    -0.5430   -12.2340    58.1810     8.5900    10.3250     7.9410     2.1000 
   56.5000    56.4860    -0.3850    -0.5500   -12.5740    57.4860     8.8540    10.5300     7.9590     2.1090 
   56.6250    56.6100    -0.3910    -0.5570   -12.8300    56.6580     8.9100    10.5480     7.8920     2.1350 
   56.7500    56.7350    -0.3980    -0.5650   -12.9840    55.6020     8.8920    10.5790     7.8270     2.1700 
   56.8750    56.8600    -0.4040    -0.5720   -13.0310    56.1390     8.8020    10.5540     7.7940     2.1970 
   57.0000    56.9840    -0.4100    -0.5790   -13.0010    58.8220     8.6260    10.4100     7.7940     2.2000 
   57.1250    57.1090    -0.4170    -0.5870   -12.9290    62.9960     8.4480    10.2380     7.9110     2.1800 
   57.2500    57.2330    -0.4230    -0.5940   -12.8570    65.8910     8.3170    10.1210     7.9500     2.1530 
   57.3750    57.3580    -0.4300    -0.6020   -12.8210    67.0120     8.2860    10.1560     7.9410     2.1360 
   57.5000    57.4830    -0.4360    -0.6100   -12.8320    65.4010     8.4100    10.3650     8.3360     2.1300 
   57.6250    57.6070    -0.4430    -0.6170   -12.8920    62.0370     8.6320    10.6610     8.9190     2.1300 
   57.7500    57.7320    -0.4490    -0.6250   -12.9690    60.8880     8.8780    10.9290     9.0850     2.1260 
   57.8750    57.8560    -0.4560    -0.6330   -13.0220    63.1960     9.0430    11.0820     9.0120     2.1170 
   58.0000    57.9810    -0.4630    -0.6410   -13.0100    65.5090     9.1870    11.1910     8.9630     2.1120 
   58.1250    58.1060    -0.4700    -0.6490   -12.9000    65.1300     9.3430    11.3390     8.8750     2.1260 
   58.2500    58.2300    -0.4770    -0.6580   -12.6990    64.9550     9.5590    11.5680     8.9620     2.1630 
   58.3750    58.3550    -0.4830    -0.6660   -12.4270    65.5920     9.7830    11.8450     9.2670     2.2080 
   58.5000    58.4790    -0.4900    -0.6740   -12.1360    66.1140     9.9940    12.0680    12.5200     2.2300 
   58.6250    58.6040    -0.4970    -0.6830   -11.8840    65.6340    10.0680    12.1170    20.6910     2.2100 
   58.7500    58.7280    -0.5050    -0.6920   -11.7230    64.2320    10.0250    12.0080    22.6680     2.1640 
   58.8750    58.8530    -0.5120    -0.7000   -11.6970    62.6550     9.8350    11.7540    14.3810     2.1200 
   59.0000    58.9770    -0.5190    -0.7090   -11.7990    61.2090     9.5690    11.4420     9.0710     2.0930 
   59.1250    59.1020    -0.5260    -0.7180   -12.0060    60.3810     9.3650    11.2290     8.7570     2.0850 
   59.2500    59.2260    -0.5340    -0.7270   -12.2590    60.6740     9.2990    11.1420     8.5430     2.0850 
   59.3750    59.3500    -0.5410    -0.7360   -12.5020    62.3090     9.3480    11.2260     8.5870     2.0870 
   59.5000    59.4750    -0.5490    -0.7450   -12.7010    63.7570     9.5030    11.4230     8.7730     2.0870 
   59.6250    59.5990    -0.5560    -0.7540   -12.8380    63.1550     9.7060    11.6530     8.9110     2.0860 
   59.7500    59.7240    -0.5640    -0.7630   -12.9270    61.0980     9.8920    11.8390     8.9600     2.0850 
   59.8750    59.8480    -0.5710    -0.7720   -12.9830    60.4960    10.0080    11.9300     9.0660     2.0820 
   60.0000    59.9730    -0.5790    -0.7810   -13.0320    61.1590    10.0200    11.9170     9.1130     2.0790 
   60.1250    60.0970    -0.5870    -0.7910   -13.0990    62.2810     9.9070    11.8150     8.9590     2.0790 
   60.2500    60.2210    -0.5950    -0.8000   -13.2000    62.1990     9.7690    11.6760     8.8610     2.0800 
   60.3750    60.3460    -0.6030    -0.8090   -13.3390    60.3340     9.6990    11.5540     8.9870     2.0810 
   60.5000    60.4700    -0.6110    -0.8190   -13.5020    57.9930     9.7320    11.5410     9.0470     2.0810 
   60.6250    60.5950    -0.6190    -0.8290   -13.6670    57.8000     9.9030    11.6510     8.7690     2.0840 
   60.7500    60.7190    -0.6270    -0.8380   -13.8120    59.5190    10.1650    11.8490     8.6160     2.0880 
   60.8750    60.8430    -0.6350    -0.8480   -13.9150    60.0700    10.4470    12.0990     9.0500     2.0930 
   61.0000    60.9680    -0.6430    -0.8580   -13.9720    59.3890    10.7560    12.3530     9.6110     2.0960 
   61.1250    61.0920    -0.6510    -0.8680   -13.9810    60.1790    11.0320    12.5740     9.7970     2.0940 
   61.2500    61.2160    -0.6590    -0.8780   -13.9550    62.3820    11.2440    12.7290     9.5520     2.0920 
