~V
VERS. 2.00: Ver 2.00
~W
STRT.M 55.0000:
STOP.M 289.0000:
STEP.M 0.1250:
NULL. -999.2500:
UWI. FD10909:
~C
DEPT.M :
TVD. :
DX. :
DY. :
SP.MV :
GR.API :
RI. :
RML.OHMM :
RXO.OHMM :
DEN.GM/CC :
~A
   55.0000    55.0000     0.0000     0.0000    80.8150    39.9250     0.0430     0.0880     0.0550     2.2980 
   55.1250    55.1250     0.0010    -0.0010    78.0770    41.6510     0.0310     0.0490     0.0350     2.3020 
   55.2500    55.2500     0.0030    -0.0020    73.2270    43.0910     0.0440     0.0480     0.0510     2.2980 
   55.3750    55.3750     0.0040    -0.0030    66.3060    45.5150     0.0990     0.0950     0.1310     2.2780 
   55.5000    55.5000     0.0060    -0.0040    57.3690    49.2800     0.2680     0.2470     0.3360     2.2240 
   55.6250    55.6250     0.0070    -0.0050    47.1100    54.5290     0.6840     0.7140     0.8510     2.1390 
   55.7500    55.7500     0.0090    -0.0060    36.2240    60.7330     1.4850     1.7870     2.0280     2.0610 
   55.8750    55.8750     0.0100    -0.0080    25.5210    66.4160     2.4990     2.9010     3.4180     2.0330 
   56.0000    56.0000     0.0110    -0.0090    15.6880    69.7930     3.4030     3.4480     4.2730     2.0590 
   56.1250    56.1250     0.0130    -0.0100     7.0900    70.3030     3.9960     3.7980     4.7300     2.0960 
   56.2500    56.2500     0.0140    -0.0110     0.1780    68.7380     4.2400     4.0290     4.8670     2.1110 
   56.3750    56.3750     0.0160    -0.0120    -4.9880    67.4230     4.3520     4.1450     4.7310     2.0990 
   56.5000    56.5000     0.0170    -0.0130    -8.2730    65.8820     4.4720     4.2690     4.4250     2.0700 
   56.6250    56.6250     0.0190    -0.0140   -10.0590    65.2850     4.5930     4.3940     4.0250     2.0420 
   56.7500    56.7500     0.0200    -0.0150   -10.6670    65.4690     4.7020     4.5080     3.5980     2.0260 
   56.8750    56.8750     0.0220    -0.0160   -10.6390    67.1980     4.8000     4.6100     3.3070     2.0160 
   57.0000    57.0000     0.0230    -0.0170   -10.3560    68.7040     4.8720     4.6840     3.2980     2.0030 
   57.1250    57.1250     0.0250    -0.0190   -10.1280    68.9420     4.8920     4.7040     3.4440     1.9850 
   57.2500    57.2500     0.0270    -0.0200   -10.1310    70.1990     4.8330     4.6440     3.4440     1.9760 
   57.3750    57.3750     0.0280    -0.0210   -10.3720    72.0650     4.7050     4.5110     3.3220     1.9900 
   57.5000    57.5000     0.0300    -0.0220   -10.8170    75.1000     4.5300     4.3290     3.3640     2.0230 
   57.6250    57.6250     0.0310    -0.0230   -11.3600    76.5850     4.3600     4.1540     3.5830     2.0550 
   57.7500    57.7500     0.0330    -0.0240   -11.9090    75.8040     4.3030     4.0940     3.7370     2.0750 
   57.8750    57.8750     0.0340    -0.0250   -12.3690    73.8810     4.4860     4.2840     3.8350     2.0980 
   58.0000    58.0000     0.0360    -0.0260   -12.6560    70.6800     5.0690     4.8880     4.2800     2.1520 
   58.1250    58.1250     0.0380    -0.0270   -12.7740    67.4410     6.0330     5.8860     5.3170     2.2330 
   58.2500    58.2500     0.0390    -0.0290   -12.7700    63.4730     7.1820     7.0770     6.5570     2.3090 
   58.3750    58.3750     0.0410    -0.0300   -12.7350    60.1760     8.1050     8.0330     7.3110     2.3420 
   58.5000    58.5000     0.0420    -0.0310   -12.7230    58.4490     8.3820     8.3280     7.4310     2.3160 
   58.6250    58.6250     0.0440    -0.0320   -12.7340    58.4130     8.0040     8.0940     7.3160     2.2560 
   58.7500    58.7500     0.0460    -0.0330   -12.7370    59.0230     7.2100     7.7470     7.3140     2.1910 
   58.8750    58.8750     0.0470    -0.0340   -12.7040    60.3530     6.4280     7.4530     7.3490     2.1430 
   59.0000    59.0000     0.0490    -0.0350   -12.6340    60.9410     5.9300     7.2480     7.2980     2.1170 
   59.1250    59.1250     0.0510    -0.0370   -12.5610    61.1180     5.7180     7.1430     7.2570     2.1070 
   59.2500    59.2500     0.0530    -0.0380   -12.5180    59.1940     5.7080     7.1470     7.3060     2.1020 
   59.3750    59.3740     0.0540    -0.0390   -12.5150    58.4050     5.7850     7.2280     7.4600     2.1000 
   59.5000    59.4990     0.0560    -0.0400   -12.5420    58.1960     5.8840     7.3340     7.5750     2.0990 
   59.6250    59.6240     0.0580    -0.0410   -12.5790    59.4970     5.9650     7.4200     7.4940     2.0980 
   59.7500    59.7490     0.0600    -0.0420   -12.6060    59.5220     5.9930     7.4510     7.2600     2.0960 
   59.8750    59.8740     0.0610    -0.0430   -12.6100    59.2150     5.9570     7.4120     6.9900     2.0870 
   60.0000    59.9990     0.0630    -0.0440   -12.5810    58.6190     5.8580     7.3060     6.7760     2.0700 
   60.1250    60.1240     0.0650    -0.0460   -12.5140    58.9830     5.7270     7.1670     6.6940     2.0490 
   60.2500    60.2490     0.0670    -0.0470   -12.4140    60.6430     5.6050     7.0360     6.5330     2.0330 
   60.3750    60.3740     0.0690    -0.0480   -12.2990    62.8000     5.5280     6.9540     6.1140     2.0280 
   60.5000    60.4990     0.0700    -0.0490   -12.1970    64.8440     5.5260     6.9520     5.7460     2.0270 
   60.6250    60.6240     0.0720    -0.0500   -12.1320    65.0840     5.5940     7.0240     5.7750     2.0130 
   60.7500    60.7490     0.0740    -0.0510   -12.1280    62.0010     5.7030     7.1400     6.1000     1.9720 
   60.8750    60.8740     0.0760    -0.0520   -12.1880    58.3860     5.7990     7.2430     6.1490     1.9170 
   61.0000    60.9990     0.0780    -0.0530   -12.3100    55.7350     5.8400     7.2870     5.3670     1.8770 
   61.1250    61.1240     0.0800    -0.0550   -12.4780    55.0370     5.8320     7.2790     4.1650     1.8750 
   61.2500    61.2490     0.0820    -0.0560   -12.6780    56.5810     5.8090     7.2530     3.5620     1.9130 
   61.3750    61.3740     0.0840    -0.0570   -12.8910    59.3530     5.8010     7.2460     3.9600     1.9740 
   61.5000    61.4990     0.0860    -0.0580   -13.1030    63.7690     5.8330     7.2790     5.0770     2.0380 
   61.6250    61.6240     0.0880    -0.0590   -13.3070    66.7590     5.9080     7.3600     6.2190     2.0890 
   61.7500    61.7490     0.0900    -0.0600   -13.5030    68.7220     6.0330     7.4930     6.9570     2.1190 
   61.8750    61.8740     0.0920    -0.0610   -13.6870    68.4990     6.1880     7.6590     8.0230     2.1330 
   62.0000    61.9990     0.0940    -0.0630   -13.8420    68.7470     6.3360     7.8160    12.9640     2.1440 
   62.1250    62.1240     0.0960    -0.0640   -13.9560    68.9110     6.4310     7.9180    22.7280     2.1550 
   62.2500    62.2490     0.0980    -0.0650   -14.0300    69.6580     6.4450     7.9330    28.1290     2.1620 
   62.3750    62.3740     0.1000    -0.0660   -14.0940    69.9040     6.3780     7.8620    22.1900     2.1630 
   62.5000    62.4990     0.1020    -0.0670   -14.1700    69.2270     6.2540     7.7290    12.4290     2.1560 
   62.6250    62.6240     0.1040    -0.0680   -14.2540    68.1760     6.1270     7.5940     7.6290     2.1490 
   62.7500    62.7490     0.1060    -0.0690   -14.3160    66.9110     6.0430     7.5040     6.8090     2.1440 
   62.8750    62.8740     0.1080    -0.0710   -14.3300    67.9820     6.0110     7.4700     6.7670     2.1440 
   63.0000    62.9990     0.1100    -0.0720   -14.2940    70.5950     6.0130     7.4720     6.7820     2.1440 
   63.1250    63.1240     0.1120    -0.0730   -14.2400    73.2300     6.0050     7.4630     6.8190     2.1420 
   63.2500    63.2490     0.1140    -0.0740   -14.2180    73.5860     5.9620     7.4180     6.9570     2.1390 
   63.3750    63.3740     0.1160    -0.0750   -14.2580    73.0730     5.8930     7.3440     7.1860     2.1360 
   63.5000    63.4990     0.1190    -0.0760   -14.3670    72.3950     5.8150     7.2600     7.5220     2.1360 
   63.6250    63.6240     0.1210    -0.0770   -14.5090    71.2420     5.7360     7.1760     7.8780     2.1370 
   63.7500    63.7490     0.1230    -0.0790   -14.6400    69.2520     5.6600     7.0940     8.0300     2.1360 
   63.8750    63.8740     0.1250    -0.0800   -14.7330    67.5420     5.5840     7.0140     7.9330     2.1350 
   64.0000    63.9990     0.1270    -0.0810   -14.7770    67.9890     5.5140     6.9390     7.6760     2.1340 
