~V
VERS. 2.00: Ver 2.00
~W
STRT.M 22.0000:
STOP.M 238.0000:
STEP.M 0.1250:
NULL. -999.2500:
UWI. FD10612:
~C
DEPT.M :
TVD. :
DX. :
DY. :
GR.API :
RML.OHMM :
RI. :
RXO.OHMM :
CALI.CM :
DEN.GM/CC :
SP.MV :
~A
# ...
   38.5000    38.4910     0.3440     0.3740    99.4580     4.6770     4.2450     4.2540    26.5120     2.3570   -11.2600 
   38.6250    38.6160     0.3480     0.3780   103.9170     4.6000     4.2010     4.3130    26.6310     2.3490   -11.2480 
   38.7500    38.7410     0.3510     0.3810   106.9160     4.4310     4.0980     4.3010    26.7730     2.3450   -11.2440 
   38.8750    38.8660     0.3550     0.3850   106.7730     4.2010     3.9460     4.2540    26.8970     2.3460   -11.4380 
   39.0000    38.9910     0.3580     0.3880   104.6420     3.9540     3.7650     4.1790    26.9760     2.3530   -11.6740 
   39.1250    39.1160     0.3620     0.3920   104.5560     3.7460     3.5850     4.1270    27.0620     2.3590   -11.8790 
   39.2500    39.2410     0.3660     0.3950   106.4160     3.6270     3.4500     4.1040    27.1890     2.3580   -12.1750 
   39.3750    39.3650     0.3690     0.3980   106.5080     3.6720     3.4230     4.0670    27.2400     2.3450   -12.4830 
   39.5000    39.4900     0.3730     0.4020   103.2970     3.9930     3.5940     4.1670    27.1770     2.3260   -12.8250 
   39.6250    39.6150     0.3760     0.4050    97.1720     4.8210     4.1440     4.6960    26.9870     2.3210   -13.3230 
   39.7500    39.7400     0.3800     0.4090    89.1670     6.2080     5.1580     5.9460    26.7550     2.3520   -13.9250 
   39.8750    39.8650     0.3830     0.4120    80.2110     8.1100     6.7010     9.1690    26.4660     2.4220   -14.5340 
   40.0000    39.9900     0.3870     0.4160    71.7110    10.2070     8.6460    15.7330    26.2790     2.5140   -15.1830 
   40.1250    40.1150     0.3910     0.4190    66.2440    11.7170    10.3530    20.6570    26.2660     2.5780   -15.9740 
   40.2500    40.2400     0.3940     0.4230    63.2470    12.1020    11.0450    17.6230    26.3680     2.5810   -16.8970 
   40.3750    40.3650     0.3980     0.4260    62.2560    11.3410    10.5400    12.1360    26.5610     2.5180   -17.9060 
   40.5000    40.4890     0.4010     0.4300    62.0640     9.9260     9.3410     8.5050    26.8500     2.4130   -18.9820 
   40.6250    40.6140     0.4050     0.4330    60.5420     8.5890     8.1620     7.2570    27.0100     2.3060   -20.0230 
   40.7500    40.7390     0.4080     0.4370    57.8330     7.7140     7.3440     7.2430    26.9600     2.2250   -20.9730 
   40.8750    40.8640     0.4120     0.4400    56.1810     7.3120     6.9040     7.6100    26.8520     2.1750   -21.8420 
   41.0000    40.9890     0.4150     0.4440    56.7080     7.2410     6.7570     7.3000    26.8030     2.1500   -22.5990 
   41.1250    41.1140     0.4190     0.4470    59.1110     7.3290     6.7930     7.0270    26.8020     2.1380   -23.1470 
   41.2500    41.2390     0.4230     0.4510    62.1420     7.3970     6.8500     6.8570    26.8030     2.1320   -23.5140 
   41.3750    41.3640     0.4260     0.4540    64.2910     7.3590     6.8370     6.7790    26.8020     2.1300   -23.6750 
   41.5000    41.4880     0.4300     0.4580    64.1650     7.1920     6.7140     6.7630    26.7770     2.1310   -23.5840 
   41.6250    41.6130     0.4330     0.4610    63.1670     6.9270     6.4860     6.6940    26.7020     2.1400   -23.3910 
   41.7500    41.7380     0.4370     0.4640    66.4480     6.6690     6.2410     6.5230    26.6050     2.1570   -23.1780 
   41.8750    41.8630     0.4400     0.4680    72.6290     6.4980     6.0510     6.2230    26.5440     2.1800   -22.8780 
   42.0000    41.9880     0.4440     0.4710    75.9860     6.4680     5.9730     6.0710    26.5150     2.2010   -22.7400 
   42.1250    42.1130     0.4480     0.4750    73.4010     6.6130     6.0480     6.3630    26.5090     2.2070   -22.8140 
   42.2500    42.2380     0.4510     0.4780    69.3510     6.8600     6.2270     6.7500    26.5350     2.1990   -22.8760 
   42.3750    42.3630     0.4550     0.4820    67.5970     7.1400     6.4570     6.8770    26.5660     2.1820   -23.0500 
   42.5000    42.4880     0.4580     0.4850    67.1600     7.3850     6.6720     6.7440    26.5570     2.1640   -23.2690 
   42.6250    42.6120     0.4620     0.4890    66.0820     7.5330     6.8090     6.7840    26.4870     2.1540   -23.3870 
   42.7500    42.7370     0.4650     0.4920    65.1600     7.5920     6.8650     6.9790    26.4000     2.1500   -23.5180 
   42.8750    42.8620     0.4690     0.4960    64.1590     7.5900     6.8620     7.1930    26.3500     2.1490   -23.7040 
   43.0000    42.9870     0.4730     0.4990    62.7460     7.5660     6.8290     7.2060    26.3470     2.1500   -23.7660 
   43.1250    43.1120     0.4760     0.5030    61.3240     7.5590     6.7920     7.1190    26.3690     2.1510   -23.6870 
   43.2500    43.2370     0.4800     0.5060    61.7220     7.5860     6.7640     7.0080    26.3960     2.1530   -23.5090 
   43.3750    43.3620     0.4830     0.5100    62.8130     7.6450     6.7500     6.9860    26.4020     2.1570   -23.2760 
   43.5000    43.4870     0.4870     0.5130    61.9520     7.7220     6.7440     7.0120    26.3880     2.1620   -23.0460 
   43.6250    43.6110     0.4900     0.5170    60.4190     7.7780     6.7300     7.1050    26.3810     2.1670   -22.8820 
   43.7500    43.7360     0.4940     0.5200    59.9310     7.7760     6.6910     7.2340    26.4390     2.1700   -22.8310 
   43.8750    43.8610     0.4970     0.5240    60.4600     7.6980     6.6140     7.2920    26.5420     2.1710   -22.7980 
   44.0000    43.9860     0.5010     0.5270    60.3100     7.5560     6.5060     7.2680    26.5770     2.1660   -22.7400 
   44.1250    44.1110     0.5050     0.5300    59.6210     7.4210     6.4070     7.2030    26.4730     2.1530   -22.5970 
   44.2500    44.2360     0.5080     0.5340    60.2840     7.4060     6.3920     7.1740    26.3440     2.1380   -22.4170 
   44.3750    44.3610     0.5120     0.5370    60.7890     7.6130     6.5390     7.1720    26.2490     2.1300   -22.2120 
   44.5000    44.4860     0.5150     0.5410    60.3720     8.1170     6.9140     7.1480    26.1460     2.1470   -22.0110 
   44.6250    44.6100     0.5190     0.5440    60.3680     8.9520     7.5820     7.2760    26.0700     2.2090   -21.7840 
   44.7500    44.7350     0.5220     0.5480    62.2580     9.9150     8.4200     7.5530    26.0010     2.3060   -21.4530 
   44.8750    44.8600     0.5260     0.5510    64.4250    10.7480     9.2290     7.7160    25.8750     2.4140   -21.1030 
   45.0000    44.9850     0.5300     0.5550    64.5050    11.1730     9.7380     7.6080    25.6640     2.4990   -20.7290 
   45.1250    45.1100     0.5330     0.5580    62.1750    10.9360     9.6450     7.2560    25.5820     2.5200   -20.4310 
   45.2500    45.2350     0.5370     0.5620    59.3280    10.2430     9.0910     6.9750    25.6920     2.4800   -20.3640 
   45.3750    45.3600     0.5400     0.5650    57.7910     9.3570     8.3130     6.8890    25.9490     2.3980   -20.3850 
   45.5000    45.4850     0.5440     0.5690    58.0450     8.5420     7.5560     6.9860    26.1990     2.3040   -20.4640 
   45.6250    45.6100     0.5470     0.5720    58.7720     8.0020     7.0060     7.3340    26.3570     2.2320   -20.7760 
   45.7500    45.7340     0.5510     0.5760    58.2240     7.7100     6.6680     7.5350    26.4040     2.1880   -21.1300 
   45.8750    45.8590     0.5550     0.5790    56.8720     7.6040     6.5120     7.5970    26.3390     2.1660   -21.5460 
   46.0000    45.9840     0.5580     0.5830    55.0090     7.6040     6.4830     7.4790    26.2530     2.1550   -22.0860 
   46.1250    46.1090     0.5620     0.5860    54.3610     7.6420     6.5320     7.2770    26.3130     2.1470   -22.5910 
   46.2500    46.2340     0.5650     0.5900    55.3710     7.6700     6.5980     7.2210    26.4990     2.1390   -23.0170 
   46.3750    46.3590     0.5690     0.5930    56.6040     7.6800     6.6600     7.3570    26.7080     2.1360   -23.3630 
   46.5000    46.4840     0.5720     0.5960    57.3690     7.6810     6.7120     7.4490    26.7990     2.1380   -23.7000 
   46.6250    46.6090     0.5760     0.6000    57.6260     7.6930     6.7660     7.3900    26.7550     2.1450   -24.0040 
