~V
VERS. 2.00: Ver 2.00
~W
STRT.M 50.0000:
STOP.M 287.0000:
STEP.M 0.1250:
NULL. -999.2500:
UWI. FD10894:
~C
DEPT.M :
TVD. :
DX. :
DY. :
SP.MV :
GR.API :
RI. :
RML.OHMM :
RXO.OHMM :
DEN.GM/CC :
~A
# ...
  232.5000   222.5670    50.0500    10.4370   -19.0540    86.7480     7.0880     7.7510     8.3240     2.3110 
  232.6250   222.6790    50.1040    10.4470   -19.2600    86.1810     7.0470     7.8630     8.0980     2.3030 
  232.7500   222.7920    50.1570    10.4560   -19.3580    85.7150     7.1030     8.0230     8.2670     2.3000 
  232.8750   222.9050    50.2100    10.4660   -19.3330    85.8040     7.2800     8.2790     8.9180     2.3020 
  233.0000   223.0180    50.2630    10.4760   -19.2160    84.8730     7.5390     8.6400    10.8860     2.3080 
  233.1250   223.1300    50.3160    10.4860   -19.0450    82.7200     8.2170     9.5000    13.2970     2.3180 
  233.2500   223.2430    50.3690    10.4960   -18.8750    80.3860     9.2630    10.7710    14.9380     2.3350 
  233.3750   223.3560    50.4220    10.5060   -18.7500    79.4140    10.6520    12.5020    15.8400     2.3620 
  233.5000   223.4690    50.4750    10.5160   -18.6840    77.6240    12.5940    14.8750    17.0250     2.3940 
  233.6250   223.5810    50.5280    10.5260   -18.6700    72.9590    14.7900    17.5170    18.9040     2.4240 
  233.7500   223.6940    50.5810    10.5360   -18.6730    68.3700    17.0620    20.2060    21.0720     2.4420 
  233.8750   223.8070    50.6340    10.5460   -18.6580    67.2100    19.0840    22.4610    23.7140     2.4350 
  234.0000   223.9200    50.6870    10.5560   -18.6030    68.5540    20.3750    23.8040    32.2820     2.4020 
  234.1250   224.0330    50.7400    10.5660   -18.5010    68.6430    21.0560    24.4330    29.5550     2.3510 
  234.2500   224.1450    50.7930    10.5760   -18.3710    67.2330    21.5940    24.9680    27.7480     2.3000 
  234.3750   224.2580    50.8460    10.5860   -18.2370    67.0130    22.2910    25.7900    32.9940     2.2610 
  234.5000   224.3710    50.8990    10.5960   -18.1220    67.1000    23.4560    27.2570    39.6830     2.2390 
  234.6250   224.4840    50.9520    10.6060   -18.0390    65.4900    24.6900    28.7620    37.0480     2.2320 
  234.7500   224.5960    51.0050    10.6160   -17.9900    63.4790    25.6830    29.9040    34.5820     2.2340 
  234.8750   224.7090    51.0580    10.6260   -17.9710    63.6510    26.0960    30.2830    32.6190     2.2390 
  235.0000   224.8220    51.1110    10.6360   -17.9760    64.2190    26.2340    30.3560    31.4060     2.2430 
  235.1250   224.9350    51.1640    10.6470   -18.0020    64.0220    26.3620    30.4050    33.6430     2.2450 
  235.2500   225.0470    51.2170    10.6570   -18.0500    63.6120    26.3990    30.4040    34.5820     2.2430 
  235.3750   225.1600    51.2690    10.6670   -18.1200    61.9820    26.8210    30.8450    35.7930     2.2390 
  235.5000   225.2730    51.3220    10.6780   -18.2030    59.5940    27.5020    31.6010    39.1410     2.2340 
  235.6250   225.3860    51.3750    10.6880   -18.2790    59.4970    28.6340    32.8890    41.9320     2.2310 
  235.7500   225.4980    51.4280    10.6990   -18.3170    61.7760    30.1140    34.6170    44.3010     2.2270 
  235.8750   225.6110    51.4810    10.7090   -18.2780    62.8220    31.8270    36.6670    46.3820     2.2220 
  236.0000   225.7240    51.5340    10.7190   -18.1460    60.9800    33.2690    38.3680    47.4560     2.2140 
  236.1250   225.8370    51.5870    10.7300   -17.9150    58.0320    34.3580    39.6500    48.9510     2.2050 
  236.2500   225.9490    51.6400    10.7400   -17.6240    56.8060    34.5490    39.7750    51.5410     2.1970 
  236.3750   226.0620    51.6930    10.7510   -17.3250    56.8790    33.6870    38.6810    49.5960     2.1910 
  236.5000   226.1750    51.7470    10.7610   -17.0720    56.0920    32.2780    36.9990    46.9370     2.1870 
  236.6250   226.2870    51.8000    10.7710   -16.9090    54.5940    31.0180    35.5620    44.4560     2.1860 
  236.7500   226.4000    51.8530    10.7810   -16.8360    54.7170    30.4620    34.9440    41.3560     2.1890 
  236.8750   226.5130    51.9060    10.7910   -16.8340    57.0580    30.7180    35.2900    39.1440     2.1950 
  237.0000   226.6250    51.9590    10.8010   -16.8570    59.2740    31.5250    36.2040    40.5110     2.2010 
  237.1250   226.7380    52.0130    10.8120   -16.8650    59.2960    32.4520    37.2580    42.6580     2.2030 
  237.2500   226.8510    52.0660    10.8220   -16.8380    58.5620    33.3820    38.2120    44.9150     2.2020 
  237.3750   226.9630    52.1190    10.8320   -16.7740    58.3570    33.3250    37.9540    46.1680     2.2000 
  237.5000   227.0760    52.1730    10.8430   -16.6950    57.6160    32.8920    37.2570    44.0980     2.2020 
  237.6250   227.1880    52.2260    10.8530   -16.6300    56.0230    31.8410    35.8780    43.9980     2.2070 
  237.7500   227.3010    52.2790    10.8640   -16.6070    55.2880    31.0200    34.8750    41.3560     2.2120 
  237.8750   227.4130    52.3330    10.8740   -16.6510    57.3480    30.5250    34.2910    38.0780     2.2130 
  238.0000   227.5260    52.3860    10.8850   -16.7680    59.5720    30.2320    34.0140    36.0390     2.2100 
  238.1250   227.6380    52.4400    10.8960   -16.9650    60.8820    29.9030    33.6720    37.3010     2.2040 
  238.2500   227.7510    52.4930    10.9060   -17.2340    61.5740    29.2790    32.9960    39.1410     2.1990 
  238.3750   227.8630    52.5460    10.9170   -17.5730    60.1660    28.1480    31.6640    38.8810     2.1960 
  238.5000   227.9760    52.6000    10.9270   -17.9660    57.8830    26.4550    29.6170    35.0610     2.1950 
  238.6250   228.0880    52.6530    10.9380   -18.4020    57.3200    24.6540    27.4690    33.2990     2.1950 
  238.7500   228.2010    52.7070    10.9480   -18.8530    58.8280    23.2930    25.8390    30.9770     2.1960 
  238.8750   228.3130    52.7610    10.9590   -19.2870    60.3990    22.4680    24.8560    29.1230     2.1990 
  239.0000   228.4260    52.8140    10.9690   -19.6720    61.2340    22.1140    24.4240    25.9030     2.2020 
  239.1250   228.5380    52.8680    10.9800   -19.9750    62.2020    22.1340    24.4820    25.9050     2.2040 
  239.2500   228.6510    52.9210    10.9900   -20.1920    62.7480    22.5740    24.9850    27.7480     2.2030 
  239.3750   228.7630    52.9750    11.0000   -20.3330    63.5260    23.0240    25.4230    28.7200     2.2000 
  239.5000   228.8750    53.0290    11.0110   -20.4360    64.3620    23.4750    25.8730    29.3180     2.1980 
  239.6250   228.9880    53.0820    11.0220   -20.5390    63.6520    23.7570    26.1080    28.3270     2.1990 
  239.7500   229.1000    53.1360    11.0320   -20.6700    61.2370    23.7790    26.1410    28.0030     2.2030 
  239.8750   229.2130    53.1890    11.0430   -20.8370    59.1880    23.7450    26.1770    27.5580     2.2050 
  240.0000   229.3250    53.2430    11.0530   -21.0170    59.1030    23.6700    26.1960    26.8090     2.2020 
  240.1250   229.4380    53.2970    11.0640   -21.1750    59.7330    23.5290    26.1550    26.3520     2.1930 
  240.2500   229.5500    53.3500    11.0740   -21.2740    59.1940    23.5620    26.3620    25.5490     2.1790 
  240.3750   229.6620    53.4040    11.0850   -21.2900    58.8540    23.9580    27.0210    25.5490     2.1650 
  240.5000   229.7750    53.4580    11.0950   -21.2320    58.9250    24.6290    27.9930    28.1320     2.1540 
  240.6250   229.8870    53.5110    11.1060   -21.1260    58.8680    25.5750    29.2920    29.2190     2.1490 
  240.7500   230.0000    53.5650    11.1160   -21.0150    57.7270    26.5170    30.5320    33.6430     2.1500 
  240.8750   230.1120    53.6190    11.1270   -20.9420    56.0000    27.1140    31.3130    38.3490     2.1560 
  241.0000   230.2240    53.6720    11.1370   -20.9280    54.8520    27.4430    31.7720    37.5580     2.1650 
  241.1250   230.3370    53.7260    11.1470   -20.9810    53.8740    27.5270    31.9490    33.8760     2.1710 
  241.2500   230.4490    53.7800    11.1580   -21.0820    54.1380    27.6130    32.1460    32.2820     2.1730 
  241.3750   230.5620    53.8330    11.1680   -21.2100    54.7200    27.9780    32.7120    32.5120     2.1710 
  241.5000   230.6740    53.8870    11.1780   -21.3430    55.2480    28.7110    33.7010    34.5820     2.1660 
