~V
VERS. 2.00: Ver 2.00
~W
STRT.M 50.0000:
STOP.M 287.0000:
STEP.M 0.1250:
NULL. -999.2500:
UWI. FD10894:
~C
DEPT.M :
TVD. :
DX. :
DY. :
SP.MV :
GR.API :
RI. :
RML.OHMM :
RXO.OHMM :
DEN.GM/CC :
~A
# ...
  168.6250   164.6200    23.6150     5.6250   -13.4960    56.2830    26.3770    29.3530    38.7210     2.4910 
  168.7500   164.7340    23.6660     5.6340   -13.4730    58.2150    23.8930    26.2560    34.6220     2.4390 
  168.8750   164.8470    23.7180     5.6440   -13.3170    59.7920    22.2270    24.1630    29.7030     2.3820 
  169.0000   164.9610    23.7690     5.6530   -13.0430    60.3900    21.1390    22.7730    28.4840     2.3400 
  169.1250   165.0740    23.8210     5.6620   -12.6760    60.2410    20.8840    22.3170    28.2100     2.3220 
  169.2500   165.1880    23.8720     5.6710   -12.2820    59.3540    20.0120    21.0810    22.5970     2.3210 
  169.3750   165.3010    23.9240     5.6800   -11.9450    58.5280    18.2710    18.9290    20.7020     2.3200 
  169.5000   165.4150    23.9750     5.6890   -11.7330    61.5570    15.3360    15.4690    19.7990     2.3080 
  169.6250   165.5290    24.0260     5.6980   -11.7070    67.7160    12.0720    11.9750    15.3660     2.2830 
  169.7500   165.6420    24.0780     5.7070   -11.8540    71.3080     9.8120     9.6320    10.6850     2.2530 
  169.8750   165.7560    24.1290     5.7160   -12.1470    71.1430     8.1370     7.9720     8.5690     2.2250 
  170.0000   165.8690    24.1810     5.7250   -12.5120    72.0000     7.1070     7.0400     7.7010     2.2050 
  170.1250   165.9830    24.2320     5.7340   -12.8860    76.6710     6.6370     6.6440     7.3440     2.1970 
  170.2500   166.0960    24.2840     5.7430   -13.2260    81.3850     6.3200     6.3800     7.4360     2.1970 
  170.3750   166.2100    24.3350     5.7520   -13.5150    83.2750     6.0960     6.1500     7.6280     2.2050 
  170.5000   166.3230    24.3870     5.7610   -13.7620    83.6210     5.9240     5.9730     8.2330     2.2170 
  170.6250   166.4370    24.4380     5.7700   -13.9760    82.9110     6.0370     6.0980     9.2670     2.2290 
  170.7500   166.5510    24.4890     5.7790   -14.1670    79.5110     6.5190     6.6120     8.9250     2.2430 
  170.8750   166.6640    24.5410     5.7880   -14.3300    72.7840     7.9330     8.2110     8.2110     2.2650 
  171.0000   166.7780    24.5920     5.7970   -14.4570    65.3270    10.6480    11.2060     9.0580     2.3060 
  171.1250   166.8910    24.6440     5.8060   -14.5370    58.9180    14.4420    15.4120    16.9330     2.3720 
  171.2500   167.0050    24.6950     5.8160   -14.5740    53.8680    18.5480    19.9250    28.6670     2.4540 
  171.3750   167.1180    24.7460     5.8250   -14.5750    51.2070    21.6270    23.3050    34.3230     2.5330 
  171.5000   167.2320    24.7980     5.8340   -14.5590    50.3130    23.2710    25.1880    39.1270     2.5910 
  171.6250   167.3460    24.8490     5.8430   -14.5330    50.8750    23.6880    25.7710    41.2410     2.6250 
  171.7500   167.4590    24.9010     5.8530   -14.4980    52.7850    23.6080    25.8640    35.0710     2.6390 
  171.8750   167.5730    24.9520     5.8620   -14.4370    54.6930    23.5360    26.0450    31.6070     2.6400 
  172.0000   167.6860    25.0030     5.8710   -14.3260    54.0520    23.4060    26.1870    36.4690     2.6350 
  172.1250   167.8000    25.0550     5.8800   -14.1400    53.3260    23.1350    26.1510    39.3730     2.6250 
  172.2500   167.9130    25.1060     5.8890   -13.8800    53.6460    22.7940    25.9870    38.5160     2.6140 
  172.3750   168.0270    25.1580     5.8980   -13.5590    53.0840    22.1990    25.3280    45.9680     2.6030 
  172.5000   168.1410    25.2090     5.9070   -13.2230    51.5020    21.4980    24.4560    53.7870     2.5900 
  172.6250   168.2540    25.2610     5.9160   -12.9250    52.7640    20.7190    23.5190    45.7340     2.5750 
  172.7500   168.3680    25.3120     5.9260   -12.7010    55.9740    20.0970    22.7880    32.6750     2.5590 
  172.8750   168.4810    25.3640     5.9350   -12.5750    57.5630    20.0270    22.7060    27.3000     2.5450 
  173.0000   168.5940    25.4160     5.9450   -12.5280    57.2030    20.2780    22.9700    25.6540     2.5360 
  173.1250   168.7080    25.4670     5.9540   -12.5300    56.3610    20.4140    23.0210    25.9360     2.5340 
  173.2500   168.8210    25.5190     5.9640   -12.5370    55.5080    20.1140    22.5410    29.4940     2.5400 
  173.3750   168.9350    25.5710     5.9730   -12.5200    54.7880    19.3830    21.6160    33.7370     2.5450 
  173.5000   169.0480    25.6230     5.9830   -12.4680    54.5650    18.5110    20.5480    32.2810     2.5390 
  173.6250   169.1610    25.6740     5.9920   -12.3890    54.6650    17.7680    19.6610    25.2770     2.5190 
  173.7500   169.2750    25.7260     6.0010   -12.3070    54.8220    17.2340    19.0730    21.5760     2.4940 
  173.8750   169.3880    25.7780     6.0100   -12.2450    54.8880    17.4210    19.3560    23.6240     2.4790 
  174.0000   169.5010    25.8300     6.0200   -12.2190    54.2780    18.2140    20.3010    24.1200     2.4830 
  174.1250   169.6150    25.8820     6.0290   -12.2420    54.1990    19.1040    21.3150    21.0010     2.5070 
  174.2500   169.7280    25.9340     6.0380   -12.3110    54.3620    19.5490    21.7710    23.1920     2.5380 
  174.3750   169.8410    25.9860     6.0470   -12.4240    53.6250    19.3010    21.4410    29.7740     2.5670 
  174.5000   169.9550    26.0380     6.0560   -12.5690    52.1910    18.7300    20.7800    30.8410     2.5840 
  174.6250   170.0680    26.0900     6.0660   -12.7360    52.3900    18.4210    20.4900    25.2180     2.5860 
  174.7500   170.1810    26.1420     6.0750   -12.9080    54.5770    18.4690    20.6310    18.9310     2.5800 
  174.8750   170.2940    26.1950     6.0840   -13.0620    56.0010    18.7810    21.1100    20.4630     2.5760 
  175.0000   170.4080    26.2470     6.0940   -13.1770    54.8410    19.0140    21.4050    28.4840     2.5780 
  175.1250   170.5210    26.2990     6.1030   -13.2240    52.6530    18.8760    21.1690    27.8950     2.5850 
  175.2500   170.6340    26.3510     6.1120   -13.1930    52.3680    18.3830    20.4960    25.4790     2.5920 
  175.3750   170.7470    26.4030     6.1210   -13.0780    54.7510    17.7460    19.7350    24.2800     2.5940 
  175.5000   170.8600    26.4550     6.1310   -12.9070    56.9940    17.5330    19.6340    22.4750     2.5940 
  175.6250   170.9730    26.5080     6.1400   -12.7170    57.3810    17.9030    20.3140    22.7920     2.5940 
  175.7500   171.0870    26.5600     6.1490   -12.5550    56.4730    18.4020    21.1430    23.7630     2.5970 
  175.8750   171.2000    26.6120     6.1580   -12.4650    56.2080    18.5040    21.4000    24.4370     2.6040 
  176.0000   171.3130    26.6650     6.1670   -12.4600    56.7570    17.9350    20.7580    25.3020     2.6110 
  176.1250   171.4260    26.7170     6.1760   -12.5350    57.1380    17.0330    19.6500    25.1280     2.6160 
  176.2500   171.5390    26.7690     6.1850   -12.6520    57.2460    16.1850    18.5800    23.9300     2.6120 
  176.3750   171.6530    26.8210     6.1940   -12.7740    57.8740    15.9090    18.2250    21.9370     2.5960 
  176.5000   171.7660    26.8740     6.2030   -12.8650    59.3060    16.1120    18.4480    20.3860     2.5690 
  176.6250   171.8790    26.9260     6.2120   -12.9080    60.0680    16.5850    18.9800    21.4090     2.5380 
  176.7500   171.9920    26.9780     6.2210   -12.9100    58.9740    17.1020    19.5080    22.4750     2.5100 
  176.8750   172.1050    27.0310     6.2300   -12.8890    57.7680    17.4270    19.7960    23.0300     2.4920 
  177.0000   172.2190    27.0830     6.2390   -12.8750    57.2240    17.5510    19.8910    23.5440     2.4870 
  177.1250   172.3320    27.1350     6.2480   -12.8970    55.8450    17.7720    20.2270    24.0140     2.4930 
  177.2500   172.4450    27.1870     6.2570   -12.9700    53.5370    17.9060    20.5110    25.1260     2.5070 
  177.3750   172.5580    27.2400     6.2660   -13.1070    51.5700    17.6740    20.3610    26.3830     2.5230 
  177.5000   172.6710    27.2920     6.2750   -13.2990    50.8140    16.9800    19.5680    26.9390     2.5380 
  177.6250   172.7850    27.3440     6.2840   -13.5410    50.8760    15.7690    18.0900    23.7730     2.5470 
