~V
VERS. 2.00: Ver 2.00
~W
STRT.M 43.0000:
STOP.M 257.0000:
STEP.M 0.1250:
NULL. -999.2500:
UWI. FD10872:
~C
DEPT.M :
TVD. :
DX. :
DY. :
SP.MV :
GR.API :
RI. :
RML.OHMM :
RXO.OHMM :
DEN.GM/CC :
~A
   43.0000    43.0000     0.0000     0.0000    35.2980    39.2360     0.1750     0.1400     0.0120     2.4420 
   43.1250    43.1250     0.0010    -0.0020    40.7430    38.5510     0.1680     0.1320     0.0100     2.4450 
   43.2500    43.2500     0.0020    -0.0040    45.5180    39.2300     0.1540     0.1250     0.0090     2.4460 
   43.3750    43.3750     0.0030    -0.0060    49.0900    40.5470     0.1340     0.1100     0.0090     2.4430 
   43.5000    43.5000     0.0040    -0.0080    51.4110    39.5970     0.1010     0.0870     0.0090     2.4360 
   43.6250    43.6250     0.0050    -0.0100    52.5430    37.2630     0.0770     0.0590     0.0090     2.4250 
   43.7500    43.7500     0.0060    -0.0120    52.8010    36.4950     0.0460     0.0310     0.0090     2.4150 
   43.8750    43.8750     0.0060    -0.0140    52.2070    37.1540     0.0240     0.0170     0.0090     2.4120 
   44.0000    44.0000     0.0070    -0.0160    50.7110    37.2920     0.0230     0.0210     0.0080     2.4170 
   44.1250    44.1250     0.0080    -0.0180    47.6600    37.0160     0.0450     0.0540     0.3330     2.4240 
   44.2500    44.2500     0.0090    -0.0200    42.3560    38.4830     0.1350     0.1480     2.7240     2.4260 
   44.3750    44.3750     0.0100    -0.0220    34.4060    42.7390     0.3970     0.3810     6.4410     2.4120 
   44.5000    44.5000     0.0110    -0.0250    24.4860    48.7710     0.9730     0.9380     7.4840     2.3750 
   44.6250    44.6250     0.0120    -0.0270    14.0830    56.6750     2.0240     2.2280     6.4580     2.3100 
   44.7500    44.7500     0.0130    -0.0290     5.3110    64.1570     2.9500     3.8600     6.0580     2.2260 
   44.8750    44.8750     0.0150    -0.0310    -0.7760    68.9550     3.5380     6.3390     6.1250     2.1430 
   45.0000    45.0000     0.0160    -0.0340    -4.4440    69.9650     3.9850     6.8150     6.1260     2.0840 
   45.1250    45.1250     0.0170    -0.0360    -6.3640    70.2130     4.2710     6.4480     5.9530     2.0610 
   45.2500    45.2500     0.0180    -0.0390    -7.6360    72.5630     4.7000     5.3530     5.8940     2.0670 
   45.3750    45.3750     0.0190    -0.0410    -8.6140    74.6610     5.1770     4.3800     6.0840     2.0850 
   45.5000    45.5000     0.0210    -0.0430    -9.3840    74.1710     5.3620     4.4260     6.2120     2.1000 
   45.6250    45.6250     0.0220    -0.0460    -9.8930    72.7380     5.4890     4.5300     6.2650     2.1080 
   45.7500    45.7490     0.0230    -0.0480   -10.1140    72.5550     5.5920     4.6320     6.4150     2.1090 
   45.8750    45.8740     0.0250    -0.0510   -10.0290    71.9560     5.6950     4.7480     6.5760     2.1090 
   46.0000    45.9990     0.0260    -0.0530    -9.7550    70.2110     5.8110     4.9060     6.6230     2.1100 
   46.1250    46.1240     0.0270    -0.0560    -9.4470    69.1150     5.9360     5.0430     6.6140     2.1120 
   46.2500    46.2490     0.0290    -0.0590    -9.2670    68.9630     6.0550     5.1750     6.7000     2.1130 
   46.3750    46.3740     0.0300    -0.0610    -9.3180    70.1830     6.1390     5.3410     6.8440     2.1110 
   46.5000    46.4990     0.0320    -0.0640    -9.5450    72.6740     6.2030     5.5420     6.8680     2.1060 
   46.6250    46.6240     0.0330    -0.0670    -9.8320    74.0780     6.2460     5.7880     6.8120     2.1000 
   46.7500    46.7490     0.0350    -0.0700   -10.0460    73.4390     6.2310     5.9050     6.7780     2.0960 
   46.8750    46.8740     0.0360    -0.0720   -10.0880    72.8140     6.0940     5.7880     6.8250     2.0950 
   47.0000    46.9990     0.0380    -0.0750    -9.9710    73.9860     5.8380     5.4390     6.9520     2.1000 
   47.1250    47.1240     0.0390    -0.0780    -9.7570    75.8930     5.4500     4.9200     6.5790     2.1120 
   47.2500    47.2490     0.0410    -0.0810    -9.5290    79.3810     4.9780     4.3850     5.6400     2.1310 
   47.3750    47.3740     0.0430    -0.0840    -9.3520    86.8990     4.5220     4.0910     4.8910     2.1560 
   47.5000    47.4990     0.0440    -0.0870    -9.2500    96.5290     4.0960     3.7250     4.3830     2.1860 
   47.6250    47.6240     0.0460    -0.0900    -9.2270   105.0400     3.7930     3.5100     3.9440     2.2130 
   47.7500    47.7490     0.0480    -0.0930    -9.2640   108.4670     3.6250     3.3440     3.7050     2.2330 
   47.8750    47.8740     0.0500    -0.0960    -9.3530   105.7900     3.5990     3.3130     3.5780     2.2440 
   48.0000    47.9990     0.0510    -0.0990    -9.4820   102.2810     3.6480     3.3840     3.5170     2.2450 
   48.1250    48.1240     0.0530    -0.1020    -9.6480   103.1680     3.7550     3.5950     3.6200     2.2420 
   48.2500    48.2490     0.0550    -0.1050    -9.8480   106.5550     3.8520     3.7820     3.8040     2.2390 
   48.3750    48.3740     0.0570    -0.1090   -10.0840   106.4080     3.9200     3.8370     3.9120     2.2380 
   48.5000    48.4990     0.0590    -0.1120   -10.3430   103.5280     3.9320     3.6870     3.8150     2.2400 
   48.6250    48.6230     0.0610    -0.1150   -10.5890   102.3010     3.8610     3.4570     3.6720     2.2450 
   48.7500    48.7480     0.0630    -0.1180   -10.7550   101.8610     3.7480     3.2230     3.6940     2.2510 
   48.8750    48.8730     0.0650    -0.1220   -10.7350   100.2090     3.6060     3.2040     3.6900     2.2540 
   49.0000    48.9980     0.0670    -0.1250   -10.4730    98.5520     3.4710     3.1890     3.5590     2.2560 
   49.1250    49.1230     0.0690    -0.1280    -9.9560    99.3780     3.3920     3.1710     3.4680     2.2570 
   49.2500    49.2480     0.0710    -0.1320    -9.2980   101.4150     3.4060     3.2700     3.5200     2.2580 
   49.3750    49.3730     0.0730    -0.1350    -8.6330   102.3590     3.5260     3.3810     3.6760     2.2600 
   49.5000    49.4980     0.0750    -0.1380    -8.0710   101.5270     3.7580     3.6090     4.0460     2.2600 
   49.6250    49.6230     0.0770    -0.1420    -7.6390    98.1710     4.1720     4.1750     4.9080     2.2550 
   49.7500    49.7480     0.0790    -0.1450    -7.2370    92.2080     4.7190     5.0590     5.4970     2.2470 
   49.8750    49.8730     0.0810    -0.1490    -6.7230    85.0370     5.4900     6.2740     5.8560     2.2350 
   50.0000    49.9980     0.0830    -0.1520    -5.9900    79.8610     6.5070     7.7050     7.4670     2.2200 
   50.1250    50.1230     0.0860    -0.1550    -4.9870    76.8960     7.6590     9.1600     9.5820     2.2010 
   50.2500    50.2480     0.0880    -0.1590    -3.8030    73.5920     8.8980    10.7980    10.6670     2.1810 
   50.3750    50.3730     0.0900    -0.1620    -2.5680    69.0850     9.9040    12.1930    10.9840     2.1600 
   50.5000    50.4970     0.0920    -0.1660    -1.4230    65.7210    10.6110    13.3010    11.2260     2.1420 
   50.6250    50.6220     0.0950    -0.1700    -0.4820    64.2990    11.0020    13.9890    11.9530     2.1290 
   50.7500    50.7470     0.0970    -0.1730     0.2110    62.3490    11.2070    14.4210    12.7150     2.1200 
   50.8750    50.8720     0.0990    -0.1770     0.6250    60.0300    11.3050    14.6810    12.5590     2.1150 
   51.0000    50.9970     0.1020    -0.1800     0.7980    58.8070    11.3050    14.7920    11.9110     2.1120 
   51.1250    51.1220     0.1040    -0.1840     0.7380    58.2220    11.1860    14.7800    11.3020     2.1110 
   51.2500    51.2470     0.1070    -0.1880     0.4990    57.4230    11.0650    14.7500    10.8970     2.1100 
   51.3750    51.3720     0.1090    -0.1910     0.0960    56.4620    10.9960    14.7490    10.8820     2.1080 
   51.5000    51.4970     0.1120    -0.1950    -0.4360    56.8520    10.9620    14.7290    10.9980     2.1080 
   51.6250    51.6220     0.1140    -0.1990    -1.0680    59.5150    10.9120    14.6530    11.1120     2.1080 
   51.7500    51.7470     0.1170    -0.2030    -1.7370    63.0380    10.8410    14.5260    11.2340     2.1100 
   51.8750    51.8720     0.1190    -0.2060    -2.3580    64.3530    10.6920    14.2840    11.1990     2.1120 
   52.0000    51.9970     0.1220    -0.2100    -2.8450    62.3280    10.4190    13.8960    10.8910     2.1140 
