~V
VERS. 2.00: Ver 2.00
~W
STRT.M 15.0000:
STOP.M 282.0000:
STEP.M 0.1250:
NULL. -999.2500:
UWI. FD10218:
~C
DEPT.M :
TVD. :
DX. :
DY. :
DEN.GM/CC :
GR.API :
RML.OHMM :
RI. :
RXO.OHMM :
CALI.CM :
SP.MV :
~A
# ...
  237.7500   232.2540    27.0130    25.9510     2.3150    74.3170    55.1120    47.7050    21.7010    19.5580   -17.6470 
  237.8750   232.3710    27.0440    25.9820     2.3180    75.6430    57.8900    50.7030    22.2870    19.5780   -17.6970 
  238.0000   232.4880    27.0760    26.0120     2.3230    75.2360    59.4500    52.4480    22.4020    19.5610   -17.7160 
  238.1250   232.6050    27.1070    26.0430     2.3280    72.2230    59.9580    53.0370    22.4200    19.5690   -17.6960 
  238.2500   232.7220    27.1390    26.0740     2.3340    70.1940    60.1130    53.2460    22.7410    19.6380   -17.7180 
  238.3750   232.8390    27.1700    26.1040     2.3420    70.1340    60.3310    53.5320    22.9420    19.7310   -17.7960 
  238.5000   232.9560    27.2010    26.1350     2.3500    69.7110    60.8410    54.1280    22.5470    19.8150   -17.8970 
  238.6250   233.0730    27.2330    26.1660     2.3540    67.8050    61.7020    55.1310    21.7480    19.8370   -17.9650 
  238.7500   233.1900    27.2640    26.1960     2.3510    66.4660    62.6950    56.3550    21.3490    19.8390   -18.0490 
  238.8750   233.3080    27.2960    26.2270     2.3420    66.7310    63.6070    57.5980    21.4540    19.8410   -18.1180 
  239.0000   233.4250    27.3270    26.2570     2.3280    68.0130    64.2620    58.6700    21.4710    19.8520   -18.2430 
  239.1250   233.5420    27.3580    26.2880     2.3130    69.2680    64.5270    59.3960    21.1520    19.9430   -18.4590 
  239.2500   233.6590    27.3900    26.3190     2.3030    69.8080    64.5050    59.7950    21.3730    20.1780   -18.6810 
  239.3750   233.7760    27.4210    26.3490     2.2990    70.1320    64.3090    59.9260    22.2720    20.5090   -18.8670 
  239.5000   233.8930    27.4530    26.3800     2.2990    70.8320    64.0910    59.9130    23.1910    20.7880   -19.0030 
  239.6250   234.0100    27.4840    26.4110     2.3030    72.0150    64.1320    59.9930    23.7180    20.8290   -19.0820 
  239.7500   234.1270    27.5150    26.4410     2.3100    72.3620    64.7420    60.4870    23.3050    20.7440   -19.1610 
  239.8750   234.2440    27.5470    26.4720     2.3200    70.8670    66.1530    61.7850    22.2590    20.6410   -19.2670 
  240.0000   234.3610    27.5780    26.5020     2.3310    68.6340    68.6970    64.2500    21.3770    20.5800   -19.3180 
  240.1250   234.4780    27.6100    26.5330     2.3400    68.8670    73.8010    68.2610    21.1400    20.5440   -19.2810 
  240.2500   234.5950    27.6410    26.5640     2.3380    70.6170    81.0150    73.3070    21.3870    20.5290   -19.1650 
  240.3750   234.7120    27.6730    26.5940     2.3260    71.3250    88.4100    78.7090    21.6350    20.5290   -18.9930 
  240.5000   234.8290    27.7040    26.6250     2.3060    71.8520    93.8790    83.5920    21.6990    20.5620   -18.8030 
  240.6250   234.9460    27.7360    26.6560     2.2880    71.7850    96.5050    86.9080    22.2200    20.6210   -18.6700 
  240.7500   235.0630    27.7670    26.6870     2.2820    69.9680    97.4220    88.5250    22.9330    20.6770   -18.5430 
  240.8750   235.1800    27.7990    26.7180     2.2940    68.6650    96.7660    88.5180    23.2230    20.7750   -18.3930 
  241.0000   235.2970    27.8300    26.7480     2.3210    70.6060    94.5580    87.0140    22.9150    20.9110   -18.2270 
  241.1250   235.4140    27.8620    26.7790     2.3550    73.7610    90.7580    83.8010    22.4290    20.9690   -18.0420 
  241.2500   235.5310    27.8930    26.8100     2.3790    75.4550    86.0520    79.3170    22.2450    20.9810   -17.8780 
  241.3750   235.6480    27.9250    26.8410     2.3890    78.4760    81.2920    74.2420    22.4620    21.0300   -17.7280 
  241.5000   235.7650    27.9560    26.8710     2.3810    82.7590    77.6670    69.7270    23.2370    21.2030   -17.5720 
  241.6250   235.8820    27.9880    26.9020     2.3610    83.6170    76.9920    67.5800    25.1770    21.4350   -17.3480 
  241.7500   235.9990    28.0190    26.9330     2.3370    80.3070    79.8570    68.6940    26.4030    21.5560   -17.0400 
  241.8750   236.1160    28.0510    26.9640     2.3170    75.4770    86.5010    73.6810    27.9370    21.6420   -16.6350 
  242.0000   236.2330    28.0820    26.9940     2.3080    72.2340    96.2520    82.4070    28.5340    21.7880   -16.1780 
  242.1250   236.3500    28.1140    27.0250     2.3130    69.7260   106.8410    93.4410    27.6070    21.9150   -15.7000 
  242.2500   236.4670    28.1450    27.0560     2.3280    66.4640   114.4190   102.8470    27.7990    21.8710   -15.2150 
  242.3750   236.5840    28.1770    27.0870     2.3560    64.0330   115.9520   107.0320    30.2380    21.7160   -14.6760 
  242.5000   236.7010    28.2080    27.1170     2.3970    65.9560   110.2560   104.1400    34.3350    21.6070   -14.0880 
  242.6250   236.8180    28.2400    27.1480     2.4520    70.6670    97.9530    94.2620    32.6600    21.6360   -13.4280 
  242.7500   236.9350    28.2710    27.1790     2.5010    71.4720    83.0840    81.2050    27.1110    21.4610   -12.7470 
  242.8750   237.0520    28.3030    27.2100     2.5230    69.5620    68.1180    67.2710    22.9770    20.9410   -12.1350 
  243.0000   237.1690    28.3340    27.2400     2.5040    68.9460    54.6570    54.1200    21.7300    20.5120   -11.5650 
  243.1250   237.2860    28.3660    27.2710     2.4450    72.1740    43.9450    43.2340    21.5680    20.3990   -11.0610 
  243.2500   237.4030    28.3970    27.3020     2.3800    75.3410    35.7540    34.7800    20.8020    20.4950   -10.5230 
  243.3750   237.5200    28.4290    27.3330     2.3340    76.9400    29.8490    28.6360    19.6140    20.7270   -10.0270 
  243.5000   237.6370    28.4600    27.3630     2.3200    79.0900    25.8490    24.4000    19.1190    21.0980    -9.5850 
  243.6250   237.7540    28.4920    27.3940     2.3310    82.5800    23.5890    21.8530    19.1930    21.5070    -9.3040 
  243.7500   237.8710    28.5230    27.4250     2.3440    85.0670    22.5180    20.4580    19.0830    21.5640    -9.1560 
  243.8750   237.9880    28.5550    27.4560     2.3450    85.3940    22.4450    20.0380    18.3540    21.2030    -9.1150 
  244.0000   238.1050    28.5860    27.4870     2.3320    84.8580    23.1910    20.4420    17.8160    20.6980    -9.0820 
  244.1250   238.2220    28.6180    27.5170     2.3110    84.2840    24.5890    21.6020    18.1000    20.4920    -9.0140 
  244.2500   238.3390    28.6490    27.5480     2.2950    81.1210    26.1800    23.1350    19.3290    20.4600    -9.0020 
  244.3750   238.4560    28.6810    27.5790     2.2870    77.2820    27.5740    24.6620    20.4850    20.4920    -9.0570 
  244.5000   238.5730    28.7120    27.6100     2.2880    76.1030    28.4120    25.7410    20.8710    20.5260    -9.1650 
  244.6250   238.6900    28.7440    27.6400     2.2910    78.8830    28.3630    25.8780    20.9530    20.5140    -9.2190 
  244.7500   238.8070    28.7750    27.6710     2.2890    82.1630    27.6670    25.1730    20.6360    20.4540    -9.2070 
  244.8750   238.9240    28.8070    27.7020     2.2870    83.2970    26.6720    23.9500    20.0710    20.3720    -9.0750 
  245.0000   239.0410    28.8380    27.7330     2.2920    82.1050    25.8110    22.7220    19.2600    20.2840    -8.9000 
  245.1250   239.1580    28.8700    27.7630     2.3220    78.8580    25.5460    22.0470    18.8160    20.2030    -8.7750 
  245.2500   239.2750    28.9010    27.7940     2.3700    76.4430    25.8900    22.0240    18.9190    20.1990    -8.6640 
  245.3750   239.3920    28.9330    27.8250     2.4170    74.7370    26.6570    22.5660    19.7450    20.2180    -8.5580 
  245.5000   239.5090    28.9640    27.8560     2.4400    71.9730    27.4620    23.3860    21.7330    20.2440    -8.4400 
  245.6250   239.6260    28.9960    27.8860     2.4220    69.3000    27.7280    23.8970    24.5630    20.3130    -8.3210 
  245.7500   239.7430    29.0270    27.9170     2.3800    68.5910    27.2380    23.6950    23.9990    20.4270    -8.1890 
  245.8750   239.8590    29.0590    27.9480     2.3340    71.3040    26.0740    22.7830    20.4360    20.5560    -8.1210 
