~V
VERS. 2.00: Ver 2.00
~W
STRT.M 65.0000:
STOP.M 248.0000:
STEP.M 0.1250:
NULL. -999.2500:
UWI. FD10900:
~C
DEPT.M :
TVD. :
DX. :
DY. :
SP.MV :
GR.API :
RI. :
RML.OHMM :
RXO.OHMM :
DEN.GM/CC :
~A
# ...
  165.3750   164.3450   -10.4920     6.6240   -23.3200    54.0710    11.9880    14.5530    14.5770     2.4150 
  165.5000   164.4670   -10.5150     6.6420   -23.2820    52.7160    11.8860    14.4930    13.6130     2.4110 
  165.6250   164.5880   -10.5380     6.6610   -23.2440    52.6930    11.2660    13.7360    11.8700     2.4130 
  165.7500   164.7100   -10.5610     6.6800   -23.1930    52.2700     9.9940    12.1080     9.1150     2.4100 
  165.8750   164.8310   -10.5840     6.6980   -23.1800    52.2130     8.3210     9.9590     6.7560     2.3920 
  166.0000   164.9520   -10.6080     6.7170   -23.2250    50.9960     6.6730     7.8820     5.6670     2.3630 
  166.1250   165.0740   -10.6310     6.7350   -23.2330    50.2720     5.3940     6.3240     5.1490     2.3350 
  166.2500   165.1950   -10.6540     6.7540   -23.2810    50.3130     4.5780     5.3910     4.7250     2.3130 
  166.3750   165.3170   -10.6770     6.7730   -23.3120    51.1120     4.1400     4.9430     4.3010     2.2940 
  166.5000   165.4380   -10.7000     6.7910   -23.3110    51.5540     3.9750     4.7990     3.9190     2.2810 
  166.6250   165.5590   -10.7230     6.8100   -23.2960    50.0250     3.9070     4.7420     3.7070     2.2830 
  166.7500   165.6810   -10.7470     6.8290   -23.2870    47.4090     3.8780     4.7080     3.7620     2.2980 
  166.8750   165.8020   -10.7700     6.8480   -23.3150    44.5980     3.8840     4.7180     3.8990     2.3160 
  167.0000   165.9240   -10.7930     6.8660   -23.3590    42.6920     3.9510     4.8100     4.2460     2.3210 
  167.1250   166.0450   -10.8160     6.8850   -23.4070    42.6580     4.0580     4.9450     5.1860     2.3100 
  167.2500   166.1660   -10.8390     6.9040   -23.4690    44.6060     4.1590     5.0690     5.9570     2.2870 
  167.3750   166.2880   -10.8630     6.9230   -23.5310    47.4090     4.2300     5.1610     5.3830     2.2540 
  167.5000   166.4090   -10.8860     6.9420   -23.6180    49.3980     4.2530     5.1990     4.2110     2.2090 
  167.6250   166.5300   -10.9090     6.9610   -23.7420    50.2260     4.2230     5.1750     3.7380     2.1530 
  167.7500   166.6520   -10.9330     6.9800   -23.8520    50.9000     4.1530     5.1150     3.7970     2.1110 
  167.8750   166.7730   -10.9560     6.9980   -23.9370    51.3530     4.0800     5.0680     3.9340     2.1060 
  168.0000   166.8940   -10.9790     7.0170   -23.9390    51.2580     4.0440     5.0790     4.4980     2.1490 
  168.1250   167.0160   -11.0030     7.0360   -23.8740    50.3750     4.0540     5.1470     5.6090     2.2090 
  168.2500   167.1370   -11.0260     7.0550   -23.7440    49.6470     4.0900     5.2400     6.1190     2.2570 
  168.3750   167.2580   -11.0500     7.0740   -23.5670    48.3910     4.1160     5.3090     5.3960     2.2840 
  168.5000   167.3800   -11.0730     7.0930   -23.3040    47.9710     4.1080     5.3240     4.3730     2.2880 
  168.6250   167.5010   -11.0960     7.1120   -23.0120    46.7340     4.0600     5.2810     3.6820     2.2780 
  168.7500   167.6220   -11.1200     7.1310   -22.7450    45.1970     3.9770     5.1920     3.2460     2.2590 
  168.8750   167.7440   -11.1430     7.1490   -22.4840    44.2170     3.8820     5.0890     3.1780     2.2450 
  169.0000   167.8650   -11.1670     7.1680   -22.2020    43.2290     3.7920     4.9890     3.4350     2.2440 
  169.1250   167.9860   -11.1900     7.1870   -21.8920    42.2500     3.7180     4.9070     3.6590     2.2570 
  169.2500   168.1080   -11.2140     7.2060   -21.6300    39.2000     3.6670     4.8510     3.6220     2.2730 
  169.3750   168.2290   -11.2370     7.2250   -21.4090    37.6140     3.6340     4.8190     3.3160     2.2820 
  169.5000   168.3500   -11.2610     7.2440   -21.2230    36.8840     3.6200     4.8130     2.9090     2.2790 
  169.6250   168.4710   -11.2840     7.2630   -21.0880    38.4070     3.6220     4.8280     2.6510     2.2720 
  169.7500   168.5930   -11.3070     7.2820   -20.8880    40.7860     3.6370     4.8520     2.6440     2.2660 
  169.8750   168.7140   -11.3310     7.3010   -20.7090    43.8240     3.6550     4.8730     2.7760     2.2700 
  170.0000   168.8350   -11.3540     7.3200   -20.5510    45.1110     3.6660     4.8850     2.8850     2.2850 
  170.1250   168.9570   -11.3780     7.3390   -20.5040    44.3380     3.6700     4.8920     2.8890     2.3040 
  170.2500   169.0780   -11.4010     7.3580   -20.5230    41.8610     3.6760     4.9080     2.7830     2.3180 
  170.3750   169.1990   -11.4250     7.3770   -20.5320    39.7310     3.6940     4.9440     2.6360     2.3240 
  170.5000   169.3210   -11.4480     7.3960   -20.5330    37.9200     3.7280     4.9990     2.6920     2.3260 
  170.6250   169.4420   -11.4720     7.4150   -20.4690    36.5410     3.7600     5.0470     3.2710     2.3280 
  170.7500   169.5630   -11.4950     7.4340   -20.3870    35.0410     3.7690     5.0640     4.3470     2.3280 
  170.8750   169.6840   -11.5190     7.4530   -20.2840    34.7410     3.7500     5.0450     5.3250     2.3250 
  171.0000   169.8060   -11.5420     7.4720   -20.1830    35.5240     3.7080     5.0020     5.7080     2.3170 
  171.1250   169.9270   -11.5660     7.4910   -20.1230    36.6900     3.6670     4.9660     5.3310     2.3080 
  171.2500   170.0480   -11.5890     7.5100   -20.0380    36.8550     3.6380     4.9540     4.3510     2.3040 
  171.3750   170.1700   -11.6130     7.5290   -20.0120    35.9380     3.6200     4.9570     3.5290     2.3080 
  171.5000   170.2910   -11.6360     7.5480   -20.0570    34.6420     3.6050     4.9560     3.3030     2.3130 
  171.6250   170.4120   -11.6600     7.5670   -20.1830    34.1160     3.5820     4.9300     3.4090     2.3120 
  171.7500   170.5340   -11.6830     7.5860   -20.4060    34.7260     3.5520     4.8840     3.4510     2.3040 
  171.8750   170.6550   -11.7070     7.6050   -20.7300    36.7880     3.5420     4.8630     3.2170     2.2960 
  172.0000   170.7760   -11.7300     7.6240   -21.0630    38.1320     3.5760     4.9110     2.8390     2.2960 
  172.1250   170.8970   -11.7540     7.6430   -21.2840    39.2020     3.6540     5.0220     2.5700     2.3010 
  172.2500   171.0190   -11.7770     7.6620   -21.5540    38.9750     3.7590     5.1620     2.4710     2.3070 
  172.3750   171.1400   -11.8010     7.6810   -21.9030    38.7780     3.8540     5.2810     2.4840     2.3100 
  172.5000   171.2610   -11.8240     7.7000   -22.3370    38.5720     3.9170     5.3510     2.7050     2.3110 
  172.6250   171.3830   -11.8480     7.7190   -22.7720    39.3110     3.9480     5.3790     3.2350     2.3120 
  172.7500   171.5040   -11.8710     7.7380   -23.1980    40.2680     3.9500     5.3740     3.8420     2.3150 
  172.8750   171.6250   -11.8940     7.7570   -23.7060    40.6170     3.9360     5.3500     4.0890     2.3200 
  173.0000   171.7470   -11.9180     7.7760   -24.3440    41.2060     3.9120     5.3130     3.8160     2.3260 
  173.1250   171.8680   -11.9410     7.7950   -25.0360    41.7010     3.8810     5.2640     3.2840     2.3320 
  173.2500   171.9890   -11.9650     7.8140   -25.7180    41.5520     3.8340     5.1910     2.8310     2.3380 
  173.3750   172.1100   -11.9880     7.8330   -26.2480    40.4560     3.7620     5.0850     2.5680     2.3460 
  173.5000   172.2320   -12.0110     7.8520   -26.5760    39.3820     3.6630     4.9410     2.4000     2.3500 
  173.6250   172.3530   -12.0350     7.8710   -26.7580    39.4420     3.5460     4.7750     2.2620     2.3460 
  173.7500   172.4740   -12.0580     7.8900   -26.8940    38.3500     3.4290     4.6060     2.1750     2.3280 
  173.8750   172.5960   -12.0820     7.9090   -27.0270    35.4940     3.3260     4.4520     2.1770     2.2990 
  174.0000   172.7170   -12.1050     7.9280   -27.1600    32.0980     3.2480     4.3260     2.1690     2.2540 
  174.1250   172.8380   -12.1290     7.9470   -27.2830    30.8170     3.1960     4.2330     2.0490     2.1890 
  174.2500   172.9600   -12.1520     7.9670   -27.3890    30.8370     3.1640     4.1740     1.9350     2.1050 
  174.3750   173.0810   -12.1750     7.9860   -27.4610    31.5720     3.1420     4.1380     1.9180     2.0290 
