~V
VERS. 2.00: Ver 2.00
~W
STRT.M 63.0000:
STOP.M 256.0000:
STEP.M 0.1250:
NULL. -999.2500:
UWI. FD10901:
~C
DEPT.M :
TVD. :
DX. :
DY. :
SP.MV :
GR.API :
RI. :
RML.OHMM :
RXO.OHMM :
DEN.GM/CC :
~A
# ...
  181.6250   180.6800    -3.3350   -10.2640    -6.5090    43.4070     4.3550     5.7060     4.2160     2.3370 
  181.7500   180.8010    -3.3420   -10.2960    -6.4960    44.2640     4.4100     5.7880     4.3890     2.3400 
  181.8750   180.9210    -3.3490   -10.3270    -6.4830    45.2170     4.4260     5.8060     4.3430     2.3660 
  182.0000   181.0420    -3.3560   -10.3590    -6.4690    44.5050     4.3850     5.7270     4.1900     2.4010 
  182.1250   181.1630    -3.3640   -10.3910    -6.4560    41.8840     4.2900     5.5790     4.0050     2.4210 
  182.2500   181.2830    -3.3710   -10.4230    -6.4430    40.3230     4.1980     5.4250     3.8720     2.4070 
  182.3750   181.4040    -3.3780   -10.4540    -6.4300    40.9060     4.1790     5.3820     3.9710     2.3690 
  182.5000   181.5250    -3.3860   -10.4860    -6.4160    43.1610     4.2610     5.4940     4.0500     2.3410 
  182.6250   181.6450    -3.3930   -10.5180    -6.4030    46.0460     4.4440     5.7450     4.0060     2.3350 
  182.7500   181.7660    -3.4010   -10.5500    -6.3900    47.6280     4.6600     6.0570     4.2210     2.3430 
  182.8750   181.8870    -3.4080   -10.5820    -6.3770    47.6800     4.8660     6.3380     4.7080     2.3540 
  183.0000   182.0070    -3.4160   -10.6140    -6.3630    46.0270     4.9840     6.4820     4.9010     2.3750 
  183.1250   182.1280    -3.4230   -10.6460    -6.3500    44.6640     5.0010     6.4750     4.5630     2.4010 
  183.2500   182.2480    -3.4310   -10.6780    -6.3370    42.8330     4.9040     6.3330     4.2770     2.4220 
  183.3750   182.3690    -3.4390   -10.7100    -6.0380    42.1940     4.7610     6.1430     4.2590     2.4270 
  183.5000   182.4900    -3.4470   -10.7420    -5.4460    42.2200     4.6480     6.0080     4.2530     2.4190 
  183.6250   182.6100    -3.4540   -10.7740    -4.9210    44.4880     4.6020     5.9480     4.2310     2.4070 
  183.7500   182.7310    -3.4620   -10.8060    -4.7100    47.2680     4.5770     5.9120     4.2060     2.4010 
  183.8750   182.8510    -3.4700   -10.8380    -4.7920    48.7360     4.5760     5.9130     4.2870     2.4050 
  184.0000   182.9720    -3.4780   -10.8700    -4.9400    48.0090     4.6010     5.9620     4.4990     2.4160 
  184.1250   183.0920    -3.4850   -10.9020    -5.1110    46.7240     4.6700     6.0570     4.4330     2.4240 
  184.2500   183.2130    -3.4930   -10.9340    -5.2760    46.9800     4.7320     6.1320     4.0790     2.4330 
  184.3750   183.3330    -3.5010   -10.9670    -5.5530    48.1560     4.7600     6.1590     4.1950     2.4330 
  184.5000   183.4540    -3.5080   -10.9990    -5.9960    48.4370     4.7130     6.0830     4.8080     2.4240 
  184.6250   183.5740    -3.5160   -11.0310    -6.3340    47.2610     4.5920     5.9040     5.0860     2.4010 
  184.7500   183.6950    -3.5230   -11.0640    -6.8810    46.5860     4.4400     5.6790     4.7130     2.3800 
  184.8750   183.8150    -3.5300   -11.0960    -7.0880    46.9140     4.2680     5.4330     4.2590     2.3670 
  185.0000   183.9360    -3.5380   -11.1290    -6.6060    47.0380     4.1330     5.2490     4.1680     2.3670 
  185.1250   184.0560    -3.5450   -11.1610    -6.6730    46.8930     4.0560     5.1610     4.1670     2.3690 
  185.2500   184.1770    -3.5520   -11.1940    -6.9160    46.3810     4.0270     5.1330     4.1090     2.3720 
  185.3750   184.2970    -3.5590   -11.2260    -7.2320    46.8610     4.0320     5.1450     4.1260     2.3690 
  185.5000   184.4180    -3.5660   -11.2590    -7.5340    46.6040     4.0520     5.1720     4.1160     2.3640 
  185.6250   184.5380    -3.5740   -11.2920    -7.8140    45.8310     4.0760     5.2030     4.0270     2.3620 
  185.7500   184.6590    -3.5810   -11.3240    -8.2470    44.8500     4.0920     5.2200     4.1110     2.3620 
  185.8750   184.7790    -3.5880   -11.3570    -8.7830    45.5430     4.0970     5.2200     4.4470     2.3640 
  186.0000   184.9000    -3.5960   -11.3890    -9.4290    47.1010     4.0970     5.2160     4.4330     2.3670 
  186.1250   185.0200    -3.6030   -11.4220    -9.8000    49.1300     4.0950     5.2050     3.9500     2.3720 
  186.2500   185.1400    -3.6110   -11.4550   -10.9400    52.3440     4.0800     5.1810     3.7560     2.3860 
  186.3750   185.2610    -3.6190   -11.4870   -12.4430    56.3640     4.0550     5.1480     3.9580     2.3980 
  186.5000   185.3810    -3.6270   -11.5200   -13.4180    59.4920     4.0150     5.0900     4.1520     2.4020 
  186.6250   185.5020    -3.6340   -11.5530   -13.5810    59.1600     3.9610     5.0100     4.1020     2.3900 
  186.7500   185.6220    -3.6420   -11.5860   -14.0070    55.5510     3.8890     4.9040     3.9140     2.3800 
  186.8750   185.7420    -3.6500   -11.6180   -14.7620    50.6970     3.8080     4.7960     3.7370     2.3790 
  187.0000   185.8630    -3.6580   -11.6510   -16.0230    47.0350     3.7420     4.7120     3.5630     2.3830 
  187.1250   185.9830    -3.6660   -11.6840   -19.5580    46.3760     3.7000     4.6670     3.4700     2.3850 
  187.2500   186.1030    -3.6740   -11.7170   -22.1700    46.8570     3.6860     4.6590     3.4250     2.3830 
  187.3750   186.2240    -3.6820   -11.7500   -21.9290    47.1940     3.6920     4.6660     3.4830     2.3840 
  187.5000   186.3440    -3.6890   -11.7830   -21.2060    48.1980     3.6960     4.6630     3.6380     2.3810 
  187.6250   186.4640    -3.6970   -11.8160   -20.4090    51.5880     3.6940     4.6460     3.5890     2.3790 
  187.7500   186.5840    -3.7050   -11.8490   -16.8450    57.1640     3.6930     4.6260     3.3940     2.3750 
  187.8750   186.7050    -3.7130   -11.8830    -8.9230    62.8370     3.7010     4.6140     3.3440     2.3840 
  188.0000   186.8250    -3.7210   -11.9160    -5.5270    67.5110     3.7450     4.6410     3.4460     2.3920 
  188.1250   186.9450    -3.7280   -11.9490    -2.8990    71.4090     3.8530     4.7350     3.6280     2.3970 
  188.2500   187.0650    -3.7360   -11.9820     0.5630    73.7410     4.0050     4.8930     3.8230     2.3940 
  188.3750   187.1860    -3.7440   -12.0160     2.6190    75.8030     4.1900     5.0970     3.9310     2.3940 
  188.5000   187.3060    -3.7520   -12.0490     3.9280    77.4310     4.3480     5.2800     3.9590     2.3960 
  188.6250   187.4260    -3.7600   -12.0830     5.0840    80.5300     4.4470     5.3890     4.1440     2.3890 
  188.7500   187.5460    -3.7680   -12.1160     5.7420    84.6310     4.5150     5.4420     4.4680     2.3750 
  188.8750   187.6660    -3.7760   -12.1490     6.1210    89.0530     4.5320     5.4360     4.7270     2.3600 
  189.0000   187.7870    -3.7840   -12.1830     6.5000    92.5360     4.5250     5.4160     4.9460     2.3420 
  189.1250   187.9070    -3.7910   -12.2170     6.5980    94.1380     4.4650     5.3320     5.1540     2.3240 
  189.2500   188.0270    -3.7990   -12.2500     6.8350    93.4770     4.3500     5.1940     5.4130     2.3120 
  189.3750   188.1470    -3.8070   -12.2840     6.8050    91.4850     4.1770     4.9640     5.4140     2.3070 
  189.5000   188.2670    -3.8150   -12.3170     6.8220    89.2570     3.9720     4.6780     4.8190     2.3050 
  189.6250   188.3870    -3.8230   -12.3510     6.7810    88.4700     3.8230     4.4630     4.0250     2.2990 
  189.7500   188.5070    -3.8310   -12.3850     6.6290    89.0630     3.8010     4.4030     3.5170     2.2940 
  189.8750   188.6270    -3.8390   -12.4180     6.4150    90.7090     4.0110     4.6450     3.5630     2.2900 
  190.0000   188.7480    -3.8470   -12.4520     6.2120    90.2990     4.4280     5.1430     4.1970     2.2930 
  190.1250   188.8680    -3.8550   -12.4860     5.9430    88.5120     4.9640     5.7680     5.6660     2.3010 
  190.2500   188.9880    -3.8630   -12.5200     5.6480    85.5100     5.5040     6.3630     8.2510     2.3110 
  190.3750   189.1080    -3.8710   -12.5530     5.3740    84.3240     5.9270     6.7840     9.0170     2.3250 
  190.5000   189.2280    -3.8780   -12.5870     5.1600    82.7550     6.2100     7.0340     7.4990     2.3480 
  190.6250   189.3480    -3.8860   -12.6210     5.0680    82.4040     6.3640     7.1450     7.7610     2.3760 
