~V
VERS. 2.00: Ver 2.00
~W
STRT.M 63.0000:
STOP.M 266.0000:
STEP.M 0.1250:
NULL. -999.2500:
UWI. FD10888:
~C
DEPT.M :
TVD. :
DX. :
DY. :
SP.MV :
GR.API :
RI. :
RML.OHMM :
RXO.OHMM :
DEN.GM/CC :
~A
# ...
  199.8750   198.6800    -8.6000   -10.4620   -24.0540    61.2780     3.1060     3.4410     4.1940     2.2340 
  200.0000   198.8010    -8.6190   -10.4860   -23.7670    58.8710     3.2650     3.6380     4.1880     2.2740 
  200.1250   198.9220    -8.6390   -10.5100   -23.2880    56.3540     3.4210     3.8630     4.2560     2.3350 
  200.2500   199.0430    -8.6590   -10.5340   -22.7580    55.4250     3.5080     4.0020     4.4250     2.3940 
  200.3750   199.1640    -8.6780   -10.5580   -22.2920    55.9900     3.4340     3.9270     4.5160     2.4280 
  200.5000   199.2850    -8.6980   -10.5820   -21.8270    56.7880     3.1990     3.6220     4.4150     2.4290 
  200.6250   199.4060    -8.7180   -10.6060   -21.4040    57.5750     2.8440     3.1400     4.2170     2.4040 
  200.7500   199.5270    -8.7380   -10.6290   -21.0690    62.3000     2.4410     2.6360     3.8780     2.3690 
  200.8750   199.6480    -8.7580   -10.6530   -20.8220    68.7550     2.1210     2.2560     3.2710     2.3340 
  201.0000   199.7690    -8.7780   -10.6770   -20.6230    70.9340     1.9470     2.0710     2.6410     2.3050 
  201.1250   199.8900    -8.7980   -10.7010   -20.6200    67.1050     1.9580     2.1090     2.3340     2.2870 
  201.2500   200.0120    -8.8180   -10.7250   -20.8280    63.9320     2.1440     2.3350     2.5430     2.2790 
  201.3750   200.1330    -8.8380   -10.7490   -21.2140    64.7740     2.4330     2.6730     3.3730     2.2760 
  201.5000   200.2540    -8.8580   -10.7730   -21.6300    65.3990     2.7110     2.9810     4.3340     2.2730 
  201.6250   200.3750    -8.8780   -10.7970   -21.8920    64.1440     2.8450     3.1080     4.6530     2.2730 
  201.7500   200.4960    -8.8980   -10.8210   -21.8960    63.4090     2.7810     3.0020     4.2540     2.2810 
  201.8750   200.6170    -8.9180   -10.8450   -21.6370    64.3230     2.5680     2.7330     3.6210     2.2990 
  202.0000   200.7380    -8.9380   -10.8690   -21.2670    66.1460     2.3210     2.4380     3.1480     2.3190 
  202.1250   200.8590    -8.9580   -10.8930   -20.9560    69.3010     2.1260     2.2250     2.9140     2.3310 
  202.2500   200.9800    -8.9780   -10.9170   -20.8580    74.0790     2.0420     2.1490     2.7710     2.3280 
  202.3750   201.1010    -8.9980   -10.9410   -21.0230    75.4260     2.0580     2.1930     2.6130     2.3100 
  202.5000   201.2220    -9.0180   -10.9650   -21.4120    71.0420     2.1540     2.3240     2.6610     2.2850 
  202.6250   201.3430    -9.0390   -10.9890   -21.9880    65.7110     2.3160     2.5190     3.0930     2.2670 
  202.7500   201.4640    -9.0590   -11.0130   -22.7640    64.6110     2.5200     2.7600     3.5490     2.2650 
  202.8750   201.5850    -9.0790   -11.0380   -23.4900    67.8910     2.7490     3.0140     3.7370     2.2740 
  203.0000   201.7060    -9.0990   -11.0620   -23.9220    69.6620     2.9960     3.2720     3.7760     2.2790 
  203.1250   201.8270    -9.1180   -11.0860   -24.0990    69.1750     3.2350     3.5010     3.7640     2.2660 
  203.2500   201.9480    -9.1380   -11.1100   -24.2860    67.4930     3.4460     3.7120     3.8600     2.2370 
  203.3750   202.0690    -9.1590   -11.1340   -24.6120    65.0920     3.6730     3.9430     4.3010     2.2050 
  203.5000   202.1900    -9.1790   -11.1580   -25.1520    63.4130     3.9100     4.1630     4.9370     2.1800 
  203.6250   202.3110    -9.1990   -11.1820   -25.7310    63.3980     4.1300     4.3320     5.4160     2.1670 
  203.7500   202.4320    -9.2190   -11.2060   -26.0560    63.9330     4.3060     4.4350     5.5840     2.1640 
  203.8750   202.5530    -9.2390   -11.2300   -26.2110    63.1510     4.4100     4.4980     5.4820     2.1710 
  204.0000   202.6740    -9.2590   -11.2540   -26.2850    61.2890     4.4700     4.5840     5.2970     2.1830 
  204.1250   202.7950    -9.2790   -11.2780   -26.3010    60.4750     4.5250     4.6880     5.1570     2.1950 
  204.2500   202.9160    -9.3000   -11.3020   -26.2620    61.1780     4.6210     4.7990     5.0910     2.1990 
  204.3750   203.0370    -9.3200   -11.3260   -26.2240    62.8060     4.7760     5.0290     5.2430     2.1990 
  204.5000   203.1580    -9.3400   -11.3490   -26.2230    63.1400     4.9260     5.1820     5.6710     2.2030 
  204.6250   203.2790    -9.3600   -11.3730   -26.2750    61.1790     4.9840     5.1550     5.9950     2.2150 
  204.7500   203.4000    -9.3800   -11.3970   -26.4690    57.2960     4.9340     5.0350     5.8510     2.2280 
  204.8750   203.5210    -9.4000   -11.4220   -26.6580    55.3460     4.7980     4.8700     5.3660     2.2300 
  205.0000   203.6420    -9.4210   -11.4460   -26.7660    57.4060     4.6780     4.7710     4.9140     2.2180 
  205.1250   203.7630    -9.4410   -11.4700   -26.7650    63.2670     4.6750     4.8060     4.7810     2.1980 
  205.2500   203.8840    -9.4610   -11.4940   -26.7370    69.3210     4.8280     5.0410     5.1470     2.1790 
  205.3750   204.0050    -9.4810   -11.5180   -26.6660    71.1110     5.1160     5.4030     5.9480     2.1660 
  205.5000   204.1260    -9.5010   -11.5420   -26.5860    68.6970     5.4830     5.8210     6.6810     2.1590 
  205.6250   204.2470    -9.5220   -11.5660   -26.5100    65.8500     5.8170     6.1840     6.9450     2.1590 
  205.7500   204.3680    -9.5420   -11.5900   -26.4930    64.5960     6.0720     6.4550     6.8440     2.1610 
  205.8750   204.4890    -9.5620   -11.6140   -26.4320    63.0690     6.2660     6.6620     6.6210     2.1620 
  206.0000   204.6100    -9.5820   -11.6380   -26.4700    61.2860     6.4320     6.8500     6.5290     2.1620 
  206.1250   204.7310    -9.6030   -11.6620   -26.4830    61.2690     6.6020     7.0390     6.9960     2.1610 
  206.2500   204.8520    -9.6230   -11.6860   -26.3700    61.2190     6.7520     7.1920     8.1220     2.1610 
  206.3750   204.9730    -9.6430   -11.7100   -26.1910    60.8520     6.8930     7.3030     9.2650     2.1640 
  206.5000   205.0940    -9.6640   -11.7340   -25.9410    61.8310     7.0490     7.4180     9.7340     2.1690 
  206.6250   205.2150    -9.6840   -11.7580   -25.6000    62.5180     7.2580     7.5860     9.6440     2.1780 
  206.7500   205.3360    -9.7040   -11.7830   -25.1770    61.1630     7.6150     7.9130     9.5420     2.2000 
  206.8750   205.4570    -9.7240   -11.8070   -24.6180    57.6480     8.3240     8.5610    10.1590     2.2530 
  207.0000   205.5780    -9.7450   -11.8310   -23.9910    56.4590     9.4570     9.6910    12.3760     2.3430 
  207.1250   205.6990    -9.7650   -11.8550   -23.2110    58.3500    11.1130    11.5600    15.7200     2.4590 
  207.2500   205.8190    -9.7850   -11.8790   -22.2980    59.4860    12.9540    13.8570    19.4750     2.5710 
  207.3750   205.9400    -9.8050   -11.9040   -21.2470    58.6660    14.1540    15.7510    24.9370     2.6560 
  207.5000   206.0610    -9.8250   -11.9280   -20.0920    57.0800    13.7300    15.7030    28.3320     2.7090 
  207.6250   206.1820    -9.8450   -11.9520   -18.9850    57.6190    11.2790    12.9740    23.6760     2.7270 
  207.7500   206.3030    -9.8650   -11.9770   -18.0220    58.2920     7.6310     8.7420    15.9070     2.7000 
  207.8750   206.4240    -9.8850   -12.0010   -17.2730    58.6520     4.2330     4.6510    10.6710     2.6220 
  208.0000   206.5450    -9.9060   -12.0250   -16.6400    61.4850     2.0290     2.1320     6.3570     2.5180 
  208.1250   206.6660    -9.9260   -12.0490   -16.2830    65.3690     1.1220     1.2090     2.7350     2.4280 
  208.2500   206.7870    -9.9460   -12.0740   -16.2000    68.0510     0.8950     1.0130     1.2400     2.3790 
  208.3750   206.9080    -9.9660   -12.0980   -16.2830    68.6100     0.9490     1.1330     1.3170     2.3720 
  208.5000   207.0290    -9.9860   -12.1220   -16.4730    70.4630     1.1620     1.4300     1.7020     2.3810 
  208.6250   207.1500   -10.0060   -12.1470   -16.6830    73.2480     1.4600     1.7980     2.0080     2.3860 
  208.7500   207.2710   -10.0260   -12.1710   -16.9020    73.8580     1.7440     2.1140     2.2210     2.3810 
  208.8750   207.3920   -10.0460   -12.1950   -17.1290    72.1770     1.9150     2.2720     2.4250     2.3670 
