~V
VERS. 2.00: Ver 2.00
~W
STRT.M 50.0000:
STOP.M 219.0000:
STEP.M 0.1250:
NULL. -999.2500:
UWI. FD10804:
~C
DEPT.M :
TVD. :
DX. :
DY. :
SP.MV :
GR.API :
RI. :
RML.OHMM :
RXO.OHMM :
DEN.GM/CC :
~A
# ...
  196.0000   190.8660   -25.5830   -20.5640  -113.4930    81.6650     6.1400     7.7940     7.2400     2.3010 
  196.1250   190.9810   -25.6220   -20.5960  -113.7010    82.4590     6.0930     7.7500     8.7970     2.2920 
  196.2500   191.0950   -25.6610   -20.6280  -113.7920    82.6230     6.0010     7.6780    14.0480     2.2870 
  196.3750   191.2100   -25.7000   -20.6600  -113.8030    80.2280     5.8770     7.5530    16.3290     2.2790 
  196.5000   191.3240   -25.7390   -20.6910  -113.7970    78.0770     5.7310     7.3840    12.1390     2.2750 
  196.6250   191.4380   -25.7780   -20.7230  -113.8130    76.4110     5.6190     7.2170     9.7670     2.2820 
  196.7500   191.5530   -25.8170   -20.7550  -113.8720    76.7640     5.5770     7.1300     9.0100     2.2970 
  196.8750   191.6670   -25.8560   -20.7870  -113.9590    77.4940     5.6440     7.1810     7.3220     2.3090 
  197.0000   191.7820   -25.8950   -20.8190  -114.0140    78.6480     5.7960     7.3600     6.6190     2.3190 
  197.1250   191.8960   -25.9340   -20.8510  -113.9860    79.0690     6.0410     7.6440     6.1220     2.3220 
  197.2500   192.0100   -25.9730   -20.8830  -113.8600    78.5270     6.3240     7.9480     6.1060     2.3160 
  197.3750   192.1250   -26.0120   -20.9150  -113.6450    77.1640     6.5470     8.1840     6.6850     2.3040 
  197.5000   192.2390   -26.0510   -20.9470  -113.3900    75.7480     6.6660     8.2950     6.8820     2.2930 
  197.6250   192.3530   -26.0900   -20.9790  -113.1140    74.0580     6.6590     8.2360     6.8580     2.2990 
  197.7500   192.4680   -26.1290   -21.0110  -112.8120    72.5380     6.5510     8.0540     6.9950     2.3190 
  197.8750   192.5820   -26.1680   -21.0430  -112.4940    71.7870     6.3710     7.8110     7.7780     2.3540 
  198.0000   192.6960   -26.2070   -21.0750  -112.2050    71.9830     6.1860     7.5770     8.7730     2.3850 
  198.1250   192.8110   -26.2460   -21.1070  -111.9920    71.9030     6.0120     7.3990     8.2870     2.3950 
  198.2500   192.9250   -26.2850   -21.1390  -111.8810    71.1970     5.9060     7.2920     6.7430     2.3760 
  198.3750   193.0390   -26.3240   -21.1720  -111.8690    70.7540     5.8500     7.2480     5.9270     2.3420 
  198.5000   193.1540   -26.3630   -21.2040  -111.8670    71.1300     5.8170     7.2290     5.9050     2.3010 
  198.6250   193.2680   -26.4020   -21.2360  -111.7880    71.1830     5.7930     7.2110     5.8450     2.2710 
  198.7500   193.3820   -26.4410   -21.2680  -111.6180    70.0670     5.7730     7.1760     5.4240     2.2530 
  198.8750   193.4960   -26.4800   -21.3010  -111.3700    67.7500     5.7380     7.1030     5.1360     2.2580 
  199.0000   193.6110   -26.5190   -21.3330  -111.1190    67.2840     5.6790     7.0050     5.2660     2.2720 
  199.1250   193.7250   -26.5580   -21.3650  -110.9510    69.4140     5.6470     6.9590     5.4590     2.2910 
  199.2500   193.8390   -26.5970   -21.3980  -110.9040    73.5720     5.7510     7.0510     5.9240     2.3060 
  199.3750   193.9540   -26.6360   -21.4300  -110.9890    76.8810     5.9930     7.3150     6.2510     2.3240 
  199.5000   194.0680   -26.6750   -21.4620  -111.1650    79.5300     6.3300     7.6620     6.1490     2.3570 
  199.6250   194.1820   -26.7140   -21.4940  -111.3590    80.5250     6.5950     7.9480     6.7800     2.4070 
  199.7500   194.2960   -26.7530   -21.5270  -111.4910    80.6540     6.7530     8.0660     7.6110     2.4470 
  199.8750   194.4110   -26.7920   -21.5590  -111.4890    79.2950     6.6900     7.9720     7.5680     2.4370 
  200.0000   194.5250   -26.8310   -21.5920  -111.3300    77.1760     6.5300     7.7510     7.2970     2.3800 
  200.1250   194.6390   -26.8700   -21.6240  -111.0380    75.2470     6.3220     7.5250     7.0690     2.3180 
  200.2500   194.7540   -26.9090   -21.6570  -110.6890    74.1010     6.2220     7.4160     6.3320     2.2800 
  200.3750   194.8680   -26.9480   -21.6890  -110.3430    73.4820     6.3060     7.4870     5.5770     2.2630 
  200.5000   194.9820   -26.9870   -21.7210  -110.0390    73.1120     6.5070     7.6790     6.3390     2.2570 
  200.6250   195.0960   -27.0260   -21.7530  -109.7440    73.7370     6.7790     7.8930     8.2180     2.2640 
  200.7500   195.2110   -27.0650   -21.7850  -109.4090    74.9310     6.9850     8.0410     8.6530     2.2970 
  200.8750   195.3250   -27.1040   -21.8180  -108.9930    75.9630     7.1140     8.0940     7.7200     2.3400 
  201.0000   195.4390   -27.1430   -21.8500  -108.4830    75.7630     7.1670     8.0540     7.4410     2.3730 
  201.1250   195.5530   -27.1820   -21.8830  -107.9220    74.8350     7.1110     7.9080     7.2750     2.3710 
  201.2500   195.6680   -27.2210   -21.9150  -107.3780    75.1760     6.9670     7.6700     6.2910     2.3470 
  201.3750   195.7820   -27.2600   -21.9480  -106.9030    76.1570     6.7780     7.4070     5.1490     2.3220 
  201.5000   195.8960   -27.2990   -21.9800  -106.5370    77.4430     6.6120     7.1500     4.9950     2.3070 
  201.6250   196.0100   -27.3380   -22.0130  -106.2720    77.0090     6.4440     6.8780     6.3900     2.3090 
  201.7500   196.1240   -27.3770   -22.0450  -106.0110    75.6030     6.2910     6.6570     7.3320     2.3200 
  201.8750   196.2390   -27.4170   -22.0780  -105.6670    73.1820     6.1200     6.4930     6.3750     2.3330 
  202.0000   196.3530   -27.4560   -22.1110  -105.1930    71.0020     5.9850     6.4190     6.2790     2.3420 
  202.1250   196.4670   -27.4950   -22.1430  -104.5030    70.2510     5.9670     6.4600     7.2370     2.3410 
  202.2500   196.5810   -27.5340   -22.1760  -103.5400    70.6110     5.9980     6.5080     7.2000     2.3360 
  202.3750   196.6950   -27.5730   -22.2080  -102.2500    71.2510     6.0750     6.5620     6.9470     2.3280 
  202.5000   196.8090   -27.6120   -22.2410  -100.6700    72.3420     6.1700     6.6310     6.8230     2.3200 
  202.6250   196.9240   -27.6510   -22.2730   -98.8760    72.9830     6.2360     6.6490     6.8070     2.3180 
  202.7500   197.0380   -27.6900   -22.3060   -97.1550    73.7920     6.2220     6.5740     6.9750     2.3230 
  202.8750   197.1520   -27.7290   -22.3380   -95.7760    72.5890     6.1070     6.4160     7.7050     2.3360 
  203.0000   197.2660   -27.7690   -22.3710   -94.7110    71.0660     5.8900     6.2260     9.2740     2.3480 
  203.1250   197.3800   -27.8080   -22.4030   -93.8610    69.7220     5.6690     6.0420     8.6870     2.3490 
  203.2500   197.4950   -27.8470   -22.4350   -93.0910    70.0870     5.4740     5.8700     5.6760     2.3460 
  203.3750   197.6090   -27.8860   -22.4680   -92.2910    72.0220     5.3130     5.7250     4.4460     2.3390 
  203.5000   197.7230   -27.9250   -22.5000   -91.5190    74.4200     5.2290     5.6330     5.0240     2.3330 
  203.6250   197.8370   -27.9640   -22.5330   -90.9510    76.0440     5.2070     5.6090     5.1200     2.3290 
  203.7500   197.9520   -28.0030   -22.5650   -90.6030    74.9660     5.2160     5.6340     5.1480     2.3300 
  203.8750   198.0660   -28.0420   -22.5980   -90.4770    73.6660     5.2800     5.7430     7.2900     2.3400 
  204.0000   198.1800   -28.0810   -22.6300   -90.5000    73.8180     5.5210     5.9930    10.2730     2.3460 
  204.1250   198.2940   -28.1200   -22.6630   -90.5930    76.5070     5.9230     6.4150    10.3690     2.3410 
  204.2500   198.4080   -28.1590   -22.6950   -90.7060    78.8650     6.4760     6.9860     8.9580     2.3320 
  204.3750   198.5230   -28.1980   -22.7270   -90.8020    80.2030     7.1290     7.6560     8.7140     2.3300 
  204.5000   198.6370   -28.2380   -22.7590   -90.8660    81.9230     7.7830     8.3210     9.9460     2.3360 
  204.6250   198.7510   -28.2770   -22.7910   -90.8980    84.2040     8.2410     8.8360    11.2360     2.3410 
  204.7500   198.8660   -28.3160   -22.8230   -90.9090    86.0050     8.4990     9.1300    10.4640     2.3530 
  204.8750   198.9800   -28.3550   -22.8550   -90.9090    86.0900     8.4990     9.1970     9.1430     2.3700 
  205.0000   199.0940   -28.3950   -22.8870   -90.9090    85.3760     8.3340     9.1090     8.9880     2.3950 
