~V
VERS. 2.00: Ver 2.00
~W
STRT.M 53.0000:
STOP.M 258.0000:
STEP.M 0.1250:
NULL. -999.2500:
UWI. FD10870:
~C
DEPT.M :
TVD. :
DX. :
DY. :
SP.MV :
GR.API :
RI. :
RML.OHMM :
RXO.OHMM :
DEN.GM/CC :
~A
   53.0000    53.0000     0.0000     0.0000    69.0040    56.0540     0.1600     0.2060     0.4420     2.2300 
   53.1250    53.1250     0.0000    -0.0020    69.2840    61.7870     0.1670     0.2030     0.4660     2.2520 
   53.2500    53.2500     0.0000    -0.0040    68.4040    66.7370     0.1800     0.1980     0.4800     2.2720 
   53.3750    53.3750     0.0000    -0.0060    68.2710    68.7640     0.1890     0.1930     0.6520     2.2920 
   53.5000    53.5000     0.0000    -0.0080    68.8110    68.2100     0.1980     0.1910     0.9560     2.3150 
   53.6250    53.6250     0.0000    -0.0090    68.2490    66.4270     0.1890     0.1960     0.9790     2.3370 
   53.7500    53.7500     0.0000    -0.0110    66.0060    66.8670     0.1750     0.1950     0.7050     2.3510 
   53.8750    53.8750     0.0000    -0.0130    62.3750    69.5610     0.1470     0.1830     0.5670     2.3500 
   54.0000    54.0000     0.0010    -0.0150    57.8180    70.9720     0.1130     0.1520     0.6610     2.3410 
   54.1250    54.1250     0.0010    -0.0170    52.5850    70.2660     0.0750     0.1050     0.7730     2.3340 
   54.2500    54.2500     0.0010    -0.0190    47.4110    68.0870     0.0400     0.0590     1.0030     2.3380 
   54.3750    54.3750     0.0010    -0.0210    42.7100    65.5100     0.0230     0.0320     1.3300     2.3510 
   54.5000    54.5000     0.0010    -0.0230    37.4760    63.3150     0.0230     0.0270     1.4240     2.3860 
   54.6250    54.6250     0.0010    -0.0250    30.6160    65.8580     0.0720     0.0730     1.5120     2.4380 
   54.7500    54.7500     0.0020    -0.0260    23.4780    73.4110     0.3030     0.2770     2.3280     2.4880 
   54.8750    54.8750     0.0020    -0.0280    18.4670    82.9650     0.9980     0.8840     3.9800     2.4780 
   55.0000    55.0000     0.0020    -0.0300    15.1570    88.3240     2.3800     2.0280     5.0570     2.4040 
   55.1250    55.1250     0.0020    -0.0320    13.0500    89.1800     3.6170     2.9870     4.6000     2.2920 
   55.2500    55.2500     0.0020    -0.0340    11.5970    88.3870     4.5220     3.6550     3.8450     2.2110 
   55.3750    55.3750     0.0030    -0.0360    10.4730    87.3570     4.8390     3.7250     4.3390     2.2100 
   55.5000    55.5000     0.0030    -0.0380     9.6170    86.5810     4.9760     3.7060     5.4550     2.2590 
   55.6250    55.6250     0.0030    -0.0400     9.0180    85.5720     5.4280     3.9930     6.1790     2.3010 
   55.7500    55.7500     0.0030    -0.0420     8.5760    85.4820     6.0730     4.4870     6.6030     2.3080 
   55.8750    55.8750     0.0030    -0.0440     8.3200    85.6900     6.7180     5.0040     6.6440     2.2930 
   56.0000    56.0000     0.0040    -0.0460     8.1520    85.4260     7.3520     5.5370     6.7210     2.2900 
   56.1250    56.1250     0.0040    -0.0480     8.0300    83.7320     8.1490     6.1770     7.2370     2.2800 
   56.2500    56.2500     0.0040    -0.0500     7.9960    81.4540     9.1900     6.9930     7.3320     2.2740 
   56.3750    56.3750     0.0040    -0.0510     7.9840    78.5650    10.4330     8.0460     8.3530     2.2730 
   56.5000    56.5000     0.0040    -0.0530     7.8300    75.6880    11.7310     9.1990    14.3520     2.3130 
   56.6250    56.6250     0.0040    -0.0550     7.5140    73.3170    12.8680    10.3330    18.9510     2.3380 
   56.7500    56.7500     0.0040    -0.0570     7.1480    71.3230    13.5920    11.1910    14.1930     2.3040 
   56.8750    56.8750     0.0040    -0.0590     6.7360    71.6710    13.8470    11.6210     9.0240     2.2210 
   57.0000    57.0000     0.0050    -0.0610     6.4060    73.6710    13.7400    11.7650     9.4880     2.1700 
   57.1250    57.1250     0.0050    -0.0630     6.0850    78.0500    13.6320    11.9360    10.8030     2.1740 
   57.2500    57.2500     0.0050    -0.0650     5.7880    81.6690    13.9740    12.5930    11.3740     2.1880 
   57.3750    57.3740     0.0050    -0.0660     5.4710    83.4880    15.1440    14.1570    11.6930     2.2010 
   57.5000    57.4990     0.0050    -0.0680     5.1340    83.5110    16.9090    16.3220    14.8890     2.2500 
   57.6250    57.6240     0.0050    -0.0700     4.7630    82.5060    18.9440    18.7450    24.3340     2.3630 
   57.7500    57.7490     0.0050    -0.0720     4.4020    79.9010    20.2600    20.3340    32.4390     2.4840 
   57.8750    57.8740     0.0050    -0.0740     4.0300    76.7860    20.5340    20.7400    35.7620     2.5300 
   58.0000    57.9990     0.0050    -0.0760     3.7030    76.4540    19.5590    19.8220    32.9140     2.4840 
   58.1250    58.1240     0.0050    -0.0780     3.4730    78.8000    17.8570    18.1610    20.9550     2.3860 
   58.2500    58.2490     0.0050    -0.0790     3.3400    80.5570    16.3010    16.6610    12.6570     2.2950 
   58.3750    58.3740     0.0050    -0.0810     3.2440    78.6200    15.1970    15.7350    11.6430     2.2300 
   58.5000    58.4990     0.0050    -0.0830     3.0760    73.6510    14.7690    15.5090    11.3270     2.1900 
   58.6250    58.6240     0.0050    -0.0850     2.7740    70.8640    14.6810    15.6230    11.5290     2.1760 
   58.7500    58.7490     0.0050    -0.0870     2.3940    71.5160    14.6870    15.8100    12.2700     2.1810 
   58.8750    58.8740     0.0050    -0.0890     1.9330    76.4840    14.5460    15.7440    13.0530     2.1990 
   59.0000    58.9990     0.0050    -0.0900     1.5090    80.4870    14.2700    15.5340    13.4620     2.2150 
   59.1250    59.1240     0.0050    -0.0920     1.1280    80.2310    13.9480    15.3070    13.6250     2.2220 
   59.2500    59.2490     0.0050    -0.0940     0.6550    75.7830    13.7150    15.1380    13.5080     2.2100 
   59.3750    59.3740     0.0050    -0.0960     0.1550    70.9420    13.6090    15.0970    13.0680     2.1840 
   59.5000    59.4990     0.0050    -0.0980    -0.4340    70.1590    13.5890    15.1180    12.2550     2.1530 
   59.6250    59.6240     0.0050    -0.1000    -1.0950    71.6460    13.6460    15.1860    11.6560     2.1430 
   59.7500    59.7490     0.0050    -0.1010    -1.8140    72.8020    13.7710    15.3910    11.2750     2.1540 
   59.8750    59.8740     0.0050    -0.1030    -2.4920    72.9040    13.9350    15.6840    11.1660     2.1790 
   60.0000    59.9990     0.0050    -0.1050    -3.1940    72.8760    13.6320    15.3440    12.1410     2.2130 
   60.1250    60.1240     0.0050    -0.1070    -4.0260    74.5870    12.6800    14.2010    13.7040     2.2400 
   60.2500    60.2490     0.0050    -0.1090    -4.9940    76.2760    11.2150    12.4250    14.3910     2.2540 
   60.3750    60.3740     0.0050    -0.1110    -6.0120    79.6620     9.5480    10.4480    11.8290     2.2450 
   60.5000    60.4990     0.0050    -0.1130    -6.8460    82.4930     8.1630     8.9330     7.6240     2.2340 
   60.6250    60.6240     0.0050    -0.1150    -7.5120    86.1330     7.1120     7.8760     5.8100     2.2310 
   60.7500    60.7490     0.0050    -0.1170    -8.1890    89.3440     6.3470     7.1600     5.3620     2.2380 
   60.8750    60.8740     0.0050    -0.1190    -8.7210    93.3730     5.7430     6.6010     5.1510     2.2540 
   61.0000    60.9990     0.0050    -0.1210    -9.1280    96.8160     5.2770     6.1340     5.6080     2.2800 
   61.1250    61.1240     0.0050    -0.1230    -9.5750    99.7460     4.8770     5.7090     5.4640     2.3090 
   61.2500    61.2490     0.0050    -0.1250    -9.8400   102.1400     4.5650     5.3920     4.3670     2.3270 
   61.3750    61.3740     0.0050    -0.1270    -9.8700   103.8660     4.3950     5.2520     4.0170     2.3220 
   61.5000    61.4990     0.0050    -0.1300    -9.8130   102.4340     4.2870     5.1720     4.8680     2.2950 
   61.6250    61.6240     0.0050    -0.1320    -9.8910    99.0550     4.1910     5.0780     5.3900     2.2720 
   61.7500    61.7490     0.0050    -0.1340   -10.0060    95.5290     4.0850     4.9340     4.7840     2.2770 
   61.8750    61.8740     0.0050    -0.1370    -9.9860    97.3940     4.0010     4.7930     3.9060     2.3160 
   62.0000    61.9990     0.0050    -0.1390    -9.8090   101.8990     4.0610     4.8490     3.7460     2.3580 
