~V
VERS. 2.00: Ver 2.00
~W
STRT.M 50.0000:
STOP.M 287.0000:
STEP.M 0.1250:
NULL. -999.2500:
UWI. FD10894:
~C
DEPT.M :
TVD. :
DX. :
DY. :
SP.MV :
GR.API :
RI. :
RML.OHMM :
RXO.OHMM :
DEN.GM/CC :
~A
# ...
  159.5000   156.3270    19.8630     4.9740     3.0960    59.4230    20.5770    23.3240    35.1070     2.1070 
  159.6250   156.4410    19.9150     4.9830     2.9740    61.6610    19.2910    21.7370    31.6420     2.1150 
  159.7500   156.5550    19.9660     4.9910     2.6790    62.9440    17.9770    20.1460    26.1990     2.1340 
  159.8750   156.6690    20.0170     5.0000     2.1950    64.3840    17.1210    19.1110    25.1260     2.1600 
  160.0000   156.7820    20.0680     5.0090     1.5680    66.0920    16.5440    18.3760    22.3190     2.1850 
  160.1250   156.8960    20.1190     5.0170     0.8560    66.7990    16.1270    17.8440    20.1800     2.2050 
  160.2500   157.0100    20.1700     5.0260     0.1500    66.9020    15.9150    17.5510    18.4910     2.2190 
  160.3750   157.1240    20.2210     5.0340    -0.4580    67.9030    16.0100    17.5820    18.4910     2.2250 
  160.5000   157.2370    20.2720     5.0420    -0.9090    69.4230    16.3250    17.8350    19.5510     2.2250 
  160.6250   157.3510    20.3230     5.0510    -1.1620    68.5000    16.3380    17.7630    20.2440     2.2170 
  160.7500   157.4650    20.3750     5.0590    -1.2480    65.9380    16.3210    17.6980    20.9620     2.2010 
  160.8750   157.5790    20.4260     5.0680    -1.2070    65.1230    16.2720    17.6040    21.2560     2.1840 
  161.0000   157.6920    20.4770     5.0760    -1.1190    68.1440    16.3550    17.7170    20.3860     2.1710 
  161.1250   157.8060    20.5280     5.0850    -1.0480    71.0220    16.6340    18.0660    19.1470     2.1630 
  161.2500   157.9200    20.5790     5.0930    -1.0340    71.7140    16.8860    18.4640    18.4910     2.1580 
  161.3750   158.0330    20.6310     5.1020    -1.0990    69.9050    17.0100    18.7340    17.7950     2.1480 
  161.5000   158.1470    20.6820     5.1110    -1.2250    66.9860    16.7220    18.4910    18.7500     2.1330 
  161.6250   158.2610    20.7330     5.1200    -1.3830    64.2910    15.7790    17.3830    20.2480     2.1220 
  161.7500   158.3740    20.7840     5.1300    -1.5250    64.3820    14.2110    15.5540    20.9620     2.1210 
  161.8750   158.4880    20.8360     5.1390    -1.5970    67.4660    13.0410    14.2430    15.7290     2.1340 
  162.0000   158.6020    20.8870     5.1480    -1.5480    71.5180    12.5960    13.7930    10.8640     2.1520 
  162.1250   158.7150    20.9380     5.1560    -1.3180    73.7320    13.1700    14.5540    10.9680     2.1630 
  162.2500   158.8290    20.9900     5.1650    -0.8920    71.7040    14.5820    16.2660    12.0410     2.1590 
  162.3750   158.9420    21.0410     5.1740    -0.2510    65.6790    16.6770    18.6700    17.3750     2.1400 
  162.5000   159.0560    21.0930     5.1830     0.5560    59.8220    18.6730    20.8570    24.4350     2.1160 
  162.6250   159.1690    21.1440     5.1920     1.4780    56.7710    20.1530    22.3960    25.6620     2.0960 
  162.7500   159.2830    21.1960     5.2010     2.4220    54.9020    20.9850    23.1960    27.1280     2.0820 
  162.8750   159.3970    21.2470     5.2100     3.2980    54.0690    21.2240    23.4190    28.8870     2.0760 
  163.0000   159.5100    21.2990     5.2190     4.0370    53.9790    21.1220    23.3510    30.5400     2.0740 
  163.1250   159.6240    21.3500     5.2280     4.5830    54.5610    20.8330    23.1520    29.2920     2.0750 
  163.2500   159.7370    21.4020     5.2370     4.9500    55.0330    20.4270    22.8310    27.3180     2.0780 
  163.3750   159.8510    21.4530     5.2460     5.1710    55.6110    19.9300    22.4030    25.1280     2.0820 
  163.5000   159.9640    21.5050     5.2550     5.3380    56.2880    19.5940    22.1450    24.0970     2.0860 
  163.6250   160.0780    21.5560     5.2640     5.5420    57.0100    19.4480    22.1660    23.1100     2.0890 
  163.7500   160.1910    21.6080     5.2730     5.8500    57.9250    19.7150    22.7030    23.7630     2.0890 
  163.8750   160.3050    21.6590     5.2820     6.2950    57.2080    20.3640    23.6640    24.0970     2.0880 
  164.0000   160.4180    21.7110     5.2910     6.8390    55.3130    21.2110    24.7980    24.7780     2.0850 
  164.1250   160.5320    21.7620     5.3000     7.4120    54.3940    22.0720    25.8650    26.2010     2.0840 
  164.2500   160.6460    21.8140     5.3090     7.9200    55.8010    22.6940    26.6430    27.3170     2.0850 
  164.3750   160.7590    21.8650     5.3180     8.2720    59.0460    23.1300    27.2100    25.8360     2.0870 
  164.5000   160.8730    21.9170     5.3270     8.4290    62.5480    23.3830    27.5590    24.4350     2.0890 
  164.6250   160.9860    21.9680     5.3360     8.3650    64.5900    23.4860    27.7400    23.6810     2.0890 
  164.7500   161.1000    22.0200     5.3450     8.1170    63.9070    23.4750    27.7470    22.4750     2.0860 
  164.8750   161.2130    22.0710     5.3550     7.7140    62.2280    23.3520    27.5680    22.9500     2.0840 
  165.0000   161.3270    22.1230     5.3640     7.2070    62.1470    23.2400    27.3870    24.4350     2.0830 
  165.1250   161.4400    22.1740     5.3730     6.6260    63.9810    23.1470    27.1750    25.3020     2.0850 
  165.2500   161.5540    22.2260     5.3820     6.0070    65.3600    22.9900    26.9420    25.8360     2.0890 
  165.3750   161.6670    22.2770     5.3910     5.3740    64.8310    22.8930    26.8070    24.6070     2.0940 
  165.5000   161.7810    22.3290     5.4000     4.7580    63.0050    22.7210    26.6170    23.4340     2.0960 
  165.6250   161.8940    22.3800     5.4090     4.1850    61.5680    22.5780    26.4270    22.3190     2.0950 
  165.7500   162.0080    22.4320     5.4180     3.6700    59.8390    22.4350    26.1900    23.1100     2.0930 
  165.8750   162.1220    22.4830     5.4270     3.2120    56.9180    22.1770    25.7860    24.5220     2.0910 
  166.0000   162.2350    22.5350     5.4360     2.7760    54.2940    21.8940    25.2240    23.7630     2.0900 
  166.1250   162.3490    22.5860     5.4450     2.3010    53.3010    21.6990    24.7590    22.3240     2.0920 
  166.2500   162.4620    22.6380     5.4540     1.7220    53.9420    21.7180    24.5690    21.8570     2.0950 
  166.3750   162.5760    22.6890     5.4630     0.9660    54.9520    22.0070    24.7730    21.8590     2.1030 
  166.5000   162.6890    22.7410     5.4720     0.0170    56.2070    22.8490    25.7670    23.4340     2.1210 
  166.6250   162.8030    22.7920     5.4810    -1.1260    56.8570    24.2080    27.4420    24.2660     2.1520 
  166.7500   162.9160    22.8430     5.4900    -2.3960    57.5000    25.6410    29.1890    26.9390     2.1920 
  166.8750   163.0300    22.8950     5.4990    -3.7250    59.0840    26.2790    29.9690    27.9100     2.2360 
  167.0000   163.1440    22.9460     5.5080    -5.0360    59.9630    25.3370    28.8550    24.1430     2.2790 
  167.1250   163.2570    22.9980     5.5170    -6.2690    58.4690    22.7840    25.8210    19.8720     2.3150 
  167.2500   163.3710    23.0490     5.5250    -7.4010    57.0570    19.6250    22.0660    17.1030     2.3380 
  167.3750   163.4840    23.1010     5.5340    -8.4180    58.3700    16.5140    18.4450    17.2530     2.3450 
  167.5000   163.5980    23.1520     5.5430    -9.3370    61.5580    14.6450    16.3200    17.7700     2.3420 
  167.6250   163.7110    23.2040     5.5520   -10.1610    63.7550    14.0070    15.7060    14.6910     2.3430 
  167.7500   163.8250    23.2550     5.5610   -10.9000    64.0900    14.6750    16.7230    12.5010     2.3610 
  167.8750   163.9390    23.3070     5.5700   -11.5470    62.5160    16.9680    19.6440    22.1750     2.3980 
  168.0000   164.0520    23.3580     5.5790   -12.1050    60.2120    20.7590    24.1930    36.1000     2.4470 
  168.1250   164.1660    23.4090     5.5880   -12.5660    58.2090    25.0110    29.0220    37.2520     2.4920 
  168.2500   164.2790    23.4610     5.5970   -12.9380    57.0890    28.3890    32.6680    39.8000     2.5240 
  168.3750   164.3930    23.5120     5.6070   -13.2180    56.6350    29.4630    33.4650    44.1860     2.5350 
  168.5000   164.5060    23.5640     5.6160   -13.4090    55.9910    28.2670    31.8310    42.0820     2.5250 
