~V
VERS. 2.00: Ver 2.00
~W
STRT.M 32.0000:
STOP.M 269.0000:
STEP.M 0.1250:
NULL. -999.2500:
UWI. FD10881:
~C
DEPT.M :
TVD. :
DX. :
DY. :
SP.MV :
GR.API :
RI. :
RML.OHMM :
RXO.OHMM :
~A
# ...
  112.0000   110.9410    -9.4200    -4.5810    -0.3480    60.5980    10.3950    11.7500    13.5640 
  112.1250   111.0610    -9.4530    -4.5970    -0.2160    60.9290    10.5010    11.7830    14.1150 
  112.2500   111.1810    -9.4860    -4.6130    -0.1570    61.2730     9.9150    10.9430    13.8730 
  112.3750   111.3000    -9.5190    -4.6290    -0.3050    62.6930     8.7700     9.4390    18.5190 
  112.5000   111.4190    -9.5520    -4.6450    -0.6230    68.0440     7.1500     7.4750    26.4850 
  112.6250   111.5390    -9.5850    -4.6610    -1.1580    79.2270     5.7000     5.8650    22.5860 
  112.7500   111.6580    -9.6180    -4.6780    -1.8720    90.8720     4.6760     4.8250    10.3360 
  112.8750   111.7780    -9.6510    -4.6940    -2.5420    95.0360     3.9880     4.1740     5.3030 
  113.0000   111.8970    -9.6840    -4.7100    -3.0350    92.2860     3.6520     3.9110     5.2730 
  113.1250   112.0170    -9.7180    -4.7270    -3.3200    90.4420     3.4960     3.8090     4.8460 
  113.2500   112.1360    -9.7510    -4.7430    -3.4260    91.1930     3.3920     3.7200     4.6170 
  113.3750   112.2550    -9.7850    -4.7590    -3.4910    91.0750     3.2640     3.5720     4.5540 
  113.5000   112.3740    -9.8180    -4.7760    -3.5710    89.9400     3.1320     3.4090     4.3510 
  113.6250   112.4940    -9.8520    -4.7920    -3.6180    89.0830     3.0780     3.3190     4.1000 
  113.7500   112.6130    -9.8860    -4.8080    -3.6390    89.3520     3.2240     3.4370     4.1670 
  113.8750   112.7320    -9.9190    -4.8240    -3.5580    89.7850     3.7970     4.0380     4.4420 
  114.0000   112.8510    -9.9530    -4.8400    -3.0450    89.8380     4.8660     5.2130     5.0190 
  114.1250   112.9710    -9.9870    -4.8570    -2.0060    86.3430     6.6630     7.2460     9.4960 
  114.2500   113.0900   -10.0210    -4.8730    -0.5110    78.5920     9.0540     9.9520    17.0530 
  114.3750   113.2090   -10.0560    -4.8890     1.1390    69.9860    11.2530    12.3760    19.4260 
  114.5000   113.3280   -10.0900    -4.9050     2.5320    64.6370    12.8260    14.0250    16.8960 
  114.6250   113.4470   -10.1240    -4.9220     3.3730    61.3040    13.3940    14.5040    15.1220 
  114.7500   113.5660   -10.1580    -4.9380     3.6430    59.7530    13.2590    14.2290    15.1930 
  114.8750   113.6850   -10.1930    -4.9550     3.5510    60.0810    13.0840    14.0070    15.9390 
  115.0000   113.8040   -10.2270    -4.9710     3.4490    61.6680    13.0870    14.0410    14.7780 
  115.1250   113.9230   -10.2620    -4.9880     3.6690    61.9000    13.1790    14.2380    12.2270 
  115.2500   114.0420   -10.2970    -5.0040     4.2090    60.7030    13.2850    14.4770    12.5740 
  115.3750   114.1610   -10.3310    -5.0210     4.7020    59.5780    13.3240    14.6240    15.5330 
  115.5000   114.2800   -10.3660    -5.0370     4.9620    58.0950    13.2910    14.6440    16.8690 
  115.6250   114.3990   -10.4010    -5.0530     5.1410    56.2630    13.2010    14.5940    17.1450 
  115.7500   114.5180   -10.4360    -5.0700     5.0880    55.0020    13.2040    14.6920    17.8700 
  115.8750   114.6370   -10.4710    -5.0860     4.7400    54.2970    13.6150    15.4030    17.6800 
  116.0000   114.7550   -10.5070    -5.1030     4.1380    53.4770    14.8450    17.3060    17.1490 
  116.1250   114.8740   -10.5420    -5.1200     3.3280    53.1100    16.1480    19.0560    16.4740 
  116.2500   114.9930   -10.5770    -5.1360     2.3510    54.4640    16.2910    19.2600    25.8280 
  116.3750   115.1120   -10.6130    -5.1530     1.2790    57.0620    14.8050    17.3530    59.2730 
  116.5000   115.2300   -10.6480    -5.1690     0.0710    60.5610    11.7580    13.4540    81.2900 
  116.6250   115.3490   -10.6840    -5.1860    -1.2720    66.4350     8.6050     9.6990    54.5550 
  116.7500   115.4680   -10.7190    -5.2020    -2.5770    73.7870     6.3910     7.1280    18.0370 
  116.8750   115.5860   -10.7550    -5.2190    -3.6500    80.5920     5.0450     5.6630     6.8090 
  117.0000   115.7050   -10.7900    -5.2350    -4.3720    83.5400     4.5090     5.1980     6.6950 
  117.1250   115.8240   -10.8260    -5.2520    -4.6650    83.4290     4.4630     5.2400     6.3900 
  117.2500   115.9420   -10.8620    -5.2690    -4.3640    82.7290     4.7980     5.6640     6.2760 
  117.3750   116.0610   -10.8970    -5.2850    -3.7000    82.3310     5.3240     6.2910     6.6260 
  117.5000   116.1800   -10.9330    -5.3020    -2.8920    81.3480     6.0690     7.1760     7.1850 
  117.6250   116.2980   -10.9690    -5.3190    -2.2370    79.6140     6.8520     8.1010     7.8520 
  117.7500   116.4170   -11.0040    -5.3360    -2.1390    78.0760     7.4070     8.7310     9.3590 
  117.8750   116.5350   -11.0400    -5.3520    -2.4520    77.4270     7.6800     8.9780    11.5620 
  118.0000   116.6540   -11.0760    -5.3690    -2.9740    76.1140     7.6160     8.8100    12.4440 
  118.1250   116.7730   -11.1120    -5.3860    -3.6430    74.4330     7.3120     8.3830    10.8860 
  118.2500   116.8910   -11.1480    -5.4020    -4.3030    73.3290     6.9150     7.9250     8.6380 
  118.3750   117.0100   -11.1830    -5.4190    -4.7120    72.2420     6.5630     7.5920     7.8740 
  118.5000   117.1290   -11.2190    -5.4350    -4.9030    71.8230     6.2390     7.3220     8.3000 
  118.6250   117.2470   -11.2550    -5.4520    -4.9470    73.5560     5.9600     7.0710     8.6870 
  118.7500   117.3660   -11.2910    -5.4680    -4.8450    76.6230     5.5820     6.6580     9.1640 
  118.8750   117.4840   -11.3270    -5.4850    -4.5760    78.5260     5.1140     6.1050     9.1850 
  119.0000   117.6030   -11.3630    -5.5010    -4.1340    79.3530     4.6640     5.5700     7.7260 
  119.1250   117.7210   -11.3990    -5.5180    -3.5600    81.8280     4.3260     5.2050     6.4940 
  119.2500   117.8400   -11.4350    -5.5340    -3.4200    85.2020     4.1440     5.0230     6.5940 
  119.3750   117.9580   -11.4710    -5.5510    -3.8490    87.4290     4.0590     4.9700     6.6940 
  119.5000   118.0770   -11.5070    -5.5680    -4.2770    89.5300     4.0040     4.9280     6.3800 
  119.6250   118.1950   -11.5430    -5.5850    -4.6670    91.1110     3.9150     4.8140     6.2610 
  119.7500   118.3140   -11.5790    -5.6020    -5.1140    92.2880     3.8040     4.6710     5.9570 
  119.8750   118.4320   -11.6150    -5.6190    -5.5910    92.6200     3.6860     4.5270     5.4560 
  120.0000   118.5510   -11.6510    -5.6350    -6.0780    93.1150     3.5710     4.4090     5.1790 
  120.1250   118.6690   -11.6880    -5.6520    -6.5380    92.2670     3.4950     4.3530     5.1480 
  120.2500   118.7880   -11.7240    -5.6690    -6.8200    89.1330     3.4930     4.3780     5.5190 
  120.3750   118.9060   -11.7610    -5.6860    -6.6820    86.4910     3.5530     4.4590     5.6470 
  120.5000   119.0240   -11.7970    -5.7020    -6.0820    87.1850     3.6270     4.5480     5.2610 
  120.6250   119.1430   -11.8340    -5.7190    -5.3030    90.5730     3.7260     4.6750     5.2550 
  120.7500   119.2610   -11.8700    -5.7360    -4.6510    92.0700     3.8410     4.8380     5.7720 
  120.8750   119.3790   -11.9070    -5.7520    -4.5070    90.1010     3.9650     5.0030     6.2590 
  121.0000   119.4980   -11.9440    -5.7690    -4.9370    88.1370     4.1170     5.2020     6.5720 
  121.1250   119.6160   -11.9810    -5.7860    -5.5770    87.3400     4.2520     5.3610     6.6030 
  121.2500   119.7340   -12.0170    -5.8030    -6.1640    87.3530     4.3710     5.4880     6.5530 
  121.3750   119.8530   -12.0540    -5.8200    -6.4220    86.8050     4.4940     5.6310     6.8210 
  121.5000   119.9710   -12.0910    -5.8370    -6.0720    86.8570     4.5760     5.7120     7.1150 
  121.6250   120.0890   -12.1280    -5.8530    -5.4370    88.2760     4.5730     5.6850     6.9140 
  121.7500   120.2070   -12.1650    -5.8700    -4.9420    90.6020     4.4630     5.5140     6.6830 
  121.8750   120.3250   -12.2020    -5.8870    -4.6310    91.1180     4.3050     5.2770     6.8750 
