~V
VERS. 2.00: Ver 2.00
~W
STRT.M 15.0000:
STOP.M 282.0000:
STEP.M 0.1250:
NULL. -999.2500:
UWI. FD10218:
~C
DEPT.M :
TVD. :
DX. :
DY. :
DEN.GM/CC :
GR.API :
RML.OHMM :
RI. :
RXO.OHMM :
CALI.CM :
SP.MV :
~A
# ...
  221.2500   216.7730    22.9370    21.9560     2.2420    74.6740    75.5900    68.6430    20.5130    20.3570   -16.3130 
  221.3750   216.8900    22.9670    21.9860     2.2400    72.2910    73.8490    67.1910    20.5480    20.3580   -16.3500 
  221.5000   217.0080    22.9980    22.0160     2.2400    67.1200    72.4450    66.0820    20.3010    20.3450   -16.3910 
  221.6250   217.1250    23.0280    22.0460     2.2410    65.0890    71.1170    65.0430    19.7440    20.3050   -16.3840 
  221.7500   217.2430    23.0590    22.0760     2.2440    68.2360    69.7700    63.9250    19.3310    20.2480   -16.3870 
  221.8750   217.3600    23.0890    22.1060     2.2510    72.6670    68.4850    62.7490    19.4660    20.2210   -16.3660 
  222.0000   217.4770    23.1200    22.1360     2.2630    73.9630    67.4580    61.6870    19.9570    20.2170   -16.3580 
  222.1250   217.5950    23.1500    22.1660     2.2810    70.7540    67.0910    61.1290    20.5310    20.2160   -16.3160 
  222.2500   217.7120    23.1810    22.1960     2.2970    68.4310    67.5920    61.3210    20.6430    20.2150   -16.2440 
  222.3750   217.8300    23.2110    22.2260     2.3020    69.2080    69.0630    62.5190    20.4620    20.2130   -16.2130 
  222.5000   217.9470    23.2420    22.2560     2.2900    70.8130    71.2450    64.7720    20.2520    20.2150   -16.1970 
  222.6250   218.0650    23.2720    22.2870     2.2600    70.0620    73.1420    67.4510    19.9570    20.2580   -16.2150 
  222.7500   218.1820    23.3030    22.3170     2.2300    68.1200    73.4550    69.0250    19.5730    20.3680   -16.2290 
  222.8750   218.2990    23.3340    22.3470     2.2120    67.6480    71.3620    68.2270    19.2600    20.4980   -16.2400 
  223.0000   218.4170    23.3640    22.3770     2.2120    69.7020    66.9450    64.7480    18.7080    20.5650   -16.2310 
  223.1250   218.5340    23.3950    22.4070     2.2240    72.7000    61.2230    59.4400    17.8530    20.5740   -16.1860 
  223.2500   218.6520    23.4250    22.4370     2.2330    73.3610    55.9040    54.2260    17.0270    20.5710   -16.1260 
  223.3750   218.7690    23.4560    22.4670     2.2360    72.1780    51.8510    50.1280    16.8500    20.5580   -16.0340 
  223.5000   218.8870    23.4860    22.4970     2.2340    71.5450    49.2700    47.4700    17.4750    20.5290   -15.9540 
  223.6250   219.0040    23.5170    22.5270     2.2370    72.7210    48.0060    46.1970    18.4240    20.5220   -15.9080 
  223.7500   219.1210    23.5470    22.5570     2.2490    72.7600    47.3220    45.6300    19.0770    20.5400   -15.9010 
  223.8750   219.2390    23.5780    22.5870     2.2680    71.1600    46.8030    45.3150    19.0100    20.5640   -15.8990 
  224.0000   219.3560    23.6080    22.6170     2.2880    69.5630    46.2150    44.8980    18.9630    20.5820   -15.8970 
  224.1250   219.4740    23.6390    22.6470     2.3020    69.4010    45.5780    44.2340    19.4170    20.6040   -15.9190 
  224.2500   219.5910    23.6690    22.6770     2.3080    70.7820    45.1870    43.5740    19.7350    20.6390   -15.9630 
  224.3750   219.7090    23.7000    22.7070     2.3060    74.0090    45.4350    43.2730    19.7390    20.6540   -16.0520 
  224.5000   219.8260    23.7310    22.7370     2.2970    76.9380    46.7410    43.7550    19.8850    20.6240   -16.1450 
  224.6250   219.9430    23.7610    22.7670     2.2800    75.1950    49.6960    45.6990    20.2380    20.4950   -16.2750 
  224.7500   220.0610    23.7920    22.7970     2.2610    72.1240    54.0950    49.1490    20.9930    20.3640   -16.3880 
  224.8750   220.1780    23.8220    22.8280     2.2470    71.4800    59.5090    53.8930    22.0910    20.2990   -16.5280 
  225.0000   220.2960    23.8530    22.8580     2.2430    73.1930    65.0520    59.1660    22.7500    20.2880   -16.6310 
  225.1250   220.4130    23.8830    22.8880     2.2500    74.0410    69.2820    63.3920    22.7590    20.2980   -16.7960 
  225.2500   220.5310    23.9140    22.9180     2.2610    73.0770    71.5630    65.5250    22.2930    20.3030   -16.9320 
  225.3750   220.6480    23.9440    22.9480     2.2700    70.9770    72.0430    65.5250    21.2900    20.2780   -17.0390 
  225.5000   220.7650    23.9750    22.9780     2.2730    68.3360    71.5880    64.3020    20.8130    20.2570   -17.0860 
  225.6250   220.8830    24.0050    23.0080     2.2670    67.2240    71.4840    63.2290    21.3500    20.2750   -17.0600 
  225.7500   221.0000    24.0360    23.0380     2.2580    66.4580    72.5860    63.1540    22.4760    20.3400   -17.0060 
  225.8750   221.1180    24.0660    23.0680     2.2490    65.7890    74.3600    64.2530    23.5290    20.3920   -16.9420 
  226.0000   221.2350    24.0970    23.0980     2.2440    67.0350    75.8110    66.3590    24.6640    20.4140   -16.9250 
  226.1250   221.3530    24.1270    23.1280     2.2440    70.8700    77.2550    69.2720    24.9580    20.4290   -16.9380 
  226.2500   221.4700    24.1580    23.1580     2.2430    74.1690    80.1270    72.7090    24.7140    20.4350   -17.0430 
  226.3750   221.5870    24.1890    23.1880     2.2380    74.5170    84.8370    76.7650    24.1710    20.4390   -17.2440 
  226.5000   221.7050    24.2190    23.2180     2.2280    71.7900    90.7010    81.6320    23.6920    20.4480   -17.5390 
  226.6250   221.8220    24.2500    23.2480     2.2180    66.7880    97.1220    87.4170    24.5120    20.4790   -17.9630 
  226.7500   221.9400    24.2800    23.2780     2.2150    61.6130   103.5340    93.3990    25.6720    20.4990   -18.4500 
  226.8750   222.0570    24.3110    23.3080     2.2270    59.0100   109.1030    98.6170    27.2550    20.4700   -18.9840 
  227.0000   222.1750    24.3410    23.3380     2.2570    62.0590   113.2650   102.2240    29.4180    20.4660   -19.4780 
  227.1250   222.2920    24.3720    23.3680     2.2970    68.1620   116.1030   103.9910    31.2840    20.5200   -19.8830 
  227.2500   222.4090    24.4020    23.3990     2.3280    70.8170   119.0020   105.4210    31.7750    20.6260   -20.1450 
  227.3750   222.5270    24.4330    23.4290     2.3350    68.1530   123.2090   107.9890    31.0980    20.7200   -20.3010 
  227.5000   222.6440    24.4630    23.4590     2.3170    63.5160   129.3980   112.6490    30.6090    20.8350   -20.3240 
  227.6250   222.7620    24.4940    23.4890     2.2840    61.5180   137.2070   119.4210    30.1100    21.0040   -20.1660 
  227.7500   222.8790    24.5250    23.5190     2.2580    62.1070   144.5460   126.3080    29.4920    21.1550   -19.8680 
  227.8750   222.9960    24.5560    23.5500     2.2490    64.6650   149.5130   131.2680    28.6280    21.1760   -19.4960 
  228.0000   223.1130    24.5870    23.5800     2.2520    68.5460   151.1080   132.9080    27.4300    21.0400   -19.1250 
  228.1250   223.2300    24.6180    23.6100     2.2570    71.5940   149.7690   131.2310    26.6140    20.8760   -18.7780 
  228.2500   223.3480    24.6490    23.6410     2.2560    70.6550   148.1440   129.0060    26.3210    20.7760   -18.5010 
  228.3750   223.4650    24.6800    23.6710     2.2500    65.8990   147.9350   128.2460    26.8180    20.7350   -18.2110 
  228.5000   223.5820    24.7120    23.7010     2.2450    61.1800   149.5440   129.6730    28.5420    20.7670   -17.9200 
  228.6250   223.6990    24.7430    23.7320     2.2450    58.6980   151.8040   132.5220    30.6490    20.9100   -17.6160 
  228.7500   223.8160    24.7740    23.7620     2.2500    58.4670   152.7720   134.7430    30.3850    21.0940   -17.3210 
  228.8750   223.9340    24.8050    23.7930     2.2530    59.2780   151.7060   135.2200    28.1230    21.1940   -17.0080 
  229.0000   224.0510    24.8360    23.8230     2.2490    61.1110   149.4100   134.2800    26.2080    21.2110   -16.6670 
  229.1250   224.1680    24.8670    23.8530     2.2360    64.4820   148.4760   134.1320    26.1110    21.1780   -16.3170 
  229.2500   224.2850    24.8980    23.8840     2.2170    67.4590   150.9390   137.0920    27.2840    21.2400   -15.9030 
  229.3750   224.4020    24.9290    23.9140     2.2000    69.3610   156.3640   144.1550    28.8580    21.5340   -15.4750 
