~V
VERS. 2.00: Ver 2.00
~W
STRT.M 64.0000:
STOP.M 246.0000:
STEP.M 0.1250:
NULL. -999.2500:
UWI. FD10853:
~C
DEPT.M :
TVD. :
DX. :
DY. :
SP.MV :
GR.API :
RI. :
RML.OHMM :
RXO.OHMM :
DEN.GM/CC :
~A
# ...
  237.3750   233.6830   -29.3780   -10.5600    -0.5590    32.7480     2.9050     3.3440     2.7840     2.3680 
  237.5000   233.8030   -29.4090   -10.5730    -0.5590    32.7480     2.9030     3.3380     2.7440     2.3730 
  237.6250   233.9230   -29.4410   -10.5870    -0.5590    32.7480     2.9020     3.3390     2.6460     2.3780 
  237.7500   234.0440   -29.4720   -10.6000    -0.5590    32.7480     2.9020     3.3440     2.5440     2.3700 
  237.8750   234.1640   -29.5030   -10.6130    -0.5590    32.7480     2.9020     3.3440     2.4650     2.3540 
  238.0000   234.2840   -29.5350   -10.6260    -0.5590    32.7480     2.9020     3.3460     2.3990     2.3350 
  238.1250   234.4050   -29.5660   -10.6390    -0.5590    32.7480     2.9020     3.3480     2.3410     2.3300 
  238.2500   234.5250   -29.5970   -10.6520    -0.5590    32.7480     2.9030     3.3470     2.2970     2.3280 
  238.3750   234.6450   -29.6290   -10.6660    -0.5590    32.7480     2.9030     3.3460     2.2730     2.3420 
  238.5000   234.7650   -29.6600   -10.6790    -0.5590    32.7480     2.9030     3.3450     2.2750     2.3530 
  238.6250   234.8860   -29.6910   -10.6920    -0.5590    32.7480     2.9030     3.3430     2.2980     2.3500 
  238.7500   235.0060   -29.7230   -10.7050    -0.5590    32.7480     2.9030     3.3430     2.3240     2.3230 
  238.8750   235.1260   -29.7540   -10.7180    -0.5590    32.7480     2.9030     3.3430     2.3430     2.3070 
  239.0000   235.2470   -29.7850   -10.7310    -0.5590    32.7480     2.9030     3.3430     2.3580     2.3140 
  239.1250   235.3670   -29.8170   -10.7450    -0.5590    32.7480     2.9030     3.3430     2.3590     2.3260 
  239.2500   235.4870   -29.8480   -10.7580    -0.5590    32.7480     2.9030     3.3430     2.3350     2.3300 
  239.3750   235.6070   -29.8790   -10.7710    -0.5590    32.7480     2.9030     3.3430     2.3080     2.3320 
  239.5000   235.7280   -29.9110   -10.7840    -0.5590    32.7480     2.9030     3.3430     2.2910     2.3420 
  239.6250   235.8480   -29.9420   -10.7970    -0.5590    32.7480     2.9030     3.3430     2.2740     2.3480 
  239.7500   235.9680   -29.9730   -10.8100    -0.5590    32.7480     2.9030     3.3430     2.2630     2.3510 
  239.8750   236.0890   -30.0050   -10.8240    -0.5590    32.7480     2.9030     3.3430     2.2670     2.3580 
  240.0000   236.2090   -30.0360   -10.8370    -0.5590    32.7480     2.9030     3.3430     2.2820     2.3800 
  240.1250   236.3290   -30.0680   -10.8500    -0.5590    32.7480     2.9030     3.3430     2.3080     2.4180 
  240.2500   236.4490   -30.0990   -10.8630    -0.5590    32.7480     2.9030     3.3430     2.3420     2.4320 
  240.3750   236.5700   -30.1300   -10.8760    -0.5590    32.7480     2.9030     3.3430     2.3660     2.3980 
  240.5000   236.6900   -30.1620   -10.8900    -0.5590    32.7480     2.9030     3.3430     2.3790     2.3280 
  240.6250   236.8100   -30.1930   -10.9030    -0.5590    32.7480     2.9030     3.3430     2.3910     2.2840 
  240.7500   236.9310   -30.2240   -10.9160    -0.5590    32.7480     2.9030     3.3430     2.3970     2.2770 
  240.8750   237.0510   -30.2560   -10.9290    -0.5590    32.7480     2.9030     3.3430     2.3890     2.2500 
  241.0000   237.1710   -30.2870   -10.9420    -0.5590    32.7480     2.9030     3.3430     2.3570     2.1720 
  241.1250   237.2910   -30.3180   -10.9550    -0.5590    32.7480     2.9030     3.3430     2.3040     2.0710 
  241.2500   237.4120   -30.3500   -10.9690    -0.5590    32.7480     2.9030     3.3430     2.2600     2.0090 
  241.3750   237.5320   -30.3810   -10.9820    -0.5590    32.7480     2.9030     3.3430     2.2420     2.0130 
  241.5000   237.6520   -30.4120   -10.9950    -0.5590    32.7480     2.9030     3.3430     2.2400     2.0570 
  241.6250   237.7730   -30.4440   -11.0080    -0.5590    32.7480     2.9030     3.3430     2.2490     2.0900 
  241.7500   237.8930   -30.4750   -11.0210    -0.5590    32.7480     2.9030     3.3430     2.2670     2.0770 
  241.8750   238.0130   -30.5060   -11.0340    -0.5590    32.7480     2.9030     3.3430     2.2880     2.0300 
  242.0000   238.1330   -30.5380   -11.0480    -0.5590    32.7480     2.9030     3.3430     2.3720     1.9740 
  242.1250   238.2540   -30.5690   -11.0610    -0.5590    32.7480     2.9030     3.3430     2.5530     1.9470 
  242.2500   238.3740   -30.6000   -11.0740    -0.5590    32.7480     2.9030     3.3430     2.7480     1.9630 
  242.3750   238.4940   -30.6320   -11.0870    -0.5590    32.7480     2.9030     3.3430     2.8720     1.9990 
  242.5000   238.6150   -30.6630   -11.1000    -0.5590    32.7480     2.9030     3.3430     2.9120     2.0280 
  242.6250   238.7350   -30.6940   -11.1130    -0.5590    32.7480     2.9030     3.3430     2.8920     2.0420 
  242.7500   238.8550   -30.7260   -11.1270    -0.5590    32.7480     2.9030     3.3430     2.8730     2.0510 
  242.8750   238.9750   -30.7570   -11.1400    -0.5590    32.7480     2.9030     3.3430     2.8880     2.0590 
  243.0000   239.0960   -30.7880   -11.1530    -0.5590    32.7480     2.9030     3.3430     2.9030     2.0620 
  243.1250   239.2160   -30.8200   -11.1660    -0.5590    32.7480     2.9030     3.3430     2.9050     2.0600 
  243.2500   239.3360   -30.8510   -11.1790    -0.5590    32.7480     2.9030     3.3430     2.9040     2.0560 
  243.3750   239.4570   -30.8830   -11.1930    -0.5590    32.7480     2.9030     3.3430     2.9040     2.0550 
  243.5000   239.5770   -30.9140   -11.2060    -0.5590    32.7480     2.9030     3.3430     2.9030     2.0560 
  243.6250   239.6970   -30.9450   -11.2190    -0.5590    32.7480     2.9030     3.3430     2.9020     2.0580 
  243.7500   239.8170   -30.9770   -11.2320    -0.5590    32.7480     2.9030     3.3430     2.8980     2.0530 
  243.8750   239.9380   -31.0080   -11.2450    -0.5590    32.7480     2.9030     3.3430     2.8880     2.0480 
  244.0000   240.0580   -31.0390   -11.2580    -0.5590    32.7480     2.9030     3.3430     2.8770     2.0430 
  244.1250   240.1830   -31.0390   -11.2580    -0.5590    32.7480     2.9030     3.3430     2.8710     2.0400 
  244.2500   240.3080   -31.0390   -11.2580    -0.5590  -999.2500  -999.2500  -999.2500  -999.2500  -999.2500 
  244.3750   240.4330   -31.0390   -11.2580    -0.5590  -999.2500  -999.2500  -999.2500  -999.2500  -999.2500 
  244.5000   240.5580   -31.0390   -11.2580    -0.5590  -999.2500  -999.2500  -999.2500  -999.2500  -999.2500 
  244.6250   240.6830   -31.0390   -11.2580    -0.5590  -999.2500  -999.2500  -999.2500  -999.2500  -999.2500 
  244.7500   240.8080   -31.0390   -11.2580    -0.5590  -999.2500  -999.2500  -999.2500  -999.2500  -999.2500 
  244.8750   240.9330   -31.0390   -11.2580    -0.5590  -999.2500  -999.2500  -999.2500  -999.2500  -999.2500 
  245.0000   241.0580   -31.0390   -11.2580    -0.5590  -999.2500  -999.2500  -999.2500  -999.2500  -999.2500 
  245.1250   241.1830   -31.0390   -11.2580    -0.5590  -999.2500  -999.2500  -999.2500  -999.2500  -999.2500 
  245.2500   241.3080   -31.0390   -11.2580    -0.5590  -999.2500  -999.2500  -999.2500  -999.2500  -999.2500 
  245.3750   241.4330   -31.0390   -11.2580    -0.5590  -999.2500  -999.2500  -999.2500  -999.2500  -999.2500 
  245.5000   241.5580   -31.0390   -11.2580    -0.5590  -999.2500  -999.2500  -999.2500  -999.2500  -999.2500 
  245.6250   241.6830   -31.0390   -11.2580    -0.5590  -999.2500  -999.2500  -999.2500  -999.2500  -999.2500 
  245.7500   241.8080   -31.0390   -11.2580    -0.5590  -999.2500  -999.2500  -999.2500  -999.2500  -999.2500 
  245.8750   241.9330   -31.0390   -11.2580    -0.5590  -999.2500  -999.2500  -999.2500  -999.2500  -999.2500 
  246.0000   242.0580   -31.0390   -11.2580    -0.5590  -999.2500  -999.2500  -999.2500  -999.2500  -999.2500 
