~V
VERS. 2.00: Ver 2.00
~W
STRT.M 53.0000:
STOP.M 258.0000:
STEP.M 0.1250:
NULL. -999.2500:
UWI. FD10870:
~C
DEPT.M :
TVD. :
DX. :
DY. :
SP.MV :
GR.API :
RI. :
RML.OHMM :
RXO.OHMM :
DEN.GM/CC :
~A
# ...
  180.7500   175.3750   -27.1380     0.3200    -3.8860    87.6050     4.6750     5.3550     4.1630     2.4630 
  180.8750   175.4850   -27.1900     0.3460    -3.8990    87.5100     4.6280     5.3160     4.3840     2.4380 
  181.0000   175.5950   -27.2430     0.3710    -3.8550    87.3300     4.6110     5.2980     4.3700     2.4100 
  181.1250   175.7060   -27.2960     0.3970    -3.8530    88.4640     4.7310     5.4620     4.2570     2.4100 
  181.2500   175.8160   -27.3480     0.4230    -3.7770    89.7830     5.1970     6.1070     4.2260     2.4380 
  181.3750   175.9270   -27.4010     0.4480    -3.5130    88.8810     6.3490     7.6840     4.8370     2.4930 
  181.5000   176.0370   -27.4540     0.4740    -3.3060    84.5200     8.2870    10.7140     7.9180     2.5260 
  181.6250   176.1470   -27.5070     0.5000    -3.2290    79.9110    10.5560    14.2170    13.2100     2.5080 
  181.7500   176.2580   -27.5600     0.5250    -3.2850    77.4820    12.0780    15.9500    16.4430     2.4320 
  181.8750   176.3680   -27.6120     0.5510    -3.3450    79.0130    12.1200    15.5860    17.0380     2.3520 
  182.0000   176.4780   -27.6650     0.5770    -3.3430    79.6520    11.0940    13.3550    17.8140     2.3040 
  182.1250   176.5890   -27.7180     0.6020    -3.4090    80.2810     9.9690    11.5540    16.2630     2.3100 
  182.2500   176.6990   -27.7710     0.6280    -3.6750    80.4510     9.7720    11.5340    10.8860     2.3430 
  182.3750   176.8100   -27.8230     0.6540    -3.9620    81.8540    10.8310    13.1560     7.1780     2.4010 
  182.5000   176.9200   -27.8760     0.6790    -4.2280    81.3090    12.9630    16.0190     9.1810     2.4470 
  182.6250   177.0300   -27.9290     0.7050    -4.4200    79.0190    15.8010    19.5420    14.3040     2.4550 
  182.7500   177.1410   -27.9810     0.7310    -4.7160    76.8550    18.5360    22.7250    16.9570     2.4120 
  182.8750   177.2510   -28.0340     0.7560    -4.9960    75.1700    20.8500    25.3480    16.4480     2.3530 
  183.0000   177.3620   -28.0870     0.7820    -5.1440    73.7270    22.2650    26.9060    17.6070     2.3000 
  183.1250   177.4720   -28.1390     0.8080    -5.3790    72.2570    22.7330    27.4160    22.2260     2.2730 
  183.2500   177.5830   -28.1920     0.8340    -5.6290    72.5260    22.3850    26.9270    24.9870     2.2550 
  183.3750   177.6930   -28.2440     0.8600    -5.8620    74.8160    20.2270    24.1140    23.6700     2.2590 
  183.5000   177.8040   -28.2960     0.8860    -6.0590    78.1430    16.9450    20.0340    21.1330     2.2830 
  183.6250   177.9140   -28.3480     0.9130    -6.1900    81.3690    13.4400    15.7320    17.6070     2.3180 
  183.7500   178.0250   -28.4000     0.9390    -6.3540    84.3910    10.4230    12.1500    14.6870     2.3420 
  183.8750   178.1350   -28.4530     0.9660    -6.5810    86.5760     8.8240    10.3860    11.5790     2.3500 
  184.0000   178.2460   -28.5050     0.9920    -6.8800    88.3310     7.9280     9.4620     7.8590     2.3490 
  184.1250   178.3560   -28.5570     1.0180    -7.3710    87.2610     7.3620     8.8490     7.2760     2.3420 
  184.2500   178.4670   -28.6090     1.0440    -7.8190    86.2520     6.9110     8.3300     8.0850     2.3320 
  184.3750   178.5770   -28.6610     1.0700    -8.2020    86.0220     6.7270     8.0770     7.5110     2.3260 
  184.5000   178.6880   -28.7140     1.0960    -8.8120    88.5180     6.7790     8.1130     6.9590     2.3350 
  184.6250   178.7980   -28.7660     1.1220    -9.2740    89.9320     7.2260     8.6980     6.6510     2.3560 
  184.7500   178.9090   -28.8180     1.1480    -9.4740    89.6420     7.8180     9.4910     5.8530     2.3910 
  184.8750   179.0190   -28.8710     1.1740    -9.5600    88.1350     8.3170    10.1880     7.3110     2.4280 
  185.0000   179.1300   -28.9230     1.1990    -9.6840    86.0870     8.4420    10.3360    11.2000     2.4450 
  185.1250   179.2400   -28.9760     1.2250    -9.8640    86.2370     7.9300     9.6270    12.5290     2.4320 
  185.2500   179.3510   -29.0280     1.2510   -10.1590    88.3510     7.1250     8.5300     9.9660     2.4080 
  185.3750   179.4610   -29.0800     1.2770   -10.3660    92.5530     6.1880     7.2970     6.5810     2.3910 
  185.5000   179.5720   -29.1330     1.3020   -10.4810    93.2140     5.4990     6.5020     5.0880     2.3860 
  185.6250   179.6820   -29.1850     1.3280   -10.6250    92.6970     5.2320     6.2770     5.4970     2.3770 
  185.7500   179.7930   -29.2380     1.3530   -10.6770    91.1010     5.2140     6.3530     5.9670     2.3710 
  185.8750   179.9030   -29.2900     1.3790   -10.6520    91.0050     5.3640     6.6120     5.4690     2.3710 
  186.0000   180.0140   -29.3430     1.4040   -10.7620    89.5100     5.6450     7.0220     4.7830     2.3800 
  186.1250   180.1240   -29.3950     1.4300   -11.0890    88.0390     6.0130     7.5380     4.9240     2.3820 
  186.2500   180.2350   -29.4480     1.4550   -11.2200    89.2980     6.3790     8.0450     5.9460     2.3760 
  186.3750   180.3460   -29.5000     1.4810   -11.0880    91.5150     6.5800     8.2970     6.9030     2.3630 
  186.5000   180.4560   -29.5530     1.5060   -11.0340    92.7100     6.4940     8.1500     7.0610     2.3600 
  186.6250   180.5670   -29.6050     1.5320   -10.8280    90.7910     6.2020     7.7350     6.8750     2.3660 
  186.7500   180.6770   -29.6570     1.5580   -10.1720    89.8160     5.7430     7.1180     6.4080     2.3780 
  186.8750   180.7880   -29.7090     1.5840    -9.2130    90.2530     5.3220     6.6140     5.6520     2.3880 
  187.0000   180.8990   -29.7610     1.6090    -8.2900    91.8560     4.9940     6.2640     5.0700     2.3990 
  187.1250   181.0100   -29.8130     1.6350    -8.0940    94.1840     4.7880     6.0710     4.7170     2.4020 
  187.2500   181.1200   -29.8650     1.6610    -8.2060    97.3410     4.6990     6.0110     4.3730     2.3950 
  187.3750   181.2310   -29.9170     1.6870    -8.2430    99.4620     4.6860     6.0450     4.1280     2.3870 
  187.5000   181.3420   -29.9680     1.7130    -8.0330    98.9250     4.6910     6.0830     4.3690     2.3950 
  187.6250   181.4530   -30.0200     1.7400    -7.6920    96.3350     4.6620     6.0670     4.8990     2.4190 
  187.7500   181.5630   -30.0720     1.7660    -7.3210    95.0110     4.6480     6.0560     5.2210     2.4410 
  187.8750   181.6740   -30.1230     1.7920    -6.7630    94.3760     4.6840     6.0840     5.3390     2.4550 
  188.0000   181.7850   -30.1740     1.8190    -5.8900    93.9410     4.8140     6.2350     5.4350     2.4620 
  188.1250   181.8960   -30.2260     1.8450    -4.9830    93.7750     4.9910     6.4700     6.0590     2.4760 
  188.2500   182.0070   -30.2770     1.8720    -4.5160    94.9100     5.1580     6.6990     7.3190     2.4990 
  188.3750   182.1170   -30.3280     1.8990    -4.3230    95.4320     5.2230     6.7760     7.5010     2.5060 
  188.5000   182.2280   -30.3800     1.9250    -4.5030    93.1920     5.1300     6.6260     6.1170     2.4830 
  188.6250   182.3390   -30.4310     1.9520    -4.9540    91.1360     4.9440     6.3500     5.2360     2.4420 
  188.7500   182.4500   -30.4820     1.9790    -5.5200    92.9400     4.7440     6.0650     5.1810     2.4180 
  188.8750   182.5610   -30.5330     2.0070    -6.0710    98.2460     4.6170     5.9230     5.0950     2.4160 
  189.0000   182.6710   -30.5840     2.0340    -6.3440   102.6800     4.6050     5.9420     5.0630     2.4290 
  189.1250   182.7820   -30.6350     2.0610    -6.5070   103.0710     4.6620     6.0460     5.0440     2.4440 
  189.2500   182.8930   -30.6860     2.0890    -6.6460   100.3180     4.7170     6.1180     4.9560     2.4560 
  189.3750   183.0040   -30.7370     2.1170    -6.5930    97.2470     4.7440     6.1490     4.8860     2.4580 
  189.5000   183.1140   -30.7880     2.1450    -6.2190    94.6560     4.7550     6.1470     4.8880     2.4510 
  189.6250   183.2250   -30.8390     2.1730    -5.5220    95.8260     4.7400     6.0970     5.0360     2.4360 
  189.7500   183.3360   -30.8890     2.2020    -4.4380    96.2750     4.7280     6.0570     5.3810     2.4240 
