~V
VERS. 2.00: Ver 2.00
~W
STRT.M 53.0000:
STOP.M 258.0000:
STEP.M 0.1250:
NULL. -999.2500:
UWI. FD10870:
~C
DEPT.M :
TVD. :
DX. :
DY. :
SP.MV :
GR.API :
RI. :
RML.OHMM :
RXO.OHMM :
DEN.GM/CC :
~A
# ...
   80.3750    80.2950    -0.2170    -1.6750   -11.7370   109.2280     4.3780     5.4100     4.6030     2.3130 
   80.5000    80.4190    -0.2220    -1.6920   -11.7560   109.6900     4.5050     5.6280     5.4350     2.3360 
   80.6250    80.5430    -0.2270    -1.7080   -11.8510   108.2120     4.7290     5.9890     6.0890     2.3390 
   80.7500    80.6670    -0.2330    -1.7240   -11.9220   106.9400     4.9480     6.3170     5.5670     2.3360 
   80.8750    80.7910    -0.2380    -1.7400   -11.8910   105.1070     5.0210     6.4450     5.3190     2.3340 
   81.0000    80.9140    -0.2430    -1.7570   -11.8640   102.9440     4.9240     6.3180     5.7210     2.3300 
   81.1250    81.0380    -0.2490    -1.7730   -11.8810   102.5160     4.6130     5.8800     5.5730     2.3260 
   81.2500    81.1620    -0.2550    -1.7890   -11.8000   104.5080     4.2590     5.3910     5.1020     2.3280 
   81.3750    81.2860    -0.2600    -1.8050   -11.7590   110.0780     3.9630     4.9760     4.7640     2.3390 
   81.5000    81.4100    -0.2660    -1.8220   -11.7790   113.9690     3.8150     4.7740     4.4970     2.3580 
   81.6250    81.5330    -0.2720    -1.8380   -11.7830   113.6230     3.8920     4.8690     4.3330     2.3750 
   81.7500    81.6570    -0.2780    -1.8540   -11.7630   108.3620     4.3180     5.4420     4.6210     2.3770 
   81.8750    81.7810    -0.2840    -1.8710   -11.7710    99.8570     5.4690     7.0050     5.4450     2.3790 
   82.0000    81.9050    -0.2910    -1.8870   -11.8370    92.5960     7.0850     9.1830     6.9760     2.4140 
   82.1250    82.0290    -0.2970    -1.9030   -11.8170    87.1100     8.6730    11.2580    12.9040     2.4900 
   82.2500    82.1520    -0.3030    -1.9200   -11.6740    82.7540     9.8160    12.6340    22.3170     2.5620 
   82.3750    82.2760    -0.3100    -1.9360   -11.5950    79.4740     9.8940    12.4680    25.7220     2.5700 
   82.5000    82.4000    -0.3170    -1.9530   -11.5730    77.6890     9.1900    11.3070    19.1780     2.5040 
   82.6250    82.5230    -0.3230    -1.9690   -11.4690    78.7150     8.1220     9.8020    10.0640     2.4050 
   82.7500    82.6470    -0.3300    -1.9860   -11.3660    80.7600     7.0670     8.4930     6.3540     2.3220 
   82.8750    82.7710    -0.3380    -2.0020   -11.3290    82.9650     6.4890     7.9150     6.3080     2.2910 
   83.0000    82.8950    -0.3450    -2.0190   -11.3450    83.8900     6.2610     7.7580     6.5070     2.3000 
   83.1250    83.0180    -0.3520    -2.0350   -11.2980    83.9730     6.2010     7.7290     7.2240     2.3200 
   83.2500    83.1420    -0.3600    -2.0520   -11.2100    84.7350     5.9960     7.4410     7.3650     2.3310 
   83.3750    83.2660    -0.3670    -2.0680   -11.2200    88.0700     5.6290     6.9320     6.5670     2.3280 
   83.5000    83.3890    -0.3750    -2.0850   -11.3390    93.3200     5.2770     6.4410     6.1250     2.3270 
   83.6250    83.5130    -0.3830    -2.1010   -11.4050    95.7470     4.9810     6.0160     5.7230     2.3370 
   83.7500    83.6370    -0.3910    -2.1180   -11.4400    94.9010     4.8570     5.8430     5.2200     2.3590 
   83.8750    83.7600    -0.3990    -2.1340   -11.3220    92.4240     4.9700     5.9840     5.2750     2.3790 
   84.0000    83.8840    -0.4070    -2.1510   -11.1620    92.0930     5.2900     6.3760     5.4810     2.3900 
   84.1250    84.0070    -0.4160    -2.1670   -11.0910    92.1210     5.6810     6.8380     6.1200     2.3900 
   84.2500    84.1310    -0.4240    -2.1840   -11.0710    91.2660     6.0770     7.2830     6.9840     2.3710 
   84.3750    84.2550    -0.4330    -2.2000   -11.1910    88.9260     6.3930     7.5760     7.3450     2.3480 
   84.5000    84.3780    -0.4420    -2.2170   -11.4910    87.7490     6.5640     7.7060     7.3670     2.3390 
   84.6250    84.5020    -0.4510    -2.2330   -11.7290    88.0140     6.6590     7.7930     7.3300     2.3620 
   84.7500    84.6260    -0.4590    -2.2490   -11.9080    88.3950     6.7410     7.8930     8.0360     2.3980 
   84.8750    84.7490    -0.4680    -2.2660   -12.0610    87.7340     6.8160     7.9820     8.5130     2.4080 
   85.0000    84.8730    -0.4780    -2.2820   -12.2880    88.4730     6.8170     7.9600     7.8550     2.3790 
   85.1250    84.9960    -0.4870    -2.2990   -12.4020    91.0140     6.7090     7.7970     7.5410     2.3340 
   85.2500    85.1200    -0.4960    -2.3150   -12.3420    93.8790     6.5350     7.5590     7.2490     2.3030 
   85.3750    85.2430    -0.5050    -2.3320   -12.2510    96.1290     6.3550     7.3600     6.3340     2.2970 
   85.5000    85.3670    -0.5140    -2.3480   -12.2200    98.2260     6.2960     7.3030     6.1500     2.2910 
   85.6250    85.4910    -0.5240    -2.3640   -12.1540    99.2280     6.3110     7.3600     6.8600     2.2850 
   85.7500    85.6140    -0.5330    -2.3810   -12.1530    97.0900     6.3300     7.4510     7.3970     2.2840 
   85.8750    85.7380    -0.5430    -2.3970   -12.4090    93.2960     6.4210     7.5770     7.5460     2.3010 
   86.0000    85.8610    -0.5520    -2.4140   -12.6540    89.6420     6.6340     7.8380     7.5080     2.3190 
   86.1250    85.9850    -0.5620    -2.4300   -12.7710    88.4140     7.0840     8.3530     7.4030     2.3320 
   86.2500    86.1080    -0.5710    -2.4470   -12.8610    87.1360     8.1750     9.7220     8.0430     2.3480 
   86.3750    86.2320    -0.5810    -2.4630   -12.7950    85.1740    10.1880    12.2680    12.4510     2.3870 
   86.5000    86.3550    -0.5910    -2.4800   -12.6030    81.9850    12.7560    15.4090    20.2590     2.4600 
   86.6250    86.4790    -0.6010    -2.4970   -12.5360    79.3930    16.0670    19.2880    25.8290     2.5490 
   86.7500    86.6020    -0.6110    -2.5130   -12.4880    77.3830    19.1010    22.6570    26.5860     2.6240 
   86.8750    86.7260    -0.6210    -2.5300   -12.3830    76.0320    21.4050    25.0800    25.5150     2.6660 
   87.0000    86.8490    -0.6320    -2.5460   -12.1460    74.6910    22.3040    25.8580    27.4150     2.6850 
   87.1250    86.9730    -0.6420    -2.5630   -11.7640    75.3560    21.3040    24.5440    33.0700     2.6930 
   87.2500    87.0960    -0.6530    -2.5800   -11.3080    76.0580    19.0210    21.8200    36.5610     2.6710 
   87.3750    87.2190    -0.6630    -2.5960   -10.7590    76.4700    16.2850    18.6640    30.4420     2.5900 
   87.5000    87.3430    -0.6740    -2.6130   -10.0740    76.2180    13.9120    16.0000    18.7180     2.4550 
   87.6250    87.4660    -0.6850    -2.6300    -9.4180    75.4930    12.3380    14.3090    12.3060     2.3200 
   87.7500    87.5900    -0.6960    -2.6460    -9.0630    75.7960    11.6130    13.6400    11.4010     2.2360 
   87.8750    87.7130    -0.7070    -2.6630    -8.9060    75.6380    11.5570    13.6800    11.4250     2.2130 
   88.0000    87.8360    -0.7180    -2.6790    -8.8260    75.2270    11.8030    13.9920    11.5270     2.2230 
   88.1250    87.9600    -0.7300    -2.6960    -8.5920    74.4790    12.1770    14.3260    11.3020     2.2430 
   88.2500    88.0830    -0.7410    -2.7130    -8.2940    75.0360    12.5580    14.6370    10.8970     2.2540 
   88.3750    88.2070    -0.7520    -2.7290    -7.9550    75.6830    13.0620    15.1170    11.1230     2.2560 
   88.5000    88.3300    -0.7640    -2.7460    -7.7040    75.6880    13.6750    15.7520    11.6080     2.2480 
   88.6250    88.4530    -0.7760    -2.7630    -7.5630    76.1640    14.4440    16.6310    11.9830     2.2370 
   88.7500    88.5770    -0.7880    -2.7790    -7.5270    78.5690    15.2620    17.6630    13.1000     2.2210 
   88.8750    88.7000    -0.7990    -2.7960    -7.7530    80.6100    15.8910    18.4900    14.1720     2.2130 
   89.0000    88.8230    -0.8110    -2.8120    -8.0630    79.8560    15.6020    18.1960    14.1210     2.2140 
   89.1250    88.9470    -0.8230    -2.8290    -8.4170    77.5940    14.4300    16.7810    14.7190     2.2260 
   89.2500    89.0700    -0.8360    -2.8460    -8.8020    77.4840    12.5610    14.5170    16.0050     2.2390 
   89.3750    89.1930    -0.8480    -2.8620    -9.0040    80.2520    10.7550    12.3900    15.7120     2.2650 
