~V
VERS. 2.00: Ver 2.00
~W
STRT.M 24.0000:
STOP.M 269.0000:
STEP.M 0.1250:
NULL. -999.2500:
UWI. FD10666:
~C
DEPT.M :
TVD. :
DX. :
DY. :
GR.API :
RML.OHMM :
RI. :
RXO.OHMM :
CALI.CM :
DEN.GM/CC :
SP.MV :
~A
# ...
  106.5000   104.9190    11.4280     6.5330    72.9590     6.0490     5.4090     6.1180    21.6150     2.3380    -8.4990 
  106.6250   105.0370    11.4640     6.5520    75.4520     6.0580     5.3370     6.1070    21.9160     2.3280    -8.5640 
  106.7500   105.1550    11.5000     6.5710    74.3400     6.1210     5.3440     6.3540    22.2820     2.3190    -8.6110 
  106.8750   105.2730    11.5360     6.5900    72.6630     6.1690     5.3820     6.6230    22.5730     2.3070    -8.6300 
  107.0000   105.3920    11.5720     6.6090    74.5680     6.1670     5.4110     6.6170    22.6560     2.2920    -8.6160 
  107.1250   105.5100    11.6080     6.6280    79.5420     6.1200     5.4180     6.2440    22.4560     2.2800    -8.5900 
  107.2500   105.6280    11.6440     6.6470    80.9860     6.0740     5.4230     5.8930    22.1030     2.2750    -8.5640 
  107.3750   105.7460    11.6800     6.6660    78.9200     6.0500     5.4360     5.7020    21.7460     2.2790    -8.5440 
  107.5000   105.8640    11.7160     6.6850    76.7670     6.0490     5.4520     5.7630    21.5530     2.2880    -8.5290 
  107.6250   105.9820    11.7520     6.7040    76.0650     6.0380     5.4440     6.0510    21.6620     2.2980    -8.5160 
  107.7500   106.1000    11.7880     6.7230    77.9100     5.9790     5.3890     6.2000    21.9360     2.3050    -8.5030 
  107.8750   106.2180    11.8240     6.7420    81.9820     5.8530     5.2800     5.9360    22.2510     2.3100    -8.5120 
  108.0000   106.3370    11.8600     6.7610    84.6950     5.6720     5.1280     5.6110    22.4800     2.3100    -8.5510 
  108.1250   106.4550    11.8960     6.7800    83.3610     5.4840     4.9710     5.3840    22.4780     2.3090    -8.6080 
  108.2500   106.5730    11.9320     6.7990    83.3930     5.3500     4.8540     5.4210    22.2690     2.3100    -8.6730 
  108.3750   106.6910    11.9680     6.8180    87.0020     5.3040     4.8030     5.3580    21.9410     2.3160    -8.7450 
  108.5000   106.8090    12.0040     6.8370    90.1730     5.3540     4.8290     5.0870    21.6290     2.3250    -8.8170 
  108.6250   106.9270    12.0400     6.8560    87.8310     5.4920     4.9320     5.0150    21.5050     2.3360    -8.8940 
  108.7500   107.0450    12.0750     6.8750    83.6160     5.6690     5.0730     5.2030    21.6010     2.3440    -8.9770 
  108.8750   107.1630    12.1110     6.8940    81.0070     5.8540     5.2270     5.4990    21.8470     2.3480    -9.0480 
  109.0000   107.2820    12.1470     6.9130    79.4610     6.0270     5.3730     5.7590    22.1370     2.3460    -9.1040 
  109.1250   107.4000    12.1830     6.9310    78.1130     6.1750     5.4980     5.8700    22.3160     2.3350    -9.1570 
  109.2500   107.5180    12.2190     6.9500    79.0510     6.3050     5.6050     5.9820    22.3070     2.3220    -9.2180 
  109.3750   107.6360    12.2550     6.9690    81.5470     6.4130     5.6900     6.0640    22.1160     2.3110    -9.2870 
  109.5000   107.7540    12.2910     6.9880    84.5590     6.4870     5.7420     6.1720    21.8120     2.3080    -9.3750 
  109.6250   107.8720    12.3270     7.0070    86.2440     6.5000     5.7380     6.3920    21.5700     2.3110    -9.4900 
  109.7500   107.9900    12.3630     7.0260    85.9600     6.4810     5.7000     6.6360    21.5280     2.3140    -9.6180 
  109.8750   108.1080    12.3990     7.0450    84.6290     6.5100     5.6910     6.6370    21.7100     2.3100    -9.7530 
  110.0000   108.2270    12.4350     7.0640    82.3110     6.7340     5.8250     6.4920    22.0010     2.3030    -9.8960 
  110.1250   108.3450    12.4710     7.0830    79.7270     7.3940     6.3040     6.3910    22.2200     2.3010   -10.0500 
  110.2500   108.4630    12.5070     7.1020    76.7960     8.5080     7.1780     6.7600    22.2610     2.3120   -10.2200 
  110.3750   108.5810    12.5430     7.1210    73.8500     9.9570     8.4050     7.6590    22.0540     2.3390   -10.4070 
  110.5000   108.6990    12.5790     7.1400    70.0970    11.4250     9.7790     9.3500    21.6010     2.3760   -10.6010 
  110.6250   108.8170    12.6150     7.1590    66.2110    12.3390    10.8500    12.0010    20.9510     2.4040   -10.7920 
  110.7500   108.9350    12.6510     7.1780    64.5530    12.3950    11.2530    13.7130    20.3160     2.4070   -10.9730 
  110.8750   109.0530    12.6870     7.1970    63.8950    11.5920    10.8540    12.1240    19.8560     2.3820   -11.1390 
  111.0000   109.1720    12.7230     7.2160    63.4160    10.2880     9.8600     9.5520    19.6870     2.3400   -11.2840 
  111.1250   109.2900    12.7590     7.2350    64.9480     9.0410     8.7250     8.0640    19.7750     2.2990   -11.3880 
  111.2500   109.4080    12.7950     7.2540    67.6840     8.1610     7.8090     7.2220    19.9310     2.2700   -11.4590 
  111.3750   109.5260    12.8310     7.2730    70.3110     7.6430     7.1780     6.8030    20.0150     2.2530   -11.5080 
  111.5000   109.6440    12.8670     7.2920    72.9240     7.3530     6.7720     6.6290    19.9150     2.2450   -11.5420 
  111.6250   109.7620    12.9030     7.3110    75.7820     7.1640     6.5120     6.3820    19.5490     2.2460   -11.5870 
  111.7500   109.8800    12.9390     7.3300    79.7940     7.0060     6.3150     6.2060    19.0540     2.2540   -11.6570 
  111.8750   109.9980    12.9750     7.3490    85.8420     6.8940     6.1700     6.0570    18.5930     2.2680   -11.7750 
  112.0000   110.1170    13.0110     7.3680    89.4890     6.8730     6.1000     5.8080    18.3100     2.2830   -11.9580 
  112.1250   110.2350    13.0470     7.3870    84.7590     7.0150     6.1670     5.7120    18.2860     2.2940   -12.2190 
  112.2500   110.3530    13.0830     7.4060    77.2430     7.3350     6.3890     5.8310    18.4390     2.2960   -12.5300 
  112.3750   110.4710    13.1190     7.4250    72.0640     7.8550     6.7930     6.0400    18.6750     2.2880   -12.8770 
  112.5000   110.5890    13.1550     7.4440    70.2970     8.5990     7.4000     6.3140    18.8920     2.2700   -13.2500 
  112.6250   110.7070    13.1910     7.4630    70.6890     9.6170     8.2600     6.5990    19.0080     2.2450   -13.6300 
  112.7500   110.8250    13.2270     7.4810    71.8030    10.8230     9.3150     7.2550    19.0540     2.2260   -14.0020 
  112.8750   110.9430    13.2630     7.5000    69.5950    12.0900    10.4760     8.2090    19.1040     2.2300   -14.3520 
  113.0000   111.0620    13.2990     7.5190    63.7850    13.2130    11.5810     9.2850    19.2060     2.2680   -14.6600 
  113.1250   111.1800    13.3350     7.5380    59.0760    13.8640    12.3370    10.7980    19.3870     2.3390   -14.9160 
  113.2500   111.2980    13.3700     7.5570    56.9590    13.9430    12.5950    12.5550    19.6130     2.4040   -15.1320 
  113.3750   111.4160    13.4060     7.5760    54.2900    13.4840    12.3240    13.4130    19.8660     2.4260   -15.3090 
  113.5000   111.5340    13.4420     7.5950    50.8950    12.6930    11.6670    12.4080    20.1080     2.3910   -15.4440 
  113.6250   111.6520    13.4780     7.6140    51.1560    11.8840    10.8930    10.8750    20.2960     2.3200   -15.5430 
  113.7500   111.7700    13.5140     7.6330    53.3760    11.2950    10.2610     9.2410    20.4580     2.2550   -15.6240 
  113.8750   111.8880    13.5500     7.6520    53.9780    10.9960     9.8750     8.1920    20.6180     2.2140   -15.6900 
  114.0000   112.0070    13.5860     7.6710    53.1320    10.9560     9.7450     7.7270    20.7800     2.1970   -15.7470 
  114.1250   112.1250    13.6220     7.6900    53.6440    11.0950     9.8320     7.7210    20.9270     2.1940   -15.7860 
  114.2500   112.2430    13.6580     7.7090    54.7750    11.2840    10.0100     7.6970    21.0590     2.1940   -15.8010 
  114.3750   112.3610    13.6940     7.7280    55.1520    11.4610    10.2110     7.5380    21.1370     2.1910   -15.7970 
  114.5000   112.4790    13.7300     7.7470    55.5330    11.5950    10.3890     7.4180    21.1310     2.1860   -15.7810 
  114.6250   112.5970    13.7660     7.7660    55.4060    11.6600    10.5130     7.3000    21.0230     2.1820   -15.7450 
