~V
VERS. 2.00: Ver 2.00
~W
STRT.M 50.0000:
STOP.M 287.0000:
STEP.M 0.1250:
NULL. -999.2500:
UWI. FD10894:
~C
DEPT.M :
TVD. :
DX. :
DY. :
SP.MV :
GR.API :
RI. :
RML.OHMM :
RXO.OHMM :
DEN.GM/CC :
~A
# ...
  278.1250   263.6070    69.5800    14.4220   -14.5670    33.6560     3.3920     4.1370     4.1880     2.2410 
  278.2500   263.7190    69.6340    14.4340   -14.5710    34.0740     3.3880     4.1440     4.1820     2.2350 
  278.3750   263.8310    69.6870    14.4460   -14.5750    34.4200     3.3920     4.1380     4.1110     2.2370 
  278.5000   263.9430    69.7410    14.4580   -14.5800    34.2170     3.3910     4.1380     4.0320     2.2460 
  278.6250   264.0550    69.7950    14.4700   -14.5840    33.0260     3.3900     4.1350     4.0190     2.2600 
  278.7500   264.1680    69.8490    14.4820   -14.5880    31.3900     3.3940     4.1310     4.1130     2.2760 
  278.8750   264.2800    69.9030    14.4940   -14.5920    30.1310     3.3980     4.1280     4.2600     2.2930 
  279.0000   264.3920    69.9570    14.5060   -14.5970    29.7390     3.4000     4.1390     4.4200     2.3110 
  279.1250   264.5040    70.0110    14.5180   -14.6010    29.8160     3.3990     4.1460     4.5490     2.3270 
  279.2500   264.6160    70.0650    14.5300   -14.6050    29.8300     3.3970     4.1490     4.5760     2.3350 
  279.3750   264.7280    70.1190    14.5420   -14.6090    29.8300     3.3980     4.1450     4.7080     2.3270 
  279.5000   264.8400    70.1730    14.5540   -14.6140    29.8300     3.4000     4.1280     5.0490     2.3020 
  279.6250   264.9520    70.2270    14.5660   -14.6180    29.8300     3.4020     4.1210     5.2210     2.2590 
  279.7500   265.0650    70.2810    14.5780   -14.6220    29.8300     3.3930     4.1180     5.1050     2.2060 
  279.8750   265.1770    70.3350    14.5900   -14.6270    29.8300     3.3930     4.1250     5.0270     2.1510 
  280.0000   265.2890    70.3880    14.6020   -14.6310    29.8300     3.3870     4.1310     4.9890     2.1030 
  280.1250   265.4010    70.4420    14.6140   -14.6350    29.8300     3.3860     4.1350     4.9020     2.0700 
  280.2500   265.5130    70.4960    14.6260   -14.6390    29.8300     3.3870     4.1360     4.9700     2.0530 
  280.3750   265.6250    70.5500    14.6380   -14.6440    29.8300     3.3830     4.1400     5.1900     2.0520 
  280.5000   265.7370    70.6040    14.6500   -14.6480    29.8300     3.3910     4.1520     5.3290     2.0560 
  280.6250   265.8490    70.6580    14.6620   -14.6520    29.8300     3.3930     4.1540     5.3060     2.0580 
  280.7500   265.9620    70.7120    14.6740   -14.6560    29.8300     3.3960     4.1470     5.1640     2.0530 
  280.8750   266.0740    70.7660    14.6860   -14.6610    29.8300     3.3930     4.1340     4.8170     2.0350 
  281.0000   266.1860    70.8200    14.6980   -14.6650    29.8300     3.3930     4.1260     4.7450     2.0070 
  281.1250   266.2980    70.8740    14.7100   -14.6690    29.8300     3.3920     4.1230     5.5520     1.9710 
  281.2500   266.4100    70.9280    14.7220   -14.6740    29.8300     3.3980     4.1270     6.4490     1.9380 
  281.3750   266.5220    70.9820    14.7340   -14.6780    29.8300     3.4010     4.1290     6.7130     1.9130 
  281.5000   266.6340    71.0360    14.7460   -14.6820    29.8300     3.4010     4.1270     6.7120     1.8980 
  281.6250   266.7470    71.0890    14.7580   -14.6860    29.8300     3.4010     4.1270     6.7110     1.8910 
  281.7500   266.8590    71.1430    14.7700   -14.6910    29.8300     3.4010     4.1270     6.7100     1.8890 
  281.8750   266.9710    71.1970    14.7820   -14.6950    29.8300     3.4010     4.1270     6.7100     1.8910 
  282.0000   267.0830    71.2510    14.7940   -14.6990    29.8300     3.4010     4.1270     6.7100     1.8950 
  282.1250   267.1950    71.3050    14.8060   -14.7030    29.8300     3.4010     4.1270     6.7090     1.8990 
  282.2500   267.3070    71.3590    14.8180   -14.7080    29.8300     3.4010     4.1270     6.7090     1.9000 
  282.3750   267.4190    71.4130    14.8300   -14.7120    29.8300     3.4010     4.1270     6.7100     1.9010 
  282.5000   267.5310    71.4670    14.8420   -14.7160    29.8300     3.4010     4.1270     6.7100     1.9020 
  282.6250   267.6440    71.5210    14.8540   -14.7210    29.8300     3.4010     4.1270     6.7090     1.9020 
  282.7500   267.7560    71.5750    14.8660   -14.7250    29.8300     3.4010     4.1270     6.7090     1.9020 
  282.8750   267.8680    71.6290    14.8780   -14.7290    29.8300     3.4010     4.1270     6.7090     1.9000 
  283.0000   267.9800    71.6830    14.8900   -14.7330    29.8300     3.4010     4.1270     6.7090     1.8960 
  283.1250   268.0920    71.7370    14.9020   -14.7380    29.8300     3.4010     4.1270     6.7080     1.8930 
  283.2500   268.2040    71.7900    14.9140   -14.7420    29.8300     3.4010     4.1270     6.7080     1.8920 
  283.3750   268.3160    71.8440    14.9260   -14.7460    29.8300     3.4010     4.1270     6.7080     1.8940 
  283.5000   268.4280    71.8980    14.9380   -14.7500    29.8300     3.4010     4.1270     6.7080     1.8970 
  283.6250   268.5410    71.9520    14.9500   -14.7550    29.8300     3.4010     4.1270     6.7060     1.8990 
  283.7500   268.6530    72.0060    14.9620   -14.7590    29.8300     3.4010     4.1270     6.7050     1.9000 
  283.8750   268.7650    72.0600    14.9740   -14.7630    29.8300     3.4010     4.1270     6.7060     1.8990 
  284.0000   268.8770    72.1140    14.9860   -14.7680    29.8300     3.4010     4.1270     6.7060     1.8990 
  284.1250   268.9890    72.1680    14.9980   -14.7720    29.8300     3.4010     4.1270     6.7060     1.8990 
  284.2500   269.1010    72.2220    15.0100   -14.7760    29.8300     3.4010     4.1270     6.7050     1.9010 
  284.3750   269.2130    72.2760    15.0220   -14.7800    29.8300     3.4010     4.1270     6.7050     1.9030 
  284.5000   269.3260    72.3300    15.0340   -14.7850    29.8300     3.4010     4.1270     6.7040     1.9030 
  284.6250   269.4380    72.3840    15.0460   -14.7890    29.8300     3.4010     4.1270     6.7040     1.9020 
  284.7500   269.5500    72.4380    15.0580   -14.7930    29.8300     3.4010     4.1270     6.7040     1.9000 
  284.8750   269.6620    72.4910    15.0700   -14.7970    29.8300     3.4010     4.1270     6.7030     1.8980 
  285.0000   269.7740    72.5450    15.0820   -14.8020    29.8300     3.4010     4.1270     6.7030     1.8960 
  285.1250   269.8860    72.5990    15.0940   -14.8060    29.8300     3.4010     4.1270     6.7030     1.8940 
  285.2500   269.9980    72.6530    15.1060   -14.8100    29.8300     3.4010     4.1270     6.7030     1.8940 
  285.3750   270.1100    72.7070    15.1180   -14.8150    29.8300     3.4010     4.1270     6.7020     1.8950 
  285.5000   270.2230    72.7610    15.1300   -14.8190    29.8300     3.4010     4.1270     6.7010     1.8970 
  285.6250   270.3350    72.8150    15.1420   -14.8230    29.8300     3.4010     4.1270     6.7010     1.8980 
  285.7500   270.4470    72.8690    15.1540   -14.8270    29.8300     3.4010     4.1270     6.7010     1.8990 
  285.8750   270.5590    72.9230    15.1660   -14.8320    29.8300     3.4010     4.1270     6.7010     1.9010 
  286.0000   270.6710    72.9770    15.1780   -14.8360    29.8300     3.4010     4.1270     6.7000     1.9030 
  286.1250   270.7830    73.0310    15.1900   -14.8400    29.8300     3.4010     4.1270     6.7000     1.9040 
  286.2500   270.8950    73.0850    15.2020   -14.8440    29.8300     3.4010     4.1270     6.6990     1.9050 
  286.3750   271.0070    73.1390    15.2140   -14.8490    29.8300     3.4010     4.1270     6.6990     1.9050 
  286.5000   271.1200    73.1920    15.2260   -14.8530    29.8300     3.4010     4.1270     6.6950     1.9050 
  286.6250   271.2320    73.2460    15.2380   -14.8570    29.8300     3.4010     4.1270     6.6760     1.9050 
  286.7500   271.3440    73.3000    15.2510   -14.8620    29.8300     3.4010     4.1270     6.6440     1.9050 
  286.8750   271.4560    73.3540    15.2630   -14.8660    29.8300     3.4010     4.1270     6.6270     1.9050 
  287.0000   271.5680    73.4080    15.2750   -14.8700    29.8300     3.4010     4.1270     6.6250     1.9050 
