~V
VERS. 2.00: Ver 2.00
~W
STRT.M 44.0000:
STOP.M 206.0000:
STEP.M 0.1250:
NULL. -999.2500:
UWI. FD10808:
~C
DEPT.M :
TVD. :
DX. :
DY. :
SP.MV :
GR.API :
RI. :
RML.OHMM :
RXO.OHMM :
DEN.GM/CC :
~A
# ...
  135.2500   130.3880    -9.9670    22.6030    -6.8860    56.0980    16.3660    18.6620    18.6360     2.4700 
  135.3750   130.4950    -9.9950    22.6600    -7.1300    56.1860    16.5810    18.8920    18.5530     2.4770 
  135.5000   130.6030   -10.0240    22.7170    -7.3100    55.7360    16.7910    19.1190    17.6370     2.4760 
  135.6250   130.7110   -10.0520    22.7730    -7.2280    54.9200    16.9290    19.2570    18.0410     2.4640 
  135.7500   130.8180   -10.0800    22.8300    -7.1060    53.6420    17.0070    19.3680    18.4000     2.4510 
  135.8750   130.9260   -10.1090    22.8870    -7.0660    52.6100    17.2260    19.5490    17.7870     2.4510 
  136.0000   131.0340   -10.1370    22.9440    -7.1170    52.6230    17.4360    19.7670    17.6590     2.4640 
  136.1250   131.1410   -10.1660    23.0000    -7.1540    51.7590    17.5980    20.0000    18.1850     2.4830 
  136.2500   131.2490   -10.1940    23.0570    -7.1880    50.4390    17.8110    20.2620    19.0090     2.4970 
  136.3750   131.3570   -10.2230    23.1140    -7.3790    48.6760    17.9880    20.5120    20.2930     2.5080 
  136.5000   131.4640   -10.2510    23.1710    -7.5980    48.1640    18.1080    20.7080    20.1170     2.5160 
  136.6250   131.5720   -10.2800    23.2270    -7.7370    49.3200    18.1750    20.8410    18.6920     2.5220 
  136.7500   131.6800   -10.3090    23.2840    -7.7440    50.2160    18.2140    20.9200    18.8190     2.5280 
  136.8750   131.7870   -10.3370    23.3410    -7.6370    50.3920    18.2370    20.9740    19.4950     2.5290 
  137.0000   131.8950   -10.3660    23.3980    -7.5200    49.2160    18.3140    21.0320    19.7610     2.5290 
  137.1250   132.0020   -10.3950    23.4550    -7.4950    48.2880    18.3530    21.0780    19.6680     2.5310 
  137.2500   132.1100   -10.4230    23.5120    -7.4520    47.1050    18.3640    21.1320    19.0030     2.5350 
  137.3750   132.2170   -10.4520    23.5700    -7.3810    46.5110    18.4470    21.2370    18.3500     2.5440 
  137.5000   132.3240   -10.4800    23.6270    -7.3340    45.9600    18.5650    21.3850    18.0630     2.5460 
  137.6250   132.4320   -10.5090    23.6840    -7.1620    46.3730    18.7260    21.5370    18.9110     2.5420 
  137.7500   132.5390   -10.5370    23.7420    -6.9440    47.0460    18.8280    21.5880    20.2820     2.5290 
  137.8750   132.6460   -10.5660    23.7990    -6.6370    48.3220    18.7160    21.4220    20.3190     2.5190 
  138.0000   132.7530   -10.5950    23.8570    -6.4210    49.6390    18.4430    21.0540    19.1490     2.5100 
  138.1250   132.8600   -10.6240    23.9150    -6.1990    50.7390    18.0230    20.5470    17.8620     2.5090 
  138.2500   132.9670   -10.6530    23.9730    -5.9600    50.1990    17.5840    20.0680    17.0100     2.5140 
  138.3750   133.0740   -10.6820    24.0300    -5.7360    49.2710    17.3480    19.8370    16.7940     2.5240 
  138.5000   133.1810   -10.7110    24.0890    -5.5670    49.2800    17.4080    19.9540    16.9510     2.5250 
  138.6250   133.2870   -10.7400    24.1470    -5.2800    50.7460    17.7910    20.4660    17.3420     2.5140 
  138.7500   133.3940   -10.7700    24.2050    -4.9190    51.8170    18.4810    21.2490    18.6500     2.4910 
  138.8750   133.5010   -10.7990    24.2630    -4.6990    51.5330    19.2420    22.0650    20.3590     2.4750 
  139.0000   133.6070   -10.8280    24.3220    -4.4040    50.5780    19.8310    22.6570    21.5770     2.4620 
  139.1250   133.7140   -10.8580    24.3800    -4.1280    50.7770    20.0560    22.8460    22.0940     2.4580 
  139.2500   133.8200   -10.8870    24.4390    -3.8780    51.0600    19.9620    22.7210    21.2080     2.4580 
  139.3750   133.9260   -10.9160    24.4980    -3.7480    49.9700    19.7560    22.4870    19.8000     2.4620 
  139.5000   134.0330   -10.9460    24.5570    -3.6990    48.5740    19.6120    22.3660    19.0550     2.4710 
  139.6250   134.1390   -10.9750    24.6160    -3.5680    47.7240    19.7010    22.4720    18.8440     2.4740 
  139.7500   134.2450   -11.0050    24.6750    -3.3460    47.7560    19.9010    22.6870    19.5830     2.4690 
  139.8750   134.3510   -11.0340    24.7340    -3.2190    47.2770    19.9900    22.7900    21.5630     2.4580 
  140.0000   134.4570   -11.0640    24.7930    -3.1320    47.8360    19.8850    22.6700    22.4640     2.4520 
  140.1250   134.5630   -11.0930    24.8530    -3.0340    49.8260    19.5990    22.3240    21.0460     2.4470 
  140.2500   134.6690   -11.1230    24.9120    -2.9590    51.4590    19.1940    21.9020    19.3280     2.4420 
  140.3750   134.7750   -11.1530    24.9720    -2.7980    50.9640    18.9140    21.6250    18.9100     2.4390 
  140.5000   134.8800   -11.1820    25.0310    -2.6300    49.5760    18.8590    21.5590    19.7480     2.4460 
  140.6250   134.9860   -11.2120    25.0910    -2.4460    47.3850    18.8720    21.5240    20.0120     2.4620 
  140.7500   135.0920   -11.2420    25.1510    -2.2980    46.1260    18.6550    21.2980    19.7440     2.4720 
  140.8750   135.1980   -11.2710    25.2100    -2.1560    45.3890    18.2590    20.8200    19.6590     2.4630 
  141.0000   135.3030   -11.3010    25.2700    -2.0850    46.8100    17.6990    20.2170    18.2480     2.4440 
  141.1250   135.4090   -11.3310    25.3300    -2.0850    48.1490    17.2800    19.7190    16.2800     2.4310 
  141.2500   135.5150   -11.3610    25.3900    -2.1050    48.2340    17.0810    19.4730    15.9410     2.4320 
  141.3750   135.6200   -11.3910    25.4490    -2.1730    47.9390    17.1370    19.5620    16.8040     2.4350 
  141.5000   135.7260   -11.4210    25.5090    -2.2570    47.1620    17.4890    19.9610    18.5730     2.4240 
  141.6250   135.8310   -11.4510    25.5690    -2.2070    47.4380    18.0500    20.5590    20.1430     2.4010 
  141.7500   135.9370   -11.4810    25.6290    -2.0850    47.0200    18.5850    21.1330    19.3840     2.3880 
  141.8750   136.0430   -11.5110    25.6890    -2.0790    47.9820    18.9130    21.5140    20.6100     2.3970 
  142.0000   136.1480   -11.5410    25.7490    -2.0910    48.1600    19.0490    21.6540    23.9940     2.4110 
  142.1250   136.2540   -11.5710    25.8090    -2.0710    48.0680    18.9060    21.5020    23.5190     2.4190 
  142.2500   136.3590   -11.6010    25.8690    -2.0540    47.0200    18.5390    21.0890    21.6890     2.4100 
  142.3750   136.4650   -11.6300    25.9280    -2.0810    48.0600    17.9700    20.4820    22.1600     2.3720 
  142.5000   136.5700   -11.6600    25.9880    -2.1020    50.0330    17.3740    19.8680    22.6300     2.3040 
  142.6250   136.6760   -11.6900    26.0480    -2.0590    52.6540    16.9930    19.4350    21.8900     2.2370 
  142.7500   136.7810   -11.7200    26.1080    -2.0680    54.7640    16.8200    19.2240    20.3630     2.2290 
  142.8750   136.8870   -11.7500    26.1680    -2.1440    56.7740    16.8140    19.2350    18.3940     2.2840 
  143.0000   136.9920   -11.7800    26.2290    -2.3390    58.2920    16.9670    19.4130    17.6970     2.3540 
  143.1250   137.0980   -11.8100    26.2890    -2.5810    58.7730    17.1670    19.7040    18.5280     2.3980 
  143.2500   137.2030   -11.8400    26.3490    -2.8340    57.2480    17.4220    20.0280    18.9600     2.4180 
  143.3750   137.3090   -11.8700    26.4090    -2.9880    54.7800    17.5930    20.2340    18.2160     2.4220 
  143.5000   137.4140   -11.9000    26.4690    -3.2140    52.2130    17.5220    20.1920    17.8700     2.4140 
  143.6250   137.5190   -11.9300    26.5290    -3.4760    51.2460    17.2380    19.8730    18.9320     2.4040 
  143.7500   137.6250   -11.9600    26.5890    -3.7220    51.4780    16.7920    19.3930    21.1840     2.4030 
  143.8750   137.7300   -11.9890    26.6490    -3.9990    52.4190    16.3600    18.9090    21.7510     2.4130 
  144.0000   137.8360   -12.0190    26.7090    -4.2510    52.6680    16.0440    18.5410    18.5550     2.4240 
  144.1250   137.9410   -12.0490    26.7690    -4.4680    52.9200    15.8630    18.3360    17.2000     2.4300 
  144.2500   138.0470   -12.0790    26.8300    -4.5560    52.4950    15.8250    18.2410    19.3610     2.4310 
