~V
VERS. 2.00: Ver 2.00
~W
STRT.M 63.0000:
STOP.M 256.0000:
STEP.M 0.1250:
NULL. -999.2500:
UWI. FD10901:
~C
DEPT.M :
TVD. :
DX. :
DY. :
SP.MV :
GR.API :
RI. :
RML.OHMM :
RXO.OHMM :
DEN.GM/CC :
~A
# ...
  199.8750   198.2200    -4.4800   -15.1680     1.0920    66.9380    18.6570    19.1630    14.7140     2.1770 
  200.0000   198.3400    -4.4880   -15.2030     0.6770    68.1710    18.1890    18.6660    14.2200     2.1770 
  200.1250   198.4600    -4.4960   -15.2380     0.3150    68.8440    17.6980    18.1610    15.2540     2.1980 
  200.2500   198.5800    -4.5040   -15.2730     0.1160    69.7560    17.2720    17.7300    15.7590     2.2260 
  200.3750   198.6990    -4.5120   -15.3080    -0.0240    69.9850    16.9060    17.3730    15.7090     2.2410 
  200.5000   198.8190    -4.5200   -15.3430    -0.0920    69.5150    16.5360    17.0170    17.0490     2.2370 
  200.6250   198.9390    -4.5280   -15.3780     0.0220    69.6120    16.2600    16.7550    18.5030     2.2160 
  200.7500   199.0590    -4.5360   -15.4130     0.2880    70.6420    16.1010    16.6110    18.0280     2.1950 
  200.8750   199.1790    -4.5440   -15.4470     0.7880    71.0630    16.1900    16.7140    18.8590     2.1760 
  201.0000   199.2980    -4.5530   -15.4820     1.6970    69.6970    16.6260    17.2150    20.5320     2.1820 
  201.1250   199.4180    -4.5610   -15.5170     2.6920    66.9660    17.4610    18.1520    22.3610     2.2270 
  201.2500   199.5380    -4.5690   -15.5520     3.2620    65.2520    18.2800    19.0250    24.6960     2.2860 
  201.3750   199.6580    -4.5770   -15.5870     3.6210    63.8970    19.1220    19.9510    25.6410     2.3170 
  201.5000   199.7770    -4.5850   -15.6220     3.9690    63.0560    20.0800    20.9570    26.3890     2.3130 
  201.6250   199.8970    -4.5930   -15.6570     4.1640    60.8680    21.0110    21.9420    24.8180     2.3070 
  201.7500   200.0170    -4.6020   -15.6920     4.0710    59.7530    22.2770    23.3750    24.0590     2.3220 
  201.8750   200.1360    -4.6100   -15.7270     3.8910    59.7990    24.2410    25.6680    28.4280     2.3460 
  202.0000   200.2560    -4.6180   -15.7620     3.7490    60.6170    26.1470    27.8040    29.5180     2.3500 
  202.1250   200.3760    -4.6260   -15.7970     3.5970    60.9890    27.1410    28.9040    31.3440     2.3250 
  202.2500   200.4960    -4.6340   -15.8320     3.3480    59.9090    27.4780    29.2530    52.5010     2.3050 
  202.3750   200.6150    -4.6430   -15.8670     3.0750    57.8480    26.4370    28.0140    73.1840     2.3470 
  202.5000   200.7350    -4.6510   -15.9020     2.8200    55.3420    24.4650    25.9150    62.3720     2.4580 
  202.6250   200.8550    -4.6590   -15.9370     2.7060    55.0390    22.3190    23.6300    43.5580     2.5620 
  202.7500   200.9740    -4.6670   -15.9720     2.6210    56.5400    19.9160    21.0780    35.1090     2.5640 
  202.8750   201.0940    -4.6750   -16.0070     2.4800    59.4090    18.3510    19.4380    25.7460     2.4350 
  203.0000   201.2140    -4.6840   -16.0420     2.2890    61.3110    17.4840    18.5850    19.8120     2.2800 
  203.1250   201.3330    -4.6920   -16.0770     2.0210    61.8090    17.4880    18.6960    22.3880     2.1840 
  203.2500   201.4530    -4.7000   -16.1120     1.9450    62.1930    17.9320    19.2930    26.8970     2.1580 
  203.3750   201.5730    -4.7080   -16.1480     2.0370    63.2390    18.5930    20.0400    27.7510     2.1630 
  203.5000   201.6930    -4.7160   -16.1830     2.0890    64.3390    18.6330    19.9230    26.2290     2.1690 
  203.6250   201.8120    -4.7250   -16.2180     1.8620    63.2890    17.8980    18.8780    23.6100     2.1810 
  203.7500   201.9320    -4.7330   -16.2530     1.4620    61.2770    17.0230    17.7280    19.3760     2.2190 
  203.8750   202.0520    -4.7410   -16.2880     1.0910    59.2350    16.8640    17.4970    15.3590     2.2830 
  204.0000   202.1720    -4.7490   -16.3230     0.9130    57.5750    18.0510    18.8900    13.1190     2.3310 
  204.1250   202.2910    -4.7570   -16.3580     0.8990    56.4250    20.2330    21.3880    32.0110     2.3200 
  204.2500   202.4110    -4.7650   -16.3930     1.0310    56.5160    21.3820    22.5880    50.6350     2.2750 
  204.3750   202.5310    -4.7730   -16.4280     1.1070    58.6700    20.6690    21.7360    28.2430     2.2410 
  204.5000   202.6500    -4.7810   -16.4630     0.9590    60.8190    18.1880    18.8820     6.0160     2.2440 
  204.6250   202.7700    -4.7890   -16.4970     0.5950    63.8970    14.5950    14.9530     6.2470     2.2620 
  204.7500   202.8900    -4.7970   -16.5320     0.1910    65.6660    11.7680    12.0220     7.7060     2.2730 
  204.8750   203.0100    -4.8060   -16.5670    -0.0920    67.7230     9.7820    10.0430     7.9840     2.2730 
  205.0000   203.1290    -4.8140   -16.6020    -0.2800    67.2530     8.6710     9.0390     6.9920     2.2720 
  205.1250   203.2490    -4.8220   -16.6370    -0.5040    67.9210     8.2950     8.7950     5.9310     2.2760 
  205.2500   203.3690    -4.8300   -16.6720    -0.6640    68.7380     8.3960     9.0090     5.8920     2.2760 
  205.3750   203.4890    -4.8380   -16.7070    -0.6260    69.7800     8.6920     9.4030     6.9830     2.2670 
  205.5000   203.6080    -4.8460   -16.7420    -0.6210    69.0710     9.1310     9.9020     8.3130     2.2510 
  205.6250   203.7280    -4.8540   -16.7770    -0.6610    67.4030     9.6030    10.4300     9.0130     2.2340 
  205.7500   203.8480    -4.8630   -16.8120    -0.7080    66.7530    10.0490    10.8980     9.4170     2.2190 
  205.8750   203.9680    -4.8710   -16.8470    -0.6480    66.6220    10.3190    11.1520    10.1760     2.2140 
  206.0000   204.0870    -4.8790   -16.8820    -0.4890    66.9210    10.4230    11.2340    10.7930     2.2190 
  206.1250   204.2070    -4.8880   -16.9170    -0.3620    66.2640    10.5090    11.3020    11.1900     2.2260 
  206.2500   204.3270    -4.8960   -16.9520    -0.4360    65.3600    10.5690    11.3690    11.7200     2.2250 
  206.3750   204.4470    -4.9040   -16.9870    -0.6020    64.7700    10.5490    11.3900    11.5590     2.2210 
  206.5000   204.5660    -4.9120   -17.0220    -0.7110    63.9250    10.4440    11.3420    10.7110     2.2190 
  206.6250   204.6860    -4.9210   -17.0570    -0.6810    62.8310    10.2440    11.2080    10.4430     2.2210 
  206.7500   204.8060    -4.9290   -17.0910    -0.6850    62.0220     9.9600    10.9590    11.1700     2.2260 
  206.8750   204.9250    -4.9380   -17.1260    -0.7480    62.6400     9.6500    10.6720    11.7900     2.2290 
  207.0000   205.0450    -4.9460   -17.1610    -0.8220    64.6320     9.3770    10.4100    11.2740     2.2320 
  207.1250   205.1650    -4.9550   -17.1960    -0.7920    66.2640     9.1810    10.2110    10.4720     2.2350 
  207.2500   205.2850    -4.9630   -17.2310    -0.6850    68.5160     9.0340    10.0610    10.0790     2.2370 
  207.3750   205.4040    -4.9710   -17.2660    -0.5060    69.4180     8.9220     9.9490     9.6080     2.2330 
  207.5000   205.5240    -4.9800   -17.3010    -0.3260    69.1660     8.7780     9.8040     9.5100     2.2250 
  207.6250   205.6440    -4.9880   -17.3360    -0.2190    68.0080     8.5590     9.5620    10.0530     2.2210 
  207.7500   205.7630    -4.9970   -17.3710    -0.1380    68.3030     8.2540     9.2170     9.9810     2.2240 
  207.8750   205.8830    -5.0060   -17.4060     0.1330    69.8090     7.9550     8.8920     9.0340     2.2340 
  208.0000   206.0030    -5.0140   -17.4410     0.6040    70.7460     7.7130     8.6390     8.3700     2.2510 
  208.1250   206.1230    -5.0230   -17.4760     0.9320    70.8350     7.5980     8.5710     8.2070     2.2680 
  208.2500   206.2420    -5.0310   -17.5110     1.0740    70.2400     7.6010     8.6350     8.3950     2.2800 
  208.3750   206.3620    -5.0390   -17.5460     1.0020    70.3780     7.6620     8.7580     9.0460     2.2780 
  208.5000   206.4820    -5.0480   -17.5810     0.9390    69.7320     7.7000     8.8330     9.2820     2.2670 
  208.6250   206.6010    -5.0560   -17.6160     0.9990    69.8370     7.6500     8.7730     8.8400     2.2650 
  208.7500   206.7210    -5.0640   -17.6510     1.1820    70.4160     7.5240     8.6110     8.4490     2.2780 
  208.8750   206.8410    -5.0730   -17.6860     1.3830    72.5180     7.3740     8.4270     7.9520     2.3060 
