~V
VERS. 2.00: Ver 2.00
~W
STRT.M 33.0000:
STOP.M 287.0000:
STEP.M 0.1250:
NULL. -999.2500:
UWI. FD10889:
~C
DEPT.M :
TVD. :
DX. :
DY. :
SP.MV :
GR.API :
RI. :
RML.OHMM :
RXO.OHMM :
DEN.GM/CC :
~A
# ...
   78.6250    78.3920    -3.7430    -1.2630     0.3100    60.0320    15.3760    17.2970    16.4050     2.0150 
   78.7500    78.5150    -3.7630    -1.2730     0.5950    59.8750    15.4160    17.4370    16.5720     2.0170 
   78.8750    78.6380    -3.7840    -1.2830     0.6490    58.0540    14.9770    17.0360    16.2460     2.0200 
   79.0000    78.7600    -3.8040    -1.2940     0.6190    56.9930    14.4490    16.5750    14.9300     2.0170 
   79.1250    78.8830    -3.8250    -1.3040     0.6970    56.6940    14.1690    16.3900    14.4490     2.0050 
   79.2500    79.0060    -3.8460    -1.3140     0.8920    55.9090    14.1740    16.5070    15.3210     1.9890 
   79.3750    79.1290    -3.8670    -1.3240     1.0050    55.6730    14.3100    16.7580    16.4070     1.9750 
   79.5000    79.2520    -3.8870    -1.3340     0.8490    56.0910    14.4850    17.0010    15.6460     1.9710 
   79.6250    79.3750    -3.9080    -1.3450     0.6080    55.5080    14.5940    17.1350    14.0590     1.9800 
   79.7500    79.4970    -3.9290    -1.3550     0.2800    55.8960    14.6130    17.1370    13.9730     2.0010 
   79.8750    79.6200    -3.9510    -1.3650    -0.0730    58.7620    14.4480    16.9110    14.9990     2.0310 
   80.0000    79.7430    -3.9720    -1.3750    -0.3430    60.5410    14.1100    16.5000    16.0360     2.0660 
   80.1250    79.8660    -3.9930    -1.3860    -0.4560    61.1520    13.6380    15.9500    16.2560     2.0940 
   80.2500    79.9880    -4.0140    -1.3960    -0.4170    64.0940    13.1450    15.3500    14.4930     2.1020 
   80.3750    80.1110    -4.0350    -1.4060    -0.3650    67.5570    12.7130    14.8380    12.0390     2.0880 
   80.5000    80.2340    -4.0570    -1.4170    -0.3020    65.0150    12.4390    14.5400    10.8880     2.0610 
   80.6250    80.3570    -4.0780    -1.4270    -0.2730    59.2810    12.2850    14.3910    11.0470     2.0370 
   80.7500    80.4790    -4.1000    -1.4380    -0.3780    56.3460    12.2110    14.3680    12.0280     2.0270 
   80.8750    80.6020    -4.1210    -1.4480    -0.7450    56.9730    12.2670    14.4430    12.8070     2.0280 
   81.0000    80.7250    -4.1430    -1.4590    -1.0920    57.0250    12.3550    14.5020    12.7310     2.0340 
   81.1250    80.8470    -4.1640    -1.4690    -1.3550    56.5510    12.4850    14.5990    12.8420     2.0400 
   81.2500    80.9700    -4.1860    -1.4800    -1.7310    58.7240    12.7200    14.8290    14.3100     2.0470 
   81.3750    81.0930    -4.2080    -1.4910    -2.1250    61.0590    13.0700    15.2010    15.6820     2.0560 
   81.5000    81.2150    -4.2290    -1.5020    -2.4520    60.7310    13.4570    15.6150    15.3580     2.0650 
   81.6250    81.3380    -4.2510    -1.5130    -2.6090    56.8340    13.7800    15.9610    14.6320     2.0700 
   81.7500    81.4600    -4.2730    -1.5240    -3.0110    55.0080    13.9630    16.1730    14.4690     2.0700 
   81.8750    81.5830    -4.2950    -1.5350    -3.7890    55.2070    13.9970    16.2090    13.0570     2.0680 
   82.0000    81.7060    -4.3170    -1.5460    -4.8920    56.3400    13.6140    15.6780    15.1490     2.0670 
   82.1250    81.8280    -4.3390    -1.5570    -6.3630    55.7340    12.6210    14.5400    20.5780     2.0670 
   82.2500    81.9510    -4.3610    -1.5680    -7.9160    55.6200    11.0120    12.6710    20.6560     2.0720 
   82.3750    82.0730    -4.3830    -1.5790    -9.3370    62.8100     9.0650    10.4010    14.3000     2.0840 
   82.5000    82.1960    -4.4050    -1.5900   -10.7100    73.5330     7.4790     8.5580     8.7550     2.1030 
   82.6250    82.3180    -4.4270    -1.6010   -12.0830    78.6240     6.3280     7.1280     6.6080     2.1240 
   82.7500    82.4410    -4.4500    -1.6120   -13.2380    75.4090     5.6810     6.4280     6.1130     2.1470 
   82.8750    82.5630    -4.4720    -1.6230   -13.9620    72.2270     5.3470     6.1180     6.4500     2.1720 
   83.0000    82.6860    -4.4940    -1.6340   -14.6620    72.1460     5.1130     5.8760     6.2530     2.1980 
   83.1250    82.8080    -4.5170    -1.6450   -15.3960    73.0380     4.8580     5.5550     5.7710     2.2200 
   83.2500    82.9310    -4.5390    -1.6570   -16.0000    74.3410     4.5690     5.1610     5.1820     2.2340 
   83.3750    83.0530    -4.5620    -1.6680   -16.5150    78.3180     4.3040     4.8020     4.6450     2.2400 
   83.5000    83.1750    -4.5840    -1.6800   -16.9150    82.1920     4.2060     4.6650     4.5660     2.2400 
   83.6250    83.2980    -4.6070    -1.6910   -17.1900    82.3570     4.2630     4.7280     4.8490     2.2360 
   83.7500    83.4200    -4.6300    -1.7030   -17.3220    77.0760     4.4300     4.9200     5.0340     2.2280 
   83.8750    83.5430    -4.6520    -1.7140   -17.4780    72.0150     4.6220     5.1370     5.1330     2.2170 
   84.0000    83.6650    -4.6750    -1.7260   -17.5580    72.5930     4.7840     5.3170     5.4210     2.2040 
   84.1250    83.7870    -4.6980    -1.7370   -17.5290    73.9050     4.9100     5.4580     5.5810     2.1950 
   84.2500    83.9100    -4.7210    -1.7490   -17.4900    74.6010     5.0090     5.5750     5.3640     2.1870 
   84.3750    84.0320    -4.7440    -1.7610   -17.6480    73.6380     5.0810     5.6740     5.2640     2.1790 
   84.5000    84.1540    -4.7670    -1.7720   -17.9190    70.4780     5.1260     5.7610     5.6000     2.1700 
   84.6250    84.2760    -4.7900    -1.7840   -18.2990    65.0940     5.1120     5.7860     5.9280     2.1680 
   84.7500    84.3990    -4.8140    -1.7960   -18.4920    63.0230     5.0060     5.7090     5.8490     2.1820 
   84.8750    84.5210    -4.8370    -1.8070   -18.5770    65.6550     4.8060     5.5130     5.4770     2.2120 
   85.0000    84.6430    -4.8600    -1.8190   -18.5910    68.0120     4.5340     5.2140     5.0340     2.2470 
   85.1250    84.7650    -4.8840    -1.8310   -18.4310    67.8940     4.2940     4.9500     4.7690     2.2720 
   85.2500    84.8880    -4.9080    -1.8420   -18.2570    66.9040     4.1730     4.8340     4.6980     2.2720 
   85.3750    85.0100    -4.9310    -1.8540   -18.0850    68.6450     4.2310     4.9310     4.7130     2.2510 
   85.5000    85.1320    -4.9550    -1.8660   -17.8970    70.5440     4.4830     5.2830     5.0790     2.2190 
   85.6250    85.2540    -4.9790    -1.8780   -17.6410    68.0170     4.9020     5.8840     5.8720     2.1900 
   85.7500    85.3760    -5.0020    -1.8900   -17.3650    60.2770     5.4810     6.6420     6.7990     2.1730 
   85.8750    85.4980    -5.0260    -1.9020   -17.0240    53.2470     6.1540     7.4960     7.4310     2.1660 
   86.0000    85.6200    -5.0500    -1.9140   -16.5530    53.6090     6.8440     8.3300     7.6350     2.1590 
   86.1250    85.7420    -5.0740    -1.9260   -16.1020    57.5820     7.4880     9.0750     7.8970     2.1490 
   86.2500    85.8650    -5.0980    -1.9390   -15.8630    60.8750     7.9900     9.6930     8.3670     2.1320 
   86.3750    85.9870    -5.1220    -1.9510   -15.7180    63.6100     8.3820    10.1900     8.6580     2.1150 
   86.5000    86.1090    -5.1460    -1.9630   -15.7370    64.8880     8.6730    10.5770     8.7310     2.1000 
   86.6250    86.2310    -5.1700    -1.9750   -15.4370    62.7790     8.9300    10.9500     8.9850     2.0890 
   86.7500    86.3530    -5.1940    -1.9880   -14.7780    58.7970     9.2730    11.4770     9.9030     2.0810 
   86.8750    86.4750    -5.2180    -2.0000   -13.9010    56.3690     9.7290    12.1440    11.1490     2.0750 
   87.0000    86.5970    -5.2420    -2.0130   -13.0890    57.1150    10.4320    13.0560    12.4740     2.0710 
   87.1250    86.7190    -5.2670    -2.0250   -12.4230    58.5270    11.2200    14.0640    15.0710     2.0750 
   87.2500    86.8410    -5.2910    -2.0380   -11.9290    59.0920    11.9310    14.8850    16.2180     2.0980 
   87.3750    86.9630    -5.3150    -2.0500   -11.6290    56.2790    12.3990    15.4070    14.3530     2.1370 
   87.5000    87.0850    -5.3400    -2.0630   -11.7340    50.5150    12.4900    15.4190    12.9460     2.1730 
   87.6250    87.2070    -5.3650    -2.0750   -12.1410    47.1480    12.3160    15.0590    12.8450     2.1840 
