~V
VERS. 2.00: Ver 2.00
~W
STRT.M 63.0000:
STOP.M 266.0000:
STEP.M 0.1250:
NULL. -999.2500:
UWI. FD10888:
~C
DEPT.M :
TVD. :
DX. :
DY. :
SP.MV :
GR.API :
RI. :
RML.OHMM :
RXO.OHMM :
DEN.GM/CC :
~A
# ...
  254.6250   251.7520   -16.5500   -21.2970    -8.9410    44.6950     4.1420     4.8560     4.5280     2.1410 
  254.7500   251.8730   -16.5670   -21.3230    -8.9110    42.7070     4.3210     5.0400     4.5560     2.1500 
  254.8750   251.9940   -16.5850   -21.3480    -8.8820    42.1790     4.4290     5.1370     4.5580     2.1610 
  255.0000   252.1160   -16.6030   -21.3730    -8.8520    43.4570     4.5010     5.1960     4.7810     2.1800 
  255.1250   252.2370   -16.6200   -21.3980    -8.8220    45.6890     4.5980     5.2990     4.9990     2.2010 
  255.2500   252.3580   -16.6380   -21.4230    -8.7930    46.8740     4.7320     5.4670     5.1950     2.2170 
  255.3750   252.4790   -16.6550   -21.4480    -8.7630    45.9210     4.9260     5.7460     5.6800     2.2210 
  255.5000   252.6000   -16.6730   -21.4740    -8.7330    44.5170     5.1470     6.0800     6.3430     2.2120 
  255.6250   252.7210   -16.6900   -21.4990    -8.7030    44.5860     5.3090     6.3390     6.7430     2.1960 
  255.7500   252.8430   -16.7080   -21.5240    -8.6740    45.2960     5.3570     6.4390     6.8220     2.1900 
  255.8750   252.9640   -16.7260   -21.5490    -8.6440    45.3390     5.2440     6.3110     6.7390     2.2060 
  256.0000   253.0850   -16.7430   -21.5740    -8.6140    44.4640     5.0000     6.0050     6.4740     2.2410 
  256.1250   253.2060   -16.7610   -21.5990    -8.5850    44.6670     4.7010     5.6310     5.9290     2.2760 
  256.2500   253.3270   -16.7780   -21.6250    -8.5550    45.7950     4.4640     5.3460     5.2780     2.2950 
  256.3750   253.4480   -16.7960   -21.6500    -8.5250    45.4440     4.3410     5.2200     4.7840     2.2890 
  256.5000   253.5700   -16.8130   -21.6750    -8.4950    42.5330     4.3240     5.2340     4.6330     2.2690 
  256.6250   253.6910   -16.8310   -21.7000    -8.4660    40.1240     4.3630     5.3070     4.9040     2.2460 
  256.7500   253.8120   -16.8490   -21.7250    -8.4360    40.1340     4.3880     5.3270     5.3020     2.2320 
  256.8750   253.9330   -16.8660   -21.7500    -8.4060    41.8460     4.3910     5.3270     5.5550     2.2310 
  257.0000   254.0540   -16.8840   -21.7760    -8.3770    43.1610     4.3880     5.3180     5.6990     2.2360 
  257.1250   254.1750   -16.9010   -21.8010    -8.3470    43.7460     4.3840     5.3450     5.7880     2.2420 
  257.2500   254.2970   -16.9190   -21.8260    -8.3170    42.9020     4.3770     5.3760     5.8010     2.2420 
  257.3750   254.4180   -16.9360   -21.8510    -8.2870    40.6660     4.3750     5.3790     5.7220     2.2370 
  257.5000   254.5390   -16.9540   -21.8760    -8.2580    39.9190     4.3750     5.3910     5.5990     2.2320 
  257.6250   254.6600   -16.9720   -21.9010    -8.2280    40.7810     4.3790     5.4520     5.5460     2.2280 
  257.7500   254.7810   -16.9890   -21.9270    -8.1980    41.5220     4.3830     5.4780     5.5940     2.2240 
  257.8750   254.9020   -17.0070   -21.9520    -8.1690    41.3390     4.3830     5.4800     5.6080     2.2220 
  258.0000   255.0240   -17.0240   -21.9770    -8.1390    40.8720     4.3830     5.4430     5.5540     2.2200 
  258.1250   255.1450   -17.0420   -22.0020    -8.1090    40.8550     4.3840     5.3770     5.5360     2.2160 
  258.2500   255.2660   -17.0590   -22.0270    -8.0790    41.2430     4.3830     5.3650     5.6010     2.2100 
  258.3750   255.3870   -17.0770   -22.0520    -8.0500    41.8760     4.3820     5.3600     5.7700     2.2040 
  258.5000   255.5080   -17.0940   -22.0780    -8.0200    42.1450     4.3810     5.3570     5.9660     2.2030 
  258.6250   255.6300   -17.1120   -22.1030    -7.9900    42.0340     4.3790     5.3600     6.1010     2.2060 
  258.7500   255.7510   -17.1300   -22.1280    -7.9610    41.9980     4.3780     5.3680     6.2360     2.2090 
  258.8750   255.8720   -17.1470   -22.1530    -7.9310    42.0110     4.3780     5.3740     6.3900     2.2100 
  259.0000   255.9930   -17.1650   -22.1780    -7.9010    42.0110     4.3780     5.3750     6.5020     2.2130 
  259.1250   256.1140   -17.1820   -22.2030    -7.8710    42.0110     4.3790     5.3730     6.4980     2.2250 
  259.2500   256.2350   -17.2000   -22.2290    -7.8420    42.0110     4.3790     5.3710     6.2840     2.2440 
  259.3750   256.3570   -17.2170   -22.2540    -7.8120    42.0110     4.3780     5.3690     5.8700     2.2680 
  259.5000   256.4780   -17.2350   -22.2790    -7.7820    42.0110     4.3760     5.3670     5.4020     2.2890 
  259.6250   256.5990   -17.2530   -22.3040    -7.7530    42.0110     4.3740     5.3650     4.9970     2.3050 
  259.7500   256.7200   -17.2700   -22.3290    -7.7230    42.0110     4.3720     5.3630     4.8040     2.3090 
  259.8750   256.8410   -17.2880   -22.3540    -7.6930    42.0110     4.3720     5.3610     4.8100     2.2990 
  260.0000   256.9620   -17.3050   -22.3800    -7.6630    42.0110     4.3710     5.3600     4.6880     2.2820 
  260.1250   257.0840   -17.3230   -22.4050    -7.6340    42.0110     4.3700     5.3580     4.2130     2.2720 
  260.2500   257.2050   -17.3400   -22.4300    -7.6040    42.0110     4.3680     5.3570     3.7160     2.2750 
  260.3750   257.3260   -17.3580   -22.4550    -7.5740    42.0110     4.3660     5.3570     3.7310     2.2850 
  260.5000   257.4470   -17.3760   -22.4800    -7.5450    42.0110     4.3650     5.3580     4.2690     2.2900 
  260.6250   257.5680   -17.3930   -22.5050    -7.5150    42.0110     4.3650     5.3580     5.0370     2.2820 
  260.7500   257.6900   -17.4110   -22.5310    -7.4850    42.0110     4.3670     5.3560     5.6530     2.2670 
  260.8750   257.8110   -17.4280   -22.5560    -7.4560    42.0110     4.3700     5.3520     5.8700     2.2480 
  261.0000   257.9320   -17.4460   -22.5810    -7.4260    42.0110     4.3730     5.3470     5.8560     2.2260 
  261.1250   258.0530   -17.4630   -22.6060    -7.3960    42.0110     4.3750     5.3440     5.8350     2.1980 
  261.2500   258.1740   -17.4810   -22.6310    -7.3660    42.0110     4.3750     5.3440     5.9120     2.1640 
  261.3750   258.2950   -17.4980   -22.6560    -7.3370    42.0110     4.3750     5.3440     6.0810     2.1240 
  261.5000   258.4170   -17.5160   -22.6820    -7.3070    42.0110     4.3750     5.3440     6.1780     2.0810 
  261.6250   258.5380   -17.5340   -22.7070    -7.2770    42.0110     4.3750     5.3440     6.1020     2.0390 
  261.7500   258.6590   -17.5510   -22.7320    -7.2480    42.0110     4.3750     5.3440     5.8560     2.0060 
  261.8750   258.7800   -17.5690   -22.7570    -7.2180    42.0110     4.3750     5.3440     5.3090     1.9880 
  262.0000   258.9010   -17.5860   -22.7820    -7.1880    42.0110     4.3750     5.3440     4.5470     1.9810 
  262.1250   259.0220   -17.6040   -22.8070    -7.1580    42.0110     4.3750     5.3440     3.9360     1.9800 
  262.2500   259.1440   -17.6210   -22.8330    -7.1290    42.0110     4.3750     5.3440     3.6570     1.9790 
  262.3750   259.2650   -17.6390   -22.8580    -7.0990    42.0110     4.3750     5.3440     3.6020     1.9760 
  262.5000   259.3860   -17.6570   -22.8830    -7.0690    42.0110     4.3750     5.3440     3.5970     1.9710 
  262.6250   259.5070   -17.6740   -22.9080    -7.0400    42.0110     4.3750     5.3440     3.5960     1.9640 
  262.7500   259.6280   -17.6920   -22.9330    -7.0100    42.0110     4.3750     5.3440     3.5950     1.9540 
  262.8750   259.7490   -17.7090   -22.9580    -6.9800    42.0110     4.3750     5.3440     3.5930     1.9430 
  263.0000   259.8710   -17.7270   -22.9840    -6.9500    42.0110     4.3750     5.3440     3.5920     1.9350 
  263.1250   259.9920   -17.7440   -23.0090    -6.9210    42.0110     4.3750     5.3440     3.5900     1.9340 
  263.2500   260.1130   -17.7620   -23.0340    -6.8910    42.0110     4.3750     5.3440     3.5880     1.9370 
  263.3750   260.2340   -17.7800   -23.0590    -6.8610    42.0110     4.3750     5.3440     3.5860     1.9420 
  263.5000   260.3550   -17.7970   -23.0840    -6.8320    42.0110     4.3750     5.3440     3.5840     1.9440 
  263.6250   260.4770   -17.8150   -23.1090    -6.8020    42.0110     4.3750     5.3440     3.5820     1.9430 
