~V
VERS. 2.00: Ver 2.00
~W
STRT.M 33.0000:
STOP.M 273.0000:
STEP.M 0.1250:
NULL. -999.2500:
UWI. FD10880:
~C
DEPT.M :
TVD. :
DX. :
DY. :
SP.MV :
GR.API :
RI. :
RML.OHMM :
RXO.OHMM :
DEN.GM/CC :
~A
# ...
  215.5000   200.9550    63.4110    12.5970    -5.5750    84.5380     3.7190     4.6270     6.0230     2.3250 
  215.6250   201.0640    63.4710    12.6100    -5.5540    84.2130     3.6980     4.6870     6.1080     2.3300 
  215.7500   201.1730    63.5310    12.6240    -5.7290    84.5230     3.7350     4.8410     6.4540     2.3370 
  215.8750   201.2820    63.5920    12.6370    -5.9850    87.1160     3.7890     4.9950     6.5820     2.3380 
  216.0000   201.3900    63.6520    12.6500    -6.3770    91.2810     3.8190     5.0950     6.6100     2.3360 
  216.1250   201.4990    63.7120    12.6630    -6.7620    93.5150     3.8450     5.1510     6.6620     2.3340 
  216.2500   201.6080    63.7720    12.6770    -7.0890    93.9590     3.8620     5.1810     6.5100     2.3320 
  216.3750   201.7160    63.8330    12.6900    -7.4470    94.9100     3.8740     5.1940     6.4590     2.3260 
  216.5000   201.8250    63.8930    12.7030    -7.8670    98.5630     3.8970     5.2000     6.9560     2.3150 
  216.6250   201.9340    63.9530    12.7160    -8.0400   104.3630     3.9120     5.1990     7.6870     2.3060 
  216.7500   202.0420    64.0140    12.7290    -7.7130   110.4930     3.9360     5.2030     7.8330     2.3030 
  216.8750   202.1510    64.0740    12.7430    -7.0460   116.2790     3.9810     5.2350     7.2040     2.3040 
  217.0000   202.2600    64.1340    12.7560    -6.4950   120.3170     4.0450     5.2960     6.7760     2.3040 
  217.1250   202.3690    64.1940    12.7690    -6.4870   122.5640     4.1280     5.3950     6.8670     2.3020 
  217.2500   202.4770    64.2550    12.7830    -7.1110   121.9090     4.2210     5.5160     6.9980     2.3020 
  217.3750   202.5860    64.3150    12.7960    -8.0330   120.6510     4.3000     5.6230     7.2830     2.3030 
  217.5000   202.6950    64.3750    12.8100    -8.9740   120.9220     4.3640     5.6950     7.8940     2.3050 
  217.6250   202.8030    64.4360    12.8230    -9.5560   121.4480     4.3950     5.7070     8.2200     2.3050 
  217.7500   202.9120    64.4960    12.8360    -9.3740   117.5720     4.4190     5.6870     7.8540     2.3080 
  217.8750   203.0210    64.5560    12.8500    -8.7830   111.7500     4.5020     5.7440     7.5370     2.3140 
  218.0000   203.1290    64.6160    12.8630    -8.4350   107.7140     4.7230     5.9750     7.6940     2.3300 
  218.1250   203.2380    64.6770    12.8770    -8.3380   105.7000     5.1500     6.4880     7.7040     2.3540 
  218.2500   203.3470    64.7370    12.8900    -8.3840   103.4710     5.8240     7.3560     8.0580     2.3780 
  218.3750   203.4550    64.7970    12.9030    -8.5790   101.7390     6.6470     8.4110    10.0710     2.3910 
  218.5000   203.5640    64.8580    12.9170    -8.7790   100.2420     7.6110     9.5900    13.0340     2.3880 
  218.6250   203.6730    64.9180    12.9300    -9.0570    98.4220     8.4300    10.5340    14.8060     2.3810 
  218.7500   203.7810    64.9780    12.9440    -9.4250    97.0970     9.0820    11.2110    15.8050     2.3760 
  218.8750   203.8900    65.0380    12.9570    -9.7860    96.7750     9.5330    11.6570    16.8790     2.3680 
  219.0000   203.9990    65.0980    12.9710   -10.1490    93.9560     9.7790    11.9310    16.8150     2.3470 
  219.1250   204.1080    65.1580    12.9850   -10.5590    90.7360     9.8560    12.0280    16.2800     2.3150 
  219.2500   204.2160    65.2190    12.9980   -10.9660    88.7480     9.6400    11.7730    16.4920     2.2860 
  219.3750   204.3250    65.2790    13.0120   -11.3460    89.2230     9.0750    11.0380    16.9940     2.2680 
  219.5000   204.4340    65.3390    13.0250   -11.7850    90.4200     8.3420     9.9930    16.5530     2.2650 
  219.6250   204.5430    65.3990    13.0380   -12.0210    93.9480     7.7080     9.0490    14.8590     2.2700 
  219.7500   204.6510    65.4590    13.0520   -11.7580    98.0280     7.5030     8.6380    12.6040     2.2760 
  219.8750   204.7600    65.5190    13.0660   -11.1320    97.9730     7.9040     9.0280    10.2020     2.2780 
  220.0000   204.8690    65.5790    13.0790   -10.4200    92.7960     9.4600    11.0230     8.9270     2.2740 
  220.1250   204.9780    65.6390    13.0930   -10.0000    85.7760    12.1890    14.3360    14.2260     2.2780 
  220.2500   205.0860    65.6990    13.1070   -10.1200    79.8730    16.2140    18.9090    26.2690     2.3080 
  220.3750   205.1950    65.7590    13.1200   -10.5970    74.4640    20.2660    23.2770    34.6330     2.3620 
  220.5000   205.3040    65.8190    13.1340   -11.1320    69.9200    23.2010    26.0340    36.9180     2.4100 
  220.6250   205.4130    65.8790    13.1480   -11.4920    67.6640    24.4850    26.9910    36.9380     2.4200 
  220.7500   205.5220    65.9390    13.1610   -11.4550    67.8940    24.3330    26.3420    36.4600     2.3780 
  220.8750   205.6310    65.9990    13.1750   -10.9430    69.8430    23.6200    25.1660    36.6400     2.3110 
  221.0000   205.7390    66.0590    13.1890   -10.2630    72.1040    22.8080    24.0120    36.7730     2.2500 
  221.1250   205.8480    66.1190    13.2020    -9.6230    73.8140    22.1830    23.1800    36.4080     2.2120 
  221.2500   205.9570    66.1790    13.2160    -8.9390    73.6010    21.8350    22.7600    35.3620     2.1980 
  221.3750   206.0660    66.2390    13.2290    -8.4670    73.0940    21.5000    22.3360    33.9850     2.1970 
  221.5000   206.1750    66.2990    13.2420    -8.3520    75.1080    21.0260    21.7020    32.7380     2.2000 
  221.6250   206.2840    66.3590    13.2560    -8.3350    78.8960    20.4520    20.9500    31.1890     2.2020 
  221.7500   206.3930    66.4190    13.2690    -8.3230    80.8250    19.8290    20.1510    29.6530     2.2030 
  221.8750   206.5020    66.4790    13.2830    -8.3250    79.1880    19.3340    19.5080    28.8200     2.2060 
  222.0000   206.6100    66.5390    13.2960    -8.2380    76.3800    19.0590    19.1350    28.0730     2.2120 
  222.1250   206.7190    66.5980    13.3090    -8.2540    74.9700    18.9230    18.9280    27.2190     2.2160 
  222.2500   206.8280    66.6580    13.3230    -8.4620    76.1460    19.0520    19.0470    26.9350     2.2190 
  222.3750   206.9370    66.7180    13.3360    -8.6940    79.1570    19.6790    19.7390    27.1570     2.2300 
  222.5000   207.0460    66.7780    13.3500    -8.9350    80.9190    20.8550    20.9180    27.0210     2.2660 
  222.6250   207.1550    66.8380    13.3630    -9.0910    80.0330    22.6690    22.6590    26.2910     2.3270 
  222.7500   207.2640    66.8980    13.3760    -8.9230    77.2130    25.5620    25.4450    31.2310     2.3920 
  222.8750   207.3720    66.9580    13.3900    -8.3760    73.4180    29.6990    29.5500    42.2520     2.4230 
  223.0000   207.4810    67.0180    13.4030    -7.6870    68.8250    34.4640    34.4110    48.5910     2.3950 
  223.1250   207.5900    67.0780    13.4170    -7.1240    63.5680    40.2680    40.5030    54.2840     2.3200 
  223.2500   207.6990    67.1380    13.4310    -7.1140    60.7670    48.0340    48.6590    61.6870     2.2320 
  223.3750   207.8080    67.1980    13.4440    -7.7990    59.2930    56.9800    57.9850    68.1120     2.1680 
  223.5000   207.9170    67.2580    13.4580    -8.9440    58.4340    67.3190    68.7220    68.7030     2.1410 
  223.6250   208.0250    67.3180    13.4720   -10.0440    57.8540    77.6100    79.3150    67.8810     2.1380 
  223.7500   208.1340    67.3780    13.4850   -10.8490    56.9280    86.3230    88.2580    75.0560     2.1390 
  223.8750   208.2430    67.4380    13.4990   -11.2240    54.7460    93.7110    95.8350    96.4160     2.1340 
  224.0000   208.3520    67.4980    13.5130   -11.1220    51.9680    99.7030   101.7960   111.7090     2.1240 
  224.1250   208.4600    67.5580    13.5270   -10.8950    51.6350   103.4220   105.2150   113.8090     2.1150 
  224.2500   208.5690    67.6180    13.5400   -10.7260    53.5730   104.9920   106.2670   109.4590     2.1120 
  224.3750   208.6780    67.6780    13.5540   -10.5420    55.6360   104.9810   105.7000   102.5370     2.1140 
  224.5000   208.7870    67.7380    13.5680   -10.4320    56.3500   103.7820   103.9270    98.4740     2.1140 
