~V
VERS. 2.00: Ver 2.00
~W
STRT.M 15.0000:
STOP.M 282.0000:
STEP.M 0.1250:
NULL. -999.2500:
UWI. FD10218:
~C
DEPT.M :
TVD. :
DX. :
DY. :
DEN.GM/CC :
GR.API :
RML.OHMM :
RI. :
RXO.OHMM :
CALI.CM :
SP.MV :
~A
# ...
  270.7500   263.0930    35.3730    34.1990     2.4910    75.1010    16.0280    15.8920    11.0130    22.2940    -3.5870 
  270.8750   263.2100    35.4050    34.2310     2.5070    73.1490    15.9450    15.8130    10.4730    22.0510    -3.7820 
  271.0000   263.3260    35.4370    34.2630     2.5230    71.7020    15.8630    15.7350    10.2800    21.8620    -3.9490 
  271.1250   263.4430    35.4690    34.2950     2.5240    72.4010    15.8140    15.6930    10.3270    21.7750    -4.0630 
  271.2500   263.5590    35.5010    34.3270     2.5060    73.3660    15.8060    15.6930    10.1010    21.7640    -4.1400 
  271.3750   263.6760    35.5330    34.3600     2.4750    72.9450    15.8350    15.7320     9.8640    21.8120    -4.2450 
  271.5000   263.7920    35.5650    34.3920     2.4420    70.5580    15.8870    15.7950    10.1480    21.9770    -4.4040 
  271.6250   263.9090    35.5970    34.4240     2.4300    67.9620    15.9400    15.8630    11.1300    22.2510    -4.5870 
  271.7500   264.0250    35.6290    34.4560     2.4430    66.8870    15.9850    15.9230    11.2900    22.3480    -4.7330 
  271.8750   264.1420    35.6610    34.4880     2.4770    67.0040    16.0250    15.9800    10.6170    22.1520    -4.7870 
  272.0000   264.2580    35.6930    34.5200     2.5130    67.0040    16.0720    16.0440    10.0320    21.7750    -4.7870 
  272.1250   264.3750    35.7250    34.5520     2.5300    67.0040    16.1490    16.1360    10.2230    21.5690    -4.8440 
  272.2500   264.4910    35.7570    34.5850     2.5240    67.0040    16.2630    16.2680    10.6880    21.5360    -5.0020 
  272.3750   264.6080    35.7890    34.6170     2.5010    67.0040    16.4130    16.4420    11.2860    21.6030    -5.2330 
  272.5000   264.7240    35.8210    34.6490     2.4740    67.0040    16.5910    16.6510    11.7950    21.7590    -5.4980 
  272.6250   264.8400    35.8530    34.6810     2.4580    67.0040    16.7770    16.8800    11.8440    21.8900    -5.7600 
  272.7500   264.9570    35.8850    34.7130     2.4580    67.0040    16.9380    17.0930    11.9380    21.8740    -6.0010 
  272.8750   265.0730    35.9170    34.7450     2.4710    67.0040    17.0520    17.2510    12.0680    21.7140    -6.2870 
  273.0000   265.1900    35.9490    34.7780     2.4900    67.0040    17.1060    17.3330    11.9080    21.5100    -6.6070 
  273.1250   265.3060    35.9810    34.8100     2.5080    67.0040    17.1090    17.3470    10.4580    21.3270    -6.8400 
  273.2500   265.4230    36.0130    34.8420     2.5200    67.0040    17.0980    17.3400    10.2340    21.1730    -6.9560 
  273.3750   265.5390    36.0450    34.8740     2.5240    67.0040    17.1010    17.3390    11.2420    21.1590    -6.9820 
  273.5000   265.6560    36.0780    34.9060     2.5220    67.0040    17.1280    17.3560    12.4640    21.2040    -6.9520 
  273.6250   265.7720    36.1100    34.9380     2.5170    67.0040    17.1820    17.3890    12.7640    21.2920    -6.9230 
  273.7500   265.8890    36.1420    34.9710     2.5100    67.0040    17.2610    17.4370    12.9400    21.4800    -6.8900 
  273.8750   266.0050    36.1740    35.0030     2.5040    67.0040    17.3800    17.5300    13.6670    21.7650    -6.8340 
  274.0000   266.1220    36.2060    35.0350     2.5000    67.0040    17.5630    17.7090    14.6250    22.0760    -6.7610 
  274.1250   266.2380    36.2380    35.0670     2.5000    67.0040    17.8310    18.0210    14.5170    22.1860    -6.7160 
  274.2500   266.3550    36.2700    35.0990     2.5070    67.0040    18.1360    18.4200    13.8420    22.0660    -6.6280 
  274.3750   266.4710    36.3020    35.1310     2.5180    67.0040    18.4150    18.8330    13.7490    21.6540    -6.5130 
  274.5000   266.5870    36.3340    35.1640     2.5330    67.0040    18.6000    19.1700    14.7160    21.0340    -6.4160 
  274.6250   266.7040    36.3660    35.1960     2.5470    67.0040    18.6310    19.3270    14.7480    20.7630    -6.3550 
  274.7500   266.8200    36.3980    35.2280     2.5550    67.0040    18.5550    19.3290    14.6130    20.7870    -6.2900 
  274.8750   266.9370    36.4300    35.2600     2.5550    67.0040    18.4320    19.2390    15.0540    21.0370    -6.2160 
  275.0000   267.0530    36.4620    35.2920     2.5440    67.0040    18.3340    19.1400    15.8050    21.3550    -6.1150 
  275.1250   267.1700    36.4940    35.3240     2.5220    67.0040    18.3110    19.1150    16.7880    21.6360    -6.0090 
  275.2500   267.2860    36.5260    35.3570     2.4980    67.0040    18.3210    19.1640    17.3690    21.7880    -5.9640 
  275.3750   267.4030    36.5580    35.3890     2.4770    67.0040    18.2650    19.2000    16.6150    21.7740    -5.9610 
  275.5000   267.5190    36.5900    35.4210     2.4670    67.0040    18.0170    19.0530    14.9880    21.7290    -5.8990 
  275.6250   267.6360    36.6220    35.4530     2.4700    67.0040    17.4650    18.5260    13.7140    21.7640    -5.7930 
  275.7500   267.7520    36.6540    35.4850     2.4810    67.0040    16.7290    17.7360    12.9240    21.8060    -5.6930 
  275.8750   267.8690    36.6860    35.5170     2.4980    67.0040    15.9780    16.9010    12.5790    21.9300    -5.6120 
  276.0000   267.9850    36.7180    35.5490     2.5180    67.0040    15.3820    16.2360    12.4680    22.0660    -5.5550 
  276.1250   268.1020    36.7500    35.5820     2.5430    67.0040    15.0650    15.8920    12.9430    22.0860    -5.5280 
  276.2500   268.2180    36.7820    35.6140     2.5700    67.0040    14.9380    15.7710    13.5820    21.8780    -5.5020 
  276.3750   268.3340    36.8140    35.6460     2.5910    67.0040    14.9070    15.7600    13.6490    21.5670    -5.4480 
  276.5000   268.4510    36.8460    35.6780     2.6000    67.0040    14.8950    15.7690    13.1380    21.2370    -5.3630 
  276.6250   268.5670    36.8780    35.7100     2.5880    67.0040    14.8730    15.7690    12.3770    21.0820    -5.1840 
  276.7500   268.6840    36.9110    35.7420     2.5660    67.0040    14.8550    15.7690    12.4810    21.0930    -4.9930 
  276.8750   268.8000    36.9430    35.7750     2.5410    67.0040    14.8510    15.7730    13.0350    21.2710    -4.8290 
  277.0000   268.9170    36.9750    35.8070     2.5240    67.0040    14.8590    15.7790    13.7090    21.4800    -4.6710 
  277.1250   269.0330    37.0070    35.8390     2.5200    67.0040    14.8700    15.7820    15.6270    21.4300    -4.5100 
  277.2500   269.1500    37.0390    35.8710     2.5270    67.0040    14.8770    15.7810    18.2390    21.2580    -4.3530 
  277.3750   269.2660    37.0710    35.9030     2.5460    67.0040    14.8800    15.7790    19.4990    21.2140    -4.1720 
  277.5000   269.3830    37.1030    35.9350     2.5700    67.0040    14.8820    15.7770    20.1870    21.1240    -4.0650 
  277.6250   269.4990    37.1350    35.9680     2.5870    67.0040    14.8840    15.7760    19.6490    21.0250    -4.0350 
  277.7500   269.6160    37.1670    36.0000     2.5810    67.0040    14.8850    15.7760    17.8090    21.0270    -4.0730 
  277.8750   269.7320    37.1990    36.0320     2.5500    67.0040    14.8850    15.7760    16.0800    21.1080    -4.0420 
  278.0000   269.8480    37.2310    36.0640     2.5050    67.0040    14.8850    15.7760    15.3660    21.2630    -4.0470 
  278.1250   269.9650    37.2630    36.0960     2.4680    67.0040    14.8850    15.7760    16.0850    21.4950    -4.0760 
  278.2500   270.0810    37.2950    36.1280     2.4570    67.0040    14.8850    15.7760    18.2790    21.7050    -4.1500 
  278.3750   270.1980    37.3270    36.1610     2.4730    67.0040    14.8850    15.7760    19.2720    21.7810    -4.2270 
  278.5000   270.3140    37.3590    36.1930     2.5050    67.0040    14.8850    15.7760    20.4590    21.6660    -4.3140 
  278.6250   270.4310    37.3910    36.2250     2.5280    67.0040    14.8850    15.7760    18.3020    21.4810    -4.3820 
  278.7500   270.5470    37.4230    36.2570     2.5260    67.0040    14.8850    15.7760    15.8250    21.3980    -4.4590 
  278.8750   270.6640    37.4550    36.2890     2.4980    67.0040    14.8850    15.7760    14.5260    21.3570    -4.5390 
