~V
VERS. 2.00: Ver 2.00
~W
STRT.M 43.0000:
STOP.M 257.0000:
STEP.M 0.1250:
NULL. -999.2500:
UWI. FD10872:
~C
DEPT.M :
TVD. :
DX. :
DY. :
SP.MV :
GR.API :
RI. :
RML.OHMM :
RXO.OHMM :
DEN.GM/CC :
~A
# ...
   52.1250    52.1210     0.1250    -0.2140    -3.1130    59.7300    10.0170    13.2880    10.3350     2.1140 
   52.2500    52.2460     0.1270    -0.2180    -3.1640    58.8250     9.6030    12.6540     9.7010     2.1110 
   52.3750    52.3710     0.1300    -0.2220    -3.0500    59.2080     9.2840    12.1230     9.0570     2.1080 
   52.5000    52.4960     0.1330    -0.2260    -2.8940    60.0740     9.1560    11.8560     8.8360     2.1070 
   52.6250    52.6210     0.1360    -0.2300    -2.8110    61.3840     9.2800    11.9870     9.2120     2.1080 
   52.7500    52.7460     0.1390    -0.2340    -2.8570    63.9300     9.5690    12.3750     9.8650     2.1100 
   52.8750    52.8710     0.1420    -0.2380    -3.0210    66.7570     9.9490    12.9250    10.9360     2.1120 
   53.0000    52.9960     0.1450    -0.2420    -3.2030    68.1500    10.3080    13.4260    11.3640     2.1110 
   53.1250    53.1210     0.1480    -0.2460    -3.2930    67.3760    10.4730    13.6230    10.3960     2.1060 
   53.2500    53.2460     0.1510    -0.2510    -3.2240    64.7150    10.4460    13.4790     9.6130     2.1000 
   53.3750    53.3700     0.1540    -0.2550    -2.9820    62.7910    10.1900    12.9910     9.8060     2.0970 
   53.5000    53.4950     0.1570    -0.2590    -2.6570    63.5210     9.8040    12.3590    10.3610     2.0980 
   53.6250    53.6200     0.1600    -0.2630    -2.3500    65.2220     9.4080    11.7800    10.4000     2.1050 
   53.7500    53.7450     0.1630    -0.2680    -2.1350    64.6610     9.1200    11.3860     9.7880     2.1120 
   53.8750    53.8700     0.1660    -0.2720    -2.0570    63.3020     9.0440    11.2660     9.5380     2.1170 
   54.0000    53.9950     0.1700    -0.2770    -2.0990    65.2170     9.2040    11.4500    10.0940     2.1190 
   54.1250    54.1200     0.1730    -0.2810    -2.2350    67.1990     9.6210    11.9970    10.7860     2.1180 
   54.2500    54.2450     0.1760    -0.2860    -2.4260    66.8350    10.2520    12.8650    10.9260     2.1140 
   54.3750    54.3690     0.1800    -0.2900    -2.6470    65.3350    11.0180    13.9360    10.5380     2.1120 
   54.5000    54.4940     0.1830    -0.2950    -2.8900    65.7140    11.3940    14.4520    10.6520     2.1120 
   54.6250    54.6190     0.1870    -0.2990    -3.1810    67.9690    10.9250    13.7950    11.7780     2.1170 
   54.7500    54.7440     0.1900    -0.3040    -3.5550    70.5860     9.6220    11.9720    12.2900     2.1270 
   54.8750    54.8690     0.1940    -0.3090    -4.0310    72.0410     7.8740     9.5700    10.6290     2.1440 
   55.0000    54.9940     0.1970    -0.3130    -4.5380    72.7110     6.4390     7.6500     7.5560     2.1640 
   55.1250    55.1190     0.2010    -0.3180    -4.9010    74.7800     5.8160     6.8800     5.2090     2.1860 
   55.2500    55.2440     0.2050    -0.3230    -4.9170    77.6260     5.9500     7.1250     5.1100     2.2040 
   55.3750    55.3680     0.2080    -0.3270    -4.3860    78.3910     6.9090     8.4480     8.0980     2.2120 
   55.5000    55.4930     0.2120    -0.3320    -3.3650    76.8370     8.6100    10.6290    15.4670     2.2080 
   55.6250    55.6180     0.2160    -0.3370    -2.0400    74.8040    10.5790    12.9860    20.2880     2.1940 
   55.7500    55.7430     0.2200    -0.3420    -0.7600    72.1560    12.3800    15.0060    16.6140     2.1760 
   55.8750    55.8680     0.2240    -0.3470     0.1590    68.7230    13.4630    16.0560    13.3770     2.1600 
   56.0000    55.9930     0.2280    -0.3520     0.6060    65.6760    13.8870    16.3650    13.9270     2.1470 
   56.1250    56.1170     0.2320    -0.3570     0.5840    64.2610    13.8740    16.2970    14.3420     2.1380 
   56.2500    56.2420     0.2360    -0.3620     0.2730    63.5330    13.3940    15.7290    14.1310     2.1300 
   56.3750    56.3670     0.2400    -0.3670    -0.1910    63.1680    12.1050    14.2280    13.5530     2.1260 
   56.5000    56.4920     0.2440    -0.3720    -0.7140    62.2070    10.4030    12.2370    13.3350     2.1240 
   56.6250    56.6170     0.2480    -0.3770    -1.2890    62.6450     8.5620    10.1140    12.2150     2.1300 
   56.7500    56.7420     0.2520    -0.3820    -1.9290    65.6360     7.0950     8.4860     9.2570     2.1430 
   56.8750    56.8660     0.2570    -0.3880    -2.6130    69.1710     6.1950     7.5450     6.7820     2.1640 
   57.0000    56.9910     0.2610    -0.3930    -3.2540    69.7090     5.6880     7.0780     6.3150     2.1880 
   57.1250    57.1160     0.2650    -0.3980    -3.7310    67.8050     5.6960     7.2260     6.6540     2.2060 
   57.2500    57.2410     0.2700    -0.4040    -3.9660    67.1750     6.1690     7.9140     6.8290     2.2150 
   57.3750    57.3660     0.2740    -0.4090    -3.9030    69.0370     7.1180     9.1840     7.0670     2.2120 
   57.5000    57.4900     0.2790    -0.4150    -3.5880    71.0140     8.3660    10.8230     8.6430     2.2000 
   57.6250    57.6150     0.2830    -0.4200    -3.0780    70.9890     9.9420    12.8750    11.3340     2.1850 
   57.7500    57.7400     0.2880    -0.4260    -2.4940    70.2160    11.5520    14.9590    12.8610     2.1780 
   57.8750    57.8650     0.2930    -0.4310    -1.9630    71.0370    12.7890    16.5180    13.3460     2.1880 
   58.0000    57.9900     0.2980    -0.4370    -1.5810    71.8850    13.5250    17.4000    13.6720     2.2170 
   58.1250    58.1140     0.3020    -0.4430    -1.3890    68.6690    13.6310    17.4680    13.5530     2.2590 
   58.2500    58.2390     0.3070    -0.4480    -1.3220    62.2860    13.3970    17.1450    13.2180     2.2930 
   58.3750    58.3640     0.3120    -0.4540    -1.2800    56.9050    12.9790    16.6670    12.8960     2.2980 
   58.5000    58.4890     0.3170    -0.4600    -1.1570    55.6600    12.5230    16.2100    12.6580     2.2710 
   58.6250    58.6130     0.3220    -0.4660    -0.9110    58.1680    12.2100    16.0170    12.2510     2.2220 
   58.7500    58.7380     0.3270    -0.4720    -0.6130    61.1390    12.1070    16.1660    11.7970     2.1750 
   58.8750    58.8630     0.3330    -0.4780    -0.4110    61.5930    12.1610    16.5240    11.4020     2.1420 
   59.0000    58.9880     0.3380    -0.4840    -0.4540    59.4730    12.0860    16.6800    10.8370     2.1240 
   59.1250    59.1120     0.3430    -0.4900    -0.8700    59.1170    11.4290    15.8490    10.7620     2.1150 
   59.2500    59.2370     0.3480    -0.4960    -1.6070    62.6680    10.2750    14.2020    12.1820     2.1090 
   59.3750    59.3620     0.3540    -0.5020    -2.5350    67.4180     8.8830    12.1420    16.6180     2.1070 
   59.5000    59.4870     0.3590    -0.5080    -3.4400    70.1610     7.6080    10.2510    18.0300     2.1110 
   59.6250    59.6110     0.3640    -0.5150    -4.1160    72.4130     6.8110     9.0930    11.4690     2.1240 
   59.7500    59.7360     0.3700    -0.5210    -4.4720    75.9250     6.5150     8.7020     6.2490     2.1450 
   59.8750    59.8610     0.3750    -0.5270    -4.4870    77.6450     6.6830     9.0060     6.1910     2.1650 
   60.0000    59.9850     0.3810    -0.5340    -4.2700    76.3600     7.3180     9.9800     7.3660     2.1770 
   60.1250    60.1100     0.3870    -0.5400    -3.9400    72.2990     8.2380    11.3070     8.5270     2.1770 
   60.2500    60.2350     0.3920    -0.5470    -3.6330    66.8580     9.0810    12.4620     8.9140     2.1690 
   60.3750    60.3600     0.3980    -0.5530    -3.4430    63.2160     9.6670    13.2410     8.8080     2.1550 
   60.5000    60.4840     0.4040    -0.5600    -3.3970    63.2420     9.8780    13.4790     8.5810     2.1420 
   60.6250    60.6090     0.4100    -0.5660    -3.5080    65.7970     9.8060    13.3570     8.4440     2.1320 
   60.7500    60.7340     0.4150    -0.5730    -3.7510    67.2010     9.5500    13.0190     8.7050     2.1250 
   60.8750    60.8580     0.4210    -0.5800    -4.1280    65.8850     9.1700    12.5570     9.2350     2.1230 
   61.0000    60.9830     0.4270    -0.5860    -4.6180    64.9060     8.8240    12.1850     9.3910     2.1230 
   61.1250    61.1080     0.4330    -0.5930    -5.2080    65.2910     8.5960    11.9910     8.5400     2.1270 
