~V
VERS. 2.00: Ver 2.00
~W
STRT.M 22.0000:
STOP.M 238.0000:
STEP.M 0.1250:
NULL. -999.2500:
UWI. FD10612:
~C
DEPT.M :
TVD. :
DX. :
DY. :
GR.API :
RML.OHMM :
RI. :
RXO.OHMM :
CALI.CM :
DEN.GM/CC :
SP.MV :
~A
# ...
   63.2500    63.1830     1.3270     1.2690    63.7730    14.0880    13.0070    10.9400    25.4770     2.1620   -11.8440 
   63.3750    63.3060     1.3410     1.2810    60.8810    14.3240    13.2170    11.4220    25.4670     2.1920   -11.7840 
   63.5000    63.4300     1.3560     1.2920    58.9800    14.4460    13.3140    12.4920    25.4920     2.2290   -11.7650 
   63.6250    63.5530     1.3700     1.3040    60.8900    14.3330    13.1810    13.1450    25.6700     2.2560   -11.8090 
   63.7500    63.6770     1.3840     1.3150    62.8980    14.0360    12.8680    12.1650    25.8630     2.2600   -11.7400 
   63.8750    63.8000     1.3980     1.3270    63.4620    13.6500    12.4730    11.2190    25.9660     2.2400   -11.6290 
   64.0000    63.9240     1.4120     1.3380    64.1380    13.2910    12.1060    10.6710    26.0050     2.2050   -11.5420 
   64.1250    64.0470     1.4270     1.3500    64.3360    13.0630    11.8680    10.5270    25.9940     2.1730   -11.4010 
   64.2500    64.1710     1.4410     1.3610    62.9760    12.9560    11.7540    10.4950    25.9640     2.1530   -11.1980 
   64.3750    64.2950     1.4550     1.3720    59.9440    12.9270    11.7280    10.4680    25.9630     2.1450   -11.0640 
   64.5000    64.4180     1.4690     1.3840    56.8620    12.9190    11.7410    10.4610    26.0830     2.1440   -10.9460 
   64.6250    64.5420     1.4840     1.3950    56.1270    12.8930    11.7540    10.4090    26.2020     2.1440   -10.6560 
   64.7500    64.6650     1.4980     1.4070    57.9050    12.8520    11.7570    10.2600    26.2790     2.1420   -10.3830 
   64.8750    64.7890     1.5120     1.4180    60.7010    12.8100    11.7530    10.0320    26.3150     2.1390   -10.2280 
   65.0000    64.9120     1.5260     1.4300    62.8180    12.7800    11.7460    10.0870    26.3230     2.1360   -10.1020 
   65.1250    65.0360     1.5400     1.4410    61.5270    12.7600    11.7360    10.3310    26.2990     2.1320   -10.1680 
   65.2500    65.1590     1.5550     1.4530    57.9620    12.7180    11.7160    10.4030    26.2600     2.1270   -10.2590 
   65.3750    65.2830     1.5690     1.4640    55.0480    12.5980    11.6490    10.0730    26.2690     2.1190   -10.3190 
   65.5000    65.4060     1.5830     1.4760    56.7210    12.3180    11.4630     9.6320    26.3830     2.1080   -10.5160 
   65.6250    65.5300     1.5970     1.4870    60.6900    11.7650    11.0310     9.2600    26.5430     2.0990   -10.8880 
   65.7500    65.6530     1.6120     1.4980    62.0600    10.9990    10.3760     9.1590    26.5780     2.0960   -11.3640 
   65.8750    65.7770     1.6260     1.5100    61.3590    10.1550     9.6160     9.3740    26.3770     2.0980   -11.8770 
   66.0000    65.9000     1.6400     1.5210    61.1550     9.4410     8.9540     9.7060    25.9120     2.1130   -12.3860 
   66.1250    66.0240     1.6540     1.5330    62.4490     9.1330     8.6450    10.1610    25.5270     2.1580   -12.8930 
   66.2500    66.1480     1.6680     1.5440    63.1980     9.2810     8.7400    12.2390    25.1840     2.2370   -13.4540 
   66.3750    66.2710     1.6830     1.5560    62.4470     9.8460     9.2330    19.1510    24.9910     2.3360   -14.0390 
   66.5000    66.3950     1.6970     1.5670    61.9910    10.6450    10.0290    36.1400    24.8810     2.4260   -14.5710 
   66.6250    66.5180     1.7110     1.5790    64.3280    11.2880    10.8170    40.0510    24.7410     2.4780   -15.0430 
   66.7500    66.6420     1.7250     1.5900    67.3570    11.4090    11.1430    25.4590    24.5950     2.4990   -15.5190 
   66.8750    66.7650     1.7400     1.6020    69.8080    10.8430    10.7390    16.3550    24.5020     2.5060   -15.9200 
   67.0000    66.8890     1.7540     1.6130    74.6980     9.6870     9.6660    15.1560    24.4130     2.5120   -16.2430 
   67.1250    67.0120     1.7680     1.6240    83.7810     8.2360     8.2460    11.2500    24.3530     2.5090   -16.5010 
   67.2500    67.1360     1.7820     1.6360    90.1600     6.8830     6.9060     7.3580    24.4190     2.4860   -16.7560 
   67.3750    67.2590     1.7960     1.6470    91.5010     5.8060     5.8210     5.4560    24.5380     2.4440   -16.9610 
   67.5000    67.3830     1.8110     1.6590    90.1460     5.0580     5.0320     4.9110    24.5630     2.3990   -17.1120 
   67.6250    67.5060     1.8250     1.6700    89.9440     4.6760     4.5770     4.7800    24.4570     2.3740   -17.1820 
   67.7500    67.6300     1.8390     1.6820    92.1140     4.5960     4.4120     4.8330    24.3190     2.3710   -17.0750 
   67.8750    67.7530     1.8530     1.6930    95.9060     4.8210     4.5480     4.9630    24.2170     2.3790   -16.9420 
   68.0000    67.8770     1.8680     1.7050    96.2870     5.3610     4.9860     5.2870    24.1590     2.3830   -16.9300 
   68.1250    68.0010     1.8820     1.7160    88.5010     6.2500     5.7700     6.3580    24.1200     2.3720   -16.8410 
   68.2500    68.1240     1.8960     1.7280    79.4280     7.3470     6.8100     9.4610    24.1300     2.3440   -16.7100 
   68.3750    68.2480     1.9100     1.7390    73.1240     8.4620     7.9720    13.4680    24.1850     2.3050   -16.5920 
   68.5000    68.3710     1.9240     1.7500    68.6400     9.3270     8.9970    12.5780    24.2160     2.2600   -16.3750 
   68.6250    68.4950     1.9390     1.7620    65.6050     9.5810     9.4440     8.9080    24.2310     2.2220   -16.2160 
   68.7500    68.6180     1.9530     1.7730    64.9360     9.2430     9.2330     7.5850    24.2330     2.1990   -16.1770 
   68.8750    68.7420     1.9670     1.7850    65.3380     8.4750     8.5220     7.6090    24.2360     2.1960   -16.1620 
   69.0000    68.8650     1.9810     1.7960    65.0640     7.5540     7.6130     7.6490    24.2120     2.2170   -16.1430 
   69.1250    68.9890     1.9960     1.8080    65.5320     6.7880     6.8190     6.7410    24.1450     2.2560   -16.1040 
   69.2500    69.1120     2.0100     1.8190    66.8410     6.3120     6.2740     5.8940    24.0970     2.2920   -16.0610 
   69.3750    69.2360     2.0240     1.8310    69.5340     6.1480     6.0060     5.8420    24.0940     2.3130   -15.9740 
   69.5000    69.3590     2.0380     1.8420    73.0240     6.2520     5.9970     6.2140    24.0950     2.3140   -15.8870 
   69.6250    69.4830     2.0520     1.8540    74.9830     6.5400     6.2090     6.4650    24.0730     2.3050   -15.9080 
   69.7500    69.6060     2.0670     1.8650    75.3330     6.8370     6.4810     6.6890    24.0600     2.3010   -15.9370 
   69.8750    69.7300     2.0810     1.8760    75.4050     7.0200     6.6750     7.0220    24.0570     2.3060   -15.9970 
   70.0000    69.8540     2.0950     1.8880    76.6050     7.0230     6.7000     7.2470    24.0570     2.3190   -15.9780 
   70.1250    69.9770     2.1090     1.8990    77.7140     6.8520     6.5540     7.0860    24.0570     2.3320   -15.8680 
   70.2500    70.1010     2.1240     1.9110    78.4730     6.6460     6.3640     6.6900    24.0570     2.3400   -15.7300 
   70.3750    70.2240     2.1380     1.9220    79.6980     6.5240     6.2320     6.2680    24.0570     2.3410   -15.6030 
   70.5000    70.3480     2.1520     1.9340    81.0030     6.5870     6.2370     6.0620    24.0510     2.3360   -15.4900 
   70.6250    70.4710     2.1660     1.9450    80.3590     6.9470     6.4680     6.7220    24.0420     2.3220   -15.2540 
   70.7500    70.5950     2.1800     1.9570    76.5400     7.5870     6.9250     7.3440    24.0380     2.2990   -14.9100 
   70.8750    70.7180     2.1950     1.9680    71.7170     8.4900     7.6120     7.6980    24.0470     2.2710   -14.4360 
   71.0000    70.8420     2.2090     1.9800    70.3770     9.5960     8.5050     7.9530    24.0560     2.2440   -13.9340 
   71.1250    70.9650     2.2230     1.9910    71.5600    10.7780     9.5330     8.4330    24.0670     2.2240   -13.5700 
   71.2500    71.0890     2.2370     2.0020    69.5810    11.8310    10.5200     9.1180    24.0910     2.2110   -13.1720 
   71.3750    71.2120     2.2520     2.0140    65.2300    12.5910    11.3020     9.6010    24.1080     2.2040   -12.7630 
