~V
VERS. 2.00: Ver 2.00
~W
STRT.M 50.0000:
STOP.M 219.0000:
STEP.M 0.1250:
NULL. -999.2500:
UWI. FD10804:
~C
DEPT.M :
TVD. :
DX. :
DY. :
SP.MV :
GR.API :
RI. :
RML.OHMM :
RXO.OHMM :
DEN.GM/CC :
~A
   50.0000    50.0000     0.0000     0.0000   -76.4880    42.0150     0.0810     0.3550     0.8340     2.0230 
   50.1250    50.1250    -0.0010     0.0000   -76.7450    41.3760     0.0870     0.3790     0.9460     2.0040 
   50.2500    50.2500    -0.0020     0.0000   -76.7130    40.9370     0.0920     0.3970     1.0170     2.0030 
   50.3750    50.3750    -0.0030     0.0000   -76.2830    40.4410     0.0960     0.4030     1.0490     2.0060 
   50.5000    50.5000    -0.0040    -0.0010   -75.4920    40.4800     0.1000     0.3970     1.1360     2.0110 
   50.6250    50.6250    -0.0050    -0.0010   -74.4120    40.2470     0.1060     0.3920     1.1520     2.0240 
   50.7500    50.7500    -0.0060    -0.0010   -73.2100    41.4020     0.1150     0.4040     1.0750     2.0550 
   50.8750    50.8750    -0.0070    -0.0010   -72.0170    42.1940     0.1290     0.4400     0.7250     2.0850 
   51.0000    51.0000    -0.0080    -0.0010   -70.9190    42.8290     0.1420     0.4710     0.5360     2.1090 
   51.1250    51.1250    -0.0090    -0.0020   -69.9570    42.3230     0.1480     0.4670     1.0360     2.1200 
   51.2500    51.2500    -0.0100    -0.0020   -69.1230    41.6190     0.1490     0.4280     1.5300     2.1290 
   51.3750    51.3750    -0.0110    -0.0020   -68.4330    40.3190     0.1480     0.3790     0.3600     2.1310 
   51.5000    51.5000    -0.0120    -0.0020   -67.8970    39.8250     0.1470     0.3470    -1.7910     2.1210 
   51.6250    51.6250    -0.0130    -0.0020   -67.5750    39.7410     0.1450     0.3460    -2.4040     2.1030 
   51.7500    51.7500    -0.0140    -0.0020   -67.4940    40.7340     0.1450     0.3600    -2.2600     2.0840 
   51.8750    51.8750    -0.0150    -0.0020   -67.6790    41.8450     0.1440     0.3710    -1.2140     2.0750 
   52.0000    52.0000    -0.0160    -0.0020   -68.0600    43.1220     0.1440     0.3730    -1.3900     2.0760 
   52.1250    52.1250    -0.0170    -0.0030   -68.5080    44.0160     0.1430     0.3680    -5.5530     2.0890 
   52.2500    52.2500    -0.0180    -0.0030   -68.8160    44.4220     0.1430     0.3660    -8.7400     2.1070 
   52.3750    52.3750    -0.0190    -0.0030   -68.7500    43.7650     0.1430     0.3790    -9.1940     2.1470 
   52.5000    52.5000    -0.0200    -0.0030   -68.1770    41.8960     0.1430     0.4030    -9.3610     2.2210 
   52.6250    52.6250    -0.0220    -0.0030   -66.9780    39.7780     0.1430     0.4140    -9.5910     2.3130 
   52.7500    52.7500    -0.0230    -0.0030   -65.2270    38.7110     0.1430     0.4040    -9.8880     2.4070 
   52.8750    52.8750    -0.0240    -0.0030   -62.9960    39.7550     0.1430     0.3800    -9.8590     2.4640 
   53.0000    53.0000    -0.0250    -0.0030   -60.4860    41.6570     0.1430     0.3580    -8.6480     2.4600 
   53.1250    53.1250    -0.0260    -0.0030   -57.8860    44.0420     0.1430     0.3460    -7.3370     2.4060 
   53.2500    53.2500    -0.0270    -0.0030   -55.4000    46.0210     0.1430     0.3420    -7.8490     2.3410 
   53.3750    53.3750    -0.0290    -0.0030   -53.2280    47.2420     0.1430     0.3370    -8.9300     2.3050 
   53.5000    53.5000    -0.0300    -0.0030   -51.4740    47.6900     0.1440     0.3290    -9.3660     2.2990 
   53.6250    53.6250    -0.0310    -0.0030   -50.2310    47.5680     0.1440     0.3290    -9.5250     2.3020 
   53.7500    53.7500    -0.0320    -0.0030   -49.4300    48.4470     0.1430     0.3420    -9.5510     2.2960 
   53.8750    53.8750    -0.0330    -0.0030   -48.9960    48.2110     0.1430     0.3620    -9.8140     2.2820 
   54.0000    54.0000    -0.0350    -0.0030   -48.7740    47.1900     0.1430     0.3780   -10.2890     2.2680 
   54.1250    54.1250    -0.0360    -0.0030   -48.7170    43.8400     0.1420     0.3790   -10.3680     2.2650 
   54.2500    54.2500    -0.0370    -0.0030   -48.8840    41.4400     0.1370     0.3620   -10.2030     2.2690 
   54.3750    54.3750    -0.0390    -0.0030   -49.5630    40.1060     0.1130     0.3220   -10.0850     2.2720 
   54.5000    54.5000    -0.0400    -0.0030   -51.1030    40.4310     0.0810     0.2510    -9.8160     2.2690 
   54.6250    54.6250    -0.0410    -0.0030   -54.0410    42.3050     0.0500     0.1620    -9.6120     2.2580 
   54.7500    54.7500    -0.0430    -0.0030   -58.5960    45.5100     0.0340     0.0960    -9.4860     2.2490 
   54.8750    54.8750    -0.0440    -0.0030   -64.9570    49.6600     0.0590     0.0910    -8.4830     2.2750 
   55.0000    55.0000    -0.0450    -0.0030   -72.6360    54.3420     0.1430     0.1610    -4.9600     2.3240 
   55.1250    55.1250    -0.0470    -0.0030   -80.9440    60.6820     0.3300     0.5590    -0.0330     2.3360 
   55.2500    55.2500    -0.0480    -0.0030   -88.9080    66.8510     0.7720     1.8730     2.5830     2.2540 
   55.3750    55.3750    -0.0500    -0.0030   -95.5880    72.1850     1.5070     3.6950     3.1120     2.1290 
   55.5000    55.5000    -0.0510    -0.0030  -100.6110    74.6580     1.9920     4.7300     3.2530     2.0390 
   55.6250    55.6250    -0.0530    -0.0030  -103.8420    76.2480     2.2370     4.5580     2.8910     2.0050 
   55.7500    55.7500    -0.0540    -0.0030  -105.7580    78.3620     2.1130     3.2740     2.6140     1.9930 
   55.8750    55.8750    -0.0560    -0.0030  -106.7820    81.9560     1.9510     2.0540     2.7880     2.0090 
   56.0000    56.0000    -0.0570    -0.0030  -107.4240    85.7020     2.0410     1.7150     3.0920     2.0560 
   56.1250    56.1250    -0.0590    -0.0030  -107.9470    87.4060     2.3430     1.9560     3.4210     2.1180 
   56.2500    56.2500    -0.0600    -0.0030  -108.4700    87.4900     2.8610     2.4840     3.8460     2.1760 
   56.3750    56.3750    -0.0620    -0.0020  -108.9780    83.9650     3.5720     3.1690     4.9990     2.2470 
   56.5000    56.5000    -0.0630    -0.0020  -109.4120    80.9010     4.3090     3.8000     7.2150     2.3330 
   56.6250    56.6250    -0.0650    -0.0020  -109.7030    79.4230     4.7130     4.0970     8.6630     2.3830 
   56.7500    56.7500    -0.0670    -0.0020  -109.8310    81.2120     4.5810     3.9680     7.9180     2.3570 
   56.8750    56.8750    -0.0680    -0.0020  -109.7970    82.9620     3.9780     3.4700     6.2220     2.2730 
   57.0000    57.0000    -0.0700    -0.0020  -109.6610    86.0220     3.2020     2.8440     4.7520     2.2040 
   57.1250    57.1250    -0.0720    -0.0020  -109.5040    91.0460     2.5990     2.3560     3.5480     2.1900 
   57.2500    57.2500    -0.0740    -0.0020  -109.4390    96.7660     2.2750     2.1180     2.9990     2.2030 
   57.3750    57.3750    -0.0750    -0.0020  -109.5980    99.6870     2.1970     2.1280     3.0000     2.2040 
   57.5000    57.5000    -0.0770    -0.0030  -110.0500    98.0550     2.3230     2.3260     3.0490     2.1840 
   57.6250    57.6250    -0.0790    -0.0030  -110.8360    94.2860     2.6400     2.6900     3.2030     2.1600 
   57.7500    57.7500    -0.0810    -0.0030  -111.8720    89.7670     3.0490     3.1280     3.7320     2.1460 
   57.8750    57.8750    -0.0830    -0.0030  -113.0450    84.3760     3.3880     3.5550     4.6500     2.1360 
   58.0000    58.0000    -0.0850    -0.0030  -114.1960    79.4910     3.6340     3.9030     5.3470     2.1260 
   58.1250    58.1250    -0.0870    -0.0030  -115.1920    76.4970     3.7270     4.0770     5.0850     2.1150 
   58.2500    58.2490    -0.0890    -0.0030  -115.9760    76.4690     3.6850     4.0530     4.5080     2.1170 
   58.3750    58.3740    -0.0910    -0.0030  -116.5190    76.6720     3.4980     3.8460     6.7280     2.1210 
   58.5000    58.4990    -0.0930    -0.0040  -116.8660    77.0250     3.2440     3.6080     9.8460     2.1160 
   58.6250    58.6240    -0.0950    -0.0040  -117.0560    76.6000     3.1690     3.5910     8.3980     2.1090 
   58.7500    58.7490    -0.0970    -0.0040  -117.1670    78.5220     3.4490     4.0050     4.9480     2.1300 
   58.8750    58.8740    -0.0990    -0.0040  -117.2860    79.3000     4.2110     5.0560     7.5020     2.2110 
   59.0000    58.9990    -0.1010    -0.0040  -117.4990    78.0090     5.4250     6.6630    19.6440     2.3410 
