~V
VERS. 2.00: Ver 2.00
~W
STRT.M 63.0000:
STOP.M 256.0000:
STEP.M 0.1250:
NULL. -999.2500:
UWI. FD10901:
~C
DEPT.M :
TVD. :
DX. :
DY. :
SP.MV :
GR.API :
RI. :
RML.OHMM :
RXO.OHMM :
DEN.GM/CC :
~A
# ...
  145.1250   144.9100    -1.7130    -3.3180   -11.4170    67.8380    32.2560    35.8390    24.5340     2.1580 
  145.2500   145.0340    -1.7170    -3.3350   -11.3980    67.5410    34.3710    38.0260    24.9500     2.1540 
  145.3750   145.1580    -1.7220    -3.3520   -11.4110    67.0260    34.8260    38.2870    23.9350     2.1550 
  145.5000   145.2810    -1.7270    -3.3690   -11.3750    66.3780    33.9880    37.0830    22.2210     2.1590 
  145.6250   145.4050    -1.7310    -3.3870   -11.2710    66.7570    32.5090    35.3410    21.0540     2.1620 
  145.7500   145.5290    -1.7360    -3.4040   -11.0290    67.2260    31.5080    34.3870    21.5660     2.1580 
  145.8750   145.6520    -1.7400    -3.4210   -10.7550    67.3670    31.4130    34.5590    22.3080     2.1520 
  146.0000   145.7760    -1.7450    -3.4380   -10.5430    66.3300    31.7910    35.2770    22.3160     2.1550 
  146.1250   145.9000    -1.7490    -3.4560   -10.3520    65.7200    32.0320    35.7170    22.8280     2.1840 
  146.2500   146.0240    -1.7540    -3.4730   -10.1320    65.5900    31.7520    35.5010    25.5450     2.2360 
  146.3750   146.1470    -1.7580    -3.4900    -9.8690    65.8650    30.8050    34.4450    29.3300     2.3000 
  146.5000   146.2710    -1.7630    -3.5080    -9.5420    65.9920    29.6590    33.1800    30.3490     2.3460 
  146.6250   146.3950    -1.7670    -3.5250    -9.2400    66.0180    28.7250    32.1710    25.9540     2.3610 
  146.7500   146.5180    -1.7720    -3.5430    -8.9820    66.3300    27.9910    31.3860    21.1110     2.3510 
  146.8750   146.6420    -1.7760    -3.5600    -8.7310    65.6470    27.5340    30.9040    20.7410     2.3350 
  147.0000   146.7660    -1.7810    -3.5780    -8.4220    64.9170    27.3480    30.7130    21.9740     2.3290 
  147.1250   146.8890    -1.7850    -3.5950    -8.1930    64.6980    27.3450    30.6620    21.2890     2.3390 
  147.2500   147.0130    -1.7900    -3.6130    -8.2250    65.3710    27.2150    30.4480    19.9870     2.3550 
  147.3750   147.1370    -1.7940    -3.6300    -8.4690    65.6550    27.1800    30.3710    20.9020     2.3570 
  147.5000   147.2610    -1.7990    -3.6480    -8.8120    65.4770    27.3860    30.5530    22.2410     2.3330 
  147.6250   147.3840    -1.8040    -3.6650    -9.1600    64.2980    27.9590    31.1220    22.3660     2.2890 
  147.7500   147.5080    -1.8090    -3.6830    -9.6050    62.4640    28.6740    31.7880    23.1500     2.2580 
  147.8750   147.6320    -1.8130    -3.7010    -9.8930    60.7240    29.1640    32.1400    24.2950     2.2690 
  148.0000   147.7550    -1.8180    -3.7180    -9.9960    60.2120    29.3390    32.0950    24.9990     2.3020 
  148.1250   147.8790    -1.8230    -3.7360    -9.8700    62.1530    29.2910    31.8020    24.8200     2.3170 
  148.2500   148.0020    -1.8280    -3.7540    -9.5640    63.5760    29.4900    31.8750    23.3790     2.2880 
  148.3750   148.1260    -1.8320    -3.7710    -9.2120    63.1430    30.5630    33.1210    22.2010     2.2650 
  148.5000   148.2500    -1.8370    -3.7890    -8.9850    61.5800    33.3780    36.6750    21.5720     2.2970 
  148.6250   148.3730    -1.8420    -3.8070    -8.8110    61.1810    38.7050    43.1650    25.0940     2.4100 
  148.7500   148.4970    -1.8460    -3.8250    -8.6490    61.1240    41.3710    45.4030    36.2990     2.5390 
  148.8750   148.6210    -1.8510    -3.8420    -8.4430    60.8070    37.2310    40.2390    48.8000     2.6300 
  149.0000   148.7440    -1.8550    -3.8600    -8.1870    60.0910    29.0200    30.4160    52.7240     2.6380 
  149.1250   148.8680    -1.8600    -3.8780    -7.9410    61.8380    18.3690    18.5300    39.0810     2.5780 
  149.2500   148.9920    -1.8650    -3.8960    -7.7310    66.1420    11.9640    12.0150    17.1420     2.4830 
  149.3750   149.1150    -1.8690    -3.9140    -7.4930    71.8490     9.9440    10.0640     7.5140     2.4290 
  149.5000   149.2390    -1.8740    -3.9320    -7.1370    75.0340     9.8340    10.2830     8.5400     2.4240 
  149.6250   149.3620    -1.8790    -3.9500    -6.8720    72.9330    11.8530    12.8950    11.1000     2.4620 
  149.7500   149.4860    -1.8840    -3.9670    -6.7930    67.3820    15.1630    16.8040    14.9040     2.5030 
  149.8750   149.6100    -1.8880    -3.9850    -6.9570    62.1290    19.1930    21.3400    19.1520     2.5290 
  150.0000   149.7330    -1.8930    -4.0030    -7.2360    59.7450    22.6400    24.9530    20.5100     2.5340 
  150.1250   149.8570    -1.8980    -4.0210    -7.5610    59.4210    24.1020    26.1790    18.5480     2.5300 
  150.2500   149.9810    -1.9020    -4.0400    -7.8360    59.6170    23.5490    25.2650    17.0350     2.5340 
  150.3750   150.1040    -1.9070    -4.0580    -7.9890    59.0200    21.7040    23.0200    17.0920     2.5440 
  150.5000   150.2280    -1.9120    -4.0760    -8.0050    58.0320    19.7500    20.8700    15.6340     2.5430 
  150.6250   150.3510    -1.9160    -4.0940    -7.9120    58.5770    18.7530    19.9160    13.4320     2.5380 
  150.7500   150.4750    -1.9210    -4.1120    -7.3040    60.7230    18.5530    19.9210    14.0150     2.5430 
  150.8750   150.5980    -1.9260    -4.1300    -5.7260    62.2740    18.9530    20.7820    16.3770     2.5590 
  151.0000   150.7220    -1.9300    -4.1490    -3.8830    61.9820    19.5170    21.8840    17.3680     2.5600 
  151.1250   150.8460    -1.9350    -4.1670    -2.9480    62.2900    20.1620    23.0190    16.5950     2.5440 
  151.2500   150.9690    -1.9400    -4.1850    -2.6720    63.0760    20.5390    23.6540    17.0340     2.5130 
  151.3750   151.0930    -1.9440    -4.2040    -2.4920    63.0350    20.5330    23.6910    18.7320     2.4770 
  151.5000   151.2160    -1.9490    -4.2220    -2.3280    61.0400    20.5240    23.6840    18.9080     2.4500 
  151.6250   151.3400    -1.9540    -4.2400    -2.1090    59.0500    20.8450    24.1000    17.9090     2.4570 
  151.7500   151.4630    -1.9580    -4.2590    -1.8480    58.1120    21.4510    24.8430    16.9980     2.5030 
  151.8750   151.5870    -1.9630    -4.2780    -1.7670    57.8330    22.1880    25.7600    17.6300     2.5590 
  152.0000   151.7100    -1.9680    -4.2960    -1.8120    58.8850    22.8090    26.5550    20.5320     2.5880 
  152.1250   151.8340    -1.9730    -4.3150    -1.7400    60.0070    23.0030    26.7670    22.0490     2.5710 
  152.2500   151.9570    -1.9780    -4.3330    -1.6250    60.4580    22.4850    26.0530    19.9310     2.5360 
  152.3750   152.0810    -1.9830    -4.3520    -1.6120    59.9260    21.4720    24.7350    18.1760     2.5050 
  152.5000   152.2040    -1.9880    -4.3710    -1.7520    60.2410    20.4810    23.4590    19.1110     2.4950 
  152.6250   152.3280    -1.9930    -4.3890    -1.9010    62.4660    19.8890    22.7220    19.8490     2.4950 
  152.7500   152.4510    -1.9980    -4.4080    -1.8260    63.9030    20.2500    23.2060    19.2090     2.5140 
  152.8750   152.5750    -2.0030    -4.4270    -1.5320    63.5090    21.3570    24.5920    18.8990     2.5530 
  153.0000   152.6980    -2.0080    -4.4460    -1.1450    60.9230    22.5310    26.0510    20.2200     2.5990 
  153.1250   152.8220    -2.0130    -4.4650    -0.7030    59.4880    23.1850    26.8360    22.9490     2.6080 
  153.2500   152.9450    -2.0180    -4.4840    -0.3260    58.9960    23.0330    26.6210    23.3020     2.5700 
  153.3750   153.0690    -2.0230    -4.5030    -0.1060    59.7200    22.0290    25.3210    19.5870     2.5070 
  153.5000   153.1920    -2.0280    -4.5220     0.0370    59.8790    20.4530    23.4020    16.3890     2.4680 
  153.6250   153.3150    -2.0330    -4.5410     0.0260    60.4740    19.1030    21.8200    15.3350     2.4670 
  153.7500   153.4390    -2.0380    -4.5600    -0.0610    61.2210    18.0840    20.6670    14.4510     2.4790 
  153.8750   153.5620    -2.0440    -4.5790    -0.1910    61.3830    17.9190    20.5850    14.0440     2.4810 
  154.0000   153.6860    -2.0490    -4.5990    -0.3320    60.3240    18.6390    21.5050    14.5070     2.4750 
  154.1250   153.8090    -2.0540    -4.6180    -0.4170    58.7680    20.0900    23.2880    16.7930     2.4870 
