~V
VERS. 2.00: Ver 2.00
~W
STRT.M 30.0000:
STOP.M 223.0000:
STEP.M 0.1250:
NULL. -999.2500:
UWI. FD10814:
~C
DEPT.M :
TVD. :
DX. :
DY. :
SP.MV :
GR.API :
RI. :
RML.OHMM :
RXO.OHMM :
DEN.GM/CC :
~A
   30.0000    30.0000     0.0000     0.0000   114.6000    37.7920     0.7590     0.9440     1.2070     2.3310 
   30.1250    30.1250    -0.0020     0.0000   114.4390    37.8150     0.9870     0.7690     1.1840     2.3310 
   30.2500    30.2500    -0.0040     0.0000   114.2070    38.4760     1.0730     0.6770     1.1460     2.3310 
   30.3750    30.3750    -0.0050     0.0000   113.7580    40.4130     1.0950     0.7850     1.1020     2.3310 
   30.5000    30.5000    -0.0070     0.0000   113.1390    42.8520     1.1380     0.9670     1.0610     2.3310 
   30.6250    30.6250    -0.0090     0.0000   112.5670    44.9730     0.8980     1.1360     1.0630     2.3310 
   30.7500    30.7500    -0.0110     0.0000   112.5840    45.8300     1.3710     1.6460     1.0750     2.3310 
   30.8750    30.8750    -0.0120     0.0000   112.7670    45.7860     1.2100     1.8430     1.0330     2.3310 
   31.0000    31.0000    -0.0140     0.0000   112.8560    45.9930     1.3060     1.8500     0.9950     2.3310 
   31.1250    31.1250    -0.0160     0.0000   112.7080    46.6510     1.1450     1.7100     0.9700     2.3310 
   31.2500    31.2500    -0.0180     0.0000   112.3950    47.3200     0.7100     1.2120     0.9600     2.3310 
   31.3750    31.3750    -0.0200     0.0000   112.2120    47.4070     0.5430     0.9100     1.0460     2.3310 
   31.5000    31.5000    -0.0220     0.0000   112.1680    47.3200     0.2580     0.6050     1.1470     2.3310 
   31.6250    31.6250    -0.0230     0.0000   112.3500    47.1900     0.0630     0.3910     1.1120     2.3310 
   31.7500    31.7500    -0.0250    -0.0010   112.5690    47.1090     0.0550     0.3450     0.9970     2.3310 
   31.8750    31.8750    -0.0270    -0.0010   112.7930    45.9960     0.0550     0.3470     1.0020     2.3310 
   32.0000    32.0000    -0.0290    -0.0010   112.9360    43.9040     0.0560     0.3470     1.0720     2.3310 
   32.1250    32.1250    -0.0310    -0.0010   113.0760    43.1460     0.0560     0.3500     1.0280     2.3310 
   32.2500    32.2500    -0.0330    -0.0010   113.3630    44.0960     0.0560     0.3490     0.9600     2.3310 
   32.3750    32.3750    -0.0340    -0.0010   113.7250    46.3180     0.0560     0.3480     0.9500     2.3310 
   32.5000    32.5000    -0.0360    -0.0010   114.2390    46.9260     0.0560     0.3480     0.9600     2.3310 
   32.6250    32.6250    -0.0380    -0.0010   114.9090    46.5960     0.0560     0.3430     0.9480     2.3310 
   32.7500    32.7500    -0.0400    -0.0010   115.6120    45.5190     0.0550     0.3380     0.9150     2.3310 
   32.8750    32.8750    -0.0420     0.0000   116.2060    44.7980     0.0550     0.3330     0.9290     2.3310 
   33.0000    33.0000    -0.0440     0.0000   116.6710    43.7070     0.0550     0.3280     0.9420     2.3310 
   33.1250    33.1250    -0.0460     0.0000   116.9900    42.9340     0.0550     0.3280     0.8890     2.3320 
   33.2500    33.2500    -0.0480     0.0000   117.4820    42.8100     0.0550     0.3260     0.8650     2.3330 
   33.3750    33.3750    -0.0500     0.0000   118.2750    42.8440     0.0550     0.3230     0.8340     2.3280 
   33.5000    33.5000    -0.0510     0.0000   119.0830    42.2950     0.0560     0.3170     0.7070     2.3220 
   33.6250    33.6250    -0.0530     0.0010   119.7290    41.7300     0.0560     0.3080     0.5940     2.3180 
   33.7500    33.7500    -0.0550     0.0010   120.0600    41.1230     0.0550     0.3020     0.5310     2.3160 
   33.8750    33.8750    -0.0570     0.0010   119.8180    40.8120     0.0550     0.3020     0.6160     2.3060 
   34.0000    34.0000    -0.0590     0.0010   119.3140    41.0560     0.0540     0.3060     0.8760     2.2960 
   34.1250    34.1250    -0.0610     0.0010   118.7930    42.7010     0.0530     0.3100     0.8560     2.2890 
   34.2500    34.2500    -0.0630     0.0010   118.4600    44.0490     0.0530     0.3110     0.4850     2.2870 
   34.3750    34.3750    -0.0650     0.0010   117.9690    44.1850     0.0530     0.3100     0.2350     2.2770 
   34.5000    34.5000    -0.0670     0.0020   117.2030    42.9250     0.0550     0.3160     0.1810     2.2940 
   34.6250    34.6240    -0.0690     0.0020   116.4350    41.0930     0.0550     0.3240     0.1300     2.3780 
   34.7500    34.7490    -0.0710     0.0020   115.7320    39.7130     0.0560     0.3280     0.0790     2.5000 
   34.8750    34.8740    -0.0730     0.0020   114.9720    39.8640     0.0550     0.3280     0.0650     2.5300 
   35.0000    34.9990    -0.0750     0.0020   114.0640    41.3970     0.0550     0.3190     0.0500     2.4250 
   35.1250    35.1240    -0.0770     0.0020   113.0820    44.1190     0.0530     0.3080     0.0580     2.2590 
   35.2500    35.2490    -0.0780     0.0030   112.1890    46.1990     0.0520     0.3000     0.1220     2.1290 
   35.3750    35.3740    -0.0800     0.0030   111.4840    46.9090     0.0520     0.2960     0.1560     2.0710 
   35.5000    35.4990    -0.0820     0.0030   110.9320    45.6630     0.0530     0.2990     0.1180     2.0570 
   35.6250    35.6240    -0.0840     0.0030   110.5180    44.5230     0.0540     0.3020     0.1120     2.0750 
   35.7500    35.7490    -0.0860     0.0030   110.3420    45.4400     0.0540     0.3040     0.1380     2.1010 
   35.8750    35.8740    -0.0880     0.0030   110.2750    47.4350     0.0540     0.3010     0.1160     2.1270 
   36.0000    35.9990    -0.0900     0.0030   110.2920    49.5530     0.0540     0.2930     0.0830     2.1520 
   36.1250    36.1240    -0.0920     0.0030   110.3890    50.0880     0.0540     0.2880     0.0750     2.1750 
   36.2500    36.2490    -0.0940     0.0030   110.5470    50.3260     0.0540     0.2860     0.1000     2.1920 
   36.3750    36.3740    -0.0960     0.0030   110.8030    50.1560     0.0540     0.2910     0.1810     2.2150 
   36.5000    36.4990    -0.0980     0.0030   111.1740    49.6000     0.0540     0.2980     0.2190     2.2520 
   36.6250    36.6240    -0.1000     0.0030   111.8550    47.9750     0.0540     0.3040     0.1320     2.2930 
   36.7500    36.7490    -0.1020     0.0030   112.6700    45.9440     0.0540     0.3080     0.0480     2.3230 
   36.8750    36.8740    -0.1040     0.0030   113.2640    44.0480     0.0540     0.3100     0.0690     2.3330 
   37.0000    36.9990    -0.1060     0.0030   113.3020    43.7600     0.0540     0.3110     0.1310     2.3370 
   37.1250    37.1240    -0.1080     0.0030   113.1460    44.7520     0.0540     0.3090     0.1540     2.3360 
   37.2500    37.2490    -0.1100     0.0030   113.3090    46.3020     0.0540     0.3050     0.1460     2.3380 
   37.3750    37.3740    -0.1120     0.0020   113.9800    47.0360     0.0540     0.3020     0.1380     2.3360 
   37.5000    37.4990    -0.1140     0.0020   115.0050    46.3200     0.0540     0.3060     0.1350     2.3310 
   37.6250    37.6240    -0.1160     0.0020   116.1820    45.1310     0.0540     0.3150     0.1330     2.3160 
   37.7500    37.7490    -0.1180     0.0010   117.2190    43.9880     0.0540     0.3250     0.1320     2.3050 
   37.8750    37.8740    -0.1200     0.0010   117.8850    43.7110     0.0540     0.3310     0.1260     2.3040 
   38.0000    37.9990    -0.1220     0.0010   118.2950    43.7150     0.0540     0.3330     0.1210     2.3090 
   38.1250    38.1240    -0.1240     0.0000   118.6190    44.5370     0.0550     0.3330     0.1200     2.3170 
   38.2500    38.2490    -0.1260     0.0000   119.0690    45.2580     0.0610     0.3320     0.1220     2.3160 
   38.3750    38.3740    -0.1280    -0.0010   119.4350    44.4920     0.0610     0.3300     0.1240     2.3080 
   38.5000    38.4990    -0.1300    -0.0010   119.5850    42.7680     0.0610     0.3270     0.1210     2.2950 
   38.6250    38.6240    -0.1320    -0.0020   119.7490    42.0680     0.0610     0.3250     0.1080     2.2890 
   38.7500    38.7490    -0.1340    -0.0030   120.2600    42.7680     0.0550     0.3210     0.1040     2.2850 
   38.8750    38.8740    -0.1360    -0.0030   121.1230    44.1070     0.0550     0.3190     0.1280     2.2850 
   39.0000    38.9990    -0.1380    -0.0040   122.2170    44.9180     0.0560     0.3180     0.1510     2.2750 
