~V
VERS. 2.00: Ver 2.00
~W
STRT.M 32.0000:
STOP.M 269.0000:
STEP.M 0.1250:
NULL. -999.2500:
UWI. FD10881:
~C
DEPT.M :
TVD. :
DX. :
DY. :
SP.MV :
GR.API :
RI. :
RML.OHMM :
RXO.OHMM :
~A
# ...
  122.0000   120.4440   -12.2400    -5.9040    -4.3930    90.8030     4.1990     5.1310     6.6880 
  122.1250   120.5620   -12.2770    -5.9210    -4.2930    92.3010     4.2330     5.1870     5.9680 
  122.2500   120.6800   -12.3140    -5.9380    -4.3240    94.7670     4.4360     5.4970     5.6940 
  122.3750   120.7980   -12.3510    -5.9550    -4.3890    93.3720     4.7490     5.9390     6.0070 
  122.5000   120.9160   -12.3880    -5.9720    -4.4360    88.8640     5.0320     6.3170     6.6900 
  122.6250   121.0340   -12.4260    -5.9890    -4.3870    84.5530     5.2280     6.5420     7.6130 
  122.7500   121.1520   -12.4630    -6.0060    -4.2370    82.6540     5.2710     6.5050     7.7830 
  122.8750   121.2700   -12.5000    -6.0240    -4.1000    83.1370     5.1940     6.3070     7.0300 
  123.0000   121.3880   -12.5380    -6.0410    -4.0110    84.5980     5.2170     6.2590     6.6370 
  123.1250   121.5060   -12.5750    -6.0580    -3.8330    85.0010     5.5710     6.6840     7.1830 
  123.2500   121.6240   -12.6130    -6.0750    -3.3950    82.5180     6.4630     7.8240     7.9200 
  123.3750   121.7420   -12.6510    -6.0920    -2.6040    77.8610     7.8110     9.5550     8.3750 
  123.5000   121.8600   -12.6880    -6.1090    -1.1840    72.8020     9.5010    11.6590    10.2570 
  123.6250   121.9780   -12.7260    -6.1270     0.8230    68.3340    11.1360    13.6240    14.0050 
  123.7500   122.0960   -12.7640    -6.1440     3.1100    65.1010    12.4560    15.1160    15.9780 
  123.8750   122.2140   -12.8020    -6.1620     5.1380    65.0360    13.3500    16.0370    13.5860 
  124.0000   122.3310   -12.8400    -6.1790     6.3110    68.4530    13.8140    16.4620    10.3850 
  124.1250   122.4490   -12.8770    -6.1970     6.6430    71.5460    14.2780    16.9720    10.9940 
  124.2500   122.5670   -12.9160    -6.2140     6.5010    69.4910    15.0150    17.8700    13.7220 
  124.3750   122.6850   -12.9540    -6.2320     6.2690    62.9370    15.8980    18.9670    14.6820 
  124.5000   122.8020   -12.9920    -6.2490     6.1900    56.8920    16.7560    20.0110    13.9160 
  124.6250   122.9200   -13.0300    -6.2670     6.5390    55.4650    17.2420    20.5490    13.7190 
  124.7500   123.0380   -13.0680    -6.2840     7.2820    58.4540    17.2360    20.4830    14.4040 
  124.8750   123.1560   -13.1070    -6.3020     8.0360    61.7930    16.9670    20.0860    15.1690 
  125.0000   123.2730   -13.1450    -6.3200     8.6460    62.5600    16.5970    19.6050    15.6420 
  125.1250   123.3910   -13.1840    -6.3370     9.1840    61.6620    16.3020    19.2270    15.4710 
  125.2500   123.5080   -13.2220    -6.3550     9.4910    60.9770    16.2710    19.2000    15.4050 
  125.3750   123.6260   -13.2610    -6.3730     9.5600    62.2800    16.4550    19.4040    15.6950 
  125.5000   123.7440   -13.2990    -6.3900     9.4960    64.7940    16.8050    19.7490    15.8660 
  125.6250   123.8610   -13.3380    -6.4080     9.4060    67.4210    17.2460    20.1580    16.1890 
  125.7500   123.9790   -13.3770    -6.4250     9.3760    68.2370    17.6320    20.4660    17.0790 
  125.8750   124.0960   -13.4160    -6.4430     9.4520    66.8390    17.9720    20.6760    18.4890 
  126.0000   124.2140   -13.4540    -6.4610     9.5380    63.1180    18.1480    20.7300    19.6830 
  126.1250   124.3310   -13.4930    -6.4790     9.5560    60.7640    18.1550    20.6050    20.2220 
  126.2500   124.4490   -13.5320    -6.4960     9.4380    60.3230    18.0030    20.3490    20.2130 
  126.3750   124.5660   -13.5710    -6.5140     9.2190    59.8050    17.7910    20.0550    20.0110 
  126.5000   124.6840   -13.6100    -6.5320     8.9690    59.3430    17.6430    19.8580    19.8040 
  126.6250   124.8010   -13.6480    -6.5500     8.9700    60.1670    17.5760    19.7610    19.1320 
  126.7500   124.9190   -13.6870    -6.5680     9.4530    61.3660    17.5980    19.7620    18.5050 
  126.8750   125.0360   -13.7260    -6.5860    10.2030    62.8590    17.6500    19.7970    19.0130 
  127.0000   125.1530   -13.7650    -6.6040    10.9500    63.6150    17.6550    19.7430    19.9400 
  127.1250   125.2710   -13.8040    -6.6210    11.2910    62.9980    17.5720    19.5710    20.3410 
  127.2500   125.3880   -13.8420    -6.6390    10.9200    59.4670    17.3930    19.2880    20.2720 
  127.3750   125.5060   -13.8810    -6.6570    10.0960    56.2380    17.1530    18.9500    19.9630 
  127.5000   125.6230   -13.9200    -6.6760     9.1390    57.4260    16.9170    18.6290    19.4400 
  127.6250   125.7410   -13.9590    -6.6940     8.3350    61.1480    16.6910    18.3290    18.6020 
  127.7500   125.8580   -13.9980    -6.7120     8.0410    62.8840    16.5380    18.1320    17.9860 
  127.8750   125.9760   -14.0370    -6.7300     8.2760    60.8720    16.5020    18.0870    17.9120 
  128.0000   126.0930   -14.0760    -6.7480     8.6990    58.7120    16.6120    18.2050    17.7510 
  128.1250   126.2100   -14.1140    -6.7660     9.0410    58.7970    16.8120    18.4620    17.8500 
  128.2500   126.3280   -14.1530    -6.7840     9.3780    58.8010    17.1860    18.8970    18.5330 
  128.3750   126.4450   -14.1920    -6.8020     9.6980    58.3390    17.6490    19.4260    18.6840 
  128.5000   126.5630   -14.2310    -6.8200     9.8940    57.7140    18.1710    20.0160    18.2720 
  128.6250   126.6800   -14.2700    -6.8380    10.0220    57.8310    18.8870    20.8250    18.6970 
  128.7500   126.7970   -14.3090    -6.8560    10.0890    57.5470    19.6950    21.7250    19.6810 
  128.8750   126.9150   -14.3480    -6.8740    10.0850    56.0250    20.6000    22.7130    19.0160 
  129.0000   127.0320   -14.3870    -6.8910    10.0270    54.7340    21.8150    24.0770    18.3170 
  129.1250   127.1500   -14.4260    -6.9090     9.8530    55.5270    23.2900    25.7110    19.9720 
  129.2500   127.2670   -14.4650    -6.9270     9.3920    59.0860    24.8240    27.4910    22.5980 
  129.3750   127.3840   -14.5040    -6.9460     8.6790    62.0240    26.3210    29.3070    26.2020 
  129.5000   127.5020   -14.5430    -6.9640     7.7780    62.0990    27.4690    30.7050    29.9150 
  129.6250   127.6190   -14.5820    -6.9820     6.7990    61.4050    27.4130    30.7000    29.7960 
  129.7500   127.7360   -14.6210    -7.0000     6.1540    62.8050    26.5170    29.7360    26.1820 
  129.8750   127.8540   -14.6600    -7.0190     6.0490    65.9310    24.9510    27.9890    23.3690 
  130.0000   127.9710   -14.6990    -7.0370     6.3990    67.2620    23.1950    26.0660    21.4310 
  130.1250   128.0880   -14.7380    -7.0550     6.8750    64.1530    21.9730    24.7650    18.6220 
  130.2500   128.2060   -14.7780    -7.0740     7.0830    59.3070    21.3500    24.1720    16.4900 
  130.3750   128.3230   -14.8170    -7.0920     6.6900    56.8570    21.4500    24.4320    15.8980 
  130.5000   128.4400   -14.8560    -7.1100     5.7280    58.2940    22.2980    25.6340    15.3580 
  130.6250   128.5570   -14.8950    -7.1290     4.6340    61.0560    23.7160    27.5000    21.1860 
  130.7500   128.6750   -14.9350    -7.1470     3.7390    63.5720    25.2400    29.4930    39.9330 
  130.8750   128.7920   -14.9740    -7.1650     3.2120    66.0890    26.8260    31.5100    49.5800 
  131.0000   128.9090   -15.0140    -7.1840     3.2730    67.1510    27.9120    32.8110    37.0990 
  131.1250   129.0260   -15.0530    -7.2020     3.6080    65.3940    28.3620    33.2190    26.5810 
  131.2500   129.1430   -15.0930    -7.2210     3.8840    63.8870    28.1540    32.7930    25.1020 
  131.3750   129.2600   -15.1320    -7.2390     4.1390    64.7460    27.5200    32.0000    23.6540 
  131.5000   129.3780   -15.1720    -7.2570     4.3670    68.8130    26.7900    31.2290    22.9560 
  131.6250   129.4950   -15.2120    -7.2760     4.4460    72.7530    25.3560    29.5800    21.9220 
  131.7500   129.6120   -15.2510    -7.2940     4.4020    73.0580    23.3120    27.1490    20.9130 
  131.8750   129.7290   -15.2910    -7.3130     4.2960    69.6520    21.0820    24.4140    22.3550 
