~V
VERS. 2.00: Ver 2.00
~W
STRT.M 27.0000:
STOP.M 267.0000:
STEP.M 0.1250:
NULL. -999.2500:
UWI. FD10204:
~C
DEPT.M :
TVD. :
DX. :
DY. :
GR.API :
RML.OHMM :
RI. :
RXO.OHMM :
CALI.CM :
SP.MV :
DEN.GM/CC :
~A
# ...
  167.2500   163.0670    -9.0200   -25.0560    66.5380    27.3650    24.1070    17.7380    24.4010   -31.8440     2.2210 
  167.3750   163.1840    -9.0350   -25.0960    69.1020    27.9250    24.7730    17.4480    24.4610   -31.9230     2.2400 
  167.5000   163.3010    -9.0510   -25.1370    75.2340    28.3750    25.3390    18.0730    24.4610   -32.0080     2.2560 
  167.6250   163.4190    -9.0660   -25.1770    76.9920    28.3320    25.4640    18.3750    24.4510   -32.0830     2.2640 
  167.7500   163.5360    -9.0820   -25.2170    73.2530    27.7840    25.1200    18.6360    24.4530   -32.1510     2.2680 
  167.8750   163.6530    -9.0970   -25.2570    69.2010    26.8150    24.3670    19.3060    24.4560   -32.2700     2.2720 
  168.0000   163.7710    -9.1120   -25.2970    69.6540    25.5790    23.3350    19.3550    24.4580   -32.3980     2.2790 
  168.1250   163.8880    -9.1280   -25.3370    73.6350    24.3060    22.2200    18.7090    24.4810   -32.4330     2.2850 
  168.2500   164.0060    -9.1430   -25.3770    75.9810    23.2010    21.2250    18.2560    24.5330   -32.4160     2.2850 
  168.3750   164.1230    -9.1590   -25.4170    75.4490    22.3460    20.4430    17.6600    24.6040   -32.4310     2.2770 
  168.5000   164.2400    -9.1740   -25.4570    74.5870    21.7650    19.9020    17.4180    24.7100   -32.4880     2.2650 
  168.6250   164.3580    -9.1900   -25.4970    74.2410    21.4710    19.6080    18.2830    24.9170   -32.5190     2.2530 
  168.7500   164.4750    -9.2050   -25.5370    73.8770    21.3440    19.4610    19.3940    25.1920   -32.4820     2.2460 
  168.8750   164.5930    -9.2210   -25.5770    73.5840    21.3110    19.3980    19.4500    25.4430   -32.3900     2.2440 
  169.0000   164.7100    -9.2360   -25.6170    73.4130    21.3250    19.3810    18.8450    25.6110   -32.2980     2.2450 
  169.1250   164.8270    -9.2520   -25.6580    74.0520    21.3430    19.3800    18.7020    25.7230   -32.2270     2.2490 
  169.2500   164.9450    -9.2670   -25.6980    75.7560    21.3070    19.3540    18.9470    25.8490   -32.1690     2.2510 
  169.3750   165.0620    -9.2830   -25.7380    77.4240    21.1770    19.2710    19.2050    25.9840   -32.0930     2.2500 
  169.5000   165.1800    -9.2980   -25.7780    78.2050    20.9450    19.1070    19.1640    26.0860   -31.9980     2.2480 
  169.6250   165.2970    -9.3130   -25.8180    78.3860    20.6270    18.8460    18.7510    26.1220   -31.9170     2.2470 
  169.7500   165.4140    -9.3290   -25.8580    78.8180    20.2780    18.5190    18.7130    26.1270   -31.8320     2.2480 
  169.8750   165.5320    -9.3440   -25.8980    77.9800    19.9290    18.1640    18.8740    26.1300   -31.7340     2.2510 
  170.0000   165.6490    -9.3600   -25.9380    74.3430    19.6060    17.8270    18.5920    26.1320   -31.6430     2.2540 
  170.1250   165.7660    -9.3750   -25.9780    72.5500    19.3400    17.5690    18.2730    26.1220   -31.6240     2.2570 
  170.2500   165.8840    -9.3910   -26.0180    74.9750    19.1340    17.3980    18.3120    26.1140   -31.6450     2.2620 
  170.3750   166.0010    -9.4060   -26.0580    77.8730    18.9750    17.2880    18.3280    26.1180   -31.6750     2.2670 
  170.5000   166.1190    -9.4220   -26.0980    77.7020    18.8150    17.1840    18.0980    26.1330   -31.7020     2.2730 
  170.6250   166.2360    -9.4370   -26.1380    76.4870    18.5590    16.9950    18.1320    26.1720   -31.7280     2.2790 
  170.7500   166.3530    -9.4530   -26.1790    76.3000    18.1650    16.6860    18.2160    26.2310   -31.8090     2.2830 
  170.8750   166.4710    -9.4680   -26.2190    76.7350    17.6440    16.2610    17.8530    26.2800   -31.9300     2.2860 
  171.0000   166.5880    -9.4830   -26.2590    77.6750    17.0450    15.7580    16.6340    26.2920   -32.0190     2.2870 
  171.1250   166.7060    -9.4990   -26.2990    78.1040    16.4550    15.2470    15.3890    26.2870   -32.0580     2.2850 
  171.2500   166.8230    -9.5140   -26.3390    76.9070    15.9420    14.7870    14.9710    26.3020   -32.1030     2.2830 
  171.3750   166.9400    -9.5300   -26.3790    75.2920    15.5400    14.4120    14.8880    26.3290   -32.1810     2.2820 
  171.5000   167.0580    -9.5450   -26.4190    74.7030    15.2670    14.1480    14.7980    26.3830   -32.2430     2.2830 
  171.6250   167.1750    -9.5610   -26.4590    73.8430    15.1720    14.0560    14.4960    26.4890   -32.2460     2.2860 
  171.7500   167.2920    -9.5760   -26.4990    74.5140    15.2550    14.1420    14.2800    26.5920   -32.2120     2.2890 
  171.8750   167.4100    -9.5920   -26.5390    77.7200    15.5180    14.4090    14.2170    26.6410   -32.1830     2.2890 
  172.0000   167.5270    -9.6070   -26.5790    80.1250    15.9180    14.8160    14.4280    26.6390   -32.1750     2.2900 
  172.1250   167.6450    -9.6230   -26.6190    79.7130    16.3290    15.2500    15.1160    26.6300   -32.1490     2.2920 
  172.2500   167.7620    -9.6380   -26.6590    78.3370    16.5880    15.5590    15.6080    26.6200   -32.0860     2.2950 
  172.3750   167.8790    -9.6530   -26.7000    77.6900    16.5810    15.6420    15.5420    26.6150   -31.9910     2.2960 
  172.5000   167.9970    -9.6690   -26.7400    77.7100    16.2600    15.4480    15.2470    26.5830   -31.9050     2.2960 
  172.6250   168.1140    -9.6840   -26.7800    78.7540    15.6140    14.9440    14.5520    26.3790   -31.8730     2.2950 
  172.7500   168.2320    -9.7000   -26.8200    80.4670    14.7950    14.2530    13.0830    25.9520   -31.8310     2.2950 
  172.8750   168.3490    -9.7150   -26.8600    81.0580    13.9320    13.4920    11.5130    25.4210   -31.7170     2.2960 
  173.0000   168.4660    -9.7310   -26.9000    81.0870    13.1470    12.7840    10.6780    25.0130   -31.5740     2.2960 
  173.1250   168.5840    -9.7460   -26.9400    82.2570    12.6100    12.2820    10.9530    24.8890   -31.4410     2.2940 
  173.2500   168.7010    -9.7620   -26.9800    83.8740    12.3990    12.0540    11.7200    24.9180   -31.3080     2.2910 
  173.3750   168.8190    -9.7770   -27.0200    83.9420    12.5520    12.1420    12.5550    24.9660   -31.1300     2.2910 
  173.5000   168.9360    -9.7930   -27.0600    82.4350    13.0320    12.5310    13.3960    24.9640   -30.9140     2.2940 
  173.6250   169.0530    -9.8080   -27.1000    80.4580    13.7250    13.1560    14.0770    24.9060   -30.7080     2.2980 
  173.7500   169.1710    -9.8240   -27.1400    78.7240    14.3960    13.8260    14.6190    24.8230   -30.4890     2.2980 
  173.8750   169.2880    -9.8390   -27.1800    77.2740    14.9010    14.3990    15.1370    24.7160   -30.2890     2.2960 
  174.0000   169.4050    -9.8540   -27.2210    77.0410    15.1950    14.7990    15.4280    24.5660   -30.0890     2.2920 
  174.1250   169.5230    -9.8700   -27.2610    78.9700    15.3270    15.0270    15.3140    24.3700   -29.8770     2.2890 
  174.2500   169.6400    -9.8850   -27.3010    80.3160    15.4230    15.1850    15.1690    24.1570   -29.7130     2.2880 
  174.3750   169.7580    -9.9010   -27.3410    80.0960    15.5230    15.3140    15.1050    23.9590   -29.6360     2.2890 
  174.5000   169.8750    -9.9170   -27.3800    79.9430    15.5990    15.4070    15.0420    23.8130   -29.6120     2.2910 
  174.6250   169.9920    -9.9330   -27.4200    81.5230    15.5360    15.3830    14.5220    23.7570   -29.5490     2.2940 
  174.7500   170.1100    -9.9490   -27.4600    82.8070    15.2570    15.1840    13.9630    23.7520   -29.4770     2.2940 
  174.8750   170.2270    -9.9650   -27.5000    81.6440    14.7500    14.7910    13.7200    23.7560   -29.4460     2.2930 
  175.0000   170.3450    -9.9810   -27.5390    80.0280    14.1150    14.2750    13.6350    23.7570   -29.4640     2.2890 
  175.1250   170.4620    -9.9970   -27.5790    81.5970    13.5630    13.8060    13.2480    23.7590   -29.4670     2.2850 
  175.2500   170.5800   -10.0130   -27.6190    83.4920    13.2880    13.5500    12.7050    23.7600   -29.3720     2.2860 
  175.3750   170.6970   -10.0290   -27.6590    83.0830    13.4110    13.6190    12.5900    23.7610   -29.2040     2.2920 
