~V
VERS. 2.00: Ver 2.00
~W
STRT.M 20.0000:
STOP.M 282.0000:
STEP.M 0.1250:
NULL. -999.2500:
UWI. FD10228:
~C
DEPT.M :
TVD. :
DX. :
DY. :
GR.API :
RML.OHMM :
RI. :
RXO.OHMM :
CALI.CM :
SP.MV :
DEN.GM/CC :
~A
# ...
  275.7500   270.2800    36.4170     6.3990    68.9300     6.8650     6.4480    12.6490    16.9500    -4.6130     2.4300 
  275.8750   270.3980    36.4590     6.4040    68.9300     6.8320     6.4390    12.6630    16.9050    -4.6070     2.4450 
  276.0000   270.5160    36.5010     6.4090    68.9300     6.8320     6.4350    12.3610    16.8790    -4.5950     2.4590 
  276.1250   270.6330    36.5430     6.4140    68.9300     6.8730     6.4330    11.7420    16.8830    -4.5900     2.4650 
  276.2500   270.7510    36.5850     6.4200    68.9300     6.9200     6.4300    10.9030    16.8550    -4.5780     2.4610 
  276.3750   270.8690    36.6260     6.4250    68.9300     6.9470     6.4300    10.4960    16.7900    -4.5880     2.4500 
  276.5000   270.9860    36.6680     6.4300    68.9300     6.9400     6.4330    10.8500    16.7200    -4.6390     2.4340 
  276.6250   271.1040    36.7100     6.4350    68.9300     6.9140     6.4380    11.1850    16.7130    -4.7230     2.4150 
  276.7500   271.2220    36.7520     6.4400    68.9300     6.8940     6.4390    10.6430    16.7040    -4.8200     2.3950 
  276.8750   271.3390    36.7940     6.4450    68.9300     6.9020     6.4360     9.8800    16.6700    -4.9160     2.3710 
  277.0000   271.4570    36.8360     6.4500    68.9300     6.9440     6.4310     9.4030    16.6330    -5.0120     2.3440 
  277.1250   271.5820    36.8360     6.4500    68.9300     6.9950     6.4180     9.2960    16.6740    -5.1180     2.3140 
  277.2500   271.7070    36.8360     6.4500    68.9300     7.0170     6.3850     9.5710    16.7740    -5.2260     2.2840 
  277.3750   271.8320    36.8360     6.4500    68.9300     6.9850     6.3280    10.0480    16.7520    -5.2710     2.2580 
  277.5000   271.9570    36.8360     6.4500    68.9300     6.9010     6.2570    10.5770    16.3400    -5.2760     2.2410 
  277.6250   272.0820    36.8360     6.4500    68.9300     6.7930     6.1930    11.2860    16.1780  -999.2500     2.2330 
  277.7500   272.2070    36.8360     6.4500    68.9300     6.7080     6.1500    11.9120    16.0680  -999.2500     2.2310 
  277.8750   272.3320    36.8360     6.4500    68.9300     6.6690     6.1280    12.1060    15.8140  -999.2500     2.2320 
  278.0000   272.4570    36.8360     6.4500    68.9300     6.6640     6.1240    11.9350    15.4800  -999.2500     2.2320 
  278.1250   272.5820    36.8360     6.4500    68.9300     6.6640     6.1240    11.2500    14.9550  -999.2500     2.2310 
  278.2500   272.7070    36.8360     6.4500    68.9300     6.6640     6.1240    10.6240    14.0830  -999.2500     2.2260 
  278.3750   272.8320    36.8360     6.4500    68.9300     6.6640     6.1240    10.1710    13.2650  -999.2500     2.2150 
  278.5000   272.9570    36.8360     6.4500    68.9300     6.6640     6.1240     9.4470    12.6540  -999.2500     2.1990 
  278.6250   273.0820    36.8360     6.4500    68.9300     6.6640     6.1240     8.9880    12.2390  -999.2500     2.1750 
  278.7500   273.2070    36.8360     6.4500    68.9300     6.6640     6.1240     8.7230    12.0050  -999.2500     2.1490 
  278.8750   273.3320    36.8360     6.4500    68.9300     6.6640     6.1240     8.6410    11.9210  -999.2500     2.1260 
  279.0000   273.4570    36.8360     6.4500    68.9300     6.6640     6.1240     8.6190    11.9080  -999.2500     2.1060 
  279.1250   273.5820    36.8360     6.4500    68.9300     6.6640     6.1240     8.6180    11.9080  -999.2500     2.0920 
  279.2500   273.7070    36.8360     6.4500    68.9300     6.6640     6.1240     8.6200    11.9080  -999.2500     2.0810 
  279.3750   273.8320    36.8360     6.4500    68.9300     6.6640     6.1240     8.6220    11.9080  -999.2500     2.0710 
  279.5000   273.9570    36.8360     6.4500    68.9300     6.6640     6.1240     8.6220    11.9080  -999.2500     2.0630 
  279.6250   274.0820    36.8360     6.4500    68.9300     6.6640     6.1240     8.6220    11.9080  -999.2500     2.0560 
  279.7500   274.2070    36.8360     6.4500    68.9300     6.6640     6.1240     8.6220    11.9080  -999.2500     2.0510 
  279.8750   274.3320    36.8360     6.4500    68.9300     6.6640     6.1240     8.6240    11.9080  -999.2500     2.0480 
  280.0000   274.4570    36.8360     6.4500    68.9300     6.6640     6.1240     8.6250    11.9080  -999.2500     2.0460 
  280.1250   274.5820    36.8360     6.4500    68.9300     6.6640     6.1240     8.6250    11.9080  -999.2500     2.0450 
  280.2500   274.7070    36.8360     6.4500    68.9300     6.6640     6.1240     8.6240    11.9080  -999.2500     2.0430 
  280.3750   274.8320    36.8360     6.4500    68.9300     6.6640     6.1240     8.6250    11.9080  -999.2500     2.0410 
  280.5000   274.9570    36.8360     6.4500    68.9300     6.6640     6.1240     8.6250    11.9080  -999.2500     2.0370 
  280.6250   275.0820    36.8360     6.4500    68.9300     6.6640     6.1240     8.6210    11.9080  -999.2500     2.0320 
  280.7500   275.2070    36.8360     6.4500    68.9300     6.6640     6.1240     8.6190    11.9080  -999.2500     2.0270 
  280.8750   275.3320    36.8360     6.4500    68.9300     6.6640     6.1240     8.6180    11.9080  -999.2500     2.0170 
  281.0000   275.4570    36.8360     6.4500    68.9300     6.6640     6.1240     8.6190    11.9080  -999.2500  -999.2500 
  281.1250   275.5820    36.8360     6.4500    68.9300     6.6640     6.1240     8.6210    11.9080  -999.2500  -999.2500 
  281.2500   275.7070    36.8360     6.4500    68.9300     6.6640     6.1240     8.6210    11.9080  -999.2500  -999.2500 
  281.3750   275.8320    36.8360     6.4500    68.9300     6.6640     6.1240     8.6210    11.9080  -999.2500  -999.2500 
  281.5000   275.9570    36.8360     6.4500    68.9300     6.6640     6.1240     8.6210    11.9080  -999.2500  -999.2500 
  281.6250   276.0820    36.8360     6.4500    68.9300     6.6640     6.1240     8.6220    11.9080  -999.2500  -999.2500 
  281.7500   276.2070    36.8360     6.4500    68.9300     6.6640     6.1240     8.6220    11.9080  -999.2500  -999.2500 
  281.8750   276.3320    36.8360     6.4500    68.9300     6.6640     6.1240     8.6200    11.9080  -999.2500  -999.2500 
  282.0000   276.4570    36.8360     6.4500    68.9300     6.6640     6.1240     8.6160    11.9080  -999.2500  -999.2500 
