~V
VERS. 2.00: Ver 2.00
~W
STRT.M 12.0000:
STOP.M 226.0000:
STEP.M 0.1250:
NULL. -999.2500:
UWI. FD10605:
~C
DEPT.M :
TVD. :
DX. :
DY. :
GR.API :
RML.OHMM :
RI. :
RXO.OHMM :
CALI.CM :
DEN.GM/CC :
SP.MV :
~A
# ...
   28.5000    28.4860     0.8020    -0.0500    72.3340   441.7300     7.9480     7.5210    27.1810     2.1450   -25.4060 
   28.6250    28.6110     0.8050    -0.0510    71.2710   454.7940     8.1020     7.2580    27.1800     2.1630   -25.6870 
   28.7500    28.7360     0.8090    -0.0510    68.8450   475.6870     8.2790     7.1750    27.3550     2.1700   -25.9570 
   28.8750    28.8610     0.8120    -0.0510    66.3110   499.0240     8.4750     7.3490    27.6930     2.1670   -26.2520 
   29.0000    28.9860     0.8160    -0.0510    64.6210   517.1070     8.6600     7.4880    27.9220     2.1560   -26.5810 
   29.1250    29.1100     0.8190    -0.0520    64.1980   523.8340     8.7830     7.3840    27.9850     2.1400   -26.9760 
   29.2500    29.2350     0.8230    -0.0520    64.2170   522.2810     8.8170     7.4400    27.9500     2.1240   -27.3300 
   29.3750    29.3600     0.8260    -0.0520    63.6960   516.0250     8.7630     7.3590    27.7710     2.1070   -27.5880 
   29.5000    29.4850     0.8300    -0.0520    61.5240   508.2340     8.6460     7.1260    27.3220     2.0900   -27.7020 
   29.6250    29.6100     0.8330    -0.0520    58.9300   501.2070     8.5040     7.1250    26.8120     2.0780   -27.5970 
   29.7500    29.7350     0.8370    -0.0530    59.3430   495.2470     8.3640     7.2780    26.4310     2.0760   -27.3670 
   29.8750    29.8600     0.8400    -0.0530    62.5260   489.3960     8.2260     7.6220    26.1440     2.0870   -27.0860 
   30.0000    29.9850     0.8440    -0.0530    65.2810   482.6570     8.0850     7.8820    25.9040     2.1080   -26.7690 
   30.1250    30.1090     0.8570    -0.0500    66.4040   474.9710     7.9410     7.4950    25.8450     2.1350   -26.5010 
   30.2500    30.2330     0.8700    -0.0470    67.4040   467.8890     7.8050     6.7800    25.9710     2.1560   -26.2890 
   30.3750    30.3580     0.8830    -0.0440    67.9320   463.3410     7.6950     6.3230    26.1290     2.1650   -26.1630 
   30.5000    30.4820     0.8970    -0.0410    66.5560   463.4570     7.6410     6.3040    26.2160     2.1610   -26.0910 
   30.6250    30.6060     0.9100    -0.0380    65.3450   471.4380     7.7070     6.3930    26.3150     2.1500   -26.1630 
   30.7500    30.7300     0.9230    -0.0350    67.2390   486.8270     7.9040     6.7220    26.4580     2.1410   -26.3460 
   30.8750    30.8540     0.9360    -0.0320    68.7080   507.8080     8.2150     7.0870    26.5890     2.1390   -26.5950 
   31.0000    30.9780     0.9490    -0.0290    66.5660   529.7470     8.5810     8.0140    26.5850     2.1400   -26.8770 
   31.1250    31.1030     0.9620    -0.0270    64.6440   543.8470     8.8860    11.1070    26.4150     2.1380   -27.1370 
   31.2500    31.2270     0.9760    -0.0240    65.8340   545.1400     9.0280    14.4750    26.3250     2.1320   -27.3700 
   31.3750    31.3510     0.9890    -0.0210    66.3070   533.5970     8.9720    11.9030    26.4220     2.1250   -27.5380 
   31.5000    31.4750     1.0020    -0.0180    64.1020   514.6640     8.7690     8.5870    26.5730     2.1230   -27.6820 
   31.6250    31.5990     1.0150    -0.0150    63.1580   497.9760     8.5440     7.1580    26.6550     2.1260   -27.6600 
   31.7500    31.7240     1.0280    -0.0120    64.5240   490.5600     8.4280     6.9780    26.6630     2.1290   -27.5010 
   31.8750    31.8480     1.0420    -0.0090    65.7080   494.2450     8.4810     6.8760    26.6270     2.1240   -27.1300 
   32.0000    31.9720     1.0550    -0.0060    64.4430   505.8380     8.6850     6.9140    26.5720     2.1060   -26.5280 
   32.1250    32.0960     1.0680    -0.0030    61.6940   516.1550     8.9180     7.1140    26.5230     2.0780   -25.5790 
   32.2500    32.2200     1.0810     0.0000    62.8120   514.9950     9.0010     7.3830    26.4470     2.0580   -24.2920 
   32.3750    32.3440     1.0940     0.0030    71.2190   497.1920     8.8150     7.4320    26.2770     2.0650   -22.7120 
   32.5000    32.4690     1.1080     0.0060    84.7530   464.2900     8.3430     6.9040    26.0830     2.1100   -20.9350 
   32.6250    32.5930     1.1210     0.0090    96.2900   424.0670     7.6700     5.8250    25.9180     2.1900   -19.1020 
   32.7500    32.7170     1.1340     0.0120   103.4970   387.8360     7.0040     4.8880    25.7980     2.2670   -17.2590 
   32.8750    32.8410     1.1470     0.0150   108.6110   361.3890     6.4710     4.5430    25.6790     2.3080   -15.4820 
   33.0000    32.9650     1.1600     0.0180   111.9250   346.5500     6.1340     4.4580    25.5790     2.3020   -13.7980 
   33.1250    33.0900     1.1740     0.0210   111.7670   343.4540     6.0370     4.3850    25.5020     2.2610   -12.3500 
   33.2500    33.2140     1.1870     0.0240   109.4420   347.0370     6.1120     4.4420    25.3550     2.2240   -11.1930 
   33.3750    33.3380     1.2000     0.0270   107.3500   354.0150     6.3060     4.4940    25.0660     2.2140   -10.3290 
   33.5000    33.4620     1.2130     0.0290   107.2430   361.8170     6.5620     4.5080    24.7910     2.2350    -9.6690 
   33.6250    33.5860     1.2260     0.0320   108.7200   368.9780     6.8250     4.5220    24.6700     2.2740    -9.1690 
   33.7500    33.7100     1.2390     0.0350   110.5270   375.3420     7.0530     4.6360    24.6800     2.3090    -8.7220 
   33.8750    33.8350     1.2530     0.0380   111.8850   380.6770     7.2160     4.7600    24.6940     2.3310    -8.3770 
   34.0000    33.9590     1.2660     0.0410   112.6000   384.0620     7.2900     4.7270    24.7030     2.3370    -8.1250 
   34.1250    34.0830     1.2790     0.0440   111.0100   383.2390     7.2280     4.6550    24.6480     2.3280    -7.9750 
   34.2500    34.2070     1.2920     0.0470   108.8940   376.6200     7.0320     4.5680    24.6080     2.3100    -7.8400 
   34.3750    34.3310     1.3050     0.0500   110.4240   360.1040     6.7140     4.4840    24.5960     2.2930    -7.7440 
   34.5000    34.4550     1.3190     0.0530   114.1930   327.1180     6.3090     4.5090    24.6160     2.2840    -7.7020 
   34.6250    34.5800     1.3320     0.0560   115.9330   270.7370     5.8440     4.5530    24.6590     2.2900    -7.8190 
   34.7500    34.7040     1.3450     0.0590   115.5450   202.8000     5.3760     4.5350    24.6760     2.2990    -8.1150 
   34.8750    34.8280     1.3580     0.0620   113.4360   138.7220     4.9930     4.4460    24.6390     2.3030    -8.5910 
   35.0000    34.9520     1.3710     0.0650   109.7390    90.9700     4.8370     4.5560    24.6050     2.3030    -9.2800 
   35.1250    35.0760     1.3850     0.0680   104.7510    66.0100     5.1580     5.2230    24.5800     2.3200   -10.1310 
   35.2500    35.2010     1.3980     0.0710    98.2440    56.1240     6.0340     6.7790    24.5480     2.3640   -11.1830 
   35.3750    35.3250     1.4110     0.0740    87.5270    55.5040     7.4870    10.7380    24.5030     2.4210   -12.3810 
   35.5000    35.4490     1.4240     0.0770    74.5130    58.2150     9.2740    19.4390    24.4440     2.4560   -13.6970 
   35.6250    35.5730     1.4370     0.0800    67.1820    58.0290    10.5580    22.0720    24.3670     2.4250   -15.0050 
   35.7500    35.6970     1.4510     0.0830    64.8360    52.8350    10.6630    14.8460    24.3240     2.3390   -16.2320 
   35.8750    35.8210     1.4640     0.0850    65.6770    44.2160     9.7230     9.1810    24.4190     2.2350   -17.3030 
   36.0000    35.9460     1.4770     0.0880    68.1230    35.4410     8.4290     7.4800    24.5140     2.1550   -18.2020 
   36.1250    36.0700     1.4900     0.0910    70.5290    29.5480     7.4500     7.2530    24.4070     2.1280   -19.0470 
   36.2500    36.1940     1.5030     0.0940    73.6280    26.5000     6.9470     7.1370    24.2870     2.1360   -19.8340 
   36.3750    36.3180     1.5160     0.0970    76.9680    25.4380     6.8730     7.1000    24.3180     2.1600   -20.5860 
   36.5000    36.4420     1.5300     0.1000    76.9360    25.3230     7.0880     7.1420    24.3650     2.1800   -21.3040 
   36.6250    36.5670     1.5430     0.1030    72.0540    25.3010     7.4160     7.1600    24.3560     2.1860   -21.9970 
