~V
VERS. 2.00: Ver 2.00
~W
STRT.M 30.0000:
STOP.M 223.0000:
STEP.M 0.1250:
NULL. -999.2500:
UWI. FD10814:
~C
DEPT.M :
TVD. :
DX. :
DY. :
SP.MV :
GR.API :
RI. :
RML.OHMM :
RXO.OHMM :
DEN.GM/CC :
~A
# ...
   75.6250    75.5220    -0.5780     1.8900   -18.0410    77.0170     3.7020     3.9290     7.4690     2.2530 
   75.7500    75.6450    -0.5780     1.9120   -15.5890    80.1590     4.0010     4.1840     8.4960     2.3470 
   75.8750    75.7690    -0.5770     1.9330   -13.3670    85.0590     4.2250     4.3410     8.4850     2.4110 
   76.0000    75.8920    -0.5770     1.9550   -11.9090    89.1670     4.1130     4.2510     9.8910     2.4430 
   76.1250    76.0150    -0.5770     1.9770   -11.2240    94.5310     3.7060     3.8300    11.7990     2.4460 
   76.2500    76.1380    -0.5760     1.9990   -10.9150   100.7480     3.0180     3.2180     9.3600     2.4140 
   76.3750    76.2610    -0.5760     2.0210   -10.7440   106.4830     2.4680     2.6610     4.3560     2.3590 
   76.5000    76.3840    -0.5760     2.0430   -10.7990   110.6530     2.1450     2.3170     2.0960     2.3070 
   76.6250    76.5070    -0.5750     2.0660   -11.0600   111.4520     2.0400     2.2040     2.0370     2.2770 
   76.7500    76.6300    -0.5750     2.0880   -11.5210   111.0720     2.0550     2.2250     2.5010     2.2580 
   76.8750    76.7530    -0.5750     2.1110   -12.1230   108.4440     2.1330     2.2770     3.0820     2.2470 
   77.0000    76.8760    -0.5740     2.1340   -12.4460   107.7140     2.1410     2.2600     2.8080     2.2470 
   77.1250    76.9980    -0.5740     2.1560   -12.1370   108.1990     2.0250     2.1450     2.1860     2.2540 
   77.2500    77.1210    -0.5740     2.1800   -11.8830   109.9850     1.8730     2.0170     2.0120     2.2660 
   77.3750    77.2440    -0.5730     2.2030   -12.0520   109.4450     1.8250     2.0240     2.0010     2.2780 
   77.5000    77.3670    -0.5730     2.2260   -12.4180   107.1800     2.0450     2.2920     2.0250     2.2970 
   77.6250    77.4900    -0.5720     2.2490   -12.9790   102.3490     2.5860     2.9040     5.4870     2.3220 
   77.7500    77.6130    -0.5720     2.2730   -13.7370    97.2190     3.3840     3.7810    13.6760     2.3320 
   77.8750    77.7350    -0.5720     2.2970   -14.6870    90.5830     4.4000     4.7360    16.1690     2.2980 
   78.0000    77.8580    -0.5710     2.3210   -15.6320    84.8320     5.2750     5.4930     9.9290     2.2250 
   78.1250    77.9810    -0.5710     2.3450   -16.4930    80.0170     5.6140     5.8410     5.8030     2.1540 
   78.2500    78.1030    -0.5700     2.3690   -17.0620    77.7830     5.5720     5.8130     5.7810     2.1160 
   78.3750    78.2260    -0.5700     2.3930   -17.3910    78.4110     5.2000     5.5850     5.9320     2.1070 
   78.5000    78.3480    -0.5690     2.4170   -17.5460    79.5700     4.9980     5.4180     5.6470     2.1080 
   78.6250    78.4710    -0.5690     2.4420   -17.6630    79.5120     5.0440     5.3870     5.3470     2.1090 
   78.7500    78.5940    -0.5680     2.4660   -17.7220    76.7970     5.1270     5.4270     5.6890     2.1100 
   78.8750    78.7160    -0.5680     2.4910   -17.6970    73.8020     5.2290     5.5260     6.3110     2.1090 
   79.0000    78.8390    -0.5670     2.5160   -17.7180    70.0170     5.3140     5.6460     6.4860     2.1000 
   79.1250    78.9610    -0.5670     2.5410   -17.7230    66.8220     5.3700     5.7310     6.2550     2.0880 
   79.2500    79.0830    -0.5660     2.5670   -17.7450    64.1990     5.3760     5.7500     6.0830     2.0780 
   79.3750    79.2060    -0.5660     2.5920   -17.7330    63.2260     5.2910     5.6890     5.9470     2.0770 
   79.5000    79.3280    -0.5650     2.6170   -17.7070    62.4690     5.1490     5.5730     5.8750     2.0820 
   79.6250    79.4510    -0.5650     2.6430   -17.5390    61.1050     4.9820     5.4290     5.9340     2.0920 
   79.7500    79.5730    -0.5640     2.6690   -17.2760    61.7380     4.8100     5.2800     5.8610     2.1000 
   79.8750    79.6950    -0.5640     2.6950   -16.9550    65.4240     4.6410     5.1410     5.7530     2.1030 
   80.0000    79.8170    -0.5630     2.7210   -16.6210    71.2090     4.4920     5.0190     5.7830     2.0960 
   80.1250    79.9400    -0.5630     2.7470   -16.2990    74.5860     4.3640     4.9150     5.8120     2.0830 
   80.2500    80.0620    -0.5620     2.7740   -16.0170    74.5900     4.2580     4.8240     5.7230     2.0740 
   80.3750    80.1840    -0.5620     2.8000   -15.8540    72.8000     4.1600     4.7330     5.6220     2.0730 
   80.5000    80.3060    -0.5610     2.8270   -15.6840    72.6650     4.0560     4.6330     5.5280     2.0760 
   80.6250    80.4280    -0.5610     2.8530   -15.5820    74.7600     3.9550     4.5350     5.3110     2.0830 
   80.7500    80.5500    -0.5600     2.8800   -15.5210    77.3420     3.8830     4.4680     5.1090     2.0920 
   80.8750    80.6720    -0.5600     2.9070   -15.5750    77.8880     3.8620     4.4750     5.0880     2.1000 
   81.0000    80.7940    -0.5590     2.9350   -15.6900    76.1920     3.9010     4.5780     5.4130     2.1010 
   81.1250    80.9160    -0.5590     2.9620   -15.8200    73.4710     3.9890     4.7110     5.9170     2.0980 
   81.2500    81.0380    -0.5580     2.9890   -15.9200    72.2750     4.0700     4.7650     6.1690     2.0920 
   81.3750    81.1600    -0.5580     3.0170   -15.8930    72.3560     4.1100     4.7540     6.2780     2.0910 
   81.5000    81.2820    -0.5570     3.0440   -15.7710    73.5330     4.0790     4.6890     6.1130     2.0990 
   81.6250    81.4040    -0.5570     3.0720   -15.5570    73.4420     3.9710     4.5340     5.6930     2.1120 
   81.7500    81.5260    -0.5560     3.1000   -15.3460    72.5370     3.7990     4.3080     5.6870     2.1200 
   81.8750    81.6480    -0.5560     3.1280   -15.0800    70.6510     3.6170     4.0840     5.8410     2.1140 
   82.0000    81.7690    -0.5550     3.1560   -14.7220    69.3910     3.4960     3.9600     5.3770     2.1090 
   82.1250    81.8910    -0.5550     3.1850   -14.2620    68.6660     3.5590     4.0420     4.8830     2.1290 
   82.2500    82.0130    -0.5540     3.2130   -13.7310    69.3480     3.7420     4.2730     5.1350     2.1900 
   82.3750    82.1350    -0.5540     3.2410   -13.1480    71.9950     3.9440     4.5210     6.9370     2.2780 
   82.5000    82.2560    -0.5530     3.2700   -12.4560    75.8040     4.0090     4.6000     9.3210     2.3340 
   82.6250    82.3780    -0.5530     3.2990   -11.5280    79.6490     3.8360     4.3940     8.5210     2.3160 
   82.7500    82.5000    -0.5520     3.3280   -10.5050    83.1640     3.4710     3.9500     5.4670     2.2540 
   82.8750    82.6210    -0.5520     3.3570    -9.5340    87.5470     2.9670     3.3730     3.6890     2.2100 
   83.0000    82.7430    -0.5510     3.3860    -8.5380    92.6140     2.5030     2.8420     3.0990     2.2060 
   83.1250    82.8640    -0.5510     3.4150    -7.7310    97.1370     2.1530     2.4710     2.6790     2.2260 
   83.2500    82.9860    -0.5500     3.4450    -7.1680    99.3310     2.0140     2.3230     2.2350     2.2420 
   83.3750    83.1070    -0.5500     3.4740    -7.0710    98.7730     2.0640     2.3990     1.9660     2.2400 
   83.5000    83.2290    -0.5490     3.5040    -7.5400    97.0970     2.2370     2.6220     2.3830     2.2290 
   83.6250    83.3500    -0.5490     3.5340    -8.4930    94.9390     2.4600     2.8990     3.5930     2.2220 
   83.7500    83.4710    -0.5480     3.5640    -9.4180    93.5030     2.6720     3.1360     4.3800     2.2370 
   83.8750    83.5930    -0.5480     3.5940    -9.6690    93.7340     2.7700     3.2220     3.8330     2.2500 
   84.0000    83.7140    -0.5470     3.6240    -9.4380    95.2060     2.7470     3.1610     2.9450     2.2420 
   84.1250    83.8350    -0.5470     3.6540    -9.3060    95.4270     2.6410     3.0200     2.7820     2.2010 
   84.2500    83.9560    -0.5460     3.6850    -9.5360    94.9420     2.5530     2.9220     3.0840     2.1650 
   84.3750    84.0780    -0.5460     3.7160    -9.9310    94.7010     2.5810     2.9570     3.2420     2.1520 
   84.5000    84.1990    -0.5450     3.7460   -10.3530    96.5090     2.6900     3.0900     3.2210     2.1540 
   84.6250    84.3200    -0.5440     3.7770   -10.8780    97.2940     2.8150     3.2430     3.5800     2.1530 
