~V
VERS. 2.00: Ver 2.00
~W
STRT.M 65.0000:
STOP.M 248.0000:
STEP.M 0.1250:
NULL. -999.2500:
UWI. FD10900:
~C
DEPT.M :
TVD. :
DX. :
DY. :
SP.MV :
GR.API :
RI. :
RML.OHMM :
RXO.OHMM :
DEN.GM/CC :
~A
# ...
  238.3750   234.8590   -25.2620    18.3690    -8.7100    57.6620     1.8710     2.0310     2.8540     2.2750 
  238.5000   234.9800   -25.2890    18.3900    -8.7100    56.5410     1.8890     2.0630     3.0000     2.2720 
  238.6250   235.1000   -25.3150    18.4110    -8.7100    56.1160     1.9380     2.1360     3.2540     2.2710 
  238.7500   235.2210   -25.3410    18.4310    -8.7100    56.6450     2.0020     2.2250     3.4720     2.2720 
  238.8750   235.3410   -25.3680    18.4520    -8.7100    58.2300     2.0570     2.2990     3.6390     2.2780 
  239.0000   235.4610   -25.3940    18.4730    -8.7100    60.0600     2.0890     2.3370     3.7430     2.2860 
  239.1250   235.5820   -25.4200    18.4940    -8.7100    62.0530     2.0990     2.3420     3.7270     2.2950 
  239.2500   235.7020   -25.4470    18.5150    -8.7100    62.8450     2.1000     2.3340     3.6180     2.3070 
  239.3750   235.8230   -25.4730    18.5360    -8.7100    61.0320     2.0980     2.3250     3.5620     2.3230 
  239.5000   235.9430   -25.4990    18.5570    -8.7100    56.3890     2.0970     2.3220     3.6690     2.3370 
  239.6250   236.0630   -25.5250    18.5770    -8.7100    50.6380     2.0960     2.3220     3.8600     2.3370 
  239.7500   236.1840   -25.5520    18.5980    -8.7100    46.6510     2.0960     2.3220     3.9150     2.3220 
  239.8750   236.3040   -25.5780    18.6190    -8.7100    44.8040     2.0990     2.3220     3.7710     2.3030 
  240.0000   236.4250   -25.6040    18.6400    -8.7100    44.5560     2.1010     2.3220     3.6130     2.2930 
  240.1250   236.5450   -25.6310    18.6610    -8.7100    44.5560     2.1000     2.3220     3.5170     2.2960 
  240.2500   236.6650   -25.6570    18.6820    -8.7100    44.5560     2.0990     2.3220     3.3690     2.3030 
  240.3750   236.7860   -25.6830    18.7030    -8.7100    44.5560     2.0970     2.3220     3.2060     2.3080 
  240.5000   236.9060   -25.7100    18.7240    -8.7100    44.5560     2.0970     2.3220     3.1880     2.3080 
  240.6250   237.0270   -25.7360    18.7440    -8.7100    44.5560     2.0970     2.3220     3.2990     2.3040 
  240.7500   237.1470   -25.7620    18.7650    -8.7100    44.5560     2.0980     2.3220     3.3940     2.3030 
  240.8750   237.2670   -25.7890    18.7860    -8.7100    44.5560     2.0990     2.3220     3.4480     2.3070 
  241.0000   237.3880   -25.8150    18.8070    -8.7100    44.5560     2.1010     2.3220     3.5430     2.3160 
  241.1250   237.5080   -25.8410    18.8280    -8.7100    44.5560     2.1030     2.3220     3.5990     2.3200 
  241.2500   237.6290   -25.8670    18.8490    -8.7100    44.5560     2.1030     2.3220     3.5070     2.3120 
  241.3750   237.7490   -25.8940    18.8700    -8.7100    44.5560     2.1020     2.3220     3.4250     2.3000 
  241.5000   237.8690   -25.9200    18.8900    -8.7100    44.5560     2.1010     2.3220     3.4540     2.2920 
  241.6250   237.9900   -25.9460    18.9110    -8.7100    44.5560     2.1000     2.3220     3.4320     2.2920 
  241.7500   238.1100   -25.9730    18.9320    -8.7100    44.5560     2.0990     2.3220     3.3110     2.2970 
  241.8750   238.2310   -25.9990    18.9530    -8.7100    44.5560     2.0980     2.3220     3.4940     2.3020 
  242.0000   238.3510   -26.0250    18.9740    -8.7100    44.5560     2.0960     2.3220     4.5420     2.3020 
  242.1250   238.4710   -26.0520    18.9950    -8.7100    44.5560     2.0960     2.3220     5.8310     2.2960 
  242.2500   238.5920   -26.0780    19.0160    -8.7100    44.5560     2.0970     2.3220     5.9010     2.2890 
  242.3750   238.7120   -26.1040    19.0370    -8.7100    44.5560     2.0980     2.3220     4.8840     2.2830 
  242.5000   238.8330   -26.1310    19.0570    -8.7100    44.5560     2.0990     2.3220     4.0190     2.2830 
  242.6250   238.9530   -26.1570    19.0780    -8.7100    44.5560     2.0990     2.3220     3.6180     2.2880 
  242.7500   239.0740   -26.1830    19.0990    -8.7100    44.5560     2.0990     2.3220     3.3690     2.2950 
  242.8750   239.1940   -26.2090    19.1200    -8.7100    44.5560     2.0990     2.3220     3.1990     2.3050 
  243.0000   239.3140   -26.2360    19.1410    -8.7100    44.5560     2.0990     2.3220     3.1140     2.3150 
  243.1250   239.4350   -26.2620    19.1620    -8.7100    44.5560     2.0990     2.3220     3.0660     2.3250 
  243.2500   239.5550   -26.2880    19.1830    -8.7100    44.5560     2.0990     2.3220     3.1110     2.3320 
  243.3750   239.6760   -26.3150    19.2030    -8.7100    44.5560     2.0990     2.3220     3.2740     2.3320 
  243.5000   239.7960   -26.3410    19.2240    -8.7100    44.5560     2.0990     2.3220     3.4300     2.3220 
  243.6250   239.9160   -26.3670    19.2450    -8.7100    44.5560     2.0990     2.3220     3.4760     2.2960 
  243.7500   240.0370   -26.3940    19.2660    -8.7100    44.5560     2.0990     2.3220     3.4720     2.2450 
  243.8750   240.1570   -26.4200    19.2870    -8.7100    44.5560     2.0990     2.3220     3.4720     2.1790 
  244.0000   240.2780   -26.4460    19.3080    -8.7100    44.5560     2.0990     2.3220     3.4720     2.1190 
  244.1250   240.3980   -26.4730    19.3290    -8.7100    44.5560     2.0990     2.3220     3.4720     2.0800 
  244.2500   240.5180   -26.4990    19.3490    -8.7100    44.5560     2.0990     2.3220     3.4720     2.0640 
  244.3750   240.6390   -26.5250    19.3700    -8.7100    44.5560     2.0990     2.3220     3.4720     2.0580 
  244.5000   240.7590   -26.5510    19.3910    -8.7100    44.5560     2.0990     2.3220     3.4720     2.0580 
  244.6250   240.8800   -26.5780    19.4120    -8.7100    44.5560     2.0990     2.3220     3.4720     2.0630 
  244.7500   241.0000   -26.6040    19.4330    -8.7100    44.5560     2.0990     2.3220     3.4720     2.0690 
  244.8750   241.1200   -26.6300    19.4540    -8.7100    44.5560     2.0990     2.3220     3.4720     2.0720 
  245.0000   241.2410   -26.6570    19.4750    -8.7100    44.5560     2.0990     2.3220     3.4720     2.0730 
  245.1250   241.3610   -26.6830    19.4960    -8.7100    44.5560     2.0990     2.3220     3.4720     2.0710 
  245.2500   241.4820   -26.7090    19.5160    -8.7100    44.5560     2.0990     2.3220     3.4720     2.0690 
  245.3750   241.6020   -26.7360    19.5370    -8.7100    44.5560     2.0990     2.3220     3.4720     2.0690 
  245.5000   241.7220   -26.7620    19.5580    -8.7100    44.5560     2.0990     2.3220     3.4720     2.0690 
  245.6250   241.8430   -26.7880    19.5790    -8.7100    44.5560     2.0990     2.3220     3.4720     2.0690 
  245.7500   241.9630   -26.8150    19.6000    -8.7100    44.5560     2.0990     2.3220     3.4720     2.0680 
  245.8750   242.0840   -26.8410    19.6210    -8.7100    44.5560     2.0990     2.3220     3.4720     2.0670 
  246.0000   242.2040   -26.8670    19.6420    -8.7100    44.5560     2.0990     2.3220     3.4720     2.0660 
  246.1250   242.3240   -26.8930    19.6620    -8.7100    44.5560     2.0990     2.3220     3.4720     2.0630 
  246.2500   242.4450   -26.9200    19.6830    -8.7100    44.5560     2.0990     2.3220     3.4720     2.0580 
  246.3750   242.5650   -26.9460    19.7040    -8.7100    44.5560     2.0990     2.3220     3.4720     2.0510 
  246.5000   242.6860   -26.9720    19.7250    -8.7100    44.5560     2.0990     2.3220     3.4720     2.0400 
  246.6250   242.8060   -26.9990    19.7460    -8.7100    44.5560     2.0990     2.3220     3.4720     2.0250 
  246.7500   242.9260   -27.0250    19.7670    -8.7100    44.5560     2.0990     2.3220     3.4720     2.0080 
  246.8750   243.0470   -27.0510    19.7880    -8.7100    44.5560     2.0990     2.3220     3.4720     1.9960 
  247.0000   243.1670   -27.0780    19.8090    -8.7100    44.5560     2.0990     2.3220     3.4720     1.9910 
  247.1250   243.2880   -27.1040    19.8290    -8.7100    44.5560     2.0990     2.3220     3.4720     1.9900 
  247.2500   243.4080   -27.1300    19.8500    -8.7100    44.5560     2.0990     2.3220     3.4720     1.9900 
  247.3750   243.5290   -27.1560    19.8710    -8.7100    44.5560     2.0990     2.3220     3.4720     1.9900 
