~V
VERS. 2.00: Ver 2.00
~W
STRT.M 30.0000:
STOP.M 210.0000:
STEP.M 0.1250:
NULL. -999.2500:
UWI. FD10800:
~C
DEPT.M :
TVD. :
DX. :
DY. :
SP.MV :
GR.API :
RI. :
RML.OHMM :
RXO.OHMM :
DEN.GM/CC :
~A
# ...
   75.6250    75.6080    -0.9390     0.0440   -36.1160    71.7890     4.0880     5.0940     5.7130     2.0890 
   75.7500    75.7320    -0.9460     0.0500   -34.5340    81.3540     3.8380     4.7150     5.3840     2.1440 
   75.8750    75.8570    -0.9530     0.0560   -32.8030    92.0880     3.5430     4.2920     4.3510     2.1860 
   76.0000    75.9820    -0.9600     0.0620   -31.1030   101.0200     3.2680     3.8910     3.5320     2.2000 
   76.1250    76.1060    -0.9670     0.0690   -29.8560   106.8950     3.0550     3.6300     3.4170     2.1940 
   76.2500    76.2310    -0.9740     0.0750   -29.0510   110.1720     2.9290     3.4710     3.4660     2.2010 
   76.3750    76.3560    -0.9820     0.0810   -28.5000   110.5160     2.9050     3.4490     3.3630     2.2170 
   76.5000    76.4800    -0.9890     0.0870   -28.0750   109.7370     2.9530     3.5100     3.2180     2.2290 
   76.6250    76.6050    -0.9970     0.0940   -27.8150   108.0600     3.0190     3.5850     3.2410     2.2200 
   76.7500    76.7290    -1.0050     0.1000   -27.7180   108.0280     3.0570     3.6460     3.6170     2.2160 
   76.8750    76.8540    -1.0130     0.1070   -27.8540   108.7410     3.0650     3.6460     3.9670     2.2180 
   77.0000    76.9780    -1.0210     0.1140   -28.1190   108.8280     3.0330     3.5650     3.7760     2.2240 
   77.1250    77.1030    -1.0290     0.1210   -28.4120   106.8110     2.9720     3.4260     3.5060     2.2260 
   77.2500    77.2280    -1.0370     0.1270   -28.8850   103.6320     3.0480     3.4520     3.5930     2.2330 
   77.3750    77.3520    -1.0450     0.1340   -29.6440    98.8850     3.4550     3.9080     3.8100     2.2650 
   77.5000    77.4770    -1.0540     0.1410   -30.5840    93.3440     4.3900     5.0600     9.2860     2.3400 
   77.6250    77.6010    -1.0630     0.1480   -31.5250    85.8620     5.8440     6.8680    23.0850     2.4390 
   77.7500    77.7260    -1.0710     0.1550   -32.5200    77.8800     7.3520     8.7170    32.7740     2.4820 
   77.8750    77.8500    -1.0800     0.1620   -33.5710    70.2110     8.3270     9.7020    28.4320     2.4060 
   78.0000    77.9750    -1.0890     0.1700   -34.6870    66.1040     8.1850     9.2670    16.6330     2.2580 
   78.1250    78.0990    -1.0980     0.1770   -35.6900    65.5360     7.2860     7.9400     8.0670     2.1210 
   78.2500    78.2230    -1.1070     0.1840   -36.4020    66.7650     6.0400     6.3500     6.8620     2.0450 
   78.3750    78.3480    -1.1170     0.1920   -36.8580    67.1500     5.2350     5.4890    11.6230     2.0210 
   78.5000    78.4720    -1.1260     0.1990   -37.0770    66.6690     4.9430     5.2580    13.9570     2.0190 
   78.6250    78.5970    -1.1360     0.2070   -37.1740    65.5740     4.9230     5.2960     8.9310     2.0220 
   78.7500    78.7210    -1.1450     0.2140   -37.1310    65.7690     4.9380     5.3460     5.1890     2.0200 
   78.8750    78.8450    -1.1550     0.2220   -37.1040    67.8340     4.8850     5.3060     5.3470     2.0150 
   79.0000    78.9700    -1.1650     0.2300   -37.0200    70.4390     4.7710     5.1960     5.4970     2.0140 
   79.1250    79.0940    -1.1750     0.2370   -36.8130    73.4790     4.6360     5.0640     5.4870     2.0220 
   79.2500    79.2190    -1.1850     0.2450   -36.4600    75.8770     4.4780     4.8890     5.2830     2.0330 
   79.3750    79.3430    -1.1950     0.2530   -36.0580    78.6460     4.2540     4.6140     5.0080     2.0550 
   79.5000    79.4670    -1.2060     0.2610   -35.6060    80.7830     4.1670     4.4980     4.8300     2.1020 
   79.6250    79.5910    -1.2160     0.2690   -35.0490    82.4930     4.4850     4.8760     4.5130     2.1990 
   79.7500    79.7160    -1.2270     0.2770   -34.5170    82.0260     5.2450     5.8360     7.7620     2.3400 
   79.8750    79.8400    -1.2380     0.2850   -34.0850    79.9670     6.4730     7.4360    19.2090     2.4650 
   80.0000    79.9640    -1.2490     0.2930   -33.9640    76.4850     7.8780     9.2800    28.2170     2.5130 
   80.1250    80.0890    -1.2600     0.3020   -34.1830    74.1250     8.6630    10.2070    25.2230     2.4450 
   80.2500    80.2130    -1.2710     0.3100   -34.6150    72.1910     8.4810     9.8730    17.3140     2.3070 
   80.3750    80.3370    -1.2820     0.3180   -35.1000    72.6220     7.4910     8.5240     9.8560     2.1660 
   80.5000    80.4610    -1.2930     0.3270   -35.5680    74.1170     6.1110     6.7710     5.7670     2.0780 
   80.6250    80.5850    -1.3050     0.3350   -35.8840    76.0390     5.2910     5.8380     5.2490     2.0480 
   80.7500    80.7100    -1.3170     0.3440   -36.1010    75.9550     4.9960     5.5380     5.2110     2.0490 
   80.8750    80.8340    -1.3280     0.3530   -36.2180    74.6710     4.9800     5.5510     5.2340     2.0550 
   81.0000    80.9580    -1.3400     0.3610   -36.1920    73.6820     5.0440     5.6410     5.4290     2.0610 
   81.1250    81.0820    -1.3520     0.3700   -36.1240    73.6020     5.1050     5.7070     5.5940     2.0640 
   81.2500    81.2060    -1.3640     0.3790   -35.9340    73.1020     5.1300     5.7220     5.4020     2.0610 
   81.3750    81.3300    -1.3760     0.3880   -35.8180    71.4390     5.1070     5.6770     5.0680     2.0530 
   81.5000    81.4540    -1.3890     0.3970   -35.7580    69.8880     5.0430     5.6050     4.9580     2.0480 
   81.6250    81.5780    -1.4010     0.4060   -35.7820    69.9270     4.9540     5.5130     5.0730     2.0480 
   81.7500    81.7020    -1.4140     0.4150   -35.7580    70.3480     4.8630     5.4240     5.2240     2.0460 
   81.8750    81.8260    -1.4270     0.4250   -35.8060    72.2860     4.8040     5.3890     5.2980     2.0430 
   82.0000    81.9500    -1.4400     0.4340   -35.7950    73.5260     4.7690     5.3750     5.3060     2.0390 
   82.1250    82.0740    -1.4530     0.4430   -35.7040    73.2210     4.7590     5.4040     5.2920     2.0340 
   82.2500    82.1980    -1.4660     0.4530   -35.6870    70.8560     4.7630     5.4410     5.2580     2.0330 
   82.3750    82.3220    -1.4790     0.4620   -35.6240    70.2320     4.7570     5.4420     5.1710     2.0380 
   82.5000    82.4460    -1.4920     0.4720   -35.5850    72.3200     4.7340     5.4140     5.1020     2.0450 
   82.6250    82.5700    -1.5060     0.4820   -35.5330    73.6100     4.6870     5.3430     5.1550     2.0450 
   82.7500    82.6940    -1.5200     0.4920   -35.4700    73.3070     4.6460     5.2740     5.2420     2.0360 
   82.8750    82.8170    -1.5340     0.5010   -35.4040    71.8020     4.6330     5.2570     5.2830     2.0260 
   83.0000    82.9410    -1.5480     0.5110   -35.1850    70.8110     4.6590     5.2930     5.2720     2.0220 
   83.1250    83.0650    -1.5620     0.5210   -34.7990    70.2770     4.7140     5.3610     5.1980     2.0320 
   83.2500    83.1890    -1.5760     0.5310   -34.2530    70.5720     4.7540     5.4150     5.1720     2.0530 
   83.3750    83.3130    -1.5900     0.5420   -33.5780    72.5900     4.7320     5.3820     5.2040     2.0820 
   83.5000    83.4360    -1.6050     0.5520   -32.7740    75.9590     4.6320     5.2650     5.1540     2.1140 
   83.6250    83.5600    -1.6200     0.5620   -31.9450    78.2070     4.4660     5.0780     5.0010     2.1490 
   83.7500    83.6840    -1.6340     0.5720   -31.0580    80.6450     4.2650     4.8630     4.8300     2.1770 
   83.8750    83.8070    -1.6490     0.5830   -30.2770    81.2840     4.0760     4.6790     4.6940     2.1920 
   84.0000    83.9310    -1.6640     0.5930   -29.7160    82.5350     3.9210     4.5390     4.6050     2.1900 
   84.1250    84.0550    -1.6800     0.6040   -29.5120    83.8980     3.8210     4.4500     4.4970     2.1920 
   84.2500    84.1780    -1.6950     0.6140   -29.6680    86.6700     3.7940     4.4380     4.3980     2.1990 
   84.3750    84.3020    -1.7110     0.6250   -30.1210    87.1540     3.8430     4.5040     4.3650     2.2290 
   84.5000    84.4250    -1.7260     0.6360   -30.8210    85.2130     3.9540     4.6360     4.4410     2.2810 
   84.6250    84.5490    -1.7420     0.6470   -31.6760    82.6300     4.1260     4.8330     4.6490     2.3270 
