~V
VERS. 2.00: Ver 2.00
~W
STRT.M 33.0000:
STOP.M 287.0000:
STEP.M 0.1250:
NULL. -999.2500:
UWI. FD10889:
~C
DEPT.M :
TVD. :
DX. :
DY. :
SP.MV :
GR.API :
RI. :
RML.OHMM :
RXO.OHMM :
DEN.GM/CC :
~A
# ...
  215.5000   196.6840   -47.2950   -46.8340   -18.3920    47.5710    19.2380    19.9500    18.9740     2.2150 
  215.6250   196.7730   -47.3370   -46.9110   -18.4380    47.9940    19.5190    20.1510    21.8970     2.2380 
  215.7500   196.8620   -47.3800   -46.9880   -18.6430    51.3500    19.7650    20.3210    21.8440     2.2860 
  215.8750   196.9500   -47.4220   -47.0650   -18.7300    53.4180    19.9640    20.4500    21.9600     2.3520 
  216.0000   197.0390   -47.4630   -47.1430   -18.7060    51.5030    20.1210    20.5440    22.4900     2.4100 
  216.1250   197.1280   -47.5050   -47.2200   -18.6350    49.5090    20.3000    20.6740    22.2090     2.4400 
  216.2500   197.2170   -47.5470   -47.2980   -18.7090    48.9820    20.5680    20.9160    20.8540     2.4390 
  216.3750   197.3050   -47.5890   -47.3750   -18.9160    48.6620    20.9600    21.3090    19.9110     2.4230 
  216.5000   197.3940   -47.6300   -47.4530   -19.0670    47.3680    21.4790    21.8560    20.9800     2.4090 
  216.6250   197.4830   -47.6720   -47.5310   -19.0990    47.4710    22.0000    22.3820    23.2180     2.4060 
  216.7500   197.5710   -47.7140   -47.6080   -19.0820    49.9390    22.3870    22.7300    23.8280     2.4190 
  216.8750   197.6600   -47.7550   -47.6860   -19.0520    52.5930    22.5830    22.8500    23.6260     2.4380 
  217.0000   197.7480   -47.7970   -47.7640   -18.9720    53.1530    22.6430    22.8010    24.5430     2.4480 
  217.1250   197.8370   -47.8390   -47.8420   -18.9020    54.4500    22.6450    22.7260    25.9090     2.4320 
  217.2500   197.9260   -47.8800   -47.9190   -18.8820    56.8140    22.7440    22.7760    26.5280     2.3760 
  217.3750   198.0140   -47.9230   -47.9970   -18.9910    58.8880    22.9630    22.9560    25.3790     2.2970 
  217.5000   198.1030   -47.9650   -48.0740   -19.2090    57.8810    23.1920    23.1420    21.8800     2.2220 
  217.6250   198.1910   -48.0080   -48.1510   -19.3910    55.7200    23.2990    23.2140    22.7080     2.1790 
  217.7500   198.2790   -48.0510   -48.2290   -19.4200    55.3580    23.2540    23.1440    26.2990     2.1750 
  217.8750   198.3680   -48.0940   -48.3060   -19.4110    55.6200    23.0970    22.9750    23.3120     2.1890 
  218.0000   198.4560   -48.1360   -48.3840   -19.4090    53.3220    22.9740    22.8530    21.8040     2.2010 
  218.1250   198.5450   -48.1780   -48.4610   -19.4250    49.1480    23.0540    22.9380    22.7770     2.1970 
  218.2500   198.6330   -48.2210   -48.5380   -19.3370    44.9910    23.3790    23.2820    25.8350     2.1790 
  218.3750   198.7210   -48.2640   -48.6160   -19.1500    46.3510    23.8900    23.8280    27.1960     2.1570 
  218.5000   198.8100   -48.3060   -48.6930   -18.9970    50.9800    24.4900    24.4540    23.7090     2.1410 
  218.6250   198.8980   -48.3480   -48.7710   -19.0210    53.5600    24.9110    24.8560    22.9680     2.1330 
  218.7500   198.9870   -48.3900   -48.8490   -19.0870    53.5920    24.9450    24.8290    24.5730     2.1290 
  218.8750   199.0750   -48.4310   -48.9270   -19.0990    53.4570    24.6860    24.4460    25.3250     2.1290 
  219.0000   199.1640   -48.4730   -49.0050   -19.0260    55.2910    24.3530    23.9730    22.8730     2.1300 
  219.1250   199.2520   -48.5140   -49.0830   -18.8960    56.2950    24.1610    23.7150    25.2870     2.1380 
  219.2500   199.3400   -48.5560   -49.1610   -18.6240    54.5190    24.2080    23.7740    25.6800     2.1570 
  219.3750   199.4290   -48.5980   -49.2390   -18.5330    48.5100    24.4290    24.0710    23.7550     2.1850 
  219.5000   199.5170   -48.6400   -49.3170   -18.6230    42.7750    24.5800    24.2470    24.4460     2.2120 
  219.6250   199.6060   -48.6810   -49.3950   -18.4820    43.1680    24.5170    24.1460    25.3350     2.2290 
  219.7500   199.6940   -48.7220   -49.4730   -18.3110    49.5640    24.1600    23.7800    23.9200     2.2320 
  219.8750   199.7830   -48.7640   -49.5510   -18.3260    56.0840    23.5490    23.2530    22.6710     2.2290 
  220.0000   199.8710   -48.8050   -49.6290   -18.1260    57.8460    22.8620    22.7100    24.0060     2.2260 
  220.1250   199.9600   -48.8470   -49.7070   -17.9290    55.4000    22.2540    22.2570    23.2140     2.2230 
  220.2500   200.0480   -48.8880   -49.7840   -17.6650    52.0700    21.8420    21.9320    25.2290     2.2200 
  220.3750   200.1370   -48.9300   -49.8620   -17.3290    52.0990    21.6790    21.8120    27.0040     2.2220 
  220.5000   200.2250   -48.9710   -49.9400   -17.0600    53.8950    21.6850    21.8180    24.2260     2.2300 
  220.6250   200.3140   -49.0130   -50.0180   -16.8510    51.9600    21.7790    21.8750    22.1500     2.2410 
  220.7500   200.4020   -49.0540   -50.0960   -16.6650    48.9460    21.8670    21.9520    22.3960     2.2500 
  220.8750   200.4910   -49.0960   -50.1740   -16.3730    50.1210    21.9300    22.0030    23.4430     2.2550 
  221.0000   200.5790   -49.1370   -50.2520   -16.0070    55.2620    21.8510    21.9170    20.9340     2.2560 
  221.1250   200.6680   -49.1790   -50.3300   -15.6850    59.0130    21.6130    21.6850    21.0140     2.2540 
  221.2500   200.7560   -49.2210   -50.4080   -15.3270    59.0290    21.2740    21.3660    21.7300     2.2520 
  221.3750   200.8450   -49.2620   -50.4850   -15.0440    56.9100    20.8920    21.0400    20.4040     2.2530 
  221.5000   200.9330   -49.3040   -50.5630   -14.7030    55.0700    20.6470    20.9090    23.4340     2.2530 
  221.6250   201.0220   -49.3450   -50.6410   -14.4540    54.9590    20.4470    20.8680    27.2230     2.2480 
  221.7500   201.1100   -49.3870   -50.7190   -14.2660    54.5930    20.2650    20.8650    23.2340     2.2390 
  221.8750   201.1990   -49.4280   -50.7970   -14.1180    52.0720    20.0790    20.8340    22.8340     2.2330 
  222.0000   201.2870   -49.4700   -50.8750   -14.1420    50.6700    19.8470    20.7000    22.2370     2.2360 
  222.1250   201.3750   -49.5120   -50.9530   -14.2640    52.4580    19.6060    20.5110    25.1180     2.2410 
  222.2500   201.4640   -49.5540   -51.0310   -14.3590    54.2720    19.3710    20.3430    22.9890     2.2450 
  222.3750   201.5520   -49.5960   -51.1080   -14.4030    54.3690    19.2540    20.3420    21.7760     2.2470 
  222.5000   201.6410   -49.6380   -51.1860   -14.5130    55.6060    19.3120    20.5610    21.3340     2.2530 
  222.6250   201.7290   -49.6800   -51.2640   -14.6130    57.8160    19.5170    20.9530    21.0430     2.2600 
  222.7500   201.8170   -49.7220   -51.3410   -14.5810    57.4100    19.8170    21.3980    20.9080     2.2610 
  222.8750   201.9060   -49.7650   -51.4190   -14.5450    54.6270    20.1260    21.8230    19.4670     2.2500 
  223.0000   201.9940   -49.8080   -51.4970   -14.5080    53.7030    20.3300    22.1090    17.9750     2.2270 
  223.1250   202.0820   -49.8500   -51.5740   -14.5550    55.0840    20.4090    22.2370    17.5180     2.2050 
  223.2500   202.1700   -49.8930   -51.6520   -14.7390    55.9310    20.3380    22.1860    21.3290     2.1900 
  223.3750   202.2590   -49.9360   -51.7290   -15.1350    53.2730    20.1540    21.9960    24.5330     2.1820 
  223.5000   202.3470   -49.9780   -51.8070   -15.7250    52.5480    19.9650    21.7870    23.0570     2.1790 
  223.6250   202.4350   -50.0210   -51.8840   -16.3360    56.6500    19.8410    21.6370    21.2210     2.1730 
  223.7500   202.5230   -50.0630   -51.9620   -16.7590    59.0900    19.8710    21.6700    24.6840     2.1630 
  223.8750   202.6110   -50.1060   -52.0400   -17.1770    56.1600    20.0510    21.8930    23.1080     2.1480 
  224.0000   202.7000   -50.1480   -52.1180   -17.6340    52.3950    20.3290    22.2500    23.9060     2.1310 
  224.1250   202.7880   -50.1910   -52.1960   -17.9900    53.1050    20.5800    22.5760    23.6700     2.1180 
  224.2500   202.8760   -50.2330   -52.2740   -18.2870    54.4850    20.5460    22.5750    24.1120     2.1120 
  224.3750   202.9640   -50.2750   -52.3510   -18.4960    53.8050    20.2390    22.2820    20.4990     2.1200 
  224.5000   203.0520   -50.3180   -52.4290   -18.4740    53.6110    19.5310    21.6030    20.2830     2.1460 
