~V
VERS. 2.00: Ver 2.00
~W
STRT.M 33.0000:
STOP.M 287.0000:
STEP.M 0.1250:
NULL. -999.2500:
UWI. FD10889:
~C
DEPT.M :
TVD. :
DX. :
DY. :
SP.MV :
GR.API :
RI. :
RML.OHMM :
RXO.OHMM :
DEN.GM/CC :
~A
# ...
   51.2500    51.2350    -0.6750    -0.0070    -5.0950    54.5920     6.6710     9.2010     6.8410     2.0770 
   51.3750    51.3600    -0.6830    -0.0080    -5.2980    53.9970     7.5800    10.5410     9.2750     2.0880 
   51.5000    51.4850    -0.6910    -0.0100    -5.4970    53.8320     8.6840    12.2310    14.9430     2.0990 
   51.6250    51.6090    -0.6990    -0.0120    -5.6990    51.8850     9.6900    13.7660    17.2760     2.1010 
   51.7500    51.7340    -0.7070    -0.0130    -5.8660    50.6110    10.3420    14.6510    12.8380     2.0900 
   51.8750    51.8590    -0.7150    -0.0150    -6.0070    52.1770    10.2210    14.3140     8.4840     2.0740 
   52.0000    51.9840    -0.7240    -0.0170    -6.1650    55.3850     9.4570    13.0470     7.1340     2.0580 
   52.1250    52.1080    -0.7320    -0.0190    -6.2990    57.1380     8.3520    11.3660     6.9490     2.0420 
   52.2500    52.2330    -0.7400    -0.0200    -6.4120    58.5120     7.4220    10.0850     7.2740     2.0240 
   52.3750    52.3580    -0.7480    -0.0220    -6.4680    59.9280     6.9080     9.4270     7.5180     2.0070 
   52.5000    52.4820    -0.7570    -0.0240    -6.4940    61.1760     6.6850     9.1620     7.5050     1.9910 
   52.6250    52.6070    -0.7650    -0.0260    -6.5530    60.3450     6.6090     9.0790     7.3150     1.9770 
   52.7500    52.7320    -0.7740    -0.0280    -6.7260    56.1440     6.6210     9.1010     6.9090     1.9680 
   52.8750    52.8560    -0.7830    -0.0300    -6.9330    50.8930     6.6660     9.1460     6.6850     1.9640 
   53.0000    52.9810    -0.7910    -0.0320    -7.0350    49.2940     6.7040     9.1620     6.8720     1.9640 
   53.1250    53.1060    -0.8000    -0.0340    -7.0790    52.2600     6.7270     9.1550     7.1560     1.9670 
   53.2500    53.2300    -0.8090    -0.0360    -7.1400    55.3060     6.7510     9.1650     7.4830     1.9800 
   53.3750    53.3550    -0.8170    -0.0380    -7.2790    56.4680     6.8150     9.2540     7.7070     2.0150 
   53.5000    53.4800    -0.8260    -0.0400    -7.5010    57.1480     6.8930     9.3910     7.5010     2.0780 
   53.6250    53.6040    -0.8350    -0.0420    -7.7400    56.7960     6.9340     9.5010     7.1050     2.1520 
   53.7500    53.7290    -0.8440    -0.0440    -7.9530    55.3630     6.8930     9.4960     6.8450     2.2000 
   53.8750    53.8540    -0.8530    -0.0460    -8.1640    54.5650     6.7480     9.3220     6.6970     2.1990 
   54.0000    53.9780    -0.8620    -0.0480    -8.4820    53.3640     6.5150     9.0060     6.7160     2.1520 
   54.1250    54.1030    -0.8710    -0.0510    -8.8180    50.7950     6.2800     8.6750     6.8850     2.0930 
   54.2500    54.2280    -0.8800    -0.0530    -9.0100    49.0910     6.0790     8.4080     7.0120     2.0500 
   54.3750    54.3520    -0.8900    -0.0550    -9.0220    50.5030     5.9660     8.2630     6.9230     2.0270 
   54.5000    54.4770    -0.8990    -0.0580    -8.9500    52.5580     5.9560     8.2260     6.6310     2.0200 
   54.6250    54.6020    -0.9080    -0.0600    -8.8620    52.9780     5.9670     8.1550     6.3970     2.0190 
   54.7500    54.7260    -0.9180    -0.0620    -8.8320    54.8070     5.9780     8.0190     6.3400     2.0200 
   54.8750    54.8510    -0.9270    -0.0650    -8.8280    56.3170     5.9690     7.8440     6.3720     2.0200 
   55.0000    54.9760    -0.9360    -0.0670    -8.9980    55.1450     5.9260     7.6790     6.4640     2.0180 
   55.1250    55.1000    -0.9460    -0.0700    -9.2760    50.9500     5.8710     7.5100     6.6050     2.0130 
   55.2500    55.2250    -0.9550    -0.0720    -9.4710    46.0690     5.8010     7.3050     6.6010     2.0080 
   55.3750    55.3490    -0.9650    -0.0750    -9.5370    44.0650     5.7280     7.0860     6.3520     2.0040 
   55.5000    55.4740    -0.9750    -0.0780    -9.4880    47.0980     5.6770     6.8900     6.1230     2.0050 
   55.6250    55.5990    -0.9840    -0.0800    -9.2830    53.4530     5.6710     6.8430     5.9890     2.0100 
   55.7500    55.7230    -0.9940    -0.0830    -9.0590    56.6990     5.7000     6.9050     5.8050     2.0180 
   55.8750    55.8480    -1.0040    -0.0860    -8.7710    54.9350     5.7480     6.9990     5.8350     2.0260 
   56.0000    55.9720    -1.0140    -0.0890    -8.4880    53.4150     5.7660     7.0430     6.1820     2.0310 
   56.1250    56.0970    -1.0240    -0.0920    -8.3810    53.8170     5.7300     6.9640     6.4160     2.0300 
   56.2500    56.2210    -1.0330    -0.0950    -8.4280    54.1260     5.6340     6.7770     6.2900     2.0260 
   56.3750    56.3460    -1.0440    -0.0970    -8.4350    54.3480     5.5110     6.5810     5.8560     2.0210 
   56.5000    56.4710    -1.0540    -0.1010    -8.6030    55.2650     5.3980     6.4490     5.4260     2.0170 
   56.6250    56.5950    -1.0640    -0.1040    -8.8720    56.1830     5.3260     6.4030     5.3190     2.0130 
   56.7500    56.7200    -1.0740    -0.1070    -9.1250    57.5220     5.3160     6.4500     5.4380     2.0110 
   56.8750    56.8440    -1.0840    -0.1100    -9.3640    60.7140     5.3430     6.5050     5.6670     2.0110 
   57.0000    56.9690    -1.0950    -0.1130    -9.6840    61.9610     5.3980     6.5950     5.9250     2.0130 
   57.1250    57.0930    -1.1050    -0.1160   -10.0220    58.8710     5.4520     6.6700     5.9730     2.0140 
   57.2500    57.2180    -1.1150    -0.1190   -10.2520    54.2280     5.4800     6.6550     5.8010     2.0120 
   57.3750    57.3420    -1.1260    -0.1230   -10.3910    51.6740     5.4660     6.6290     5.7210     2.0070 
   57.5000    57.4670    -1.1360    -0.1260   -10.5880    51.3200     5.4190     6.5330     5.9780     2.0010 
   57.6250    57.5910    -1.1470    -0.1290   -10.7440    51.8640     5.3470     6.4610     6.3540     1.9990 
   57.7500    57.7160    -1.1580    -0.1330   -10.9000    54.1720     5.2800     6.3810     6.3930     2.0090 
   57.8750    57.8400    -1.1680    -0.1360   -11.1140    58.3050     5.2360     6.3250     6.0880     2.0300 
   58.0000    57.9650    -1.1790    -0.1400   -11.2710    63.1520     5.2260     6.3410     5.8090     2.0530 
   58.1250    58.0890    -1.1900    -0.1430   -11.3750    64.3990     5.2500     6.3900     5.6930     2.0670 
   58.2500    58.2140    -1.2010    -0.1470   -11.5210    60.8990     5.2940     6.5250     5.6470     2.0670 
   58.3750    58.3380    -1.2120    -0.1500   -11.6090    59.0830     5.3380     6.6550     5.6580     2.0590 
   58.5000    58.4630    -1.2230    -0.1540   -11.6210    61.3870     5.3420     6.6690     5.8030     2.0500 
   58.6250    58.5870    -1.2340    -0.1580   -11.6700    62.9280     5.3270     6.6580     6.0100     2.0460 
   58.7500    58.7120    -1.2450    -0.1620   -11.6820    61.8630     5.2760     6.5470     6.0490     2.0470 
   58.8750    58.8360    -1.2560    -0.1660   -11.6430    59.4400     5.2390     6.4630     5.8920     2.0500 
   59.0000    58.9600    -1.2670    -0.1700   -11.6310    56.8270     5.2810     6.5530     5.9580     2.0550 
   59.1250    59.0850    -1.2780    -0.1740   -11.7100    54.4770     5.3850     6.8130     6.1410     2.0570 
   59.2500    59.2090    -1.2900    -0.1780   -11.9220    54.3570     5.5300     7.0460     6.3020     2.0530 
   59.3750    59.3340    -1.3010    -0.1820   -12.0460    55.0800     5.6730     7.2520     6.0570     2.0450 
   59.5000    59.4580    -1.3130    -0.1860   -12.0160    54.8050     5.7200     7.1900     5.9450     2.0370 
   59.6250    59.5820    -1.3240    -0.1900   -11.9440    55.4470     5.6660     6.9450     6.5400     2.0320 
   59.7500    59.7070    -1.3360    -0.1950   -11.9070    58.3110     5.5150     6.6420     6.2980     2.0350 
   59.8750    59.8310    -1.3470    -0.1990   -11.8390    61.2770     5.2630     6.2270     5.9990     2.0450 
   60.0000    59.9560    -1.3590    -0.2030   -11.7780    64.4550     5.0260     5.9470     5.5620     2.0610 
   60.1250    60.0800    -1.3710    -0.2080   -11.7880    67.0810     4.8490     5.7920     4.9550     2.0750 
   60.2500    60.2040    -1.3830    -0.2120   -11.9920    67.8970     4.7920     5.8390     4.6420     2.0800 
