~V
VERS. 2.00: Ver 2.00
~W
STRT.M 55.0000:
STOP.M 289.0000:
STEP.M 0.1250:
NULL. -999.2500:
UWI. FD10909:
~C
DEPT.M :
TVD. :
DX. :
DY. :
SP.MV :
GR.API :
RI. :
RML.OHMM :
RXO.OHMM :
DEN.GM/CC :
~A
# ...
  210.1250   204.9820    33.6150     6.5770    -6.2280    77.0740    10.1530    11.0110    10.7860     2.3130 
  210.2500   205.0990    33.6550     6.5870    -6.1630    76.3140    10.8940    11.7480    11.8720     2.3320 
  210.3750   205.2170    33.6960     6.5970    -6.0870    74.9100    11.3700    12.1840    12.3320     2.3420 
  210.5000   205.3350    33.7360     6.6070    -5.9900    72.5860    11.5590    12.3220    12.6800     2.3270 
  210.6250   205.4530    33.7760     6.6170    -5.8570    69.8540    11.5410    12.2640    12.5930     2.2950 
  210.7500   205.5710    33.8160     6.6270    -5.6720    67.8600    11.4530    12.1700    11.9130     2.2620 
  210.8750   205.6890    33.8570     6.6370    -5.4480    68.8630    11.4770    12.2200    11.5540     2.2390 
  211.0000   205.8070    33.8970     6.6470    -5.2290    72.1370    11.7550    12.5490    11.9480     2.2250 
  211.1250   205.9250    33.9370     6.6570    -5.0620    76.4770    12.2840    13.1350    12.6350     2.2180 
  211.2500   206.0430    33.9770     6.6680    -4.9800    77.9200    13.1040    14.1150    13.1070     2.2170 
  211.3750   206.1610    34.0170     6.6780    -4.9740    77.7660    14.3990    16.0390    13.5700     2.2340 
  211.5000   206.2790    34.0580     6.6880    -5.0350    73.6250    16.5590    19.2220    14.7840     2.2890 
  211.6250   206.3970    34.0980     6.6980    -5.1370    67.7110    19.7600    22.6780    17.5730     2.3870 
  211.7500   206.5140    34.1380     6.7080    -5.2700    61.2220    24.3700    26.7900    24.7070     2.5050 
  211.8750   206.6320    34.1780     6.7180    -5.4140    56.5950    30.5970    33.0890    37.3130     2.5860 
  212.0000   206.7500    34.2190     6.7280    -5.5350    55.0010    38.2570    41.2850    50.5870     2.5770 
  212.1250   206.8680    34.2590     6.7380    -5.5900    54.6230    45.8180    49.3750    58.7340     2.4830 
  212.2500   206.9860    34.2990     6.7480    -5.5290    56.0770    51.1540    55.0850    62.6240     2.3470 
  212.3750   207.1040    34.3390     6.7580    -5.3480    58.7560    53.2250    57.3010    65.1040     2.2270 
  212.5000   207.2220    34.3800     6.7680    -5.0800    61.3560    52.1360    56.1350    65.2340     2.1600 
  212.6250   207.3400    34.4200     6.7790    -4.7900    63.0980    49.5070    53.3230    61.6280     2.1390 
  212.7500   207.4580    34.4600     6.7890    -4.5200    63.5730    46.5350    50.1430    53.1150     2.1410 
  212.8750   207.5760    34.5000     6.7990    -4.2790    63.9940    43.9890    47.4180    42.8760     2.1400 
  213.0000   207.6940    34.5400     6.8090    -4.0730    62.9870    42.3640    45.6790    36.2270     2.1280 
  213.1250   207.8120    34.5810     6.8200    -3.9420    61.9970    41.4430    44.6940    34.2780     2.1120 
  213.2500   207.9290    34.6210     6.8300    -3.9650    60.9510    40.5030    43.6880    35.2160     2.1050 
  213.3750   208.0470    34.6610     6.8400    -4.1750    60.7650    38.8850    41.9570    36.7360     2.1110 
  213.5000   208.1650    34.7010     6.8500    -4.5480    59.9240    36.4250    39.3250    36.5130     2.1300 
  213.6250   208.2830    34.7410     6.8610    -4.9630    59.0790    33.4960    36.1900    33.6620     2.1520 
  213.7500   208.4010    34.7820     6.8710    -5.2870    58.4970    30.4220    32.9010    30.2030     2.1650 
  213.8750   208.5190    34.8220     6.8820    -5.4550    60.0630    27.7200    30.0110    28.6230     2.1700 
  214.0000   208.6370    34.8620     6.8920    -5.4590    63.1230    26.0250    28.1970    27.4890     2.1770 
  214.1250   208.7550    34.9020     6.9020    -5.3660    66.4590    25.4800    27.6140    25.3020     2.1890 
  214.2500   208.8730    34.9420     6.9130    -5.2390    67.3850    25.8270    27.9850    27.6190     2.2120 
  214.3750   208.9910    34.9820     6.9230    -5.1340    65.8420    26.0370    28.2100    37.0600     2.2430 
  214.5000   209.1090    35.0220     6.9340    -5.0760    63.9100    25.1500    27.2600    44.2650     2.2770 
  214.6250   209.2270    35.0630     6.9440    -5.0600    63.4920    23.1530    25.1230    40.2540     2.3000 
  214.7500   209.3440    35.1030     6.9550    -5.0600    64.7120    20.4000    22.1780    27.9270     2.3000 
  214.8750   209.4620    35.1430     6.9650    -5.0370    66.8900    17.5040    19.0790    17.4170     2.2830 
  215.0000   209.5800    35.1830     6.9750    -4.9620    70.5940    15.1290    16.5380    13.7540     2.2580 
  215.1250   209.6980    35.2230     6.9860    -4.8240    73.5650    13.5540    14.8530    13.9300     2.2380 
  215.2500   209.8160    35.2630     6.9960    -4.6310    74.7800    12.7910    14.0360    14.2600     2.2300 
  215.3750   209.9340    35.3030     7.0070    -4.4160    74.1300    12.5490    13.7770    14.1010     2.2300 
  215.5000   210.0520    35.3440     7.0170    -4.2170    74.1250    12.5560    13.7850    14.0560     2.2350 
  215.6250   210.1700    35.3840     7.0280    -4.0510    76.0860    12.6010    13.8330    14.0070     2.2410 
  215.7500   210.2880    35.4240     7.0380    -3.9110    77.4760    12.6420    13.8770    13.6630     2.2490 
  215.8750   210.4060    35.4640     7.0490    -3.7840    76.7050    12.7100    13.9500    13.2530     2.2600 
  216.0000   210.5240    35.5040     7.0590    -3.6920    73.3830    12.7970    14.0420    13.2050     2.2820 
  216.1250   210.6420    35.5440     7.0700    -3.6810    71.4430    12.8700    14.1210    13.4710     2.3260 
  216.2500   210.7600    35.5840     7.0810    -3.7920    71.1840    12.8740    14.1250    13.7590     2.3920 
  216.3750   210.8770    35.6240     7.0910    -4.0050    69.6930    12.6590    13.8950    14.0890     2.4610 
  216.5000   210.9950    35.6640     7.1020    -4.2990    66.6130    12.1330    13.3640    14.6250     2.5100 
  216.6250   211.1130    35.7040     7.1120    -4.6390    63.8880    11.4330    12.7050    14.9700     2.5270 
  216.7500   211.2310    35.7450     7.1230    -5.0060    64.4230    10.7090    11.9960    14.2870     2.5120 
  216.8750   211.3490    35.7850     7.1330    -5.3790    64.9370    10.0920    11.3480    12.7220     2.4830 
  217.0000   211.4670    35.8250     7.1440    -5.7390    65.1140     9.6160    10.8400    11.3710     2.4560 
  217.1250   211.5850    35.8650     7.1540    -6.0920    64.6530     9.2470    10.4440    10.7130     2.4340 
  217.2500   211.7030    35.9050     7.1640    -6.4610    65.2540     8.9740    10.1520    10.2200     2.4160 
  217.3750   211.8210    35.9450     7.1750    -6.8530    67.5110     8.7330     9.8940     9.5070     2.4040 
  217.5000   211.9390    35.9860     7.1850    -7.2480    68.4010     8.4230     9.5620     8.9020     2.4050 
  217.6250   212.0570    36.0260     7.1950    -7.6040    67.3970     8.0010     9.1110     8.6710     2.4180 
  217.7500   212.1740    36.0660     7.2060    -7.8740    64.9500     7.5080     8.5840     8.4360     2.4320 
  217.8750   212.2920    36.1060     7.2160    -8.0600    65.7940     7.0260     8.0670     7.9640     2.4390 
  218.0000   212.4100    36.1460     7.2260    -8.1830    69.3010     6.6370     7.6520     7.5200     2.4330 
  218.1250   212.5280    36.1860     7.2370    -8.2800    72.7970     6.4170     7.4160     7.1400     2.4130 
  218.2500   212.6460    36.2270     7.2470    -8.3830    75.0170     6.4770     7.4800     6.9210     2.3780 
  218.3750   212.7640    36.2670     7.2580    -8.5080    75.6810     6.8870     7.9190     7.1520     2.3400 
  218.5000   212.8820    36.3070     7.2680    -8.6400    74.2350     7.6610     8.7480     7.9150     2.3110 
  218.6250   213.0000    36.3470     7.2790    -8.7450    71.3440     8.6110     9.7640     9.2350     2.2940 
  218.7500   213.1180    36.3880     7.2890    -8.7770    70.3260     9.4710    10.6840    11.2120     2.2840 
  218.8750   213.2360    36.4280     7.2990    -8.7420    71.7140    10.0130    11.2630    12.9660     2.2800 
  219.0000   213.3530    36.4680     7.3100    -8.6680    74.1250    10.1470    11.4070    13.1510     2.2840 
  219.1250   213.4710    36.5080     7.3200    -8.5880    75.6810    10.0070    11.2570    12.0020     2.2900 
