~V
VERS. 2.00: Ver 2.00
~W
STRT.M 30.0000:
STOP.M 210.0000:
STEP.M 0.1250:
NULL. -999.2500:
UWI. FD10800:
~C
DEPT.M :
TVD. :
DX. :
DY. :
SP.MV :
GR.API :
RI. :
RML.OHMM :
RXO.OHMM :
DEN.GM/CC :
~A
# ...
  112.1250   110.8840    -8.6800     3.8110   -29.8160    65.6020     4.5440     5.2090     6.4050     2.0430 
  112.2500   110.9990    -8.7260     3.8280   -30.2340    65.5990     4.3870     4.9760     5.8260     2.0690 
  112.3750   111.1140    -8.7730     3.8450   -30.5820    66.1680     4.2220     4.7680     5.5870     2.0850 
  112.5000   111.2280    -8.8190     3.8620   -30.7870    66.5910     4.1100     4.6270     5.4720     2.0960 
  112.6250   111.3430    -8.8660     3.8790   -30.8060    66.7610     4.0200     4.4960     5.4670     2.0980 
  112.7500   111.4580    -8.9130     3.8960   -30.6550    66.5610     3.9370     4.3800     5.3880     2.1000 
  112.8750   111.5720    -8.9600     3.9140   -30.4520    66.8940     3.8550     4.2770     5.2250     2.0920 
  113.0000   111.6870    -9.0070     3.9310   -30.1730    67.5020     3.7790     4.1870     5.0440     2.0810 
  113.1250   111.8010    -9.0540     3.9480   -29.8390    67.7090     3.7430     4.1620     4.9460     2.0690 
  113.2500   111.9160    -9.1010     3.9650   -29.4040    66.0480     3.7660     4.2010     4.9300     2.0650 
  113.3750   112.0300    -9.1490     3.9830   -28.7980    65.3340     3.7940     4.2460     4.9250     2.0720 
  113.5000   112.1440    -9.1960     4.0000   -27.9360    66.5850     3.7460     4.2010     5.0300     2.0990 
  113.6250   112.2590    -9.2440     4.0170   -26.7500    69.8700     3.5700     3.9950     5.2940     2.1440 
  113.7500   112.3730    -9.2910     4.0340   -25.3920    74.0100     3.2490     3.6190     5.0280     2.1960 
  113.8750   112.4870    -9.3390     4.0510   -23.9990    77.8860     2.8600     3.1580     4.1560     2.2390 
  114.0000   112.6010    -9.3870     4.0690   -22.7920    81.9150     2.5070     2.7320     3.6100     2.2620 
  114.1250   112.7150    -9.4350     4.0860   -22.0120    84.4360     2.3490     2.5430     3.2380     2.2690 
  114.2500   112.8300    -9.4830     4.1030   -21.7780    84.0740     2.4890     2.7250     2.7200     2.2980 
  114.3750   112.9440    -9.5310     4.1200   -22.0960    80.6330     2.9760     3.3450     3.4380     2.3380 
  114.5000   113.0580    -9.5790     4.1370   -22.9340    75.1900     3.7800     4.3540     8.7380     2.3540 
  114.6250   113.1720    -9.6270     4.1540   -24.1460    71.0640     4.7270     5.5050    15.6200     2.2880 
  114.7500   113.2860    -9.6760     4.1710   -25.5280    69.8460     5.3690     6.1900    15.2780     2.1980 
  114.8750   113.4000    -9.7240     4.1880   -26.6940    70.4250     5.4000     6.1020     9.5180     2.1310 
  115.0000   113.5140    -9.7730     4.2040   -27.4300    70.9040     4.9670     5.4730     5.7290     2.1000 
  115.1250   113.6280    -9.8220     4.2210   -27.8960    69.7260     4.3660     4.7170     4.6520     2.0810 
  115.2500   113.7420    -9.8700     4.2380   -28.1220    69.3930     4.0730     4.3920     4.5490     2.0710 
  115.3750   113.8550    -9.9190     4.2550   -28.2800    71.0270     4.2160     4.5770     4.9150     2.0720 
  115.5000   113.9690    -9.9680     4.2710   -28.3900    72.2100     4.6330     5.0610     5.4330     2.0790 
  115.6250   114.0830   -10.0170     4.2880   -28.4700    70.8020     5.2510     5.7780     5.7530     2.0750 
  115.7500   114.1970   -10.0650     4.3040   -28.4580    67.2810     6.0820     6.7480     6.4900     2.0670 
  115.8750   114.3110   -10.1140     4.3210   -28.4920    65.8320     7.0150     7.8460     8.0290     2.0580 
  116.0000   114.4250   -10.1630     4.3370   -28.4680    66.9290     7.9450     8.9270     9.2790     2.0590 
  116.1250   114.5380   -10.2130     4.3540   -28.3660    68.6590     8.5780     9.6380     9.6520     2.0690 
  116.2500   114.6520   -10.2620     4.3710   -28.2780    69.4120     8.7200     9.7360     9.7260     2.0850 
  116.3750   114.7660   -10.3110     4.3870   -28.2530    69.6670     8.2550     9.1140     9.6460     2.0960 
  116.5000   114.8800   -10.3600     4.4030   -28.2920    70.6840     7.5600     8.2570     9.5360     2.1020 
  116.6250   114.9930   -10.4100     4.4200   -28.2800    72.3310     6.9800     7.5860     9.2400     2.0990 
  116.7500   115.1070   -10.4590     4.4360   -28.3080    73.0410     6.7450     7.3700     8.1890     2.0930 
  116.8750   115.2200   -10.5090     4.4520   -28.2390    71.5720     6.9900     7.7780     7.6220     2.0820 
  117.0000   115.3340   -10.5580     4.4690   -28.0070    67.8650     7.4660     8.4280     8.7570     2.0750 
  117.1250   115.4480   -10.6080     4.4850   -27.6540    65.3090     7.7120     8.7090    10.5300     2.0840 
  117.2500   115.5610   -10.6580     4.5010   -27.3590    64.7240     7.6160     8.5180    11.4310     2.1120 
  117.3750   115.6750   -10.7070     4.5170   -27.0760    66.4910     7.2280     7.9350    10.8880     2.1420 
  117.5000   115.7880   -10.7570     4.5330   -26.8720    68.9510     6.8020     7.3490     9.1180     2.1590 
  117.6250   115.9020   -10.8070     4.5490   -26.7410    71.1260     6.7700     7.3060     7.7890     2.1480 
  117.7500   116.0150   -10.8570     4.5650   -26.7030    71.5680     7.2160     7.8670     8.8560     2.1260 
  117.8750   116.1280   -10.9070     4.5810   -26.7730    69.8080     8.1100     8.9450    11.1240     2.1130 
  118.0000   116.2420   -10.9580     4.5970   -26.8580    67.4290     9.1850    10.1750    12.4090     2.1150 
  118.1250   116.3550   -11.0080     4.6120   -27.0390    65.6130    10.0390    11.1170    12.6280     2.1180 
  118.2500   116.4690   -11.0580     4.6280   -27.5030    64.3000    10.4610    11.5270    12.4760     2.1140 
  118.3750   116.5820   -11.1090     4.6440   -27.8920    63.8410    10.4290    11.4590    12.3640     2.1000 
  118.5000   116.6950   -11.1590     4.6590   -27.9790    64.6990    10.2140    11.2150    12.3480     2.0840 
  118.6250   116.8080   -11.2100     4.6750   -27.8670    65.8740     9.9530    10.9220    12.5400     2.0740 
  118.7500   116.9220   -11.2600     4.6910   -27.5520    66.2590     9.6850    10.6290    12.7900     2.0750 
  118.8750   117.0350   -11.3110     4.7060   -27.2650    65.9840     9.4640    10.3890    12.4370     2.0860 
  119.0000   117.1480   -11.3620     4.7210   -27.1870    65.8800     9.3300    10.2500    11.6330     2.0890 
  119.1250   117.2610   -11.4130     4.7370   -27.1870    65.2680     9.2990    10.2310    11.0410     2.0850 
  119.2500   117.3740   -11.4640     4.7520   -27.1870    65.0120     9.3710    10.3250    10.8030     2.0810 
  119.3750   117.4870   -11.5150     4.7680   -27.2310    64.7130     9.5100    10.5030    10.7780     2.0990 
  119.5000   117.6000   -11.5660     4.7830   -27.4350    65.4220     9.6090    10.6230    10.9940     2.1440 
  119.6250   117.7130   -11.6170     4.7980   -27.8630    64.4670     9.5120    10.4990    11.4300     2.2150 
  119.7500   117.8260   -11.6680     4.8130   -28.2560    62.4600     9.1950    10.1230    11.4100     2.2900 
  119.8750   117.9390   -11.7190     4.8290   -28.3780    59.9560     8.6750     9.4990    10.2420     2.3370 
  120.0000   118.0520   -11.7700     4.8440   -28.3820    58.7170     8.0600     8.7830     8.7460     2.3570 
  120.1250   118.1650   -11.8220     4.8600   -28.3820    57.0580     7.4830     8.1370     8.4230     2.3600 
  120.2500   118.2780   -11.8730     4.8750   -28.3580    55.0860     7.0650     7.6870     8.4360     2.3570 
  120.3750   118.3910   -11.9250     4.8900   -28.2220    53.1370     6.8150     7.4220     7.3830     2.3410 
  120.5000   118.5040   -11.9760     4.9050   -28.0470    52.1900     6.7110     7.3130     6.5750     2.3210 
  120.6250   118.6170   -12.0280     4.9200   -27.9840    51.2310     6.6980     7.2870     6.8400     2.3010 
  120.7500   118.7300   -12.0790     4.9350   -27.9840    51.0310     6.6480     7.1760     7.0930     2.2900 
  120.8750   118.8430   -12.1310     4.9500   -28.1520    52.4570     6.5500     6.9950     7.0340     2.2860 
  121.0000   118.9550   -12.1830     4.9650   -28.1600    54.6660     6.4010     6.7420     7.1330     2.2890 
  121.1250   119.0680   -12.2340     4.9800   -28.1250    55.6190     6.2160     6.4590     7.3850     2.2920 
