~V
VERS. 2.00: Ver 2.00
~W
STRT.M 15.0000:
STOP.M 282.0000:
STEP.M 0.1250:
NULL. -999.2500:
UWI. FD10218:
~C
DEPT.M :
TVD. :
DX. :
DY. :
DEN.GM/CC :
GR.API :
RML.OHMM :
RI. :
RXO.OHMM :
CALI.CM :
SP.MV :
~A
# ...
   48.0000    48.0000    -0.0070    -0.0620     2.3540    92.4500    10.6200     5.7480     6.7890    24.7950    -9.4800 
   48.1250    48.1250    -0.0070    -0.0630     2.4130    83.4490    11.2680     6.3660    11.6300    24.5890   -10.9960 
   48.2500    48.2500    -0.0080    -0.0630     2.4340    78.0200    11.4530     6.7190    14.2610    24.5180   -12.9640 
   48.3750    48.3750    -0.0080    -0.0640     2.3980    75.6590    11.1730     6.7150    11.3130    24.6170   -15.2020 
   48.5000    48.5000    -0.0080    -0.0640     2.3160    74.5060    10.5960     6.4210     8.8290    24.9110   -17.4730 
   48.6250    48.6250    -0.0090    -0.0650     2.2260    71.0260     9.9910     5.9860     8.5790    25.2970   -19.5800 
   48.7500    48.7500    -0.0090    -0.0650     2.1650    66.5210     9.5780     5.5910     8.8570    25.6820   -21.4360 
   48.8750    48.8750    -0.0090    -0.0660     2.1420    65.0030     9.4440     5.3340     8.7960    26.0160   -22.9590 
   49.0000    49.0000    -0.0100    -0.0670     2.1480    67.0040     9.5910     5.2560     8.2190    26.1800   -24.0810 
   49.1250    49.1250    -0.0100    -0.0670     2.1760    69.0790     9.9840     5.3770     7.8830    26.0540   -24.8500 
   49.2500    49.2500    -0.0100    -0.0680     2.2170    68.8910    10.4580     5.6180     8.4920    25.8650   -25.4320 
   49.3750    49.3750    -0.0100    -0.0680     2.2620    68.4080    10.8620     5.8970    10.2930    25.7370   -25.9230 
   49.5000    49.5000    -0.0110    -0.0690     2.2970    68.0300    11.0500     6.1050    11.8950    25.7030   -26.4350 
   49.6250    49.6250    -0.0110    -0.0690     2.3040    65.9920    10.8970     6.1190    11.6330    26.0250   -27.0370 
   49.7500    49.7500    -0.0110    -0.0700     2.2840    63.5180    10.5080     5.9630    10.1900    26.6820   -27.7760 
   49.8750    49.8750    -0.0120    -0.0700     2.2460    61.3810    10.0280     5.7090     9.1870    27.3100   -28.6440 
   50.0000    50.0000    -0.0120    -0.0710     2.2100    58.5690     9.5970     5.4430     8.8780    27.7240   -29.5390 
   50.1250    50.1250    -0.0120    -0.0710     2.1880    58.6960     9.3200     5.2410     8.9760    27.9330   -30.2750 
   50.2500    50.2500    -0.0130    -0.0720     2.1770    62.3280     9.1650     5.1110     9.0330    28.1100   -30.8010 
   50.3750    50.3750    -0.0130    -0.0720     2.1700    65.0270     9.0760     5.0390     8.9250    28.2520   -31.1260 
   50.5000    50.5000    -0.0130    -0.0730     2.1630    64.0920     9.0070     4.9970     8.6070    28.2040   -31.2820 
   50.6250    50.6250    -0.0130    -0.0740     2.1570    63.9060     8.9370     4.9690     8.0180    28.0300   -31.2740 
   50.7500    50.7500    -0.0140    -0.0740     2.1550    66.6740     8.8780     4.9500     7.9160    28.0980   -31.1350 
   50.8750    50.8750    -0.0140    -0.0750     2.1640    69.2250     8.8420     4.9450     8.0860    28.2800   -30.9450 
   51.0000    51.0000    -0.0140    -0.0750     2.1860    69.2450     8.8290     4.9560     8.3460    28.2720   -30.7670 
   51.1250    51.1250    -0.0150    -0.0760     2.2140    66.9460     8.8190     4.9740     8.5710    27.8600   -30.5830 
   51.2500    51.2500    -0.0150    -0.0760     2.2350    64.1260     8.7870     4.9830     8.9170    27.4260   -30.4000 
   51.3750    51.3750    -0.0160    -0.0760     2.2360    62.0320     8.7310     4.9720     8.9720    27.4660   -30.2480 
   51.5000    51.5000    -0.0170    -0.0760     2.2140    60.4340     8.6760     4.9480     8.4420    28.1820   -30.1480 
   51.6250    51.6250    -0.0180    -0.0770     2.1750    58.9910     8.6740     4.9420     7.3170    29.2050   -30.0520 
   51.7500    51.7500    -0.0180    -0.0770     2.1380    59.2790     8.7430     4.9690     6.6060    29.8840   -29.9270 
   51.8750    51.8750    -0.0190    -0.0770     2.1180    62.9410     8.8590     5.0300     7.0270    30.0870   -29.8170 
   52.0000    52.0000    -0.0200    -0.0770     2.1250    68.4130     8.9650     5.1040     8.2970    29.7100   -29.7980 
   52.1250    52.1250    -0.0200    -0.0780     2.1550    70.5810     8.9890     5.1520     9.6990    28.6370   -29.9130 
   52.2500    52.2500    -0.0210    -0.0780     2.1840    67.7100     8.9290     5.1490    11.1530    27.5280   -30.0750 
   52.3750    52.3750    -0.0220    -0.0780     2.1960    63.9780     8.8220     5.0950    13.7670    26.8510   -30.3040 
   52.5000    52.5000    -0.0220    -0.0780     2.1880    63.3580     8.7240     5.0090    17.0710    26.6640   -30.6140 
   52.6250    52.6250    -0.0230    -0.0790     2.1730    63.1710     8.6780     4.9160    16.1620    26.7000   -30.9730 
   52.7500    52.7500    -0.0240    -0.0790     2.1640    60.7270     8.6690     4.8370    14.3360    26.6730   -31.3230 
   52.8750    52.8750    -0.0250    -0.0790     2.1640    59.0060     8.6720     4.7800    12.6190    26.5090   -31.6420 
   53.0000    53.0000    -0.0250    -0.0790     2.1670    61.2650     8.6710     4.7460    10.1800    26.3120   -31.8870 
   53.1250    53.1250    -0.0260    -0.0800     2.1640    64.2320     8.6750     4.7370     8.9810    26.2490   -31.9910 
   53.2500    53.2500    -0.0270    -0.0800     2.1590    63.5540     8.7030     4.7520     8.7010    26.3070   -31.9830 
   53.3750    53.3750    -0.0270    -0.0800     2.1590    61.9020     8.7560     4.7880     9.0990    26.4020   -31.8330 
   53.5000    53.5000    -0.0280    -0.0800     2.1650    61.5860     8.8140     4.8370    10.8280    26.3700   -31.5060 
   53.6250    53.6250    -0.0290    -0.0810     2.1760    62.1710     8.8330     4.8820    12.7450    26.1690   -31.0130 
   53.7500    53.7500    -0.0300    -0.0810     2.1850    61.9420     8.7960     4.9100    12.2710    25.9810   -30.4400 
   53.8750    53.8750    -0.0300    -0.0810     2.1890    63.9130     8.7110     4.9200    10.4550    25.8080   -29.7710 
   54.0000    54.0000    -0.0310    -0.0810     2.1880    70.0180     8.6180     4.9250     9.3590    25.7310   -29.0010 
   54.1250    54.1250    -0.0320    -0.0810     2.1870    74.4740     8.5830     4.9500     7.7940    25.7450   -28.2590 
   54.2500    54.2500    -0.0320    -0.0820     2.1850    72.5780     8.6270     5.0110     6.8440    25.8610   -27.5530 
   54.3750    54.3750    -0.0330    -0.0820     2.1790    66.3500     8.7220     5.1040     6.5510    26.0480   -26.7520 
   54.5000    54.5000    -0.0340    -0.0820     2.1690    63.0400     8.7930     5.1960     6.6390    26.1660   -25.7400 
   54.6250    54.6250    -0.0340    -0.0820     2.1580    66.0970     8.7220     5.2090     6.9850    26.1160   -24.3760 
   54.7500    54.7500    -0.0350    -0.0830     2.1600    69.9310     8.4980     5.1090     7.5400    26.0310   -22.6380 
   54.8750    54.8750    -0.0360    -0.0830     2.1810    72.5300     8.1770     4.9120     7.9700    25.8460   -20.5190 
   55.0000    55.0000    -0.0370    -0.0830     2.2210    76.6050     7.8630     4.6810     7.4320    25.4640   -18.1380 
   55.1250    55.1250    -0.0370    -0.0830     2.2690    85.2230     7.6730     4.5020     5.6120    25.0660   -15.6140 
   55.2500    55.2500    -0.0380    -0.0840     2.3070    94.3470     7.6110     4.4100     4.7480    24.9560   -13.1200 
   55.3750    55.3750    -0.0390    -0.0840     2.3270    98.9750     7.6290     4.3950     4.8600    25.0840   -10.7410 
   55.5000    55.5000    -0.0390    -0.0840     2.3310    98.9610     7.6570     4.4200     5.3780    25.2460    -8.5960 
   55.6250    55.6250    -0.0400    -0.0840     2.3270    97.7120     7.6300     4.4360     5.2090    25.1770    -7.0010 
   55.7500    55.7500    -0.0410    -0.0850     2.3210    97.4860     7.5780     4.4270     4.8740    24.9040    -6.0010 
   55.8750    55.8750    -0.0420    -0.0850     2.3140    97.2510     7.6060     4.4250     4.7810    24.6320    -5.5870 
   56.0000    56.0000    -0.0420    -0.0850     2.2990    95.0960     7.8670     4.5150     4.8530    24.4940    -5.6580 
   56.1250    56.1250    -0.0430    -0.0850     2.2810    91.8190     8.5570     4.8420     5.3780    24.4840    -6.0600 
