~V
VERS. 2.00: Ver 2.00
~W
STRT.M 63.0000:
STOP.M 256.0000:
STEP.M 0.1250:
NULL. -999.2500:
UWI. FD10901:
~C
DEPT.M :
TVD. :
DX. :
DY. :
SP.MV :
GR.API :
RI. :
RML.OHMM :
RXO.OHMM :
DEN.GM/CC :
~A
# ...
  172.5000   171.8330    -2.8490    -8.0810    -2.5530    58.2910     9.5720    11.2760     9.9530     2.2760 
  172.6250   171.9550    -2.8550    -8.1090    -2.0070    57.4610     8.0760     9.4890     9.7980     2.3000 
  172.7500   172.0770    -2.8610    -8.1380    -1.8930    57.2390     6.7410     7.8830     7.7950     2.3290 
  172.8750   172.1980    -2.8660    -8.1660    -1.8830    55.1710     5.7170     6.6510     5.0910     2.3510 
  173.0000   172.3200    -2.8720    -8.1940    -1.9190    53.0020     5.0020     5.8200     3.9800     2.3670 
  173.1250   172.4420    -2.8780    -8.2220    -1.9410    51.1630     4.6590     5.4660     4.0780     2.3880 
  173.2500   172.5630    -2.8840    -8.2510    -2.0200    51.9980     4.5830     5.4300     4.2400     2.4130 
  173.3750   172.6850    -2.8900    -8.2790    -2.2390    53.9970     4.6420     5.5260     4.3590     2.4270 
  173.5000   172.8060    -2.8960    -8.3070    -2.5580    55.0370     4.7050     5.5960     4.3070     2.4310 
  173.6250   172.9280    -2.9020    -8.3360    -2.8010    52.8940     4.7370     5.6190     4.2140     2.4250 
  173.7500   173.0500    -2.9080    -8.3640    -2.8770    49.3730     4.7160     5.5830     4.1470     2.4230 
  173.8750   173.1710    -2.9140    -8.3930    -2.8100    46.0290     4.6490     5.5120     4.2640     2.4190 
  174.0000   173.2930    -2.9210    -8.4220    -2.6980    44.5320     4.5510     5.4140     4.4440     2.4110 
  174.1250   173.4140    -2.9270    -8.4500    -2.6580    44.3520     4.4270     5.3010     4.2980     2.4000 
  174.2500   173.5360    -2.9330    -8.4790    -2.7500    45.8680     4.3160     5.1970     4.0690     2.3930 
  174.3750   173.6570    -2.9400    -8.5080    -2.9210    47.5010     4.2440     5.1490     3.9480     2.3920 
  174.5000   173.7790    -2.9460    -8.5370    -3.0710    48.4340     4.2390     5.1900     3.8470     2.3920 
  174.6250   173.9000    -2.9520    -8.5660    -3.2010    47.4500     4.3030     5.3120     3.8840     2.3890 
  174.7500   174.0210    -2.9580    -8.5950    -3.3330    47.2430     4.4230     5.5080     4.0660     2.3920 
  174.8750   174.1430    -2.9650    -8.6240    -3.5400    48.7970     4.5960     5.7700     4.2750     2.3950 
  175.0000   174.2640    -2.9710    -8.6530    -3.7830    52.1700     4.7720     6.0260     4.4780     2.3920 
  175.1250   174.3860    -2.9780    -8.6820    -4.0380    55.1820     4.8950     6.2070     4.7710     2.3860 
  175.2500   174.5070    -2.9840    -8.7110    -4.3070    56.5970     4.9320     6.2610     5.0680     2.3900 
  175.3750   174.6280    -2.9910    -8.7400    -4.6600    56.0810     4.8670     6.1920     5.0490     2.4020 
  175.5000   174.7500    -2.9970    -8.7690    -5.0940    53.8940     4.7610     6.0720     4.8330     2.4070 
  175.6250   174.8710    -3.0030    -8.7990    -5.5530    52.4430     4.6830     5.9990     4.6600     2.3980 
  175.7500   174.9920    -3.0100    -8.8280    -5.9270    52.7380     4.6490     5.9950     4.5550     2.3900 
  175.8750   175.1140    -3.0160    -8.8570    -6.3000    54.0180     4.6600     6.0540     4.5730     2.3880 
  176.0000   175.2350    -3.0230    -8.8870    -6.7950    54.7740     4.6980     6.1530     4.4820     2.3880 
  176.1250   175.3560    -3.0290    -8.9160    -7.2080    54.5170     4.7120     6.2080     4.2520     2.3780 
  176.2500   175.4780    -3.0360    -8.9460    -7.4160    55.1870     4.6800     6.1840     4.3040     2.3510 
  176.3750   175.5990    -3.0420    -8.9750    -7.3450    57.7960     4.6030     6.0890     4.6070     2.3180 
  176.5000   175.7200    -3.0490    -9.0050    -7.1520    60.7310     4.5090     5.9550     4.7150     2.3000 
  176.6250   175.8410    -3.0550    -9.0350    -6.9800    62.1740     4.4110     5.8000     4.5220     2.3140 
  176.7500   175.9630    -3.0620    -9.0650    -6.9390    60.7860     4.3190     5.6580     4.2840     2.3440 
  176.8750   176.0840    -3.0680    -9.0940    -6.9470    58.5390     4.2990     5.5950     4.1420     2.3680 
  177.0000   176.2050    -3.0750    -9.1240    -6.8880    55.8490     4.3730     5.6850     4.0720     2.3870 
  177.1250   176.3260    -3.0820    -9.1540    -6.5930    53.1550     4.5820     5.9770     4.2400     2.4070 
  177.2500   176.4470    -3.0890    -9.1840    -6.1930    50.7960     4.8360     6.3420     4.8930     2.4230 
  177.3750   176.5680    -3.0950    -9.2140    -5.8900    49.9590     5.0380     6.6320     5.6950     2.4220 
  177.5000   176.6900    -3.1020    -9.2440    -5.7490    49.8290     5.0900     6.6960     5.8370     2.4090 
  177.6250   176.8110    -3.1090    -9.2750    -5.6680    48.8450     4.9640     6.4990     5.1410     2.3980 
  177.7500   176.9320    -3.1160    -9.3050    -5.4840    47.4190     4.7140     6.1420     4.4160     2.3930 
  177.8750   177.0530    -3.1230    -9.3350    -5.0970    45.6660     4.4450     5.7760     4.2110     2.3900 
  178.0000   177.1740    -3.1300    -9.3650    -4.7160    44.6730     4.2560     5.5400     4.2620     2.3840 
  178.1250   177.2950    -3.1370    -9.3960    -4.7210    44.2190     4.1730     5.4560     4.2270     2.3800 
  178.2500   177.4160    -3.1440    -9.4260    -4.9750    43.9860     4.1840     5.4900     4.1580     2.3780 
  178.3750   177.5370    -3.1510    -9.4570    -5.3440    43.3860     4.2230     5.5660     4.2240     2.3800 
  178.5000   177.6580    -3.1570    -9.4870    -5.6440    42.6840     4.2710     5.6360     4.3370     2.3810 
  178.6250   177.7790    -3.1640    -9.5180    -5.8920    44.0220     4.3330     5.7210     4.3100     2.3840 
  178.7500   177.9000    -3.1710    -9.5480    -6.1450    47.5670     4.4030     5.8170     4.1960     2.3870 
  178.8750   178.0210    -3.1780    -9.5790    -6.3260    50.4590     4.4810     5.9150     4.2090     2.3900 
  179.0000   178.1420    -3.1840    -9.6100    -6.4040    50.5840     4.5500     6.0070     4.2960     2.3930 
  179.1250   178.2630    -3.1910    -9.6410    -6.3900    49.1570     4.6030     6.0710     4.2600     2.4010 
  179.2500   178.3840    -3.1980    -9.6710    -6.3340    47.7960     4.6070     6.0660     4.2120     2.4090 
  179.3750   178.5050    -3.2050    -9.7020    -6.3090    46.5260     4.5580     5.9810     4.2370     2.4100 
  179.5000   178.6260    -3.2120    -9.7330    -6.3800    44.5540     4.4640     5.8500     4.1200     2.4040 
  179.6250   178.7470    -3.2190    -9.7640    -6.5130    43.1240     4.3670     5.7100     3.8660     2.3990 
  179.7500   178.8680    -3.2260    -9.7950    -6.5870    43.2120     4.2920     5.6180     3.8040     2.3980 
  179.8750   178.9890    -3.2330    -9.8260    -6.6530    44.3440     4.2580     5.5880     4.0330     2.3920 
  180.0000   179.1090    -3.2400    -9.8570    -6.8430    45.2420     4.2470     5.5980     4.3070     2.3840 
  180.1250   179.2300    -3.2480    -9.8880    -7.0880    44.2880     4.2500     5.6260     4.4510     2.3870 
  180.2500   179.3510    -3.2550    -9.9190    -7.3040    41.4260     4.2500     5.6390     4.3760     2.3970 
  180.3750   179.4720    -3.2620    -9.9500    -7.3790    39.9010     4.2570     5.6540     4.1890     2.4020 
  180.5000   179.5930    -3.2690    -9.9810    -7.3050    40.4210     4.2870     5.6850     4.0620     2.3900 
  180.6250   179.7140    -3.2760   -10.0130    -7.1440    42.8980     4.3310     5.7360     3.9860     2.3780 
  180.7500   179.8350    -3.2840   -10.0440    -7.0730    44.4770     4.3900     5.8120     4.0180     2.3730 
  180.8750   179.9550    -3.2910   -10.0750    -7.0300    44.6200     4.4300     5.8490     4.1180     2.3780 
  181.0000   180.0760    -3.2980   -10.1070    -7.0200    45.4570     4.4290     5.8400     4.1390     2.3790 
  181.1250   180.1970    -3.3060   -10.1380    -6.9920    46.9220     4.3850     5.7550     4.0810     2.3740 
  181.2500   180.3180    -3.3130   -10.1690    -6.7060    48.1700     4.3270     5.6650     4.0490     2.3670 
  181.3750   180.4380    -3.3200   -10.2010    -6.5350    47.0620     4.2870     5.6050     4.0580     2.3590 
  181.5000   180.5590    -3.3280   -10.2320    -6.5220    44.8930     4.2990     5.6200     4.0740     2.3460 
