~V
VERS. 2.00: Ver 2.00
~W
STRT.M 24.0000:
STOP.M 309.0000:
STEP.M 0.1250:
NULL. -999.2500:
UWI. FD10911:
~C
DEPT.M :
TVD. :
DX. :
DY. :
SP.MV :
GR.API :
RI. :
RML.OHMM :
RXO.OHMM :
DEN.GM/CC :
~A
# ...
  115.2500   113.7540     1.4570   -12.9090   -24.1960    79.8120     3.3830     4.1460     3.9990     2.2580 
  115.3750   113.8720     1.4760   -12.9460   -24.5940    80.9700     3.6240     4.4550     4.0730     2.2560 
  115.5000   113.9900     1.4950   -12.9820   -25.0510    81.6470     4.0110     4.9520     4.5910     2.2350 
  115.6250   114.1080     1.5140   -13.0190   -25.5620    80.9080     4.5240     5.5930     5.3180     2.2140 
  115.7500   114.2260     1.5330   -13.0560   -26.1250    79.8620     5.0870     6.2670     5.8990     2.2220 
  115.8750   114.3440     1.5520   -13.0920   -26.6980    77.3440     5.5990     6.8560     6.2630     2.2650 
  116.0000   114.4620     1.5710   -13.1290   -27.2210    76.4610     5.9340     7.2140     6.4220     2.3350 
  116.1250   114.5790     1.5910   -13.1660   -27.6560    76.1340     6.0340     7.2830     6.3840     2.4060 
  116.2500   114.6970     1.6100   -13.2030   -27.9860    75.8080     5.9120     7.0920     6.2700     2.4540 
  116.3750   114.8150     1.6290   -13.2400   -28.2380    74.3220     5.6720     6.7740     6.2510     2.4630 
  116.5000   114.9330     1.6480   -13.2780   -28.4370    73.5580     5.4160     6.4680     6.3880     2.4190 
  116.6250   115.0510     1.6680   -13.3150   -28.6090    74.5820     5.2190     6.2740     6.6180     2.3370 
  116.7500   115.1680     1.6870   -13.3520   -28.7580    75.9420     5.0940     6.1950     6.7340     2.2470 
  116.8750   115.2860     1.7070   -13.3890   -28.8770    75.2330     4.9840     6.1340     6.6240     2.1780 
  117.0000   115.4040     1.7260   -13.4270   -28.9440    73.7160     4.8240     5.9690     6.4800     2.1440 
  117.1250   115.5210     1.7460   -13.4640   -28.9310    74.1870     4.5720     5.6400     6.7220     2.1410 
  117.2500   115.6390     1.7660   -13.5010   -28.8040    77.6690     4.2400     5.1850     7.7320     2.1670 
  117.3750   115.7560     1.7860   -13.5390   -28.5660    82.3720     3.9240     4.7540     8.5730     2.2040 
  117.5000   115.8740     1.8060   -13.5760   -28.2480    85.8220     3.7430     4.5160     7.6140     2.2320 
  117.6250   115.9920     1.8260   -13.6140   -27.9380    87.9530     3.7690     4.5580     5.7000     2.2390 
  117.7500   116.1090     1.8460   -13.6520   -27.7420    87.4660     4.0640     4.9420     4.8760     2.2280 
  117.8750   116.2260     1.8660   -13.6890   -27.7100    85.4960     4.5900     5.5950     5.1450     2.2170 
  118.0000   116.3440     1.8860   -13.7270   -27.8300    80.7710     5.2120     6.3280     5.4920     2.2340 
  118.1250   116.4610     1.9060   -13.7650   -28.0110    76.3580     5.7160     6.8840     5.6030     2.2860 
  118.2500   116.5790     1.9270   -13.8030   -28.1680    73.4430     5.9190     7.0490     5.6260     2.3550 
  118.3750   116.6960     1.9470   -13.8410   -28.2640    74.2600     5.7590     6.7680     5.6320     2.3920 
  118.5000   116.8130     1.9670   -13.8790   -28.3020    75.1200     5.2810     6.1160     5.5990     2.3600 
  118.6250   116.9310     1.9880   -13.9170   -28.2940    76.0920     4.6850     5.3530     5.6010     2.2860 
  118.7500   117.0480     2.0080   -13.9550   -28.2030    76.4480     4.1550     4.7110     5.6080     2.2270 
  118.8750   117.1650     2.0290   -13.9930   -27.9910    80.0080     3.8050     4.3210     5.2940     2.2170 
  119.0000   117.2820     2.0500   -14.0310   -27.6210    82.5660     3.6520     4.1800     4.6780     2.2450 
  119.1250   117.4000     2.0710   -14.0700   -27.1390    85.1190     3.5910     4.1390     4.3840     2.2680 
  119.2500   117.5170     2.0920   -14.1080   -26.6380    85.2980     3.5520     4.1090     4.5940     2.2620 
  119.3750   117.6340     2.1130   -14.1460   -26.2200    87.0050     3.5140     4.0760     4.6930     2.2400 
  119.5000   117.7510     2.1340   -14.1850   -25.9470    87.3330     3.4710     4.0380     4.3400     2.2260 
  119.6250   117.8680     2.1550   -14.2230   -25.7780    87.1130     3.4020     3.9780     3.9750     2.2230 
  119.7500   117.9850     2.1760   -14.2610   -25.6470    86.9270     3.3040     3.8900     4.0410     2.2180 
  119.8750   118.1020     2.1970   -14.3000   -25.5170    87.9770     3.1790     3.7620     4.3170     2.2120 
  120.0000   118.2190     2.2180   -14.3390   -25.4160    91.4340     3.0180     3.5620     4.2780     2.2160 
  120.1250   118.3360     2.2400   -14.3770   -25.3830    94.4350     2.8430     3.3210     3.8640     2.2370 
  120.2500   118.4530     2.2610   -14.4160   -25.4340    95.6930     2.7500     3.1790     3.5130     2.2670 
  120.3750   118.5700     2.2820   -14.4550   -25.5540    94.0100     2.8860     3.3390     3.4330     2.2980 
  120.5000   118.6870     2.3030   -14.4940   -25.7600    89.5290     3.3780     3.9780     4.0810     2.3360 
  120.6250   118.8030     2.3240   -14.5330   -26.0960    83.5580     4.1580     5.0080     8.1010     2.3900 
  120.7500   118.9200     2.3450   -14.5720   -26.6410    76.7460     5.0620     6.1880    17.7980     2.4470 
  120.8750   119.0370     2.3670   -14.6110   -27.4090    70.9080     5.7640     7.0560    25.7860     2.4720 
  121.0000   119.1540     2.3880   -14.6510   -28.4010    67.9450     5.9520     7.2200    22.6240     2.4280 
  121.1250   119.2700     2.4090   -14.6900   -29.5280    67.2650     5.6740     6.7820    13.4320     2.3330 
  121.2500   119.3870     2.4310   -14.7300   -30.6810    67.9450     5.1290     6.0530     7.6210     2.2290 
  121.3750   119.5040     2.4520   -14.7690   -31.7380    68.6240     4.6540     5.4730     6.0440     2.1580 
  121.5000   119.6200     2.4730   -14.8090   -32.5960    69.7210     4.4430     5.2550     5.9180     2.1260 
  121.6250   119.7370     2.4950   -14.8480   -33.2210    70.0220     4.4100     5.2620     5.8800     2.1180 
  121.7500   119.8540     2.5160   -14.8880   -33.5830    67.9680     4.4380     5.3390     5.8020     2.1200 
  121.8750   119.9700     2.5380   -14.9280   -33.7120    65.8720     4.4560     5.3920     5.7520     2.1260 
  122.0000   120.0870     2.5590   -14.9680   -33.6280    64.2290     4.4360     5.3840     5.8150     2.1300 
  122.1250   120.2030     2.5810   -15.0080   -33.4020    64.6860     4.3820     5.3250     5.9460     2.1290 
  122.2500   120.3190     2.6020   -15.0480   -33.0800    65.5630     4.3140     5.2500     5.9890     2.1250 
  122.3750   120.4360     2.6240   -15.0880   -32.7000    67.9170     4.2510     5.1880     5.8880     2.1230 
  122.5000   120.5520     2.6450   -15.1280   -32.2570    70.4960     4.1930     5.1300     5.9700     2.1280 
  122.6250   120.6690     2.6670   -15.1680   -31.7430    73.4930     4.1270     5.0540     6.7990     2.1370 
  122.7500   120.7850     2.6890   -15.2090   -31.1440    77.1780     4.0340     4.9460     7.9720     2.1510 
  122.8750   120.9010     2.7100   -15.2490   -30.4680    81.4200     3.9200     4.8190     7.8140     2.1700 
  123.0000   121.0170     2.7320   -15.2900   -29.7250    85.7600     3.7940     4.6850     6.2030     2.1870 
  123.1250   121.1340     2.7540   -15.3300   -28.9520    88.2290     3.6650     4.5500     5.0320     2.1970 
  123.2500   121.2500     2.7750   -15.3710   -28.2010    89.8400     3.5440     4.4160     4.8310     2.2020 
  123.3750   121.3660     2.7970   -15.4120   -27.5250    90.8450     3.4270     4.2750     4.8050     2.2110 
  123.5000   121.4820     2.8190   -15.4530   -26.9620    92.1940     3.3150     4.1280     4.6000     2.2330 
  123.6250   121.5980     2.8410   -15.4940   -26.4860    94.4230     3.2060     3.9880     4.2690     2.2650 
  123.7500   121.7140     2.8620   -15.5350   -26.0500    97.4640     3.1130     3.8750     3.9520     2.2980 
  123.8750   121.8300     2.8840   -15.5760   -25.6080    98.0690     3.0480     3.8060     3.6980     2.3190 
  124.0000   121.9460     2.9060   -15.6170   -25.1670    97.3880     3.0180     3.7820     3.5330     2.3190 
  124.1250   122.0620     2.9280   -15.6590   -24.7660    94.0410     3.0050     3.7750     3.4830     2.3050 
  124.2500   122.1780     2.9500   -15.7000   -24.4520    91.5430     2.9900     3.7560     3.4910     2.2900 
