~V
VERS. 2.00: Ver 2.00
~W
STRT.M 30.0000:
STOP.M 210.0000:
STEP.M 0.1250:
NULL. -999.2500:
UWI. FD10800:
~C
DEPT.M :
TVD. :
DX. :
DY. :
SP.MV :
GR.API :
RI. :
RML.OHMM :
RXO.OHMM :
DEN.GM/CC :
~A
# ...
  166.8750   158.9460   -34.3980     7.3700   -33.1020    64.7900    96.6710   109.1290    17.2370     2.1530 
  167.0000   159.0530   -34.4630     7.3730   -33.1870    64.2670    96.1650   108.1640    16.5440     2.1590 
  167.1250   159.1600   -34.5280     7.3750   -33.0140    63.4200    91.8590   102.4470    19.7380     2.1600 
  167.2500   159.2660   -34.5930     7.3780   -32.8410    63.0470    81.6050    89.8410    25.5900     2.1640 
  167.3750   159.3730   -34.6580     7.3800   -32.7860    65.6510    68.5090    74.3180    34.7250     2.1880 
  167.5000   159.4800   -34.7240     7.3820   -32.7040    69.1090    55.5310    59.0470    48.2000     2.2230 
  167.6250   159.5860   -34.7890     7.3840   -32.4560    71.7870    46.6050    48.9400    54.1560     2.2470 
  167.7500   159.6930   -34.8540     7.3870   -32.1550    71.4590    42.4790    44.2280    48.5730     2.2450 
  167.8750   159.7990   -34.9190     7.3890   -32.0120    70.4970    41.0940    42.5310    42.7220     2.2270 
  168.0000   159.9060   -34.9850     7.3910   -31.9920    69.2600    42.6090    43.9150    39.9650     2.2130 
  168.1250   160.0130   -35.0500     7.3930   -31.9500    69.2910    45.3770    46.5530    36.8880     2.2050 
  168.2500   160.1190   -35.1150     7.3960   -31.7880    70.2250    48.1200    49.1250    35.7370     2.2020 
  168.3750   160.2260   -35.1810     7.3980   -31.4170    71.9470    48.4170    48.9670    38.4830     2.2020 
  168.5000   160.3320   -35.2460     7.4010   -30.9070    72.9430    45.5150    45.5330    41.0280     2.2160 
  168.6250   160.4390   -35.3110     7.4040   -30.4100    74.5510    40.7110    40.3220    39.3730     2.2370 
  168.7500   160.5450   -35.3770     7.4070   -29.9710    76.1420    35.5490    34.8670    34.2650     2.2550 
  168.8750   160.6520   -35.4420     7.4100   -29.5670    78.5410    31.6710    30.9050    27.7110     2.2620 
  169.0000   160.7580   -35.5070     7.4130   -29.1850    78.5180    30.2190    29.5580    22.1760     2.2600 
  169.1250   160.8650   -35.5730     7.4160   -28.8780    76.6210    32.0090    31.5680    21.3280     2.2510 
  169.2500   160.9710   -35.6380     7.4190   -28.6930    73.4980    36.5620    36.4030    24.6060     2.2390 
  169.3750   161.0780   -35.7030     7.4220   -28.6260    70.6450    42.9350    43.0110    31.1330     2.2220 
  169.5000   161.1840   -35.7690     7.4250   -28.6250    69.4680    48.9610    49.1580    43.8430     2.2150 
  169.6250   161.2910   -35.8340     7.4280   -28.7000    70.1310    52.2880    52.3180    59.1440     2.2030 
  169.7500   161.3980   -35.8990     7.4320   -28.8840    72.1030    51.5530    51.3700    57.2840     2.1900 
  169.8750   161.5040   -35.9640     7.4350   -29.1800    73.2080    47.3500    46.9650    33.3430     2.1710 
  170.0000   161.6110   -36.0300     7.4380   -29.5020    73.8420    41.3760    41.0070    14.3510     2.1690 
  170.1250   161.7170   -36.0950     7.4410   -29.7860    73.9920    36.3200    36.2170     9.9480     2.1860 
  170.2500   161.8240   -36.1600     7.4440   -30.0270    74.1680    33.6470    34.0050     8.3860     2.2040 
  170.3750   161.9300   -36.2260     7.4470   -30.2440    72.5350    34.4410    35.4690     7.4280     2.2040 
  170.5000   162.0370   -36.2910     7.4490   -30.4710    70.0230    38.9770    40.9700    12.1850     2.1810 
  170.6250   162.1430   -36.3560     7.4510   -30.7570    68.1490    48.7230    52.3320    25.6830     2.1580 
  170.7500   162.2500   -36.4220     7.4540   -31.1090    67.9500    64.2060    69.6180    40.7380     2.1470 
  170.8750   162.3570   -36.4870     7.4560   -31.4730    68.4400    80.2740    86.9100    49.4500     2.1490 
  171.0000   162.4630   -36.5520     7.4590   -31.7650    67.2320    92.7660   100.0810    50.3020     2.1640 
  171.1250   162.5700   -36.6170     7.4610   -31.9280    65.1800    98.2370   105.2030    39.9090     2.1870 
  171.2500   162.6760   -36.6830     7.4640   -31.9590    63.9890    95.9740   102.3460    26.5280     2.2140 
  171.3750   162.7830   -36.7480     7.4670   -31.8530    66.1670    90.7540    96.6360    28.6060     2.2310 
  171.5000   162.8890   -36.8130     7.4700   -31.6650    68.1520    83.7830    88.9310    44.1510     2.2390 
  171.6250   162.9960   -36.8790     7.4730   -31.4760    69.5000    76.2990    80.7800    57.5920     2.2250 
  171.7500   163.1020   -36.9440     7.4760   -31.3500    68.9490    69.5480    73.3010    60.2140     2.2050 
  171.8750   163.2090   -37.0090     7.4790   -31.2800    69.8880    63.9580    67.0960    52.9820     2.1910 
  172.0000   163.3150   -37.0750     7.4810   -31.1940    70.6270    60.1480    62.8890    44.3830     2.1840 
  172.1250   163.4220   -37.1400     7.4840   -31.0240    71.1150    57.9720    60.4220    39.4240     2.1780 
  172.2500   163.5290   -37.2050     7.4870   -30.7710    70.7010    57.1100    59.3370    38.2680     2.1730 
  172.3750   163.6350   -37.2700     7.4900   -30.4780    71.1920    56.9950    58.9090    44.9930     2.1800 
  172.5000   163.7420   -37.3360     7.4930   -30.2110    71.9650    57.1020    58.5670    47.2800     2.1900 
  172.6250   163.8480   -37.4010     7.4960   -30.0110    72.7890    57.8560    59.0380    33.0970     2.1920 
  172.7500   163.9550   -37.4660     7.4980   -29.8820    71.9130    59.2820    60.1800    22.6900     2.1890 
  172.8750   164.0620   -37.5310     7.5010   -29.8090    71.0970    60.5250    61.2540    21.0860     2.1870 
  173.0000   164.1680   -37.5960     7.5030   -29.7850    70.8020    61.5410    62.3530    17.9740     2.1860 
  173.1250   164.2750   -37.6610     7.5050   -29.7910    71.9780    61.5600    62.4140    16.5150     2.1800 
  173.2500   164.3820   -37.7260     7.5080   -29.7500    73.3380    59.9190    60.8500    15.7590     2.1820 
  173.3750   164.4890   -37.7910     7.5100   -29.6070    74.0610    57.2470    58.4100    12.6360     2.1960 
  173.5000   164.5950   -37.8560     7.5120   -29.3750    74.4210    54.9540    56.4900    10.8420     2.2230 
  173.6250   164.7020   -37.9210     7.5140   -29.0940    75.1450    54.2950    56.5320    14.2890     2.2630 
  173.7500   164.8090   -37.9860     7.5160   -28.8040    75.5860    56.5160    59.8010    21.3060     2.3300 
  173.8750   164.9160   -38.0500     7.5190   -28.5030    73.9290    61.2030    65.8220    26.7120     2.4220 
  174.0000   165.0230   -38.1150     7.5210   -28.1540    70.0830    68.9020    75.4020    26.6440     2.5110 
  174.1250   165.1300   -38.1800     7.5230   -27.7240    65.4720    80.5580    89.7190    22.8760     2.5690 
  174.2500   165.2370   -38.2450     7.5250   -27.2420    62.2640    94.9750   107.1300    18.8710     2.6010 
  174.3750   165.3440   -38.3100     7.5270   -26.8070    60.4910   109.4360   124.8930    16.0890     2.6270 
  174.5000   165.4500   -38.3740     7.5290   -26.2220    60.5550   121.7820   140.9080    15.1570     2.6460 
  174.6250   165.5570   -38.4390     7.5310   -25.6930    60.6300   132.0070   155.3520    14.8100     2.6580 
  174.7500   165.6640   -38.5040     7.5330   -25.0760    60.6130   141.4270   170.8980    13.3030     2.6580 
  174.8750   165.7710   -38.5690     7.5350   -24.4940    59.7580   142.8930   175.0200    11.0950     2.6710 
  175.0000   165.8780   -38.6330     7.5370   -23.9500    60.0720   120.3460   146.2940    11.3260     2.6860 
  175.1250   165.9850   -38.6980     7.5390   -23.3720    59.6100    84.4060   102.0630    15.7100     2.6740 
  175.2500   166.0920   -38.7630     7.5410   -22.7800    59.0200    44.2840    50.3160    19.5990     2.6100 
  175.3750   166.1990   -38.8280     7.5430   -22.3240    59.0600    17.9050    20.0150    17.9320     2.5100 
  175.5000   166.3060   -38.8920     7.5450   -21.9390    61.2220     9.4340    10.6440    12.0870     2.4210 
  175.6250   166.4130   -38.9570     7.5470   -21.4820    62.5480     6.3850     7.1810     6.4580     2.3590 
  175.7500   166.5190   -39.0220     7.5500   -21.1830    61.6700     4.9590     5.6130     4.0060     2.3170 
  175.8750   166.6260   -39.0870     7.5520   -20.8680    60.9890     4.4100     5.0690     3.9610     2.2910 
