~V
VERS. 2.00: Ver 2.00
~W
STRT.M 33.0000:
STOP.M 273.0000:
STEP.M 0.1250:
NULL. -999.2500:
UWI. FD10880:
~C
DEPT.M :
TVD. :
DX. :
DY. :
SP.MV :
GR.API :
RI. :
RML.OHMM :
RXO.OHMM :
DEN.GM/CC :
~A
# ...
  197.2500   185.0500    54.6700    10.6780   -14.6130    57.0530    13.6940    14.7310    22.3740     2.3030 
  197.3750   185.1590    54.7300    10.6910   -14.3640    57.1840    13.3380    14.2490    21.6340     2.2650 
  197.5000   185.2680    54.7900    10.7030   -14.2300    57.4180    12.9080    13.7070    18.1470     2.2180 
  197.6250   185.3770    54.8500    10.7160   -14.1910    56.9250    12.5510    13.2910    16.8940     2.1870 
  197.7500   185.4860    54.9100    10.7290   -14.1080    56.0440    12.2840    12.9780    18.0760     2.1840 
  197.8750   185.5950    54.9690    10.7420   -14.0450    55.4270    12.1330    12.7830    15.7320     2.1960 
  198.0000   185.7040    55.0290    10.7540   -13.7690    56.1410    11.9080    12.5190    13.7650     2.2090 
  198.1250   185.8130    55.0890    10.7670   -13.0750    57.0220    11.5740    12.1540    13.6230     2.2150 
  198.2500   185.9220    55.1490    10.7790   -11.9780    57.7170    11.1370    11.6780    14.1560     2.2120 
  198.3750   186.0310    55.2090    10.7920   -10.8370    57.8640    10.6670    11.1910    16.5760     2.2020 
  198.5000   186.1400    55.2680    10.8040   -10.0730    57.3080    10.2630    10.7840    17.6320     2.1900 
  198.6250   186.2500    55.3280    10.8170    -9.8510    59.3270     9.9330    10.4410    15.0030     2.1820 
  198.7500   186.3590    55.3880    10.8290   -10.0900    63.2570     9.7680    10.2500    13.2630     2.1800 
  198.8750   186.4680    55.4480    10.8420   -10.4200    66.0220     9.6980    10.1530    12.4270     2.1810 
  199.0000   186.5770    55.5070    10.8550   -10.6710    65.6930     9.7030    10.1870    10.5960     2.1840 
  199.1250   186.6860    55.5670    10.8680   -10.5050    64.6010     9.7180    10.2310    10.9920     2.1880 
  199.2500   186.7950    55.6270    10.8800    -9.7740    63.5700     9.6820    10.2500    13.0690     2.1970 
  199.3750   186.9040    55.6860    10.8930    -8.9110    61.8640     9.6160    10.2200    13.5110     2.2140 
  199.5000   187.0130    55.7460    10.9060    -8.1590    59.3790     9.5340    10.1330    13.4070     2.2340 
  199.6250   187.1220    55.8060    10.9180    -7.3990    57.6560     9.4300    10.0310    13.9020     2.2400 
  199.7500   187.2310    55.8660    10.9310    -6.7280    58.2780     9.3020     9.8930    13.9450     2.2250 
  199.8750   187.3400    55.9260    10.9440    -6.4500    59.5700     9.1770     9.7550    13.5240     2.2010 
  200.0000   187.4490    55.9850    10.9560    -6.5140    59.1590     9.1450     9.7350    13.1730     2.1850 
  200.1250   187.5580    56.0450    10.9690    -6.6190    59.3390     9.2370     9.8530    13.3540     2.1830 
  200.2500   187.6670    56.1050    10.9820    -6.7020    60.6320     9.4210    10.0560    13.5790     2.1880 
  200.3750   187.7760    56.1650    10.9940    -6.7850    60.6590     9.6650    10.3280    13.6970     2.1920 
  200.5000   187.8850    56.2250    11.0070    -6.9970    59.0090     9.8760    10.5720    14.1660     2.1900 
  200.6250   187.9940    56.2850    11.0200    -7.3480    59.2720     9.9370    10.6350    14.4550     2.1830 
  200.7500   188.1030    56.3440    11.0330    -7.7090    60.7210     9.7900    10.4480    14.3810     2.1730 
  200.8750   188.2120    56.4040    11.0450    -8.0740    61.4900     9.4370    10.0670    14.5030     2.1680 
  201.0000   188.3210    56.4640    11.0580    -8.3180    61.8380     9.0370     9.6270    14.0820     2.1690 
  201.1250   188.4300    56.5240    11.0710    -8.2470    62.3620     8.7360     9.3410    13.3550     2.1750 
  201.2500   188.5390    56.5840    11.0840    -7.6200    62.0480     8.5930     9.2450    14.5270     2.1800 
  201.3750   188.6480    56.6440    11.0970    -6.6900    60.8050     8.5010     9.1780    16.6190     2.1810 
  201.5000   188.7570    56.7030    11.1100    -5.8160    59.7380     8.4130     9.1010    16.5160     2.1840 
  201.6250   188.8660    56.7630    11.1230    -5.4190    59.2780     8.3000     8.9910    14.5960     2.1960 
  201.7500   188.9750    56.8230    11.1360    -5.7040    60.2700     8.1850     8.8850    13.3280     2.2160 
  201.8750   189.0840    56.8830    11.1490    -6.3340    61.3260     8.0920     8.8180    12.4160     2.2310 
  202.0000   189.1930    56.9430    11.1620    -6.9790    62.9780     8.0070     8.7630    11.6730     2.2320 
  202.1250   189.3020    57.0020    11.1750    -7.4190    63.8690     7.9950     8.8130    12.5750     2.2270 
  202.2500   189.4110    57.0620    11.1880    -7.3860    62.6910     8.0340     8.9040    14.0480     2.2250 
  202.3750   189.5200    57.1220    11.2010    -6.9550    61.1290     8.1100     9.0350    13.8550     2.2270 
  202.5000   189.6290    57.1820    11.2130    -6.5020    62.3560     8.1650     9.1220    12.9010     2.2310 
  202.6250   189.7380    57.2410    11.2260    -6.1720    65.3910     8.1710     9.1500    13.3230     2.2370 
  202.7500   189.8470    57.3010    11.2390    -5.9480    67.0490     8.1380     9.1300    13.9660     2.2490 
  202.8750   189.9560    57.3610    11.2520    -5.9410    67.4400     8.0360     9.0410    13.8350     2.2620 
  203.0000   190.0660    57.4210    11.2650    -6.1500    67.0220     7.8920     8.8900    13.8870     2.2660 
  203.1250   190.1750    57.4800    11.2780    -6.4670    65.1000     7.6940     8.6650    13.2980     2.2650 
  203.2500   190.2840    57.5400    11.2900    -6.7750    63.1380     7.5840     8.5630    12.7390     2.2630 
  203.3750   190.3930    57.6000    11.3030    -6.8870    63.0560     7.6230     8.6310    13.5810     2.2590 
  203.5000   190.5020    57.6600    11.3160    -6.8110    65.5710     7.8100     8.8640    14.0860     2.2470 
  203.6250   190.6110    57.7190    11.3290    -6.7510    67.3520     8.0730     9.1710    14.0490     2.2320 
  203.7500   190.7200    57.7790    11.3420    -6.7620    65.9790     8.3490     9.5170    14.5380     2.2240 
  203.8750   190.8290    57.8390    11.3550    -6.7280    63.2330     8.5780     9.8300    14.7650     2.2260 
  204.0000   190.9380    57.8980    11.3680    -6.8620    61.7660     8.6700     9.9720    14.3960     2.2290 
  204.1250   191.0470    57.9580    11.3810    -7.0770    62.0220     8.5680     9.8730    14.6400     2.2260 
  204.2500   191.1560    58.0180    11.3940    -6.8870    62.8100     8.3530     9.5830    15.7970     2.2200 
  204.3750   191.2650    58.0780    11.4070    -6.2290    64.1070     8.0920     9.2320    16.3200     2.2190 
  204.5000   191.3740    58.1370    11.4200    -5.3920    65.1690     7.9040     8.9800    15.4000     2.2260 
  204.6250   191.4830    58.1970    11.4330    -4.7610    65.5420     7.8510     8.9150    13.7570     2.2340 
  204.7500   191.5920    58.2570    11.4470    -4.7220    66.4730     7.9860     9.0920    12.7750     2.2310 
  204.8750   191.7010    58.3160    11.4600    -5.3200    66.7480     8.2630     9.4440    13.3350     2.2170 
  205.0000   191.8100    58.3760    11.4730    -6.3070    65.3400     8.5720     9.8310    14.5550     2.2030 
  205.1250   191.9190    58.4360    11.4860    -7.3580    64.7270     8.8020    10.1180    15.5100     2.2020 
  205.2500   192.0280    58.4960    11.4990    -8.0130    66.7730     8.9020    10.2590    15.9990     2.2100 
  205.3750   192.1370    58.5550    11.5120    -7.9790    68.3560     8.8470    10.2030    15.6990     2.2160 
  205.5000   192.2460    58.6150    11.5250    -7.4840    68.1630     8.6810    10.0080    15.1870     2.2180 
  205.6250   192.3550    58.6750    11.5380    -6.9990    66.3520     8.4960     9.7900    15.2130     2.2190 
  205.7500   192.4640    58.7350    11.5510    -6.5970    63.4420     8.3660     9.6360    15.5070     2.2200 
  205.8750   192.5730    58.7940    11.5640    -6.2290    60.7440     8.3460     9.6250    15.1260     2.2170 
  206.0000   192.6820    58.8540    11.5770    -5.9680    60.3530     8.4220     9.7350    14.5160     2.2140 
  206.1250   192.7910    58.9140    11.5900    -5.8160    61.6220     8.5080     9.8400    15.0550     2.2170 
  206.2500   192.9000    58.9740    11.6030    -5.6310    62.9350     8.6060     9.9200    15.6580     2.2280 
