~V
VERS. 2.00: Ver 2.00
~W
STRT.M 27.0000:
STOP.M 267.0000:
STEP.M 0.1250:
NULL. -999.2500:
UWI. FD10204:
~C
DEPT.M :
TVD. :
DX. :
DY. :
GR.API :
RML.OHMM :
RI. :
RXO.OHMM :
CALI.CM :
SP.MV :
DEN.GM/CC :
~A
# ...
  183.7500   178.5640   -11.1030   -30.3220    54.8050   246.2340   175.5590    13.8070    21.5090   -24.3040     2.3230 
  183.8750   178.6810   -11.1190   -30.3630    55.7970   293.1170   194.5740    14.0650    21.5050   -24.4760     2.2830 
  184.0000   178.7990   -11.1350   -30.4030    58.3870   314.6040   202.1430    14.0680    21.5040   -24.5970     2.2460 
  184.1250   178.9160   -11.1520   -30.4430    62.0100   319.0870   202.9960    14.1830    21.5040   -24.7030     2.2220 
  184.2500   179.0330   -11.1680   -30.4830    63.3000   311.6970   200.0980    14.7520    21.5050   -24.8250     2.2070 
  184.3750   179.1500   -11.1840   -30.5230    61.4430   279.5830   189.2120    16.5270    21.5090   -24.9290     2.1990 
  184.5000   179.2680   -11.2000   -30.5630    58.5680   219.2660   166.1110    19.1320    21.5140   -25.0050     2.1950 
  184.6250   179.3850   -11.2160   -30.6030    58.6140   153.5590   133.0830    19.9800    21.5090   -25.0810     2.1940 
  184.7500   179.5020   -11.2320   -30.6430    61.5200   104.6530   101.5280    17.9690    21.5040   -25.1900     2.1950 
  184.8750   179.6200   -11.2480   -30.6840    65.3810    74.6170    77.7710    15.3440    21.5040   -25.3180     2.1970 
  185.0000   179.7370   -11.2640   -30.7240    68.1010    58.8160    63.3080    13.4690    21.5070   -25.4120     2.1980 
  185.1250   179.8540   -11.2800   -30.7640    68.6540    53.1460    57.4580    13.6920    21.5090   -25.4350     2.2030 
  185.2500   179.9710   -11.2960   -30.8040    69.4990    52.3430    56.2940    15.0130    21.5110   -25.4610     2.2210 
  185.3750   180.0890   -11.3130   -30.8440    69.9620    54.3630    58.0220    16.2990    21.5130   -25.5140     2.2500 
  185.5000   180.2060   -11.3290   -30.8840    69.0380    57.6490    61.2450    17.1460    21.5190   -25.5580     2.2790 
  185.6250   180.3230   -11.3450   -30.9240    68.3330    60.7920    64.5900    18.1140    21.5140   -25.5690     2.2900 
  185.7500   180.4410   -11.3610   -30.9650    68.5060    63.2340    67.2410    19.8900    21.4900   -25.5360     2.2830 
  185.8750   180.5580   -11.3770   -31.0050    67.9780    65.3340    69.3140    19.9190    21.4710   -25.4560     2.2690 
  186.0000   180.6750   -11.3930   -31.0450    65.0340    67.6990    71.3040    18.3430    21.4800   -25.3920     2.2590 
  186.1250   180.7920   -11.4090   -31.0850    61.1250    70.4500    73.3950    16.3390    21.5040   -25.3840     2.2600 
  186.2500   180.9100   -11.4250   -31.1250    60.4600    72.8020    75.0920    14.4000    21.5110   -25.3880     2.2640 
  186.3750   181.0270   -11.4410   -31.1650    62.8560    73.8220    75.6990    13.1310    21.5050   -25.3920     2.2640 
  186.5000   181.1440   -11.4570   -31.2050    65.6820    72.8320    74.6760    12.7660    21.5030   -25.4390     2.2610 
  186.6250   181.2620   -11.4740   -31.2460    67.0870    69.6310    71.7800    12.6420    21.5040   -25.5180     2.2580 
  186.7500   181.3790   -11.4900   -31.2860    67.9200    65.5450    68.0190    12.0430    21.5090   -25.5940     2.2540 
  186.8750   181.4960   -11.5060   -31.3260    68.5710    61.7870    64.3620    11.2940    21.5140   -25.6700     2.2500 
  187.0000   181.6130   -11.5220   -31.3660    67.2420    59.4000    61.7040    10.7160    21.5140   -25.7620     2.2470 
  187.1250   181.7310   -11.5380   -31.4060    64.2000    59.3740    60.9400    10.2630    21.5090   -25.8970     2.2460 
  187.2500   181.8480   -11.5540   -31.4460    62.1770    61.3780    61.8840    10.1250    21.5080   -26.0420     2.2500 
  187.3750   181.9650   -11.5700   -31.4860    60.8540    64.9200    64.1750    10.2100    21.5080   -26.1730     2.2570 
  187.5000   182.0830   -11.5860   -31.5260    61.0380    69.2600    67.2250    10.4550    21.5080   -26.2490     2.2670 
  187.6250   182.2000   -11.6020   -31.5670    63.2840    73.5580    70.3610    10.6550    21.5110   -26.2670     2.2770 
  187.7500   182.3170   -11.6180   -31.6070    66.0660    77.3310    73.1380    10.7500    21.5140   -26.2910     2.2840 
  187.8750   182.4340   -11.6350   -31.6470    66.6500    80.6750    75.5730    10.7000    21.5120   -26.3290     2.2880 
  188.0000   182.5520   -11.6510   -31.6870    63.5500    84.0850    78.0030    10.6510    21.5080   -26.3760     2.2860 
  188.1250   182.6690   -11.6670   -31.7270    60.7230    88.3000    80.9630    10.6300    21.5060   -26.4040     2.2790 
  188.2500   182.7860   -11.6830   -31.7670    59.9120    93.4530    84.5850    10.5020    21.5070   -26.4120     2.2700 
  188.3750   182.9030   -11.6990   -31.8070    61.0370    99.1840    88.6490    10.2790    21.5090   -26.4010     2.2600 
  188.5000   183.0210   -11.7150   -31.8480    63.2620   104.5480    92.5250    10.2440    21.5100   -26.3620     2.2520 
  188.6250   183.1380   -11.7310   -31.8880    65.4010   107.7760    95.0310    10.5030    21.5080   -26.2810     2.2490 
  188.7500   183.2550   -11.7470   -31.9280    67.2030   108.0360    95.6110    10.7350    21.5050   -26.1690     2.2490 
  188.8750   183.3730   -11.7630   -31.9680    67.6290   104.4610    93.6860    10.8090    21.5050   -26.0620     2.2530 
  189.0000   183.4900   -11.7790   -32.0080    66.9570    95.8450    88.2880    10.8030    21.5070   -25.9580     2.2560 
  189.1250   183.6070   -11.7960   -32.0480    66.0920    81.2650    78.1080    10.6620    21.5100   -25.8630     2.2540 
  189.2500   183.7240   -11.8120   -32.0880    64.7740    64.6950    65.4160    10.6360    21.5140   -25.7720     2.2500 
  189.3750   183.8420   -11.8280   -32.1290    63.3600    50.0580    53.1110    10.7100    21.5160   -25.6710     2.2460 
  189.5000   183.9590   -11.8440   -32.1690    63.0030    39.8290    43.6030    10.6560    21.5150   -25.6030     2.2460 
  189.6250   184.0760   -11.8600   -32.2090    65.9110    35.6060    38.7570    10.2170    21.5140   -25.6440     2.2490 
  189.7500   184.1940   -11.8760   -32.2490    70.3000    36.4230    38.1670     9.7570    21.5170   -25.7520     2.2560 
  189.8750   184.3110   -11.8920   -32.2890    72.6420    42.2010    41.8690     9.7480    21.5160   -25.8650     2.2670 
  190.0000   184.4280   -11.9080   -32.3290    72.4900    53.1550    49.9980    10.1610    21.4510   -25.9560     2.2810 
  190.1250   184.5450   -11.9240   -32.3690    70.2000    70.4810    63.1700    10.3280    21.3560   -26.0230     2.2930 
  190.2500   184.6630   -11.9400   -32.4090    67.0150    92.4300    79.3080    10.1040    21.3470   -26.1110     2.2970 
  190.3750   184.7800   -11.9560   -32.4500    63.8950   116.0650    95.6120     9.7550    21.4350   -26.2310     2.2960 
  190.5000   184.8970   -11.9730   -32.4900    60.6670   136.9920   109.0090     9.7130    21.5210   -26.3820     2.2940 
  190.6250   185.0150   -11.9890   -32.5300    58.5960   151.1720   117.4060     9.9210    21.5200   -26.5370     2.2970 
  190.7500   185.1320   -12.0050   -32.5700    57.9040   160.2120   122.3230    10.1510    21.5070   -26.7020     2.3010 
  190.8750   185.2490   -12.0210   -32.6100    58.5630   165.9740   124.9930    10.3350    21.5080   -26.8890     2.2970 
  191.0000   185.3660   -12.0370   -32.6500    59.6270   169.8040   126.3490    10.7750    21.5110   -27.0640     2.2820 
  191.1250   185.4840   -12.0530   -32.6900    58.9870   170.7100   126.1950    11.4920    21.5100   -27.2210     2.2610 
  191.2500   185.6010   -12.0690   -32.7310    57.1600   166.5360   123.7230    11.8410    21.5080   -27.3870     2.2420 
  191.3750   185.7180   -12.0850   -32.7710    55.8140   155.9520   118.1990    11.5400    21.5090   -27.5530     2.2290 
  191.5000   185.8360   -12.1010   -32.8110    56.3610   140.5160   110.0400    11.2760    21.5110   -27.6860     2.2200 
  191.6250   185.9530   -12.1170   -32.8510    58.6900   124.1300   100.8060    11.0300    21.5130   -27.7440     2.2170 
  191.7500   186.0700   -12.1340   -32.8910    61.0620   110.7530    92.7460    10.7350    21.5160   -27.7280     2.2170 
  191.8750   186.1870   -12.1500   -32.9310    62.0170   102.2470    87.3310    10.6280    21.5160   -27.6900     2.2220 
