~V
VERS. 2.00: Ver 2.00
~W
STRT.M 53.0000:
STOP.M 258.0000:
STEP.M 0.1250:
NULL. -999.2500:
UWI. FD10870:
~C
DEPT.M :
TVD. :
DX. :
DY. :
SP.MV :
GR.API :
RI. :
RML.OHMM :
RXO.OHMM :
DEN.GM/CC :
~A
# ...
  171.6250   167.3320   -23.3100    -1.6630    -2.6870    57.9000    14.9430    16.9600    15.2790     2.5570 
  171.7500   167.4430   -23.3620    -1.6360    -2.8680    58.2490    16.2590    18.2910    15.0870     2.5610 
  171.8750   167.5530   -23.4140    -1.6090    -3.1790    59.0860    17.1670    19.1740    16.4920     2.5690 
  172.0000   167.6640   -23.4660    -1.5820    -3.4210    58.0330    16.9560    18.8410    16.7310     2.5810 
  172.1250   167.7740   -23.5180    -1.5560    -3.5750    58.2730    15.8360    17.4890    17.4320     2.5750 
  172.2500   167.8850   -23.5700    -1.5290    -3.7640    59.2180    14.0590    15.3930    18.3240     2.5510 
  172.3750   167.9950   -23.6220    -1.5020    -3.8690    61.8090    12.3960    13.4500    15.6160     2.5130 
  172.5000   168.1050   -23.6740    -1.4760    -4.0310    62.2530    11.2740    12.1940    11.5130     2.4900 
  172.6250   168.2160   -23.7260    -1.4490    -4.3670    61.5200    10.7070    11.6280    10.0270     2.4910 
  172.7500   168.3260   -23.7790    -1.4220    -4.5910    62.1830    10.7000    11.7450    10.0760     2.5050 
  172.8750   168.4370   -23.8310    -1.3960    -4.6710    63.4550    11.0360    12.2160    11.7290     2.5220 
  173.0000   168.5470   -23.8830    -1.3690    -4.8380    65.0090    11.4030    12.6550    14.7160     2.5450 
  173.1250   168.6570   -23.9360    -1.3420    -5.1350    64.5680    11.5520    12.8000    13.9430     2.5720 
  173.2500   168.7670   -23.9880    -1.3160    -5.2660    64.8570    11.4790    12.6840    10.2490     2.5950 
  173.3750   168.8780   -24.0400    -1.2890    -5.3470    65.7430    11.2160    12.3940     8.8950     2.5840 
  173.5000   168.9880   -24.0930    -1.2620    -5.3780    67.8420    10.9140    12.0820     9.6150     2.5500 
  173.6250   169.0980   -24.1450    -1.2350    -5.2950    68.5660    10.6420    11.8130    10.4280     2.5040 
  173.7500   169.2080   -24.1980    -1.2080    -5.1330    68.3040    10.4240    11.6080    10.2610     2.4760 
  173.8750   169.3190   -24.2500    -1.1810    -4.9880    66.2850    10.3040    11.5170     9.5910     2.4830 
  174.0000   169.4290   -24.3030    -1.1540    -4.6660    66.0590    10.3790    11.6950    15.4490     2.5150 
  174.1250   169.5390   -24.3550    -1.1270    -4.3550    66.0760    10.8770    12.3970    22.7700     2.5670 
  174.2500   169.6490   -24.4080    -1.1000    -4.2320    66.6160    11.7900    13.5810    18.0840     2.6040 
  174.3750   169.7590   -24.4600    -1.0730    -4.1860    64.9040    13.0470    15.1500    12.9370     2.6060 
  174.5000   169.8690   -24.5130    -1.0450    -4.1740    62.1880    14.4180    16.8000    16.6130     2.5670 
  174.6250   169.9790   -24.5650    -1.0180    -4.0500    60.5780    15.8990    18.5230    19.1330     2.5220 
  174.7500   170.0890   -24.6180    -0.9900    -3.8450    61.6260    17.2270    20.0170    17.0780     2.5090 
  174.8750   170.1990   -24.6700    -0.9630    -3.7310    63.8730    18.3250    21.2640    14.9660     2.5380 
  175.0000   170.3100   -24.7230    -0.9350    -3.5570    64.7480    19.2300    22.3350    18.8370     2.5770 
  175.1250   170.4200   -24.7750    -0.9070    -3.3840    66.1370    19.8390    23.0860    26.2400     2.6110 
  175.2500   170.5300   -24.8280    -0.8800    -3.3300    68.1020    20.1660    23.4920    25.8060     2.6260 
  175.3750   170.6400   -24.8800    -0.8520    -3.2800    71.3810    19.9210    23.2070    19.0180     2.6250 
  175.5000   170.7500   -24.9320    -0.8250    -3.2520    72.7410    19.2020    22.3920    15.6900     2.5980 
  175.6250   170.8600   -24.9850    -0.7970    -3.2970    74.8530    18.2410    21.3100    16.5580     2.5600 
  175.7500   170.9700   -25.0380    -0.7700    -3.3870    76.9100    17.2920    20.2440    17.8750     2.5300 
  175.8750   171.0800   -25.0900    -0.7430    -3.3800    79.5890    16.6890    19.6060    16.7080     2.5130 
  176.0000   171.1900   -25.1430    -0.7150    -3.4480    81.1600    16.5950    19.6310    14.6060     2.4970 
  176.1250   171.3000   -25.1960    -0.6880    -3.3990    82.8360    17.0340    20.3460    14.1960     2.4780 
  176.2500   171.4100   -25.2480    -0.6610    -3.2750    83.8700    17.9230    21.5860    14.9570     2.4630 
  176.3750   171.5200   -25.3010    -0.6340    -3.2740    83.8170    19.2210    23.2260    19.5440     2.4520 
  176.5000   171.6300   -25.3540    -0.6080    -3.3300    83.8150    20.6480    24.8510    27.4780     2.4310 
  176.6250   171.7410   -25.4060    -0.5810    -3.4450    85.9620    21.9360    26.1920    29.6650     2.3990 
  176.7500   171.8510   -25.4590    -0.5540    -3.5870    87.7910    23.0880    27.3480    25.1180     2.3720 
  176.8750   171.9610   -25.5120    -0.5270    -3.8790    87.6700    24.3120    28.6660    27.2250     2.3640 
  177.0000   172.0710   -25.5640    -0.5000    -4.1060    86.1090    25.7540    30.2710    34.5280     2.3690 
  177.1250   172.1810   -25.6170    -0.4730    -4.2280    87.1270    27.2340    31.9690    35.4630     2.3770 
  177.2500   172.2910   -25.6700    -0.4460    -4.3130    88.5410    28.4360    33.3740    34.0070     2.3900 
  177.3750   172.4010   -25.7220    -0.4190    -4.3810    89.7700    28.7360    33.7680    30.7490     2.4090 
  177.5000   172.5120   -25.7750    -0.3920    -4.5500    89.2140    27.8690    32.8830    26.0690     2.4220 
  177.6250   172.6220   -25.8270    -0.3650    -4.8450    88.1060    25.4270    30.0390    26.7810     2.4330 
  177.7500   172.7320   -25.8800    -0.3380    -5.0720    86.1030    21.3770    25.1490    28.1610     2.4440 
  177.8750   172.8420   -25.9320    -0.3110    -5.1280    85.5640    16.5720    19.3170    24.9790     2.4690 
  178.0000   172.9520   -25.9850    -0.2830    -5.2830    87.6300    12.0930    13.8720    20.8870     2.4790 
  178.1250   173.0620   -26.0370    -0.2560    -5.5340    93.5210     9.1940    10.4190    15.2270     2.4690 
  178.2500   173.1720   -26.0900    -0.2280    -5.5000    99.0370     7.3580     8.3310     9.3130     2.4390 
  178.3750   173.2820   -26.1420    -0.2000    -5.4230   102.5570     6.7510     7.7470     7.0200     2.4200 
  178.5000   173.3920   -26.1950    -0.1720    -5.3670   101.6710     6.6020     7.6950     6.3410     2.4210 
  178.6250   173.5020   -26.2470    -0.1450    -5.1790    97.8130     6.7250     7.8980     6.2920     2.4360 
  178.7500   173.6120   -26.2990    -0.1170    -4.9060    93.0820     6.8580     8.0030     6.9610     2.4420 
  178.8750   173.7220   -26.3520    -0.0890    -4.6010    88.8560     6.7700     7.7710     7.4190     2.4370 
  179.0000   173.8320   -26.4040    -0.0610    -4.3500    83.2160     6.4450     7.2480     7.0320     2.4300 
  179.1250   173.9420   -26.4560    -0.0330    -4.1200    75.2320     5.9370     6.5440     6.3330     2.4380 
  179.2500   174.0520   -26.5090    -0.0050    -3.9130    66.9580     5.4170     5.8650     5.8140     2.4490 
  179.3750   174.1620   -26.5610     0.0230    -3.6640    61.2840     4.9800     5.3150     5.0950     2.4560 
  179.5000   174.2720   -26.6130     0.0510    -3.6040    58.8030     4.7410     5.0170     4.4580     2.4590 
  179.6250   174.3830   -26.6650     0.0790    -3.6430    61.3680     4.6780     4.9380     4.0390     2.4560 
  179.7500   174.4930   -26.7180     0.1060    -3.6690    68.1730     4.7140     4.9930     3.7680     2.4410 
  179.8750   174.6030   -26.7700     0.1330    -3.6180    78.6260     4.7680     5.0790     4.0090     2.4170 
  180.0000   174.7130   -26.8220     0.1610    -3.5840    88.2990     4.7640     5.0990     4.4960     2.4030 
  180.1250   174.8230   -26.8750     0.1880    -3.5060    93.6980     4.6910     5.0410     4.6540     2.4110 
  180.2500   174.9340   -26.9270     0.2140    -3.4790    94.5000     4.6060     4.9790     4.4230     2.4310 
  180.3750   175.0440   -26.9800     0.2410    -3.6430    91.3920     4.5600     4.9900     4.1210     2.4520 
  180.5000   175.1540   -27.0320     0.2670    -3.8420    88.6980     4.5770     5.0950     3.9470     2.4650 
  180.6250   175.2640   -27.0850     0.2940    -3.9300    87.2430     4.6400     5.2590     3.9460     2.4730 
