~V
VERS. 2.00: Ver 2.00
~W
STRT.M 22.0000:
STOP.M 238.0000:
STEP.M 0.1250:
NULL. -999.2500:
UWI. FD10612:
~C
DEPT.M :
TVD. :
DX. :
DY. :
GR.API :
RML.OHMM :
RI. :
RXO.OHMM :
CALI.CM :
DEN.GM/CC :
SP.MV :
~A
# ...
  170.5000   162.4960    31.7300    20.8010    65.9190    22.7710    21.0660    16.6170    22.3270     2.3200   -19.2720 
  170.6250   162.5970    31.7910    20.8380    62.0350    23.5630    21.7220    17.6310    22.3490     2.3250   -19.3010 
  170.7500   162.6990    31.8530    20.8750    57.2350    24.6230    22.6150    19.1080    22.4270     2.3440   -19.3130 
  170.8750   162.8010    31.9150    20.9120    54.9490    26.0390    23.8610    20.7130    22.5100     2.3750   -19.3750 
  171.0000   162.9030    31.9760    20.9490    55.6210    27.7630    25.4540    23.1980    22.5380     2.4120   -19.4790 
  171.1250   163.0050    32.0380    20.9860    57.4010    29.5650    27.2070    27.9440    22.5240     2.4450   -19.4290 
  171.2500   163.1070    32.1000    21.0230    57.6530    31.0940    28.7600    29.4880    22.4920     2.4650   -19.4290 
  171.3750   163.2090    32.1610    21.0600    54.5810    32.1040    29.8490    27.8710    22.4510     2.4720   -19.5530 
  171.5000   163.3110    32.2230    21.0970    51.3440    32.4790    30.3580    25.7480    22.3890     2.4720   -19.7350 
  171.6250   163.4130    32.2850    21.1340    51.5380    32.1350    30.2290    24.2240    22.3630     2.4660   -19.8910 
  171.7500   163.5150    32.3470    21.1710    53.2770    31.2390    29.6200    24.3020    22.3650     2.4570   -20.1080 
  171.8750   163.6170    32.4080    21.2080    53.9730    29.9710    28.5630    24.7740    22.3840     2.4430   -20.2750 
  172.0000   163.7190    32.4700    21.2450    54.3930    28.5400    27.0910    24.7920    22.3870     2.4250   -20.3150 
  172.1250   163.8210    32.5320    21.2820    56.0440    27.0040    25.3070    22.8980    22.3410     2.4100   -20.4550 
  172.2500   163.9230    32.5930    21.3190    57.1450    25.4220    23.5590    18.9130    22.2660     2.3990   -20.5920 
  172.3750   164.0250    32.6550    21.3560    56.7240    24.0490    22.1590    16.9240    22.1780     2.3910   -20.6350 
  172.5000   164.1270    32.7170    21.3930    55.1060    23.2610    21.3430    17.3170    22.1110     2.3840   -20.6380 
  172.6250   164.2290    32.7780    21.4300    55.0980    23.3890    21.3570    19.0090    22.1120     2.3740   -20.5900 
  172.7500   164.3310    32.8400    21.4670    57.0580    24.2200    22.0740    21.4580    22.1640     2.3610   -20.5550 
  172.8750   164.4330    32.9020    21.5040    58.3400    25.5750    23.3730    24.3660    22.2360     2.3440   -20.6190 
  173.0000   164.5350    32.9630    21.5410    57.7720    27.1910    25.0290    26.1220    22.2690     2.3250   -20.7700 
  173.1250   164.6370    33.0250    21.5780    56.8250    28.7360    26.7260    26.4680    22.2450     2.3100   -20.9020 
  173.2500   164.7390    33.0870    21.6150    57.0120    29.9880    28.1900    26.4950    22.1860     2.3060   -20.9930 
  173.3750   164.8410    33.1480    21.6520    56.7920    30.8820    29.3130    26.6450    22.1380     2.3140   -21.1090 
  173.5000   164.9430    33.2100    21.6890    55.5980    31.4730    30.1150    26.8850    22.1300     2.3290   -21.1840 
  173.6250   165.0450    33.2720    21.7260    56.2610    31.8750    30.6800    27.2870    22.1690     2.3440   -21.3140 
  173.7500   165.1470    33.3330    21.7630    56.9320    32.2210    31.1580    28.3490    22.1930     2.3510   -21.4860 
  173.8750   165.2490    33.3950    21.8000    55.9460    32.5090    31.5520    29.1410    22.2120     2.3530   -21.5710 
  174.0000   165.3510    33.4570    21.8370    55.1280    32.6430    31.7750    28.7720    22.2050     2.3520   -21.5890 
  174.1250   165.4530    33.5180    21.8740    57.0320    32.3950    31.6170    26.9450    22.1130     2.3510   -21.5170 
  174.2500   165.5550    33.5800    21.9110    59.4040    31.6610    30.9820    24.8030    21.9510     2.3520   -21.4030 
  174.3750   165.6570    33.6420    21.9480    60.3200    30.3940    29.8090    23.0060    21.7920     2.3520   -21.2710 
  174.5000   165.7590    33.7030    21.9850    60.7340    28.6900    28.1720    21.7410    21.6770     2.3510   -21.1920 
  174.6250   165.8610    33.7650    22.0220    62.0450    26.8300    26.3270    20.9770    21.6850     2.3470   -21.0330 
  174.7500   165.9630    33.8270    22.0590    63.7000    25.2670    24.7180    19.7680    21.7900     2.3440   -20.8200 
  174.8750   166.0650    33.8880    22.0960    66.3670    24.3930    23.7090    18.1580    21.9130     2.3390   -20.7430 
  175.0000   166.1670    33.9500    22.1330    68.7050    24.5350    23.6120    17.4540    21.9530     2.3320   -20.6710 
  175.1250   166.2690    34.0120    22.1700    66.3840    26.1190    24.8860    20.1660    21.8990     2.3170   -20.6170 
  175.2500   166.3710    34.0730    22.2070    62.7620    28.9510    27.4610    25.9370    21.8760     2.2940   -20.6130 
  175.3750   166.4730    34.1350    22.2440    60.5850    32.8030    31.2470    34.7060    21.8820     2.2700   -20.5460 
  175.5000   166.5740    34.1970    22.2810    58.8460    37.2060    35.8590    42.2230    21.8900     2.2500   -20.4890 
  175.6250   166.6760    34.2580    22.3180    56.1480    41.3860    40.4480    43.3280    21.8900     2.2420   -20.5710 
  175.7500   166.7780    34.3200    22.3550    54.5940    44.7030    44.0860    42.1810    21.8900     2.2470   -20.6130 
  175.8750   166.8800    34.3820    22.3920    55.4140    46.8870    46.3200    42.0360    21.8800     2.2630   -20.5980 
  176.0000   166.9820    34.4430    22.4290    55.7810    48.0230    47.2020    41.4870    21.8470     2.2890   -20.5960 
  176.1250   167.0840    34.5050    22.4660    54.9590    48.3550    47.0040    40.2400    21.7800     2.3260   -20.6910 
  176.2500   167.1860    34.5670    22.5020    54.5560    48.3720    46.3630    39.9990    21.7130     2.3670   -20.8320 
  176.3750   167.2880    34.6280    22.5390    54.9040    48.2910    45.6290    41.3390    21.6270     2.4040   -20.9600 
  176.5000   167.3900    34.6900    22.5760    56.0140    48.2290    45.0460    41.6930    21.5310     2.4250   -21.0680 
  176.6250   167.4920    34.7520    22.6130    57.5710    48.2270    44.8020    41.3720    21.5080     2.4160   -21.0640 
  176.7500   167.5940    34.8130    22.6500    58.0660    48.2410    44.8630    41.3730    21.5770     2.3830   -21.0640 
  176.8750   167.6960    34.8750    22.6870    56.4370    48.1870    45.1340    42.0270    21.7010     2.3370   -21.1010 
  177.0000   167.7980    34.9370    22.7240    53.5650    47.9580    45.4260    42.1980    21.8290     2.2930   -21.2250 
  177.1250   167.9000    34.9980    22.7610    52.2210    47.4620    45.4800    39.5350    21.9860     2.2640   -21.3040 
  177.2500   168.0020    35.0600    22.7980    52.7070    46.8320    45.2760    36.9640    22.0730     2.2490   -21.2460 
  177.3750   168.1040    35.1220    22.8350    53.8670    46.3000    44.9770    36.4150    22.0470     2.2430   -21.2380 
  177.5000   168.2060    35.1830    22.8720    55.8660    46.1470    44.8690    37.7680    21.8930     2.2400   -21.2750 
  177.6250   168.3080    35.2450    22.9090    57.0130    46.7320    45.3580    37.3510    21.7470     2.2380   -21.2980 
  177.7500   168.4100    35.3070    22.9460    55.9500    48.0140    46.5260    37.0420    21.6250     2.2420   -21.2750 
  177.8750   168.5120    35.3680    22.9830    55.0310    49.8410    48.2980    37.5170    21.5590     2.2570   -21.2640 
  178.0000   168.6140    35.4300    23.0200    56.0150    51.9170    50.3940    37.6180    21.4860     2.2790   -21.2750 
  178.1250   168.7160    35.4920    23.0570    56.8850    53.8040    52.3580    35.8200    21.3930     2.2940   -21.3600 
  178.2500   168.8180    35.5530    23.0940    55.9940    55.1940    53.8330    32.1510    21.3840     2.2910   -21.6140 
  178.3750   168.9200    35.6150    23.1310    55.7390    55.9470    54.6550    29.0610    21.4180     2.2730   -21.7200 
  178.5000   169.0220    35.6770    23.1680    57.0280    56.0870    54.8390    29.0490    21.4210     2.2500   -21.6390 
  178.6250   169.1240    35.7380    23.2050    56.4180    55.7260    54.5080    31.5830    21.4090     2.2360   -21.6660 
