~V
VERS. 2.00: Ver 2.00
~W
STRT.M 25.0000:
STOP.M 295.0000:
STEP.M 0.1250:
NULL. -999.2500:
UWI. FD10906:
~C
DEPT.M :
TVD. :
DX. :
DY. :
SP.MV :
GR.API :
RI. :
RML.OHMM :
RXO.OHMM :
DEN.GM/CC :
~A
# ...
  216.6250   192.9400   -80.8120     5.1820   -17.8800    84.1090     4.1080     5.0950     4.5170     2.3070 
  216.7500   193.0390   -80.8890     5.1860   -17.9460    84.4030     4.1240     5.1130     4.6160     2.3090 
  216.8750   193.1370   -80.9660     5.1900   -18.0300    83.8550     4.1410     5.1330     4.6350     2.3110 
  217.0000   193.2360   -81.0430     5.1940   -18.1320    83.3890     4.1790     5.1760     4.5610     2.3120 
  217.1250   193.3340   -81.1200     5.1980   -18.2510    81.3250     4.2480     5.2540     4.5240     2.3120 
  217.2500   193.4320   -81.1970     5.2010   -18.3800    79.7570     4.3510     5.3720     4.6150     2.3130 
  217.3750   193.5310   -81.2740     5.2050   -18.5190    81.0230     4.4870     5.5270     4.7450     2.3200 
  217.5000   193.6290   -81.3510     5.2090   -18.6720    85.9350     4.6700     5.7350     4.8420     2.3320 
  217.6250   193.7280   -81.4280     5.2120   -18.8320    87.8240     4.9250     6.0270     4.9820     2.3470 
  217.7500   193.8270   -81.5050     5.2160   -18.9850    86.4380     5.3120     6.4980     5.2110     2.3580 
  217.8750   193.9250   -81.5810     5.2190   -19.1060    82.3580     5.8810     7.2520     5.4490     2.3670 
  218.0000   194.0240   -81.6580     5.2220   -19.1760    80.7850     6.6920     8.3010     5.8510     2.3870 
  218.1250   194.1220   -81.7350     5.2260   -19.2000    78.1970     7.7340     9.5360     6.7450     2.4240 
  218.2500   194.2210   -81.8110     5.2300   -19.1930    75.2620     8.9780    11.0040     8.4810     2.4720 
  218.3750   194.3200   -81.8880     5.2340   -19.1690    71.4890    10.2630    12.5680    11.3770     2.5140 
  218.5000   194.4180   -81.9650     5.2370   -19.1220    70.1080    11.3270    13.8240    15.2020     2.5300 
  218.6250   194.5170   -82.0410     5.2410   -19.0510    70.1320    11.9510    14.4790    18.5570     2.5070 
  218.7500   194.6160   -82.1180     5.2450   -18.9580    69.9540    11.9890    14.3970    20.3140     2.4440 
  218.8750   194.7150   -82.1940     5.2490   -18.8570    69.4230    11.5690    13.7900    19.8170     2.3680 
  219.0000   194.8140   -82.2710     5.2520   -18.7520    70.6880    10.8830    12.9370    16.8250     2.3130 
  219.1250   194.9130   -82.3470     5.2550   -18.6400    74.8530    10.1740    12.1200    13.6330     2.2890 
  219.2500   195.0110   -82.4230     5.2590   -18.5190    79.4960     9.6000    11.4990    12.1820     2.2880 
  219.3750   195.1100   -82.5000     5.2630   -18.3950    83.0570     9.2320    11.1190    11.6770     2.2920 
  219.5000   195.2090   -82.5760     5.2660   -18.2730    82.2360     9.1090    11.0130    11.0630     2.2940 
  219.6250   195.3080   -82.6520     5.2700   -18.1560    80.0710     9.1970    11.1560    10.4310     2.2940 
  219.7500   195.4070   -82.7280     5.2740   -18.0420    77.5650     9.4660    11.5190    10.1970     2.2990 
  219.8750   195.5060   -82.8050     5.2770   -17.9220    77.0820     9.7930    11.9430    10.2740     2.3190 
  220.0000   195.6050   -82.8810     5.2810   -17.7940    76.9500    10.0040    12.1890    10.6300     2.3560 
  220.1250   195.7040   -82.9570     5.2850   -17.6660    77.3230     9.9590    12.0850    11.5530     2.3920 
  220.2500   195.8040   -83.0330     5.2890   -17.5440    77.0170     9.5880    11.5600    12.8230     2.4010 
  220.3750   195.9030   -83.1090     5.2930   -17.4380    78.3290     8.9980    10.7760    13.3370     2.3790 
  220.5000   196.0020   -83.1850     5.2970   -17.3420    80.0090     8.3360     9.9430    12.4730     2.3450 
  220.6250   196.1010   -83.2610     5.3000   -17.2570    82.2670     7.7340     9.2270    11.1090     2.3230 
  220.7500   196.2000   -83.3370     5.3040   -17.2020    83.8290     7.2550     8.6860    10.3810     2.3230 
  220.8750   196.3000   -83.4130     5.3080   -17.1970    84.3230     6.8760     8.2650    10.3640     2.3360 
  221.0000   196.3990   -83.4890     5.3110   -17.2780    85.1640     6.5540     7.8940    10.1970     2.3550 
  221.1250   196.4980   -83.5640     5.3150   -17.4580    84.5310     6.2460     7.5160     9.4300     2.3720 
  221.2500   196.5980   -83.6400     5.3180   -17.7480    84.9590     5.9500     7.1330     8.7760     2.3830 
  221.3750   196.6970   -83.7160     5.3210   -18.1400    84.5910     5.6870     6.7790     8.7810     2.3840 
  221.5000   196.7960   -83.7920     5.3250   -18.6240    85.9610     5.4820     6.4910     8.5960     2.3720 
  221.6250   196.8960   -83.8670     5.3280   -19.1510    85.2160     5.3370     6.2790     7.7010     2.3500 
  221.7500   196.9950   -83.9430     5.3310   -19.6590    84.4350     5.2490     6.1350     6.9930     2.3300 
  221.8750   197.0940   -84.0190     5.3340   -20.0840    84.6230     5.1900     6.0260     6.8010     2.3190 
  222.0000   197.1940   -84.0950     5.3370   -20.3990    88.3110     5.1370     5.9290     6.4840     2.3140 
  222.1250   197.2930   -84.1700     5.3400   -20.6360    90.9950     5.0770     5.8340     6.0100     2.3070 
  222.2500   197.3930   -84.2460     5.3440   -20.8290    90.5280     5.0070     5.7440     5.7790     2.3010 
  222.3750   197.4920   -84.3220     5.3460   -21.0190    88.1140     4.9330     5.6600     5.7310     2.3020 
  222.5000   197.5920   -84.3970     5.3490   -21.2150    86.0660     4.8590     5.5910     5.7920     2.3070 
  222.6250   197.6910   -84.4730     5.3520   -21.4080    85.8230     4.7880     5.5360     5.9050     2.3090 
  222.7500   197.7910   -84.5480     5.3550   -21.5640    87.2270     4.7170     5.4910     5.9470     2.3070 
  222.8750   197.8900   -84.6240     5.3580   -21.6540    90.0460     4.6480     5.4480     5.8540     2.3080 
  223.0000   197.9900   -84.7000     5.3600   -21.6680    91.8920     4.6020     5.4200     5.6210     2.3120 
  223.1250   198.0890   -84.7750     5.3630   -21.6240    92.5270     4.6160     5.4500     5.3770     2.3160 
  223.2500   198.1890   -84.8510     5.3650   -21.5390    91.0690     4.7540     5.6170     5.2670     2.3210 
  223.3750   198.2880   -84.9260     5.3680   -21.4290    88.7680     5.0480     5.9750     5.2820     2.3260 
  223.5000   198.3880   -85.0020     5.3710   -21.2960    86.7250     5.5540     6.5930     5.5590     2.3270 
  223.6250   198.4880   -85.0770     5.3730   -21.1410    84.3960     6.2820     7.4750     6.7660     2.3140 
  223.7500   198.5870   -85.1530     5.3760   -20.9650    81.2010     7.2180     8.5890     9.4360     2.2810 
  223.8750   198.6870   -85.2280     5.3790   -20.7780    77.5940     8.2320     9.7730    12.0550     2.2480 
  224.0000   198.7860   -85.3040     5.3810   -20.6000    74.6410     9.1310    10.7960    12.9270     2.2400 
  224.1250   198.8860   -85.3800     5.3840   -20.4430    72.6620     9.7360    11.4580    12.9820     2.2600 
  224.2500   198.9850   -85.4550     5.3870   -20.2960    70.1320     9.9310    11.6270    13.5620     2.2860 
  224.3750   199.0850   -85.5310     5.3900   -20.1210    67.9140     9.7810    11.3820    14.3470     2.2900 
  224.5000   199.1840   -85.6060     5.3920   -19.8850    67.0330     9.3490    10.8000    14.1310     2.2720 
  224.6250   199.2840   -85.6820     5.3950   -19.6100    68.6880     8.7450    10.0190    12.6230     2.2510 
  224.7500   199.3830   -85.7570     5.3980   -19.3540    72.0110     8.0350     9.1290    10.9250     2.2440 
  224.8750   199.4830   -85.8330     5.4000   -19.1740    76.3580     7.3040     8.2250     9.9390     2.2490 
  225.0000   199.5830   -85.9080     5.4030   -19.1000    79.7390     6.6430     7.4070     9.1220     2.2620 
  225.1250   199.6820   -85.9840     5.4050   -19.1170    82.0990     6.1310     6.7670     7.9460     2.2770 
  225.2500   199.7820   -86.0600     5.4080   -19.2160    82.8180     5.8370     6.3950     6.8210     2.2890 
  225.3750   199.8810   -86.1350     5.4110   -19.3780    82.9700     5.7580     6.2900     6.1650     2.2890 
  225.5000   199.9810   -86.2110     5.4130   -19.6010    83.1230     5.8800     6.4220     6.0450     2.2770 
  225.6250   200.0800   -86.2860     5.4160   -19.8570    83.7180     6.1130     6.6650     6.4950     2.2620 
