~V
VERS. 2.00: Ver 2.00
~W
STRT.M 65.0000:
STOP.M 248.0000:
STEP.M 0.1250:
NULL. -999.2500:
UWI. FD10900:
~C
DEPT.M :
TVD. :
DX. :
DY. :
SP.MV :
GR.API :
RI. :
RML.OHMM :
RXO.OHMM :
DEN.GM/CC :
~A
   65.0000    65.0000     0.0000     0.0000    81.0350    46.6640     0.2880     0.2030    -0.0980     2.3950 
   65.1250    65.1250    -0.0020     0.0000    74.8900    51.7940     0.6940     0.4870     0.1750     2.3510 
   65.2500    65.2500    -0.0050    -0.0010    65.7480    55.5350     1.4490     1.0580     1.4700     2.3070 
   65.3750    65.3750    -0.0070    -0.0010    54.1670    58.9780     2.5070     1.9070     3.6980     2.2650 
   65.5000    65.5000    -0.0100    -0.0020    42.0020    61.4780     3.6500     2.8530     5.5570     2.2240 
   65.6250    65.6250    -0.0120    -0.0020    30.8740    63.2670     4.5700     3.6080     6.2380     2.1880 
   65.7500    65.7500    -0.0140    -0.0030    20.6760    63.6640     5.0850     3.9840     6.2490     2.1570 
   65.8750    65.8750    -0.0170    -0.0030    11.8090    63.9060     5.2850     4.0480     6.2390     2.1290 
   66.0000    66.0000    -0.0190    -0.0040     5.2360    63.7000     5.3460     3.9760     6.2210     2.1050 
   66.1250    66.1250    -0.0220    -0.0040     0.4760    63.2290     5.4200     3.9380     6.1280     2.0940 
   66.2500    66.2500    -0.0240    -0.0050    -3.0820    63.2730     5.5160     3.9650     6.0060     2.0980 
   66.3750    66.3750    -0.0270    -0.0050    -5.7880    64.3480     5.5970     4.0190     5.9740     2.1090 
   66.5000    66.5000    -0.0290    -0.0050    -7.7520    64.7270     5.6410     4.0980     6.0470     2.1200 
   66.6250    66.6250    -0.0320    -0.0060    -9.2210    65.2680     5.6320     4.1890     6.0540     2.1260 
   66.7500    66.7500    -0.0340    -0.0060   -10.5390    65.5580     5.5580     4.2740     5.9920     2.1260 
   66.8750    66.8750    -0.0370    -0.0070   -11.7660    66.6930     5.4260     4.3320     6.0420     2.1240 
   67.0000    67.0000    -0.0390    -0.0070   -12.7110    66.2900     5.2430     4.3230     6.1340     2.1200 
   67.1250    67.1250    -0.0420    -0.0080   -13.4390    65.7910     5.0330     4.2430     6.0340     2.1170 
   67.2500    67.2500    -0.0440    -0.0080   -14.0800    64.2720     4.8770     4.1790     5.8020     2.1220 
   67.3750    67.3750    -0.0470    -0.0080   -14.5930    64.6230     4.9240     4.2980     5.7410     2.1480 
   67.5000    67.4990    -0.0500    -0.0090   -15.0090    65.4600     5.4400     4.8900     6.0820     2.2140 
   67.6250    67.6240    -0.0520    -0.0090   -15.3600    66.7780     6.6230     6.1670     7.6700     2.3200 
   67.7500    67.7490    -0.0550    -0.0100   -15.5970    68.8810     8.6760     8.3310    12.7340     2.4440 
   67.8750    67.8740    -0.0570    -0.0100   -15.7350    73.1030    11.2950    11.0040    20.6620     2.5450 
   68.0000    67.9990    -0.0600    -0.0110   -15.7340    79.1410    13.3590    12.9910    27.0450     2.5860 
   68.1250    68.1240    -0.0630    -0.0110   -15.7090    84.8460    13.7780    13.2830    28.2560     2.5590 
   68.2500    68.2490    -0.0650    -0.0110   -15.8150    87.8780    12.2360    11.6600    23.3080     2.4710 
   68.3750    68.3740    -0.0680    -0.0120   -16.0430    86.3070     9.6140     9.0660    15.4340     2.3530 
   68.5000    68.4990    -0.0700    -0.0120   -16.3700    80.8140     7.1880     6.7560     9.3630     2.2440 
   68.6250    68.6240    -0.0730    -0.0130   -16.8140    75.1570     5.6790     5.3170     6.7230     2.1730 
   68.7500    68.7490    -0.0760    -0.0130   -17.3550    75.0170     5.0000     4.6360     6.1010     2.1400 
   68.8750    68.8740    -0.0780    -0.0140   -18.0700    79.0590     4.7830     4.3990     5.9930     2.1250 
   69.0000    68.9990    -0.0810    -0.0140   -18.4970    82.1020     4.8430     4.4610     5.9860     2.1120 
   69.1250    69.1240    -0.0840    -0.0140   -18.6810    81.2890     4.9870     4.6510     5.8770     2.1000 
   69.2500    69.2490    -0.0860    -0.0150   -18.8820    78.8750     5.1160     4.8760     5.7050     2.0940 
   69.3750    69.3740    -0.0890    -0.0150   -19.1100    79.1920     5.2080     5.1020     5.6380     2.0940 
   69.5000    69.4990    -0.0920    -0.0160   -19.3020    81.1470     5.2700     5.2940     5.8060     2.0970 
   69.6250    69.6240    -0.0950    -0.0160   -19.5380    81.7590     5.3260     5.4310     6.1490     2.0970 
   69.7500    69.7490    -0.0970    -0.0170   -19.7460    80.7980     5.3900     5.5000     6.4120     2.0940 
   69.8750    69.8740    -0.1000    -0.0170   -19.8180    80.0850     5.4530     5.5340     6.4180     2.0880 
   70.0000    69.9990    -0.1030    -0.0170   -19.8540    81.0410     5.4860     5.5520     6.2300     2.0820 
   70.1250    70.1240    -0.1060    -0.0180   -19.9780    81.3900     5.4550     5.5320     6.0940     2.0790 
   70.2500    70.2490    -0.1080    -0.0180   -20.1160    82.8370     5.3240     5.4450     6.1010     2.0840 
   70.3750    70.3740    -0.1110    -0.0190   -20.1190    84.3340     5.1170     5.3350     5.9790     2.0980 
   70.5000    70.4990    -0.1140    -0.0190   -20.0080    86.9900     4.8880     5.2850     5.5240     2.1190 
   70.6250    70.6240    -0.1170    -0.0200   -19.8960    87.5580     4.7080     5.3320     5.1620     2.1380 
   70.7500    70.7490    -0.1200    -0.0200   -19.7870    87.9330     4.6470     5.4930     5.3880     2.1480 
   70.8750    70.8740    -0.1230    -0.0200   -19.8370    85.9250     4.7300     5.7560     5.9630     2.1500 
   71.0000    70.9990    -0.1250    -0.0210   -20.0610    82.3230     4.9610     6.1490     6.4630     2.1500 
   71.1250    71.1240    -0.1280    -0.0210   -20.1970    77.6930     5.2590     6.6290     6.8420     2.1530 
   71.2500    71.2490    -0.1310    -0.0220   -20.4220    74.5220     5.5380     7.0590     7.2590     2.1560 
   71.3750    71.3740    -0.1340    -0.0220   -20.6260    72.5180     5.7150     7.3130     7.7070     2.1520 
   71.5000    71.4990    -0.1370    -0.0220   -20.8880    69.8170     5.7390     7.3460     7.8610     2.1430 
   71.6250    71.6230    -0.1400    -0.0230   -21.1220    68.1130     5.6540     7.2500     7.5380     2.1330 
   71.7500    71.7480    -0.1430    -0.0230   -21.1910    67.3530     5.4980     7.1280     7.0270     2.1280 
   71.8750    71.8730    -0.1460    -0.0240   -21.2190    66.5780     5.3450     7.0270     6.7280     2.1260 
   72.0000    71.9980    -0.1490    -0.0240   -21.2210    64.3500     5.2640     6.9490     6.6740     2.1230 
   72.1250    72.1230    -0.1520    -0.0240   -21.1010    62.9260     5.2500     6.8870     6.7220     2.1190 
   72.2500    72.2480    -0.1550    -0.0250   -21.0430    64.1850     5.2750     6.8530     6.8030     2.1160 
   72.3750    72.3730    -0.1580    -0.0250   -21.1940    65.8650     5.3120     6.8480     6.8080     2.1130 
   72.5000    72.4980    -0.1610    -0.0260   -21.4580    66.9320     5.3510     6.8570     6.6930     2.1120 
   72.6250    72.6230    -0.1640    -0.0260   -21.5850    67.3990     5.4070     6.8460     6.6200     2.1110 
   72.7500    72.7480    -0.1670    -0.0260   -21.6690    69.7280     5.4740     6.8010     6.6910     2.1150 
   72.8750    72.8730    -0.1700    -0.0270   -21.6550    70.4230     5.5230     6.7350     6.8550     2.1200 
   73.0000    72.9980    -0.1730    -0.0270   -21.6590    69.8040     5.5380     6.7050     7.0870     2.1230 
   73.1250    73.1230    -0.1760    -0.0280   -21.6730    66.5550     5.5190     6.7650     7.2720     2.1210 
   73.2500    73.2480    -0.1790    -0.0280   -21.6970    64.3890     5.4850     6.9180     7.2440     2.1180 
   73.3750    73.3730    -0.1820    -0.0280   -21.7080    64.2010     5.4520     7.0940     7.1190     2.1180 
   73.5000    73.4980    -0.1850    -0.0290   -21.6920    66.1730     5.4130     7.2270     7.1740     2.1230 
   73.6250    73.6230    -0.1890    -0.0290   -21.6140    68.7140     5.3710     7.2980     7.4020     2.1280 
   73.7500    73.7480    -0.1920    -0.0290   -21.4710    68.0050     5.3250     7.3310     7.4550     2.1280 
   73.8750    73.8730    -0.1950    -0.0300   -21.2460    67.0940     5.2700     7.3780     7.1910     2.1230 
   74.0000    73.9980    -0.1980    -0.0300   -21.0060    65.6160     5.2620     7.4880     6.9170     2.1210 
