~V
VERS. 2.00: Ver 2.00
~W
STRT.M 53.0000:
STOP.M 258.0000:
STEP.M 0.1250:
NULL. -999.2500:
UWI. FD10870:
~C
DEPT.M :
TVD. :
DX. :
DY. :
SP.MV :
GR.API :
RI. :
RML.OHMM :
RXO.OHMM :
DEN.GM/CC :
~A
# ...
   62.1250    62.1240     0.0050    -0.1420    -9.5060   105.3540     4.4510     5.3950     4.2190     2.3690 
   62.2500    62.2490     0.0050    -0.1440    -9.1960   103.2420     5.1640     6.4050     5.2480     2.3510 
   62.3750    62.3740     0.0050    -0.1470    -9.1190    96.0730     6.1820     7.8330     7.3950     2.3020 
   62.5000    62.4990     0.0050    -0.1490    -9.4570    89.4160     7.2350     9.2850     9.3230     2.2460 
   62.6250    62.6240     0.0040    -0.1520    -9.9670    86.7300     7.9200    10.1340     8.9680     2.1980 
   62.7500    62.7490     0.0040    -0.1550   -10.3860    86.0330     8.0660    10.2200     7.4780     2.1850 
   62.8750    62.8740     0.0040    -0.1580   -10.6690    85.5760     7.7580     9.6980     6.6200     2.2030 
   63.0000    62.9990     0.0040    -0.1610   -10.9280    84.6300     7.2310     8.9350     6.2420     2.2290 
   63.1250    63.1240     0.0040    -0.1630   -11.0910    85.2230     6.8840     8.5060     5.8690     2.2480 
   63.2500    63.2490     0.0040    -0.1670   -11.1960    85.7370     6.8020     8.4740     5.8710     2.2540 
   63.3750    63.3740     0.0030    -0.1700   -11.3420    86.9010     6.9280     8.7250     6.5070     2.2520 
   63.5000    63.4990     0.0030    -0.1730   -11.5010    88.0270     7.1920     9.1500     7.0860     2.2350 
   63.6250    63.6230     0.0030    -0.1760   -11.6490    88.7370     7.4270     9.5070     7.5190     2.2120 
   63.7500    63.7480     0.0030    -0.1800   -11.8780    89.3180     7.4440     9.5090     8.6930     2.1990 
   63.8750    63.8730     0.0030    -0.1830   -12.1760    88.4490     7.0750     8.9620     9.1320     2.2130 
   64.0000    63.9980     0.0020    -0.1870   -12.5290    89.1690     6.4560     8.0840     7.4550     2.2590 
   64.1250    64.1230     0.0020    -0.1910   -12.8980    91.7530     5.8240     7.2060     5.7120     2.3180 
   64.2500    64.2480     0.0020    -0.1950   -13.1970    96.6590     5.3180     6.5310     4.9800     2.3650 
   64.3750    64.3730     0.0020    -0.1990   -13.4990    99.7130     5.0310     6.1880     4.9820     2.3660 
   64.5000    64.4980     0.0020    -0.2030   -13.7940    98.1760     4.9200     6.0910     5.0280     2.3410 
   64.6250    64.6230     0.0010    -0.2070   -14.1070    95.8210     4.8740     6.0710     4.8940     2.3150 
   64.7500    64.7480     0.0010    -0.2120   -14.4010    95.2560     4.8460     6.0500     5.3090     2.3200 
   64.8750    64.8730     0.0010    -0.2160   -14.6820    99.2460     4.7630     5.9190     5.5750     2.3470 
   65.0000    64.9980     0.0000    -0.2210   -14.9360   102.3300     4.6420     5.7200     5.0740     2.3820 
   65.1250    65.1230     0.0000    -0.2260   -15.2500   104.6770     4.5870     5.5930     4.8970     2.4050 
   65.2500    65.2480     0.0000    -0.2310   -15.5430   105.0390     4.5930     5.5610     5.3840     2.4220 
   65.3750    65.3720     0.0000    -0.2360   -15.7710   105.9480     4.6890     5.6730     6.2500     2.4410 
   65.5000    65.4970    -0.0010    -0.2410   -15.8380   103.9430     4.8160     5.8400     7.4860     2.4610 
   65.6250    65.6220    -0.0010    -0.2460   -15.8650   100.8110     4.9420     5.9960     7.5470     2.4500 
   65.7500    65.7470    -0.0010    -0.2520   -15.8990    97.5380     5.0490     6.1100     6.0030     2.3900 
   65.8750    65.8720    -0.0020    -0.2570   -16.0150    96.9800     5.1410     6.2130     4.4950     2.3170 
   66.0000    65.9970    -0.0020    -0.2630   -16.1770    96.3920     5.2870     6.4320     4.0040     2.2750 
   66.1250    66.1220    -0.0020    -0.2690   -16.1160    96.0150     5.5560     6.8490     5.0950     2.2930 
   66.2500    66.2470    -0.0030    -0.2750   -15.8010    94.1660     5.8970     7.3360     7.8730     2.3240 
   66.3750    66.3710    -0.0030    -0.2810   -15.2430    92.5770     6.2380     7.7780    10.8200     2.3420 
   66.5000    66.4960    -0.0030    -0.2870   -14.6410    89.7730     6.4750     8.0910    11.3920     2.3430 
   66.6250    66.6210    -0.0040    -0.2940   -14.5720    90.4670     6.4780     8.1030     9.9190     2.3290 
   66.7500    66.7460    -0.0040    -0.3000   -14.8480    91.9300     6.2970     7.9060    10.7830     2.3090 
   66.8750    66.8710    -0.0040    -0.3070   -14.9770    96.4800     6.0510     7.6440    13.8340     2.2810 
   67.0000    66.9960    -0.0040    -0.3140   -14.4110    99.5090     5.8880     7.4550    12.3950     2.2690 
   67.1250    67.1200    -0.0050    -0.3210   -12.9730   101.1800     6.0240     7.6390     7.4010     2.2730 
   67.2500    67.2450    -0.0050    -0.3280   -11.2540    98.5970     6.4470     8.2390     5.4820     2.2910 
   67.3750    67.3700    -0.0050    -0.3360   -10.2210    93.0870     7.4580     9.6580     6.4280     2.2970 
   67.5000    67.4950    -0.0050    -0.3430   -10.0200    86.3980     9.0730    11.8650     8.0250     2.3050 
   67.6250    67.6190    -0.0060    -0.3510   -10.2200    82.0130    11.0500    14.4560     9.5590     2.3150 
   67.7500    67.7440    -0.0060    -0.3580   -10.7180    80.3710    13.1540    17.0700    10.5500     2.3310 
   67.8750    67.8690    -0.0060    -0.3660   -11.4470    79.7350    14.8890    19.1080    12.0630     2.3180 
   68.0000    67.9940    -0.0060    -0.3740   -11.9460    79.5410    16.1630    20.5740    14.0570     2.2810 
   68.1250    68.1180    -0.0060    -0.3830   -12.2640    78.8040    17.0130    21.5660    18.6700     2.2500 
   68.2500    68.2430    -0.0070    -0.3910   -12.7220    78.6570    17.4170    22.0460    28.0190     2.2540 
   68.3750    68.3680    -0.0070    -0.4000   -13.2610    78.6820    17.1970    21.7050    30.3790     2.2700 
   68.5000    68.4930    -0.0070    -0.4080   -13.8780    77.1040    16.0960    20.2040    22.0990     2.2620 
   68.6250    68.6170    -0.0080    -0.4170   -14.6430    74.7310    14.3290    17.8710    17.4070     2.2290 
   68.7500    68.7420    -0.0080    -0.4260   -15.4110    72.8280    12.1590    15.0520    16.7380     2.1990 
   68.8750    68.8670    -0.0080    -0.4350   -15.8100    74.3530    10.2240    12.5970    13.2650     2.1900 
   69.0000    68.9910    -0.0090    -0.4440   -15.6080    76.0140     8.7440    10.7340     9.0750     2.1920 
   69.1250    69.1160    -0.0090    -0.4530   -14.8840    78.1570     7.6500     9.3670     7.4140     2.2010 
   69.2500    69.2410    -0.0100    -0.4620   -13.8070    80.0680     7.0060     8.5720     7.7320     2.2230 
   69.3750    69.3650    -0.0100    -0.4720   -12.7540    84.0950     6.7100     8.2370     7.2740     2.2560 
   69.5000    69.4900    -0.0110    -0.4810   -12.2510    88.2870     6.6750     8.2250     6.0720     2.2840 
   69.6250    69.6150    -0.0120    -0.4910   -12.3880    91.2550     6.6840     8.2490     5.9980     2.2830 
   69.7500    69.7390    -0.0120    -0.5010   -12.6880    92.2290     6.5580     8.0820     6.6320     2.2690 
   69.8750    69.8640    -0.0130    -0.5110   -13.0780    92.4950     6.2390     7.6590     6.7380     2.2600 
   70.0000    69.9880    -0.0140    -0.5210   -13.3800    95.4680     5.7540     7.0080     6.1260     2.2780 
   70.1250    70.1130    -0.0140    -0.5310   -13.5190    98.2140     5.1020     6.1510     5.1530     2.3090 
   70.2500    70.2370    -0.0150    -0.5410   -13.3430   100.7950     4.4980     5.3860     4.4130     2.3390 
   70.3750    70.3620    -0.0160    -0.5520   -13.0730    99.6060     4.1690     5.0110     4.0020     2.3520 
   70.5000    70.4870    -0.0170    -0.5620   -12.6640    99.5660     4.2260     5.1690     3.7530     2.3540 
   70.6250    70.6110    -0.0170    -0.5730   -12.2310    99.2950     4.7220     5.9170     4.2540     2.3420 
   70.7500    70.7360    -0.0180    -0.5840   -11.9590    97.6680     5.6070     7.1890     6.0100     2.3100 
   70.8750    70.8600    -0.0190    -0.5940   -11.8510    93.2050     6.8740     8.9410     7.9040     2.2670 
   71.0000    70.9850    -0.0200    -0.6050   -11.8810    86.6520     8.2200    10.6980     8.6590     2.2260 
   71.1250    71.1090    -0.0210    -0.6170   -11.8520    81.0940     9.4320    12.1910     9.2240     2.2000 
