~V
VERS. 2.00: Ver 2.00
~W
STRT.M 30.0000:
STOP.M 262.0000:
STEP.M 0.1250:
NULL. -999.2500:
UWI. FD10852:
~C
DEPT.M :
TVD. :
DX. :
DY. :
SP.MV :
GR.API :
RI. :
RML.OHMM :
RXO.OHMM :
DEN.GM/CC :
~A
# ...
   75.6250    75.1790    -5.5860    -0.2870   -13.3710   104.5680     4.2570     5.7000     4.7320     2.2900 
   75.7500    75.3000    -5.6150    -0.2910   -13.3440   100.8960     4.2990     5.7740     4.6330     2.2900 
   75.8750    75.4220    -5.6450    -0.2950   -12.8840    97.5290     4.3700     5.9330     5.0800     2.2870 
   76.0000    75.5430    -5.6740    -0.2990   -12.1950    97.6090     4.4200     6.0730     5.8380     2.2660 
   76.1250    75.6650    -5.7040    -0.3040   -11.6540    99.3080     4.3500     5.9980     6.0450     2.2420 
   76.2500    75.7860    -5.7330    -0.3080   -11.7710    97.7260     4.1020     5.6030     5.4500     2.2400 
   76.3750    75.9070    -5.7630    -0.3130   -12.4050    96.2410     3.9850     5.3940     4.9170     2.2580 
   76.5000    76.0280    -5.7930    -0.3170   -13.2060    97.1230     4.1690     5.6430     4.5810     2.2700 
   76.6250    76.1500    -5.8230    -0.3220   -13.8650    95.0140     4.6570     6.3540     4.8190     2.2570 
   76.7500    76.2710    -5.8530    -0.3260   -14.0460    88.6210     5.5400     7.6700     6.3140     2.2340 
   76.8750    76.3920    -5.8830    -0.3310   -13.7300    83.3410     6.6190     9.2270     9.8620     2.2310 
   77.0000    76.5130    -5.9130    -0.3360   -13.2040    81.9530     7.6140    10.5880    12.2990     2.2420 
   77.1250    76.6350    -5.9430    -0.3400   -12.7910    78.2770     8.2050    11.2930    10.7640     2.2350 
   77.2500    76.7560    -5.9740    -0.3450   -12.4840    72.5470     8.2780    11.2600     9.3070     2.1960 
   77.3750    76.8770    -6.0040    -0.3490   -12.2840    70.9850     7.9180    10.6300     9.5700     2.1480 
   77.5000    76.9980    -6.0350    -0.3540   -12.3240    73.4360     7.2180     9.5560     9.2530     2.1210 
   77.6250    77.1190    -6.0650    -0.3590   -12.5020    75.9850     6.5530     8.5530     8.3180     2.1240 
   77.7500    77.2400    -6.0960    -0.3630   -12.7130    79.2190     5.9390     7.6320     7.2240     2.1530 
   77.8750    77.3610    -6.1270    -0.3680   -12.9240    83.7510     5.6260     7.2080     6.2500     2.1850 
   78.0000    77.4820    -6.1580    -0.3730   -13.0830    83.9820     5.6350     7.2750     5.8650     2.2020 
   78.1250    77.6030    -6.1880    -0.3770   -13.2180    80.2340     5.8300     7.5900     6.3810     2.1920 
   78.2500    77.7240    -6.2190    -0.3820   -13.4080    77.9180     6.1130     7.9810     7.1800     2.1690 
   78.3750    77.8450    -6.2510    -0.3870   -13.6530    80.2740     6.3750     8.2800     7.3270     2.1570 
   78.5000    77.9660    -6.2820    -0.3920   -13.9690    83.1050     6.5100     8.3600     6.9270     2.1650 
   78.6250    78.0870    -6.3130    -0.3970   -14.3450    83.9910     6.5370     8.3070     6.5960     2.1840 
   78.7500    78.2080    -6.3450    -0.4010   -14.6060    82.4290     6.5800     8.3260     6.8040     2.1940 
   78.8750    78.3290    -6.3760    -0.4060   -14.5080    79.6110     6.6370     8.4060     7.2570     2.1950 
   79.0000    78.4500    -6.4080    -0.4110   -13.9130    78.0810     6.7130     8.5110     7.1610     2.1910 
   79.1250    78.5710    -6.4400    -0.4160   -13.1080    78.8700     6.7650     8.5780     7.0440     2.1920 
   79.2500    78.6910    -6.4710    -0.4210   -12.4880    81.1520     6.8370     8.6780     7.3500     2.1940 
   79.3750    78.8120    -6.5030    -0.4250   -12.3370    81.5200     6.9980     8.8970     7.2490     2.1940 
   79.5000    78.9330    -6.5350    -0.4300   -12.7080    77.9520     7.2950     9.2990     7.2290     2.1860 
   79.6250    79.0540    -6.5670    -0.4350   -13.3000    73.0990     7.6660     9.7650     7.7730     2.1660 
   79.7500    79.1740    -6.6000    -0.4390   -13.8480    70.6670     8.1950    10.4190     8.2380     2.1420 
   79.8750    79.2950    -6.6320    -0.4440   -14.0400    71.6300     8.9720    11.3650     8.5850     2.1310 
   80.0000    79.4160    -6.6640    -0.4490   -13.6020    73.6530    10.2110    12.9410     8.9570     2.1370 
   80.1250    79.5360    -6.6970    -0.4540   -12.6950    73.2120    12.1830    15.5200     9.7200     2.1540 
   80.2500    79.6570    -6.7290    -0.4590   -11.7010    71.3150    14.4990    18.5430    11.7730     2.1840 
   80.3750    79.7770    -6.7620    -0.4640   -10.8200    71.0150    16.9770    21.6510    16.0800     2.2350 
   80.5000    79.8980    -6.7940    -0.4690   -10.1160    72.2470    18.5410    23.3390    22.5660     2.3100 
   80.6250    80.0190    -6.8270    -0.4740    -9.6710    73.8120    18.5640    22.9250    24.6310     2.3530 
   80.7500    80.1390    -6.8600    -0.4790    -9.6060    75.5320    17.3450    21.0070    19.8480     2.3020 
   80.8750    80.2600    -6.8930    -0.4840   -10.0300    76.8380    15.4230    18.4220    15.8830     2.1970 
   81.0000    80.3800    -6.9260    -0.4890   -10.6440    75.7840    13.8380    16.4740    13.4880     2.1330 
   81.1250    80.5000    -6.9590    -0.4940   -10.7520    73.8250    12.9390    15.5110    11.2040     2.1270 
   81.2500    80.6210    -6.9920    -0.4990   -10.5030    73.5100    12.9340    15.6730    10.5520     2.1310 
   81.3750    80.7410    -7.0250    -0.5030   -10.2290    74.7240    13.4620    16.4710    10.6830     2.1240 
   81.5000    80.8620    -7.0590    -0.5080    -9.9370    74.5630    14.4700    17.7990    11.4960     2.1190 
   81.6250    80.9820    -7.0920    -0.5130    -9.6810    72.8220    15.6230    19.1670    13.5520     2.1160 
   81.7500    81.1020    -7.1260    -0.5180    -9.6280    71.6470    16.6520    20.2720    15.5660     2.1210 
   81.8750    81.2230    -7.1600    -0.5230    -9.7250    73.7690    17.4030    20.9650    16.0670     2.1230 
   82.0000    81.3430    -7.1930    -0.5270    -9.6470    77.2620    17.8830    21.4210    16.3150     2.1150 
   82.1250    81.4630    -7.2270    -0.5320    -9.2650    78.2670    18.5490    22.2070    16.9880     2.1040 
   82.2500    81.5830    -7.2610    -0.5370    -8.7260    77.7340    19.5370    23.4760    16.7110     2.1160 
   82.3750    81.7040    -7.2950    -0.5420    -8.1990    81.6820    20.6420    24.9700    15.4560     2.1520 
   82.5000    81.8240    -7.3290    -0.5460    -7.9180    92.0760    21.5230    26.1590    19.7410     2.2060 
   82.6250    81.9440    -7.3630    -0.5510    -7.9720   101.6370    21.8070    26.4990    30.2080     2.2650 
   82.7500    82.0640    -7.3970    -0.5560    -8.2060   102.2340    21.0600    25.3700    30.9330     2.2830 
   82.8750    82.1840    -7.4310    -0.5600    -8.4640    94.6030    19.5240    23.3220    21.5250     2.2390 
   83.0000    82.3050    -7.4650    -0.5650    -8.6570    84.5900    17.8750    21.1780    17.5590     2.1660 
   83.1250    82.4250    -7.4990    -0.5690    -8.5600    76.1120    16.4280    19.4570    18.1900     2.1180 
   83.2500    82.5450    -7.5330    -0.5740    -8.1100    70.7770    15.8200    18.8190    16.9380     2.1060 
   83.3750    82.6650    -7.5670    -0.5790    -7.5910    67.9230    15.6980    18.7150    15.6280     2.1010 
   83.5000    82.7850    -7.6010    -0.5830    -7.2180    66.8230    15.8320    18.9010    16.6540     2.0910 
   83.6250    82.9050    -7.6360    -0.5880    -6.9740    67.0300    15.9750    19.0940    17.7670     2.0820 
   83.7500    83.0250    -7.6700    -0.5920    -6.8760    67.9950    16.1070    19.2110    16.8180     2.0820 
   83.8750    83.1450    -7.7040    -0.5970    -6.8890    69.0740    15.9190    18.8480    15.5140     2.0880 
   84.0000    83.2660    -7.7390    -0.6020    -7.0090    69.3480    15.5160    18.2340    15.2960     2.0910 
   84.1250    83.3860    -7.7730    -0.6070    -7.2970    70.0690    15.3570    17.9220    15.2590     2.0880 
   84.2500    83.5060    -7.8080    -0.6110    -7.4380    70.5920    15.5840    18.0890    14.3880     2.0870 
   84.3750    83.6260    -7.8420    -0.6160    -7.2790    68.6190    16.2520    18.8320    13.8310     2.0940 
   84.5000    83.7460    -7.8770    -0.6200    -7.0900    64.6380    17.2980    20.0790    16.0410     2.1050 
   84.6250    83.8660    -7.9120    -0.6250    -7.0690    62.1970    18.6450    21.7260    19.6500     2.1070 
