~V
VERS. 2.00: Ver 2.00
~W
STRT.M 22.0000:
STOP.M 238.0000:
STEP.M 0.1250:
NULL. -999.2500:
UWI. FD10612:
~C
DEPT.M :
TVD. :
DX. :
DY. :
GR.API :
RML.OHMM :
RI. :
RXO.OHMM :
CALI.CM :
DEN.GM/CC :
SP.MV :
~A
# ...
  187.0000   175.4880    40.2060    26.2850    57.3540    10.8980     9.8010     7.8780    20.5820     2.6820   -23.2530 
  187.1250   175.5820    40.2740    26.3330    54.2540     9.6930     8.7450     5.9870    20.5360     2.6230   -22.5080 
  187.2500   175.6750    40.3420    26.3810    52.1690     8.7920     7.9630     5.6240    20.5220     2.5610   -21.8380 
  187.3750   175.7690    40.4090    26.4280    52.6280     8.2240     7.4760     5.7130    20.5240     2.5110   -21.2600 
  187.5000   175.8630    40.4770    26.4760    55.2410     7.9460     7.2500     5.8000    20.5390     2.4730   -20.7950 
  187.6250   175.9560    40.5450    26.5240    57.6110     7.8780     7.2200     5.8280    20.5840     2.4470   -20.4290 
  187.7500   176.0500    40.6120    26.5720    57.8620     7.8860     7.2550     5.7630    20.6490     2.4320   -20.0580 
  187.8750   176.1440    40.6800    26.6190    55.2310     7.9110     7.2990     5.5890    20.7110     2.4300   -19.8550 
  188.0000   176.2370    40.7480    26.6670    50.6520     7.9260     7.3290     5.5240    20.7600     2.4440   -19.8100 
  188.1250   176.3310    40.8150    26.7150    47.2050     7.8930     7.3150     6.2180    20.7750     2.4640   -19.6300 
  188.2500   176.4240    40.8830    26.7630    45.9400     7.7800     7.2190     7.5490    20.7780     2.4790   -19.5080 
  188.3750   176.5180    40.9510    26.8100    45.9260     7.5740     7.0220     7.8440    20.7810     2.4800   -19.4170 
  188.5000   176.6120    41.0180    26.8580    46.4210     7.3020     6.7410     6.3980    20.7910     2.4690   -19.3220 
  188.6250   176.7050    41.0860    26.9060    46.9150     7.0400     6.4370     5.5100    20.8260     2.4520   -19.3690 
  188.7500   176.7990    41.1540    26.9540    46.8980     6.8810     6.1970     5.2330    20.8860     2.4400   -19.4370 
  188.8750   176.8920    41.2210    27.0010    47.8260     6.8930     6.0940     5.3530    20.9540     2.4340   -19.3690 
  189.0000   176.9860    41.2890    27.0490    52.1450     7.1180     6.1780     5.9300    20.9890     2.4340   -19.3300 
  189.1250   177.0800    41.3570    27.0970    58.5640     7.5890     6.5010     6.3420    20.9480     2.4360   -19.5390 
  189.2500   177.1730    41.4240    27.1450    63.2030     8.2310     7.0080     6.9780    20.8830     2.4380   -19.8600 
  189.3750   177.2670    41.4920    27.1920    65.5500     8.9800     7.6530     7.8160    20.8190     2.4390   -20.2420 
  189.5000   177.3610    41.5600    27.2400    68.3390     9.7550     8.3660     8.6240    20.7470     2.4380   -20.6540 
  189.6250   177.4540    41.6280    27.2880    72.7220    10.4400     9.0380     9.1700    20.7120     2.4380   -21.0910 
  189.7500   177.5480    41.6950    27.3360    76.4610    10.9630     9.5760     9.5490    20.7250     2.4390   -21.4820 
  189.8750   177.6410    41.7630    27.3830    79.6090    11.2830     9.9140     9.7330    20.8000     2.4410   -21.8600 
  190.0000   177.7350    41.8310    27.4310    83.7060    11.4010    10.0280     9.7920    20.8860     2.4450   -22.1690 
  190.1250   177.8290    41.8980    27.4790    91.8290    11.3440     9.9240     9.5680    20.9130     2.4510   -22.3550 
  190.2500   177.9220    41.9660    27.5260   102.7600    11.2150     9.7160     9.3820    20.8760     2.4570   -22.4620 
  190.3750   178.0160    42.0340    27.5740   111.1620    11.0840     9.4800     8.9660    20.8160     2.4600   -22.4580 
  190.5000   178.1090    42.1010    27.6220   112.3070    11.0000     9.2750     8.4760    20.8240     2.4590   -22.4250 
  190.6250   178.2030    42.1690    27.6700   107.2550    11.0260     9.1610     8.1840    20.8610     2.4520   -22.3220 
  190.7500   178.2970    42.2370    27.7170   103.0730    11.2070     9.1750     8.3790    20.8910     2.4400   -22.1850 
  190.8750   178.3900    42.3040    27.7650   102.0050    11.6380     9.3840     8.7860    20.8800     2.4290   -22.0800 
  191.0000   178.4840    42.3720    27.8130   101.4290    12.4620     9.8890     9.1090    20.8180     2.4320   -22.1600 
  191.1250   178.5780    42.4400    27.8610    96.4360    13.9990    10.9260     9.6570    20.7130     2.4620   -22.4810 
  191.2500   178.6710    42.5070    27.9080    88.2280    16.3820    12.6240    11.7650    20.6120     2.5100   -22.8100 
  191.3750   178.7650    42.5750    27.9560    80.0140    19.7620    15.1760    16.1150    20.5460     2.5580   -23.1580 
  191.5000   178.8580    42.6430    28.0040    72.9190    24.1290    18.7090    19.6090    20.5190     2.5900   -23.4270 
  191.6250   178.9520    42.7100    28.0520    66.9760    29.2000    23.2020    19.7290    20.5130     2.5930   -23.6730 
  191.7500   179.0460    42.7780    28.0990    64.5530    34.0730    27.8510    19.0160    20.5150     2.5780   -24.0850 
  191.8750   179.1390    42.8460    28.1470    64.9460    37.9240    31.7490    18.0990    20.5210     2.5570   -24.5090 
  192.0000   179.2330    42.9130    28.1950    64.6770    40.2450    34.2100    16.6700    20.5370     2.5360   -24.7670 
  192.1250   179.3270    42.9810    28.2430    62.0770    40.9690    35.0440    14.7070    20.5660     2.5150   -24.8580 
  192.2500   179.4200    43.0490    28.2900    60.5370    41.0750    35.1780    13.2980    20.5760     2.4930   -24.8380 
  192.3750   179.5140    43.1160    28.3380    61.4840    41.3050    35.3090    12.7260    20.5720     2.4680   -24.8420 
  192.5000   179.6070    43.1840    28.3860    63.2090    42.1520    35.9250    12.3580    20.5530     2.4400   -24.9160 
  192.6250   179.7010    43.2520    28.4330    63.4120    43.8610    37.3170    12.2190    20.5470     2.4080   -24.8940 
  192.7500   179.7950    43.3190    28.4810    60.9860    46.0370    39.2280    12.2940    20.5460     2.3750   -24.8210 
  192.8750   179.8880    43.3870    28.5290    57.8690    48.2010    41.2890    12.4900    20.5610     2.3460   -24.7300 
  193.0000   179.9820    43.4550    28.5770    57.5950    49.8280    43.0050    12.6370    20.5750     2.3240   -24.5270 
  193.1250   180.0750    43.5220    28.6240    60.8480    50.4240    43.8210    12.7850    20.5780     2.3120   -24.2630 
  193.2500   180.1690    43.5900    28.6720    63.9120    50.2350    43.8730    13.5640    20.5760     2.3090   -24.0970 
  193.3750   180.2630    43.6580    28.7200    66.0480    49.6900    43.5160    16.2330    20.5680     2.3180   -23.9750 
  193.5000   180.3560    43.7250    28.7680    67.9970    49.3170    43.2060    20.2810    20.5470     2.3370   -23.8240 
  193.6250   180.4500    43.7930    28.8150    68.3370    49.7010    43.5020    21.4670    20.5330     2.3600   -23.6420 
  193.7500   180.5440    43.8610    28.8630    66.0130    50.8950    44.5660    20.9160    20.5220     2.3750   -23.4180 
  193.8750   180.6370    43.9280    28.9110    63.2050    52.6870    46.2780    19.8710    20.5180     2.3740   -23.1450 
  194.0000   180.7310    43.9960    28.9590    62.2690    54.5790    48.2120    19.1870    20.5240     2.3550   -22.8800 
  194.1250   180.8240    44.0640    29.0060    62.3680    55.8240    49.6590    19.0040    20.5430     2.3270   -22.7290 
  194.2500   180.9180    44.1310    29.0540    62.2020    56.1800    50.2840    19.0800    20.5600     2.3040   -22.5950 
  194.3750   181.0120    44.1990    29.1020    62.4160    55.8870    50.2410    18.9100    20.5560     2.2960   -22.3800 
  194.5000   181.1050    44.2670    29.1500    62.7760    55.5930    50.1480    18.2680    20.5400     2.3100   -22.1690 
  194.6250   181.1990    44.3340    29.1970    62.6500    56.1820    50.9690    17.8150    20.5490     2.3430   -21.9850 
  194.7500   181.2920    44.4020    29.2450    60.9430    57.7410    52.9200    17.8330    20.5660     2.3780   -21.7420 
  194.8750   181.3860    44.4700    29.2930    58.4640    59.7100    55.5970    18.4620    20.5770     2.3970   -21.5560 
  195.0000   181.4800    44.5370    29.3410    58.0060    61.0010    57.9730    19.0680    20.5800     2.3930   -21.5230 
  195.1250   181.5730    44.6050    29.3880    61.8920    60.1060    58.3310    18.2760    20.5760     2.3670   -21.3470 
