~V
VERS. 2.00: Ver 2.00
~W
STRT.M 32.0000:
STOP.M 269.0000:
STEP.M 0.1250:
NULL. -999.2500:
UWI. FD10881:
~C
DEPT.M :
TVD. :
DX. :
DY. :
SP.MV :
GR.API :
RI. :
RML.OHMM :
RXO.OHMM :
~A
# ...
  212.0000   197.9270   -51.8060   -26.6400   -14.2740    67.4410    11.1390    13.3990    31.3340 
  212.1250   198.0270   -51.8710   -26.6770   -14.3070    69.2680     7.2460     8.5010    29.5050 
  212.2500   198.1270   -51.9360   -26.7140   -13.8520    73.2260     4.1670     4.8570    25.6570 
  212.3750   198.2280   -52.0010   -26.7510   -12.8810    77.4770     2.6040     3.0610    16.5050 
  212.5000   198.3280   -52.0660   -26.7880   -12.0560    77.2940     1.7720     2.1400     6.6120 
  212.6250   198.4280   -52.1310   -26.8250   -11.6780    73.3420     1.3920     1.7940     2.8250 
  212.7500   198.5280   -52.1960   -26.8620   -11.3860    69.0550     1.3160     1.7900     2.5030 
  212.8750   198.6280   -52.2610   -26.8990   -11.0560    65.3870     1.3430     1.8760     2.5430 
  213.0000   198.7280   -52.3260   -26.9360   -10.6930    62.2620     1.4120     1.9630     2.5690 
  213.1250   198.8280   -52.3910   -26.9720   -10.2570    61.1870     1.5040     2.0600     2.5690 
  213.2500   198.9280   -52.4570   -27.0090    -9.9830    64.1010     1.6430     2.2200     2.6100 
  213.3750   199.0280   -52.5220   -27.0460   -10.1590    68.7450     1.8280     2.4450     2.7190 
  213.5000   199.1280   -52.5870   -27.0830   -10.4580    73.0340     2.0800     2.7630     2.9160 
  213.6250   199.2280   -52.6530   -27.1190   -10.8290    75.3690     2.3610     3.1150     3.3270 
  213.7500   199.3280   -52.7180   -27.1560   -11.2480    76.3330     2.6450     3.4760     4.0860 
  213.8750   199.4280   -52.7830   -27.1930   -11.5860    75.3990     2.8710     3.7750     4.8210 
  214.0000   199.5280   -52.8490   -27.2300   -11.9170    73.3040     3.0070     3.9750     5.2050 
  214.1250   199.6280   -52.9140   -27.2670   -12.3270    73.8310     3.0660     4.0850     5.3710 
  214.2500   199.7280   -52.9790   -27.3040   -12.4320    79.3510     3.0630     4.1330     5.5780 
  214.3750   199.8280   -53.0440   -27.3410   -12.0160    85.2640     3.0380     4.1420     5.8630 
  214.5000   199.9280   -53.1100   -27.3780   -11.2400    87.4980     3.0090     4.1510     6.0450 
  214.6250   200.0280   -53.1750   -27.4160   -10.3890    87.7590     2.9860     4.1550     5.9760 
  214.7500   200.1280   -53.2400   -27.4530    -9.7750    89.3970     2.9740     4.1610     5.7040 
  214.8750   200.2280   -53.3050   -27.4900    -9.7970    94.7550     2.9740     4.1740     5.6480 
  215.0000   200.3280   -53.3700   -27.5280   -10.5230   103.1160     2.9900     4.2020     5.8350 
  215.1250   200.4280   -53.4350   -27.5660   -11.4460   111.2060     3.0140     4.2400     5.9120 
  215.2500   200.5280   -53.5000   -27.6030   -12.1620   115.5650     3.0460     4.2800     6.0310 
  215.3750   200.6280   -53.5650   -27.6410   -12.3390   117.4490     3.0870     4.3290     6.3130 
  215.5000   200.7280   -53.6290   -27.6790   -11.9740   115.7400     3.1360     4.3750     6.3170 
  215.6250   200.8280   -53.6940   -27.7170   -11.4350   112.1990     3.1930     4.4220     5.9630 
  215.7500   200.9270   -53.7590   -27.7550   -10.8650   110.4780     3.2590     4.4850     5.7580 
  215.8750   201.0270   -53.8240   -27.7920   -10.1580   112.3510     3.3310     4.5590     5.8760 
  216.0000   201.1270   -53.8900   -27.8300    -9.9030   113.7160     3.4060     4.6420     6.0740 
  216.1250   201.2270   -53.9550   -27.8680   -10.1050   113.0300     3.4780     4.7240     6.2580 
  216.2500   201.3270   -54.0200   -27.9050   -10.4140   112.4250     3.5280     4.7650     6.5590 
  216.3750   201.4260   -54.0860   -27.9420   -10.7340   112.7630     3.5450     4.7720     6.7890 
  216.5000   201.5260   -54.1510   -27.9800   -10.8720   113.6910     3.5420     4.7440     6.6590 
  216.6250   201.6260   -54.2160   -28.0180   -10.8840   115.3090     3.5440     4.7260     6.3080 
  216.7500   201.7260   -54.2810   -28.0560   -11.0980   116.8110     3.5750     4.7430     5.9980 
  216.8750   201.8250   -54.3470   -28.0930   -11.5530   117.0310     3.6440     4.7960     5.8870 
  217.0000   201.9250   -54.4120   -28.1310   -12.0250   117.8440     3.7450     4.8900     5.9450 
  217.1250   202.0250   -54.4780   -28.1680   -12.4700   117.9760     3.8870     5.0180     6.2730 
  217.2500   202.1240   -54.5430   -28.2060   -12.9160   117.2630     4.1120     5.2530     6.6690 
  217.3750   202.2240   -54.6090   -28.2430   -13.1190   116.5830     4.4330     5.6220     6.7340 
  217.5000   202.3240   -54.6740   -28.2810   -12.8650   115.6440     4.8840     6.1740     6.8900 
  217.6250   202.4230   -54.7400   -28.3180   -12.2990   111.5360     5.4000     6.8010     7.6610 
  217.7500   202.5230   -54.8050   -28.3560   -11.7220   103.9260     5.8580     7.3280     9.6630 
  217.8750   202.6230   -54.8700   -28.3930   -11.5340    99.4520     6.1420     7.5990    11.3530 
  218.0000   202.7220   -54.9360   -28.4310   -11.9660    99.3520     6.2160     7.5990    11.3310 
  218.1250   202.8220   -55.0010   -28.4690   -12.7870   100.3540     6.2080     7.4990    11.2550 
  218.2500   202.9220   -55.0660   -28.5060   -13.7110   100.7800     6.3520     7.6030    10.6130 
  218.3750   203.0210   -55.1320   -28.5440   -14.4260   100.3070     6.8010     8.1030     9.3850 
  218.5000   203.1210   -55.1970   -28.5810   -14.5760    98.1510     7.6550     9.1080    10.0710 
  218.6250   203.2210   -55.2630   -28.6190   -14.4270    94.4970     8.7530    10.3770    12.0230 
  218.7500   203.3210   -55.3280   -28.6560   -14.4260    91.0650     9.8010    11.5540    14.2690 
  218.8750   203.4200   -55.3930   -28.6940   -14.5880    88.4450    10.7430    12.5070    17.6090 
  219.0000   203.5200   -55.4590   -28.7310   -14.8630    85.4610    11.5600    13.2740    20.2860 
  219.1250   203.6200   -55.5240   -28.7690   -15.3750    83.0610    12.6760    14.4510    21.1830 
  219.2500   203.7200   -55.5890   -28.8070   -16.0470    80.5440    14.3330    16.2740    21.3410 
  219.3750   203.8190   -55.6540   -28.8450   -16.6480    77.3520    16.4960    18.6260    20.4710 
  219.5000   203.9190   -55.7190   -28.8830   -17.3690    73.7700    19.6900    22.0130    21.3250 
  219.6250   204.0190   -55.7840   -28.9200   -18.2670    70.3970    23.2670    25.6780    26.4840 
  219.7500   204.1190   -55.8500   -28.9570   -19.1100    67.8580    26.9510    29.4710    32.2380 
  219.8750   204.2190   -55.9150   -28.9940   -19.8790    64.6790    30.4740    33.1450    34.1980 
  220.0000   204.3190   -55.9800   -29.0310   -20.5360    61.1940    33.1520    35.8580    32.0150 
  220.1250   204.4180   -56.0460   -29.0680   -21.0970    59.2230    35.9390    38.5840    30.3830 
  220.2500   204.5180   -56.1110   -29.1050   -21.6540    59.3890    38.6650    41.1300    32.3490 
  220.3750   204.6180   -56.1770   -29.1420   -22.0480    59.3810    41.2410    43.4720    35.3650 
  220.5000   204.7180   -56.2430   -29.1790   -21.9600    59.1140    43.5350    45.5080    37.0610 
  220.6250   204.8180   -56.3080   -29.2150   -21.3780    61.1700    44.8030    46.4960    37.2320 
  220.7500   204.9180   -56.3740   -29.2520   -20.4660    66.4100    44.7600    46.0700    36.4880 
  220.8750   205.0180   -56.4390   -29.2890   -19.5450    68.4230    43.0720    43.8800    35.5300 
  221.0000   205.1180   -56.5050   -29.3250   -19.0550    64.0720    40.0950    40.3540    34.6830 
  221.1250   205.2180   -56.5700   -29.3620   -19.0640    58.9120    37.1350    36.9590    33.5060 
  221.2500   205.3180   -56.6360   -29.3980   -19.2500    58.9620    35.2970    34.8920    31.3740 
  221.3750   205.4180   -56.7010   -29.4350   -19.4080    62.9170    35.4920    35.0860    29.2200 
  221.5000   205.5180   -56.7670   -29.4710   -19.3440    65.0820    37.5890    37.2010    28.6570 
  221.6250   205.6180   -56.8330   -29.5080   -18.8260    63.7690    40.6130    40.2110    31.3880 
  221.7500   205.7180   -56.8980   -29.5450   -18.0420    63.4670    43.5600    42.9560    37.8920 
  221.8750   205.8180   -56.9630   -29.5810   -17.3180    66.3740    45.1160    44.1810    43.2800 
