~V
VERS. 2.00: Ver 2.00
~W
STRT.M 20.0000:
STOP.M 282.0000:
STEP.M 0.1250:
NULL. -999.2500:
UWI. FD10228:
~C
DEPT.M :
TVD. :
DX. :
DY. :
GR.API :
RML.OHMM :
RI. :
RXO.OHMM :
CALI.CM :
SP.MV :
DEN.GM/CC :
~A
# ...
   36.5000    36.5000     0.0000     0.0000    74.7160    10.8240     5.2880     7.5510    23.5170   -37.8640     2.2290 
   36.6250    36.6250     0.0000     0.0000    79.7790    10.3530     4.9890     7.0220    23.5710   -38.1320     2.2400 
   36.7500    36.7500     0.0000     0.0000    83.1740    10.5590     4.9650     6.8470    23.7910   -38.4570     2.2320 
   36.8750    36.8750     0.0000     0.0000    81.6350    11.3090     5.1990     7.6570    23.9110   -38.8280     2.2120 
   37.0000    37.0000     0.0000     0.0000    76.3680    12.2840     5.6010    10.2780    23.9480   -39.2450     2.1880 
   37.1250    37.1250     0.0000     0.0000    70.9190    12.9750     5.9970    12.0550    24.0050   -39.7030     2.1680 
   37.2500    37.2500     0.0000     0.0000    68.5760    13.1070     6.2290    12.4950    24.1950   -40.1640     2.1590 
   37.3750    37.3750     0.0000     0.0000    69.6240    12.7340     6.2510    12.3400    24.4880   -40.5790     2.1590 
   37.5000    37.5000     0.0000     0.0000    69.6180    12.1840     6.1350    12.3540    24.7930   -40.9120     2.1620 
   37.6250    37.6250     0.0000     0.0000    65.2880    11.9360     6.0310    12.7290    24.8660   -41.1760     2.1640 
   37.7500    37.7500     0.0000     0.0000    61.9720    12.1750     6.0540    12.5020    24.8340   -41.3910     2.1560 
   37.8750    37.8750     0.0000     0.0000    62.3820    12.8600     6.2240    12.1780    24.7770   -41.5520     2.1400 
   38.0000    38.0000     0.0000     0.0000    63.0510    13.7780     6.4920    11.9730    24.9560   -41.6570     2.1160 
   38.1250    38.1250     0.0000     0.0000    59.8140    14.5250     6.7250    12.2730    25.4240   -41.6800     2.0940 
   38.2500    38.2500     0.0000     0.0000    55.9690    14.7640     6.7860    12.4470    26.0750   -41.6490     2.0870 
   38.3750    38.3750     0.0000     0.0000    55.5400    14.3770     6.6100    12.1300    26.4830   -41.6170     2.0970 
   38.5000    38.5000     0.0000     0.0000    57.5750    13.5090     6.2260    11.3830    26.5430   -41.5850     2.1230 
   38.6250    38.6250     0.0000     0.0000    58.5160    12.4830     5.7420    10.8240    26.0010   -41.4800     2.1530 
   38.7500    38.7500     0.0000     0.0000    58.2810    11.6260     5.3020    10.9080    25.2340   -41.3260     2.1720 
   38.8750    38.8750     0.0000     0.0000    59.3890    11.0770     4.9820    10.9780    24.9860   -41.1580     2.1760 
   39.0000    39.0000     0.0000     0.0000    62.0310    10.8820     4.8200    11.2300    24.9210   -40.9820     2.1700 
   39.1250    39.1250     0.0000     0.0000    62.8380    11.0960     4.8450    11.7290    24.9310   -40.7910     2.1610 
   39.2500    39.2500    -0.0030     0.0020    62.3690    11.6230     5.0070    12.1800    24.9070   -40.5670     2.1560 
   39.3750    39.3750    -0.0060     0.0040    62.3600    12.3710     5.2640    12.3700    24.8490   -40.2880     2.1560 
   39.5000    39.5000    -0.0090     0.0070    62.4410    13.1920     5.5640    12.7540    24.7120   -39.9690     2.1560 
   39.6250    39.6250    -0.0130     0.0090    59.6240    13.8800     5.8330    13.1260    24.6260   -39.6900     2.1560 
   39.7500    39.7500    -0.0160     0.0110    58.1640    14.2990     6.0190    13.2370    24.6950   -39.4270     2.1580 
   39.8750    39.8750    -0.0190     0.0130    64.0780    14.3280     6.0760    13.0920    24.7850   -39.1260     2.1660 
   40.0000    40.0000    -0.0220     0.0150    73.4380    13.8710     5.9620    12.6800    24.8110   -38.8050     2.1800 
   40.1250    40.1250    -0.0250     0.0170    76.4840    12.9270     5.6430    11.9330    24.7710   -38.5120     2.1980 
   40.2500    40.2490    -0.0280     0.0200    75.2150    11.8790     5.2260    10.9030    24.6520   -38.2710     2.2150 
   40.3750    40.3740    -0.0310     0.0220    76.0930    11.0730     4.8230     9.6300    24.4580   -38.1080     2.2240 
   40.5000    40.4990    -0.0340     0.0240    79.4940    10.7660     4.5370     8.2070    24.0840   -38.0240     2.2200 
   40.6250    40.6240    -0.0370     0.0260    80.9640    11.1350     4.4690     7.6590    23.6240   -37.9950     2.2030 
   40.7500    40.7490    -0.0400     0.0280    79.6120    11.8980     4.5950     9.0870    23.1070   -38.0000     2.1770 
   40.8750    40.8740    -0.0440     0.0300    76.5070    12.7060     4.8570    10.9650    22.8860   -38.0870     2.1510 
   41.0000    40.9990    -0.0470     0.0330    72.6710    13.1740     5.1410    11.6890    22.8300   -38.2630     2.1310 
   41.1250    41.1240    -0.0500     0.0350    70.4580    12.9600     5.2850    11.1510    22.8120   -38.4400     2.1190 
   41.2500    41.2490    -0.0530     0.0370    69.8580    12.3030     5.2430    10.5300    22.8410   -38.6050     2.1160 
   41.3750    41.3740    -0.0560     0.0390    69.1880    11.5830     5.0760    10.0060    22.9750   -38.7660     2.1160 
   41.5000    41.4990    -0.0590     0.0410    67.4680    11.1640     4.8990     9.6730    23.1710   -38.9110     2.1170 
   41.6250    41.6240    -0.0620     0.0430    65.2020    11.2760     4.8340    10.2530    23.3570   -39.0100     2.1180 
   41.7500    41.7490    -0.0650     0.0460    63.2600    11.7410     4.8980    11.2430    23.5820   -39.0370     2.1190 
   41.8750    41.8740    -0.0680     0.0480    63.5550    12.3630     5.0680    12.1040    23.8420   -38.9670     2.1210 
   42.0000    41.9990    -0.0710     0.0500    66.3980    12.9210     5.2820    12.3950    23.9400   -38.8020     2.1260 
   42.1250    42.1240    -0.0740     0.0520    68.3360    13.1550     5.4450    12.5720    23.9840   -38.6150     2.1340 
   42.2500    42.2490    -0.0780     0.0540    68.5200    13.0190     5.4960    13.1300    24.0390   -38.4060     2.1460 
   42.3750    42.3740    -0.0810     0.0560    68.2210    12.5830     5.4260    13.6740    24.0450   -38.1330     2.1590 
   42.5000    42.4980    -0.0840     0.0590    67.7260    12.0310     5.2770    13.5440    24.0380   -37.7780     2.1700 
   42.6250    42.6230    -0.0870     0.0610    67.4300    11.6090     5.1200    13.3750    24.0400   -37.3630     2.1760 
   42.7500    42.7480    -0.0900     0.0630    68.9650    11.4450     5.0140    13.1990    24.0190   -36.9480     2.1680 
   42.8750    42.8730    -0.0930     0.0650    71.5800    11.5820     4.9910    12.7540    23.9820   -36.5470     2.1490 
   43.0000    42.9980    -0.0960     0.0670    71.4590    11.9870     5.0650    12.2840    23.9680   -36.1670     2.1230 
   43.1250    43.1230    -0.0990     0.0690    68.9880    12.5340     5.2220    12.9790    23.9550   -35.7260     2.0990 
   43.2500    43.2480    -0.1020     0.0720    68.3080    13.0060     5.3900    13.4010    23.9090   -35.1730     2.0920 
   43.3750    43.3730    -0.1050     0.0740    67.8300    13.2310     5.5020    13.3620    23.8740   -34.5320     2.1050 
   43.5000    43.4980    -0.1090     0.0760    66.6090    13.0680     5.4980    12.7150    23.8890   -33.8550     2.1330 
   43.6250    43.6230    -0.1120     0.0780    68.4240    12.4120     5.3350    11.3330    23.9430   -33.1110     2.1640 
   43.7500    43.7480    -0.1150     0.0800    74.2120    11.5140     5.0760     9.8990    23.9610   -32.3300     2.1850 
   43.8750    43.8730    -0.1180     0.0820    80.7180    10.6240     4.7980     9.3200    23.9690   -31.5440     2.1940 
   44.0000    43.9980    -0.1210     0.0850    84.9990     9.9170     4.5610     8.9170    24.0380   -30.7430     2.1990 
   44.1250    44.1230    -0.1240     0.0870    86.5310     9.4880     4.4130     7.4850    24.0960   -30.0150     2.2080 
   44.2500    44.2480    -0.1270     0.0890    86.6730     9.2750     4.3490     6.1620    24.1930   -29.4280     2.2260 
   44.3750    44.3730    -0.1300     0.0910    86.4010     9.2170     4.3490     6.0430    24.0940   -28.9650     2.2450 
   44.5000    44.4980    -0.1330     0.0930    86.4650     9.2250     4.3660     6.4970    24.0250   -28.6020     2.2570 
   44.6250    44.6220    -0.1360     0.0950    86.7710     9.1990     4.3410     6.1040    24.2170   -28.4160     2.2520 
