~V
VERS. 2.00: Ver 2.00
~W
STRT.M 30.0000:
STOP.M 210.0000:
STEP.M 0.1250:
NULL. -999.2500:
UWI. FD10800:
~C
DEPT.M :
TVD. :
DX. :
DY. :
SP.MV :
GR.API :
RI. :
RML.OHMM :
RXO.OHMM :
DEN.GM/CC :
~A
   30.0000    30.0000     0.0000     0.0000     1.0830    40.7640     0.0800     0.2000     0.4250     2.1330 
   30.1250    30.1250     0.0000    -0.0020    -0.2930    41.5220     0.0750     0.1720     0.3530     2.1330 
   30.2500    30.2500     0.0000    -0.0040    -1.8330    42.1070     0.0750     0.1790     0.3580     2.1330 
   30.3750    30.3750     0.0000    -0.0060    -3.4330    42.4350     0.0750     0.1790     0.3970     2.1330 
   30.5000    30.5000     0.0000    -0.0080    -4.9760    42.8300     0.0750     0.1750     0.3340     2.1330 
   30.6250    30.6250    -0.0010    -0.0100    -6.2990    43.4470     0.0750     0.1700     0.3290     2.1330 
   30.7500    30.7500    -0.0010    -0.0120    -7.2680    44.3960     0.0750     0.1670     0.4110     2.1330 
   30.8750    30.8750    -0.0010    -0.0130    -7.8910    44.8310     0.0760     0.1650     0.4800     2.1330 
   31.0000    31.0000    -0.0010    -0.0150    -8.0750    45.0200     0.0760     0.1670     0.5000     2.1330 
   31.1250    31.1250    -0.0010    -0.0170    -8.0090    44.2030     0.0760     0.1710     0.4300     2.1330 
   31.2500    31.2500    -0.0020    -0.0190    -7.9060    43.4300     0.0750     0.1720     0.4340     2.1330 
   31.3750    31.3750    -0.0020    -0.0210    -8.2840    43.1910     0.0750     0.1740     0.4680     2.1330 
   31.5000    31.5000    -0.0020    -0.0230    -9.0590    44.7040     0.0750     0.1740     0.3390     2.1330 
   31.6250    31.6250    -0.0020    -0.0250    -9.8390    45.7750     0.0750     0.1740     0.2000     2.1330 
   31.7500    31.7500    -0.0030    -0.0270   -10.3710    45.6650     0.0750     0.1740     0.1770     2.1330 
   31.8750    31.8750    -0.0030    -0.0290   -10.5810    44.7900     0.0750     0.1730     0.1750     2.1330 
   32.0000    32.0000    -0.0030    -0.0310   -10.5910    45.0530     0.0750     0.1700     0.1920     2.1330 
   32.1250    32.1250    -0.0040    -0.0330   -10.4050    46.1030     0.0750     0.1690     0.3080     2.1330 
   32.2500    32.2500    -0.0040    -0.0350   -10.2050    47.2130     0.0750     0.1710     0.3590     2.1330 
   32.3750    32.3750    -0.0050    -0.0370    -9.9130    48.7900     0.0750     0.1750     0.2830     2.1330 
   32.5000    32.5000    -0.0050    -0.0380    -9.4690    51.2860     0.0750     0.1770     0.3250     2.1330 
   32.6250    32.6250    -0.0060    -0.0400    -8.7380    53.0010     0.0750     0.1810     0.2250     2.1330 
   32.7500    32.7500    -0.0060    -0.0420    -8.0380    52.0410     0.0750     0.1840    -0.3170     2.1330 
   32.8750    32.8750    -0.0070    -0.0440    -7.4570    48.7320     0.0740     0.1870    -0.7580     2.1330 
   33.0000    33.0000    -0.0070    -0.0460    -6.7500    44.9770     0.0740     0.1910    -0.7600     2.1330 
   33.1250    33.1250    -0.0080    -0.0480    -5.7970    42.5140     0.0740     0.1900    -0.6270     2.1330 
   33.2500    33.2500    -0.0090    -0.0500    -4.6100    41.0320     0.0740     0.1900    -0.3030     2.1330 
   33.3750    33.3750    -0.0100    -0.0520    -3.4550    41.5330     0.0740     0.1970     0.4010     2.1330 
   33.5000    33.5000    -0.0100    -0.0530    -2.5180    43.1930     0.0740     0.2070     0.8990     2.1330 
   33.6250    33.6250    -0.0110    -0.0550    -2.0060    43.9670     0.0740     0.2140     0.7110     2.1330 
   33.7500    33.7500    -0.0120    -0.0570    -1.7450    43.4240     0.0730     0.2200     0.2140     2.1330 
   33.8750    33.8750    -0.0130    -0.0590    -1.6890    41.8250     0.0730     0.2200    -0.1450     2.1330 
   34.0000    34.0000    -0.0140    -0.0610    -1.5340    41.5500     0.0730     0.2190    -0.1590     2.1330 
   34.1250    34.1240    -0.0150    -0.0620    -1.0900    41.7210     0.0730     0.2180     0.2300     2.1330 
   34.2500    34.2490    -0.0160    -0.0640    -0.5000    43.8590     0.0730     0.2100     0.4660     2.1330 
   34.3750    34.3740    -0.0170    -0.0660     0.3170    46.1870     0.0720     0.1990     0.4660     2.1330 
   34.5000    34.4990    -0.0180    -0.0670     1.1610    48.1790     0.0720     0.1910     0.6550     2.1330 
   34.6250    34.6240    -0.0200    -0.0690     1.7630    48.5180     0.0710     0.1840     0.6070     2.1330 
   34.7500    34.7490    -0.0210    -0.0700     1.9550    49.2710     0.0710     0.1740     0.1910     2.1330 
   34.8750    34.8740    -0.0220    -0.0720     1.8920    50.4860     0.0710     0.1630    -0.0550     2.1330 
   35.0000    34.9990    -0.0230    -0.0740     1.6290    51.6240     0.0700     0.1530    -0.0460     2.1330 
   35.1250    35.1240    -0.0250    -0.0750     1.3870    52.9900     0.0700     0.1490     0.0240     2.1330 
   35.2500    35.2490    -0.0260    -0.0760     1.2700    53.3120     0.0710     0.1490     0.0340     2.1330 
   35.3750    35.3740    -0.0280    -0.0780     1.4950    52.3860     0.0720     0.1540     0.0780     2.1330 
   35.5000    35.4990    -0.0290    -0.0790     2.0020    49.5770     0.0720     0.1610     0.2920     2.1330 
   35.6250    35.6240    -0.0310    -0.0810     2.6330    45.7710     0.0730     0.1660     0.2970     2.1330 
   35.7500    35.7490    -0.0320    -0.0820     3.2200    42.6750     0.0720     0.1690     0.0860     2.1330 
   35.8750    35.8740    -0.0340    -0.0830     3.6400    40.9150     0.0720     0.1660     0.0490     2.1330 
   36.0000    35.9990    -0.0350    -0.0850     4.1550    40.4520     0.0710     0.1630     0.0910     2.1330 
   36.1250    36.1240    -0.0370    -0.0860     4.6670    40.4940     0.0700     0.1660     0.0890     2.1330 
   36.2500    36.2490    -0.0380    -0.0870     4.2000    40.6860     0.0700     0.1730     0.0630     2.1330 
   36.3750    36.3740    -0.0400    -0.0880     2.5060    39.8570     0.0700     0.1820     0.0180     2.1330 
   36.5000    36.4990    -0.0420    -0.0900     1.2360    39.0950     0.0700     0.1850     0.0010     2.1330 
   36.6250    36.6240    -0.0430    -0.0910     0.8440    39.1960     0.0700     0.1840     0.0340     2.1330 
   36.7500    36.7490    -0.0450    -0.0920     0.9210    40.8110     0.0700     0.1820     0.0650     2.1330 
   36.8750    36.8740    -0.0470    -0.0930     1.3090    43.0400     0.0700     0.1790     0.0610     2.1330 
   37.0000    36.9990    -0.0490    -0.0940     2.0060    44.7770     0.0700     0.1790     0.0550     2.1330 
   37.1250    37.1240    -0.0510    -0.0950     2.9430    45.2310     0.0700     0.1780     0.0520     2.1330 
   37.2500    37.2490    -0.0530    -0.0960     3.7520    45.1770     0.0700     0.1760     0.0890     2.1330 
   37.3750    37.3740    -0.0550    -0.0970     4.4180    45.1750     0.0700     0.1740     0.1560     2.1330 
   37.5000    37.4990    -0.0570    -0.0980     5.1120    44.9450     0.0690     0.1720     0.1320     2.1330 
   37.6250    37.6240    -0.0590    -0.0990     6.0320    44.0150     0.0690     0.1770     0.0540     2.1330 
   37.7500    37.7490    -0.0610    -0.1000     7.0000    43.5460     0.0690     0.1840     0.0310     2.1330 
   37.8750    37.8740    -0.0630    -0.1000     7.9900    44.1390     0.0690     0.1870     0.0340     2.1330 
   38.0000    37.9990    -0.0650    -0.1010     8.5360    44.8160     0.0690     0.1790     0.0340     2.1330 
   38.1250    38.1240    -0.0670    -0.1020     8.1110    45.2850     0.0700     0.1740     0.0320     2.1330 
   38.2500    38.2490    -0.0690    -0.1030     6.7660    45.1590     0.0690     0.1710     0.0300     2.1330 
   38.3750    38.3740    -0.0710    -0.1030     4.8900    44.7370     0.0690     0.1740     0.0290     2.1330 
   38.5000    38.4990    -0.0730    -0.1040     2.9520    43.6190     0.0690     0.1770    -0.0630     2.1330 
   38.6250    38.6240    -0.0750    -0.1050     1.0730    43.4980     0.0680     0.1750    -0.1790     2.1330 
   38.7500    38.7490    -0.0770    -0.1050    -0.5920    43.9210     0.0680     0.1730    -0.1110     2.1330 
   38.8750    38.8740    -0.0800    -0.1060    -1.9790    44.6730     0.0680     0.1700    -0.0050     2.1330 
   39.0000    38.9990    -0.0820    -0.1070    -2.9720    44.6880     0.0680     0.1690     0.0070     2.1330 
