~V
VERS. 2.00: Ver 2.00
~W
STRT.M 32.0000:
STOP.M 275.0000:
STEP.M 0.1250:
NULL. -999.2500:
UWI. FD10902:
~C
DEPT.M :
TVD. :
DX. :
DY. :
SP.MV :
GR.API :
RI. :
RML.OHMM :
RXO.OHMM :
DEN.GM/CC :
~A
# ...
  223.6250   211.3710    57.6320   -17.3750    -1.9240    76.5300     4.6100     5.5480     5.2430     2.3150 
  223.7500   211.4810    57.6880   -17.3930    -2.3140    76.3840     4.7700     5.6900     5.5460     2.3050 
  223.8750   211.5910    57.7440   -17.4110    -2.8020    75.4470     4.9150     5.7940     5.7950     2.2870 
  224.0000   211.7020    57.8000   -17.4290    -3.3890    75.8290     5.1210     5.9650     6.0970     2.2660 
  224.1250   211.8120    57.8570   -17.4470    -3.8770    75.6420     5.4800     6.3510     6.6790     2.2530 
  224.2500   211.9220    57.9130   -17.4660    -4.2670    74.9670     6.1140     7.1120     7.5990     2.2490 
  224.3750   212.0320    57.9690   -17.4840    -4.5180    71.1500     6.9200     8.0720     9.4790     2.2460 
  224.5000   212.1420    58.0260   -17.5020    -4.7590    68.4640     7.7680     9.0220    11.4770     2.2380 
  224.6250   212.2520    58.0820   -17.5200    -4.9860    67.3040     8.3430     9.5670    11.6640     2.2330 
  224.7500   212.3620    58.1380   -17.5380    -5.3100    68.3680     8.5240     9.6210    10.7080     2.2300 
  224.8750   212.4730    58.1940   -17.5570    -5.7530    68.1640     8.3730     9.3020     9.6650     2.2280 
  225.0000   212.5830    58.2510   -17.5750    -6.1940    67.2890     8.0770     8.8750     9.0350     2.2180 
  225.1250   212.6930    58.3070   -17.5930    -6.5970    65.7140     7.9230     8.6410     8.9630     2.2060 
  225.2500   212.8030    58.3630   -17.6110    -6.8700    64.8300     7.9850     8.6370     9.2900     2.1940 
  225.3750   212.9130    58.4200   -17.6290    -7.0280    65.3030     8.2970     8.9230     9.6620     2.1900 
  225.5000   213.0230    58.4760   -17.6470    -7.0430    66.4100     8.9150     9.5390    10.1710     2.1950 
  225.6250   213.1330    58.5320   -17.6660    -6.9430    66.9180     9.7800    10.4520    11.7130     2.2040 
  225.7500   213.2430    58.5890   -17.6840    -6.6480    65.6970    10.7880    11.4910    14.3290     2.2130 
  225.8750   213.3530    58.6450   -17.7020    -6.0960    63.1980    11.4860    12.1520    16.5380     2.2150 
  226.0000   213.4630    58.7020   -17.7200    -5.2800    61.7490    11.5880    12.1160    17.4100     2.2160 
  226.1250   213.5730    58.7580   -17.7390    -4.4280    62.6630    10.9040    11.2120    16.4380     2.2230 
  226.2500   213.6830    58.8140   -17.7570    -3.6720    66.0130     9.7190     9.8160    13.3680     2.2390 
  226.3750   213.7930    58.8710   -17.7750    -3.1050    71.9550     8.4340     8.3850    10.2020     2.2540 
  226.5000   213.9030    58.9270   -17.7940    -2.9140    78.5180     7.5010     7.3950     9.0100     2.2580 
  226.6250   214.0130    58.9840   -17.8120    -3.0920    84.9180     7.0380     6.9360     9.2780     2.2580 
  226.7500   214.1230    59.0400   -17.8300    -3.3940    87.0900     7.0770     7.0130     9.1470     2.2570 
  226.8750   214.2330    59.0970   -17.8480    -3.7870    86.1630     7.4720     7.4390     8.6610     2.2550 
  227.0000   214.3430    59.1540   -17.8660    -4.2090    83.7150     8.1700     8.1590     9.4610     2.2500 
  227.1250   214.4530    59.2100   -17.8840    -4.6210    81.8470     9.0680     9.0480    10.7480     2.2440 
  227.2500   214.5630    59.2670   -17.9020    -5.0200    80.7930     9.9370     9.8620    11.3010     2.2430 
  227.3750   214.6730    59.3230   -17.9200    -5.3170    79.5530    10.5570    10.3990    11.4780     2.2500 
  227.5000   214.7830    59.3800   -17.9380    -5.7000    78.7330    10.8700    10.6270    11.5870     2.2570 
  227.6250   214.8930    59.4370   -17.9560    -6.1240    78.4530    10.9400    10.6230    11.7850     2.2590 
  227.7500   215.0030    59.4930   -17.9740    -6.6090    79.1590    10.8240    10.4610    12.0260     2.2480 
  227.8750   215.1130    59.5500   -17.9920    -7.2700    80.3320    10.6380    10.2470    11.7800     2.2410 
  228.0000   215.2230    59.6060   -18.0100    -7.9920    79.7980    10.4540    10.0630    10.7460     2.2350 
  228.1250   215.3330    59.6630   -18.0280    -8.6230    78.8550    10.4090    10.0310    10.0900     2.2410 
  228.2500   215.4430    59.7200   -18.0460    -9.2290    76.0720    10.6270    10.2820    10.6300     2.2410 
  228.3750   215.5530    59.7760   -18.0640    -9.6610    73.3830    11.1940    10.9030    11.7070     2.2340 
  228.5000   215.6630    59.8330   -18.0820    -9.9760    69.5080    12.0030    11.7680    13.0650     2.2230 
  228.6250   215.7730    59.8890   -18.1000   -10.2000    66.8860    12.7950    12.5790    14.5340     2.2150 
  228.7500   215.8830    59.9460   -18.1180   -10.4220    67.5280    13.2830    13.0120    15.7370     2.2150 
  228.8750   215.9930    60.0020   -18.1360   -10.6920    69.1220    13.4380    13.0560    15.9400     2.2140 
  229.0000   216.1030    60.0590   -18.1540   -11.0970    71.0730    13.4220    12.9090    14.5160     2.2160 
  229.1250   216.2130    60.1150   -18.1730   -11.5260    69.7570    13.4710    12.8690    13.5650     2.2130 
  229.2500   216.3230    60.1720   -18.1910   -11.7550    68.1240    13.8710    13.2620    14.6770     2.2060 
  229.3750   216.4330    60.2280   -18.2090   -11.7940    67.0250    14.7130    14.1390    16.0220     2.1960 
  229.5000   216.5430    60.2850   -18.2270   -11.7440    68.1130    15.6970    15.1470    16.4590     2.1910 
  229.6250   216.6530    60.3410   -18.2450   -11.6450    69.0480    16.4140    15.8740    16.8840     2.1870 
  229.7500   216.7630    60.3980   -18.2630   -11.4610    69.9870    16.4270    15.8520    17.5000     2.1890 
  229.8750   216.8730    60.4540   -18.2810   -11.4010    69.6690    15.6940    15.0800    17.1570     2.1950 
  230.0000   216.9830    60.5110   -18.2990   -11.4120    68.9170    14.5890    13.9640    15.6730     2.2000 
  230.1250   217.0930    60.5670   -18.3170   -11.5640    67.1820    13.6640    13.0340    14.1200     2.1910 
  230.2500   217.2030    60.6240   -18.3350   -11.7950    65.9670    13.1210    12.5190    13.0130     2.1770 
  230.3750   217.3130    60.6800   -18.3530   -12.0150    64.3550    13.1380    12.5870    12.8550     2.1670 
  230.5000   217.4240    60.7370   -18.3710   -12.0870    61.8430    14.1390    13.7060    15.4870     2.1780 
  230.6250   217.5340    60.7930   -18.3890   -12.0090    60.1510    15.9550    15.6340    17.9780     2.1990 
  230.7500   217.6440    60.8500   -18.4070   -11.8390    59.7740    18.0800    17.8170    18.9870     2.2290 
  230.8750   217.7540    60.9060   -18.4250   -11.6390    60.1870    20.0950    19.8500    20.2080     2.2410 
  231.0000   217.8640    60.9630   -18.4430   -11.3940    59.4270    21.0920    20.7330    21.1050     2.2300 
  231.1250   217.9740    61.0190   -18.4610   -11.0530    58.6590    21.0340    20.5680    20.4360     2.2060 
  231.2500   218.0840    61.0750   -18.4790   -10.6140    57.9600    20.2900    19.7120    19.8160     2.1990 
  231.3750   218.1940    61.1320   -18.4970   -10.1210    57.5980    19.1220    18.4670    19.3520     2.2220 
  231.5000   218.3040    61.1880   -18.5150    -9.5580    57.1720    18.1370    17.4620    19.5110     2.2710 
  231.6250   218.4140    61.2450   -18.5330    -8.8420    58.0830    17.8610    17.2310    22.5130     2.3440 
  231.7500   218.5240    61.3010   -18.5510    -8.0050    60.7940    18.7280    18.1590    24.2230     2.4380 
  231.8750   218.6350    61.3570   -18.5680    -7.0960    62.9980    20.9780    20.6130    26.9740     2.5360 
  232.0000   218.7450    61.4140   -18.5860    -6.1840    62.3940    24.4830    24.5850    31.1030     2.6000 
  232.1250   218.8550    61.4700   -18.6040    -5.3230    59.6300    26.6740    26.9840    37.3850     2.6170 
  232.2500   218.9650    61.5260   -18.6220    -4.5550    57.5100    26.1510    26.6870    42.2280     2.5810 
  232.3750   219.0750    61.5830   -18.6390    -3.7970    57.4850    22.8330    23.1950    27.8730     2.5170 
  232.5000   219.1850    61.6390   -18.6570    -3.1650    60.3950    16.6950    16.7300    20.1610     2.4410 
  232.6250   219.2960    61.6950   -18.6750    -2.6510    63.9580    11.0940    11.0150    14.4820     2.3680 
