~V
VERS. 2.00: Ver 2.00
~W
STRT.M 20.0000:
STOP.M 282.0000:
STEP.M 0.1250:
NULL. -999.2500:
UWI. FD10228:
~C
DEPT.M :
TVD. :
DX. :
DY. :
GR.API :
RML.OHMM :
RI. :
RXO.OHMM :
CALI.CM :
SP.MV :
DEN.GM/CC :
~A
# ...
   53.0000    52.9940    -0.3440     0.2370    79.4360    14.5910     6.1420     9.8620    23.3060   -28.0740     2.1890 
   53.1250    53.1190    -0.3470     0.2390    72.9220    17.8190     7.5020    11.8110    23.1020   -28.2220     2.2440 
   53.2500    53.2440    -0.3500     0.2410    67.2880    21.0740     9.1970    13.7670    23.0010   -28.3580     2.3400 
   53.3750    53.3690    -0.3540     0.2430    65.9760    23.1960    10.7380    17.1690    22.8910   -28.4900     2.4310 
   53.5000    53.4930    -0.3570     0.2440    65.6000    23.1090    11.4450    22.4620    22.8680   -28.6300     2.4740 
   53.6250    53.6180    -0.3600     0.2460    63.0370    20.5240    10.8070    22.6840    23.0470   -28.7450     2.4460 
   53.7500    53.7430    -0.3630     0.2480    63.9080    17.2280     9.4960    17.1950    23.4300   -28.7800     2.3650 
   53.8750    53.8680    -0.3660     0.2500    68.6870    14.4830     8.1370    13.6130    24.0550   -28.7240     2.2840 
   54.0000    53.9930    -0.3690     0.2520    71.3300    12.8480     7.1010    12.2960    24.9230   -28.5760     2.2240 
   54.1250    54.1180    -0.3720     0.2540    68.8610    12.4690     6.5740    11.9800    25.3380   -28.3860     2.1900 
   54.2500    54.2430    -0.3750     0.2560    68.7970    12.8200     6.4330    11.9730    24.9580   -28.2050     2.1720 
   54.3750    54.3680    -0.3780     0.2580    71.5310    13.5040     6.5610    12.3900    24.0910   -27.9870     2.1570 
   54.5000    54.4930    -0.3810     0.2600    71.6540    14.1650     6.8140    12.7790    23.6970   -27.6980     2.1420 
   54.6250    54.6180    -0.3850     0.2620    68.0030    14.5670     7.0600    12.9430    23.7800   -27.3250     2.1300 
   54.7500    54.7430    -0.3880     0.2630    64.9260    14.7170     7.2250    13.0610    24.3080   -26.9300     2.1300 
   54.8750    54.8680    -0.3910     0.2650    62.3890    14.6460     7.2840    13.1100    25.9170   -26.5120     2.1410 
   55.0000    54.9930    -0.3940     0.2670    58.8970    14.4160     7.2460    12.8040    27.5130   -26.0820     2.1620 
   55.1250    55.1180    -0.3970     0.2690    56.5310    14.1270     7.1540    12.6240    26.0280   -25.5980     2.1860 
   55.2500    55.2430    -0.4000     0.2710    57.2370    13.8690     7.0720    12.4430    25.8190   -25.0420     2.2080 
   55.3750    55.3680    -0.4030     0.2730    60.4200    13.6750     7.0280    12.2450    25.6360   -24.4760     2.2210 
   55.5000    55.4930    -0.4060     0.2750    64.2020    13.5650     7.0330    12.4480    25.4130   -23.8980     2.2210 
   55.6250    55.6180    -0.4090     0.2770    67.6740    13.6550     7.1160    12.8690    25.2010   -23.2420     2.2080 
   55.7500    55.7430    -0.4130     0.2790    69.7390    14.0810     7.3270    12.9570    24.9740   -22.5160     2.1880 
   55.8750    55.8670    -0.4160     0.2810    70.3070    14.9330     7.7260    12.7000    24.8950   -21.7620     2.1730 
   56.0000    55.9920    -0.4190     0.2820    71.1360    16.1100     8.3170    12.6940    24.9100   -21.0180     2.1750 
   56.1250    56.1170    -0.4220     0.2840    71.4100    17.1550     8.9600    14.0170    24.9100   -20.2690     2.2030 
   56.2500    56.2420    -0.4250     0.2860    70.6170    17.4140     9.3330    16.9160    24.7180   -19.5260     2.2520 
   56.3750    56.3670    -0.4280     0.2880    70.8050    16.4220     9.1340    18.8180    24.5640   -18.7790     2.3020 
   56.5000    56.4920    -0.4310     0.2900    75.1200    14.2900     8.2940    14.4040    24.5560   -18.0710     2.3350 
   56.6250    56.6170    -0.4340     0.2920    84.8130    11.8350     7.0880     8.7740    24.8970   -17.5380     2.3460 
   56.7500    56.7420    -0.4370     0.2940    94.2240     9.9200     5.9880     6.3780    25.2810   -17.1590     2.3400 
   56.8750    56.8670    -0.4400     0.2960    98.5360     8.7700     5.1810     5.6440    25.4110   -16.8800     2.3330 
   57.0000    56.9920    -0.4440     0.2980    97.2750     8.2710     4.7030     5.5470    25.0020   -16.6740     2.3300 
   57.1250    57.1170    -0.4470     0.3000    95.8960     8.2030     4.5320     5.6640    24.8400   -16.6280     2.3280 
   57.2500    57.2420    -0.4500     0.3020    95.2730     8.2830     4.5350     5.6940    24.9430   -16.7230     2.3210 
   57.3750    57.3670    -0.4530     0.3030    93.4480     8.4640     4.6550     5.6390    25.2000   -16.9140     2.3090 
   57.5000    57.4920    -0.4560     0.3050    91.8250     8.8080     4.8710     5.7870    25.4600   -17.1570     2.2880 
   57.6250    57.6170    -0.4590     0.3070    93.8950     9.4650     5.2080     6.3050    25.3030   -17.3770     2.2580 
   57.7500    57.7420    -0.4620     0.3090    95.0090    10.5050     5.6880     7.4130    24.7910   -17.5700     2.2210 
   57.8750    57.8670    -0.4650     0.3110    90.4080    12.0520     6.3940     9.2420    24.3050   -17.7390     2.1880 
   58.0000    57.9920    -0.4680     0.3130    81.6270    14.1860     7.4300    10.7720    24.2160   -17.8480     2.1770 
   58.1250    58.1170    -0.4720     0.3150    75.7240    16.8150     8.8760    11.8120    24.4280   -17.8310     2.2040 
   58.2500    58.2410    -0.4750     0.3170    73.6740    19.2130    10.4100    14.1780    24.5310   -17.7050     2.2800 
   58.3750    58.3660    -0.4780     0.3190    72.3560    20.3790    11.4440    20.2940    24.3370   -17.5370     2.3730 
   58.5000    58.4910    -0.4810     0.3210    71.3650    19.4830    11.3600    29.4760    24.2620   -17.3790     2.4460 
   58.6250    58.6160    -0.4840     0.3220    75.8180    16.6590    10.0390    23.8120    24.3260   -17.2460     2.4670 
   58.7500    58.7410    -0.4870     0.3240    83.8660    13.7620     8.4740    13.2800    24.3890   -17.1140     2.4270 
   58.8750    58.8660    -0.4900     0.3260    89.0990    11.8760     7.2830     8.0220    24.3370   -17.0090     2.3610 
   59.0000    58.9910    -0.4930     0.3280    88.3630    11.2800     6.6920     7.3200    24.0650   -16.9830     2.2970 
   59.1250    59.1160    -0.4960     0.3300    84.1400    11.8150     6.7450     9.5390    23.9340   -17.0690     2.2490 
   59.2500    59.2410    -0.4990     0.3320    80.7240    12.6890     7.1440    12.2370    23.8380   -17.2030     2.2240 
   59.3750    59.3660    -0.5030     0.3340    79.4250    13.2450     7.5930    12.9110    23.7800   -17.3060     2.2140 
   59.5000    59.4910    -0.5060     0.3360    81.3530    13.0280     7.7830    11.1060    23.8670   -17.3440     2.2160 
   59.6250    59.6160    -0.5090     0.3380    84.9450    12.0360     7.5310     9.0060    23.9560   -17.3030     2.2250 
   59.7500    59.7410    -0.5120     0.3400    88.0490    10.9350     7.0630     7.7880    23.9860   -17.2280     2.2390 
   59.8750    59.8660    -0.5150     0.3410    90.1710    10.1080     6.5840     7.4820    23.9780   -17.1490     2.2570 
   60.0000    59.9910    -0.5180     0.3430    92.1500     9.6610     6.2240     7.2600    24.0920   -17.0520     2.2740 
   60.1250    60.1160    -0.5210     0.3450    93.4980     9.5370     6.0420     6.7520    24.3850   -16.9150     2.2860 
   60.2500    60.2410    -0.5240     0.3470    92.4500     9.5230     5.9690     6.4750    24.4570   -16.8140     2.2860 
   60.3750    60.3660    -0.5270     0.3490    90.1310     9.4990     5.9340     6.4510    24.2860   -16.7920     2.2770 
   60.5000    60.4910    -0.5310     0.3510    88.4510     9.3920     5.8730     6.6740    24.1750   -16.8330     2.2670 
   60.6250    60.6150    -0.5340     0.3530    87.8040     9.1610     5.7470     6.5490    24.4590   -16.9310     2.2660 
   60.7500    60.7400    -0.5370     0.3550    89.5070     8.8740     5.5800     6.2150    24.7040   -17.0780     2.2770 
   60.8750    60.8650    -0.5400     0.3570    95.1410     8.6250     5.4150     5.7370    24.6280   -17.2610     2.2920 
   61.0000    60.9900    -0.5430     0.3590   101.8070     8.5190     5.3040     5.4830    24.5610   -17.5110     2.3020 
   61.1250    61.1150    -0.5460     0.3610   105.2510     8.6690     5.3110     5.5610    24.7130   -17.8460     2.2990 
