~V
VERS. 2.00: Ver 2.00
~W
STRT.M 12.0000:
STOP.M 226.0000:
STEP.M 0.1250:
NULL. -999.2500:
UWI. FD10605:
~C
DEPT.M :
TVD. :
DX. :
DY. :
GR.API :
RML.OHMM :
RI. :
RXO.OHMM :
CALI.CM :
DEN.GM/CC :
SP.MV :
~A
# ...
  193.5000   179.5680    53.6820    24.6180    64.5250    75.5070    73.5740    27.6190    19.4550     2.2590   -16.8930 
  193.6250   179.6690    53.7500    24.6460    63.7910    83.4080    81.0440    28.9650    19.4710     2.2460   -17.0240 
  193.7500   179.7700    53.8180    24.6730    62.2570    93.3900    89.5050    34.3900    19.4590     2.2370   -17.2360 
  193.8750   179.8710    53.8860    24.7000    60.1030   101.3740    97.8810    41.0280    19.4370     2.2370   -17.4620 
  194.0000   179.9730    53.9540    24.7280    58.8500   107.8790   104.8550    39.5760    19.4240     2.2430   -17.6250 
  194.1250   180.0740    54.0220    24.7550    60.7950   111.6120   108.9040    37.3280    19.4080     2.2510   -17.7910 
  194.2500   180.1750    54.0900    24.7820    63.4650   112.9790   110.3570    37.0520    19.3830     2.2560   -17.9140 
  194.3750   180.2760    54.1580    24.8090    63.0160   112.7330   110.0170    37.1690    19.3670     2.2560   -18.0760 
  194.5000   180.3780    54.2260    24.8370    59.8690   111.9110   109.0030    36.9300    19.3820     2.2530   -18.2090 
  194.6250   180.4790    54.2940    24.8640    59.8930   111.6180   108.5240    36.5930    19.4050     2.2520   -18.3130 
  194.7500   180.5800    54.3620    24.8910    62.7300   112.3430   109.1910    34.6420    19.4080     2.2540   -18.4410 
  194.8750   180.6810    54.4300    24.9190    64.0090   114.0660   111.0540    33.0940    19.4090     2.2580   -18.5180 
  195.0000   180.7830    54.4980    24.9460    62.3580   116.3500   113.6540    31.3940    19.4240     2.2600   -18.6320 
  195.1250   180.8840    54.5660    24.9730    60.9590   118.3350   116.0300    28.6460    19.4600     2.2580   -18.6190 
  195.2500   180.9850    54.6340    25.0000    61.9680   119.3040   117.3130    26.9880    19.4750     2.2530   -18.6090 
  195.3750   181.0860    54.7020    25.0280    64.2000   118.9790   117.1610    28.0530    19.4790     2.2480   -18.5830 
  195.5000   181.1880    54.7700    25.0550    66.2900   117.5770   115.7980    30.6960    19.4810     2.2430   -18.5980 
  195.6250   181.2890    54.8380    25.0820    65.9880   115.7440   113.9230    30.0400    19.4820     2.2410   -18.7510 
  195.7500   181.3900    54.9060    25.1090    61.8640   114.3720   112.4800    28.0260    19.4850     2.2380   -18.9480 
  195.8750   181.4910    54.9750    25.1370    57.1350   114.0370   112.0850    25.6060    19.4990     2.2350   -19.2040 
  196.0000   181.5930    55.0430    25.1640    56.1330   115.0660   113.1290    23.5800    19.5290     2.2320   -19.4380 
  196.1250   181.6940    55.1110    25.1910    59.2560   117.7080   115.8980    22.2620    19.5450     2.2290   -19.7350 
  196.2500   181.7950    55.1790    25.2190    60.6640   121.4780   119.8420    23.6180    19.5460     2.2280   -19.9710 
  196.3750   181.8960    55.2470    25.2460    60.7350   126.0530   124.5870    29.6140    19.5330     2.2260   -20.2180 
  196.5000   181.9980    55.3150    25.2730    61.9870   131.1080   129.8220    36.1960    19.5050     2.2230   -20.3310 
  196.6250   182.0990    55.3830    25.3000    62.2730   136.2160   135.1710    35.6550    19.5060     2.2190   -20.3210 
  196.7500   182.2000    55.4510    25.3280    60.3440   140.7500   139.9950    31.9450    19.5420     2.2150   -20.1830 
  196.8750   182.3010    55.5190    25.3550    58.8400   143.9760   143.5340    30.6570    19.6190     2.2130   -19.9040 
  197.0000   182.4030    55.5870    25.3820    59.6490   145.1710   144.9660    31.0020    19.7190     2.2140   -19.7130 
  197.1250   182.5040    55.6550    25.4090    61.9590   143.6160   143.3290    31.5000    19.7860     2.2190   -19.5130 
  197.2500   182.6050    55.7230    25.4370    64.5810   140.2990   139.5350    29.8590    19.8230     2.2270   -19.3770 
  197.3750   182.7060    55.7910    25.4640    66.8010   136.5360   134.9470    30.2010    19.8570     2.2360   -19.2360 
  197.5000   182.8080    55.8590    25.4910    67.4920   133.9750   131.3800    33.6530    19.9080     2.2430   -19.1220 
  197.6250   182.9090    55.9270    25.5190    67.2140   134.7430   131.2220    39.5320    20.0270     2.2420   -19.0280 
  197.7500   183.0100    55.9950    25.5460    66.6180   139.2950   135.1350    43.0380    20.2500     2.2370   -18.9510 
  197.8750   183.1110    56.0630    25.5730    64.4060   147.5540   143.0720    39.5710    20.5340     2.2300   -19.0000 
  198.0000   183.2130    56.1310    25.6000    61.7130   158.5270   153.9500    31.6430    20.6110     2.2250   -18.9880 
  198.1250   183.3140    56.1990    25.6280    61.6800   170.0850   165.5140    25.2690    20.2960     2.2230   -19.0210 
  198.2500   183.4150    56.2670    25.6550    63.7110   179.4120   174.7870    24.8630    20.1030     2.2200   -19.0210 
  198.3750   183.5160    56.3350    25.6820    66.2750   184.5880   179.7040    29.3230    20.3250     2.2140   -19.0160 
  198.5000   183.6180    56.4030    25.7100    67.8710   184.9330   179.4870    36.1520    20.8000     2.2080   -18.9950 
  198.6250   183.7190    56.4710    25.7370    67.4410   180.8480   174.5450    37.3960    21.1370     2.2070   -18.9480 
  198.7500   183.8200    56.5390    25.7640    66.8390   175.0580   167.8190    34.6560    21.2450     2.2120   -18.8540 
  198.8750   183.9210    56.6070    25.7910    66.8860   169.3100   161.2800    30.6600    21.0150     2.2230   -18.6740 
  199.0000   184.0230    56.6750    25.8190    65.9060   164.6050   156.1530    27.6410    20.5050     2.2340   -18.5180 
  199.1250   184.1240    56.7430    25.8460    63.2740   161.1380   152.8380    23.3590    20.0740     2.2360   -18.2880 
  199.2500   184.2250    56.8110    25.8730    63.2960   157.9220   150.2940    21.8770    20.0260     2.2260   -18.0980 
  199.3750   184.3260    56.8790    25.9000    66.4830   153.9630   147.4690    25.1690    20.3800     2.2060   -17.8530 
  199.5000   184.4280    56.9470    25.9280    68.4110   148.4840   143.3290    32.2700    20.8720     2.1840   -17.6790 
  199.6250   184.5290    57.0150    25.9550    67.9320   141.3030   136.9430    43.5970    21.2530     2.1690   -17.4570 
  199.7500   184.6300    57.0830    25.9820    68.8750   133.5390   129.4600    47.2320    21.3470     2.1700   -17.2790 
  199.8750   184.7310    57.1510    26.0100    71.7880   125.0780   122.2320    40.8490    21.0420     2.1980   -17.1420 
  200.0000   184.8330    57.2190    26.0370    74.1030   113.6360   114.2670    31.5560    20.5750     2.2580   -16.9400 
  200.1250   184.9340    57.2870    26.0640    73.5930    95.1650    99.4520    27.1700    20.2910     2.3450   -16.7770 
  200.2500   185.0350    57.3550    26.0910    71.3040    71.7360    76.1090    26.4890    20.2620     2.4230   -16.5240 
  200.3750   185.1360    57.4230    26.1190    66.9690    48.3320    50.1490    28.3780    20.4750     2.4630   -16.2750 
  200.5000   185.2380    57.4910    26.1460    59.9690    29.5790    29.2930    25.9270    20.9090     2.4490   -16.0000 
  200.6250   185.3390    57.5600    26.1730    51.6490    17.1720    17.2910    15.3290    21.3550     2.3950   -15.8470 
  200.7500   185.4400    57.6280    26.2010    45.6440    10.5630    10.8680     7.5870    21.4470     2.3510   -15.8320 
  200.8750   185.5410    57.6960    26.2280    42.8780     7.3360     7.7510     5.4450    21.0860     2.3510   -15.8980 
  201.0000   185.6430    57.7640    26.2550    42.3230     6.2320     6.4090     5.3610    20.4400     2.4020   -16.1480 
  201.1250   185.7440    57.8320    26.2820    41.9160     6.2590     6.1730     5.7010    20.0800     2.4750   -16.4520 
  201.2500   185.8450    57.9000    26.3100    40.7820     6.6590     6.4670     6.0470    20.0220     2.5200   -16.8430 
  201.3750   185.9460    57.9680    26.3370    40.8620     7.1480     6.9780     6.5200    20.1820     2.5130   -17.2790 
  201.5000   186.0480    58.0360    26.3640    43.3090     7.4930     7.4180     6.9930    20.5150     2.4550   -17.6990 
  201.6250   186.1490    58.1040    26.3910    47.1340     7.5650     7.5780     6.9700    20.9300     2.3810   -18.0500 
