~V
VERS. 2.00: Ver 2.00
~W
STRT.M 33.0000:
STOP.M 287.0000:
STEP.M 0.1250:
NULL. -999.2500:
UWI. FD10889:
~C
DEPT.M :
TVD. :
DX. :
DY. :
SP.MV :
GR.API :
RI. :
RML.OHMM :
RXO.OHMM :
DEN.GM/CC :
~A
# ...
   69.5000    69.3860    -2.4200    -0.6370   -11.2650    51.7060     5.5540     6.2940     6.3530     2.1330 
   69.6250    69.5090    -2.4360    -0.6440   -11.2830    56.5720     5.2950     5.8960     5.6140     2.1440 
   69.7500    69.6330    -2.4520    -0.6510   -11.1850    63.5490     5.0160     5.5330     5.2380     2.1420 
   69.8750    69.7570    -2.4680    -0.6580   -11.1580    65.6470     4.9180     5.4420     5.1510     2.1250 
   70.0000    69.8810    -2.4850    -0.6650   -11.1930    62.3610     5.0280     5.6330     5.4520     2.0990 
   70.1250    70.0040    -2.5010    -0.6720   -11.1880    58.3660     5.3860     6.1610     6.0170     2.0770 
   70.2500    70.1280    -2.5170    -0.6790   -11.1870    56.7650     5.8500     6.8010     6.2890     2.0740 
   70.3750    70.2520    -2.5340    -0.6860   -11.0320    56.3050     6.1530     7.1880     6.3270     2.0980 
   70.5000    70.3750    -2.5500    -0.6940   -10.6410    56.1160     5.9890     6.9390     6.1980     2.1470 
   70.6250    70.4990    -2.5670    -0.7010   -10.1880    57.8570     5.4230     6.1770     5.6540     2.2010 
   70.7500    70.6230    -2.5840    -0.7080    -9.6300    62.2320     4.7870     5.3770     4.6940     2.2450 
   70.8750    70.7460    -2.6000    -0.7160    -9.2490    66.8950     4.4230     4.9570     3.9250     2.2740 
   71.0000    70.8700    -2.6170    -0.7230    -9.0590    70.6780     4.4680     5.0740     4.3090     2.2990 
   71.1250    70.9940    -2.6340    -0.7310    -9.0930    71.4890     4.7290     5.4650     8.1360     2.3230 
   71.2500    71.1170    -2.6510    -0.7380    -9.2930    68.5070     5.1750     6.0410    14.0550     2.3280 
   71.3750    71.2410    -2.6680    -0.7460    -9.5100    64.2710     5.5880     6.4930    14.0750     2.2990 
   71.5000    71.3650    -2.6850    -0.7530    -9.5400    61.5040     5.6400     6.4350     8.5810     2.2420 
   71.6250    71.4880    -2.7020    -0.7610    -9.4010    61.7100     5.3980     6.0350     5.6910     2.1830 
   71.7500    71.6120    -2.7190    -0.7680    -9.4060    64.7440     4.9180     5.3780     5.6960     2.1480 
   71.8750    71.7350    -2.7360    -0.7760    -9.2960    68.2970     4.4840     4.8260     5.5440     2.1400 
   72.0000    71.8590    -2.7530    -0.7840    -9.0370    71.3180     4.3030     4.5710     4.9220     2.1480 
   72.1250    71.9820    -2.7710    -0.7920    -8.7770    73.5490     4.2970     4.4930     4.5760     2.1570 
   72.2500    72.1060    -2.7880    -0.8000    -8.5570    75.3690     4.5980     4.8910     4.7210     2.1550 
   72.3750    72.2300    -2.8050    -0.8080    -8.4550    74.5860     5.2970     5.7490     5.3390     2.1410 
   72.5000    72.3530    -2.8230    -0.8150    -8.2600    70.6080     6.3350     6.9290     6.6570     2.1190 
   72.6250    72.4770    -2.8400    -0.8230    -8.0280    65.7940     7.3270     8.0260     7.7130     2.1020 
   72.7500    72.6000    -2.8580    -0.8310    -8.1160    60.4430     7.5850     8.1810     7.8420     2.1000 
   72.8750    72.7240    -2.8760    -0.8390    -8.2990    55.6590     7.0490     7.4970     7.1860     2.1170 
   73.0000    72.8470    -2.8930    -0.8470    -8.4420    56.6030     5.7530     6.0270     5.9150     2.1480 
   73.1250    72.9710    -2.9110    -0.8550    -8.7600    64.9540     4.3960     4.5290     4.7870     2.1790 
   73.2500    73.0940    -2.9290    -0.8640    -8.9620    75.0260     3.5440     3.6380     3.9860     2.1940 
   73.3750    73.2170    -2.9470    -0.8720    -8.7940    78.1170     3.2540     3.4510     3.2600     2.1870 
   73.5000    73.3410    -2.9650    -0.8800    -8.4130    75.1540     3.5710     4.0200     3.4160     2.1590 
   73.6250    73.4640    -2.9820    -0.8880    -7.8960    71.2810     4.8020     5.3500     5.1970     2.1240 
   73.7500    73.5880    -3.0000    -0.8970    -7.3070    65.5390     6.8810     7.6910     7.8000     2.0970 
   73.8750    73.7110    -3.0180    -0.9050    -6.7940    57.5290     9.3680    10.5700    10.0230     2.0880 
   74.0000    73.8350    -3.0360    -0.9140    -6.4220    51.4150    11.9780    13.4560    11.9140     2.1070 
   74.1250    73.9580    -3.0550    -0.9220    -6.3670    51.2560    14.0700    15.9260    13.4800     2.1540 
   74.2500    74.0810    -3.0730    -0.9310    -6.3850    55.6390    15.7250    17.5920    15.0690     2.2230 
   74.3750    74.2050    -3.0910    -0.9390    -6.5360    58.7020    16.8010    18.5640    17.6040     2.3020 
   74.5000    74.3280    -3.1090    -0.9480    -6.8730    58.4310    17.0350    18.7150    20.6440     2.3660 
   74.6250    74.4510    -3.1270    -0.9560    -7.0720    57.3980    16.3580    18.0040    29.3090     2.3880 
   74.7500    74.5750    -3.1460    -0.9650    -7.1850    55.8180    15.2180    16.7430    40.9060     2.3490 
   74.8750    74.6980    -3.1640    -0.9730    -7.2550    53.0890    13.8840    15.3910    35.9180     2.2640 
   75.0000    74.8210    -3.1830    -0.9820    -7.1400    52.8040    12.8180    14.3600    18.5990     2.1690 
   75.1250    74.9450    -3.2010    -0.9910    -7.0890    56.2260    12.2080    13.8670    10.4130     2.0960 
   75.2500    75.0680    -3.2190    -1.0000    -7.0820    57.7800    11.9680    13.8950    10.3940     2.0600 
   75.3750    75.1910    -3.2380    -1.0090    -7.0210    56.3710    11.9490    13.9170    10.7240     2.0520 
   75.5000    75.3150    -3.2570    -1.0180    -7.0680    56.7390    11.5180    13.2790    11.0000     2.0640 
   75.6250    75.4380    -3.2750    -1.0270    -7.3870    57.9200    10.7210    12.0920    11.0610     2.0870 
   75.7500    75.5610    -3.2940    -1.0360    -7.8480    57.5800     9.7140    10.6440    10.0470     2.1090 
   75.8750    75.6840    -3.3120    -1.0460    -8.1300    57.1920     8.8890     9.5330     8.1840     2.1220 
   76.0000    75.8080    -3.3310    -1.0550    -8.3300    58.9820     8.5460     9.0890     7.0980     2.1300 
   76.1250    75.9310    -3.3500    -1.0650    -8.4930    60.8390     8.7070     9.2750     8.0460     2.1500 
   76.2500    76.0540    -3.3690    -1.0740    -8.6370    62.0460     9.1050     9.7140    10.8220     2.1950 
   76.3750    76.1770    -3.3880    -1.0840    -8.9160    63.2240     9.3590     9.9950    22.6170     2.2530 
   76.5000    76.3000    -3.4070    -1.0930    -9.2620    64.1280     9.0750     9.5500    36.1330     2.2930 
   76.6250    76.4240    -3.4260    -1.1030    -9.6690    67.3950     8.1100     8.3890    28.6260     2.2950 
   76.7500    76.5470    -3.4450    -1.1130    -9.8640    71.7620     6.9080     7.0300    11.8260     2.2640 
   76.8750    76.6700    -3.4640    -1.1230    -9.7740    76.7120     5.9060     5.9860     5.5540     2.2260 
   77.0000    76.7930    -3.4840    -1.1330    -9.5100    81.8660     5.2730     5.4040     4.9440     2.2040 
   77.1250    76.9160    -3.5030    -1.1430    -9.1030    85.3820     4.9760     5.1600     4.6880     2.1990 
   77.2500    77.0390    -3.5230    -1.1520    -8.5770    83.7940     4.8480     5.0770     4.5380     2.2010 
   77.3750    77.1620    -3.5430    -1.1620    -7.8650    77.1590     4.9030     5.1670     4.3110     2.1960 
   77.5000    77.2850    -3.5620    -1.1720    -7.2230    73.8260     5.1590     5.5190     4.1000     2.1780 
   77.6250    77.4080    -3.5820    -1.1820    -6.5460    75.8030     5.6130     6.1100     4.4980     2.1470 
   77.7500    77.5310    -3.6020    -1.1920    -5.6120    76.8630     6.2970     6.9420     5.6330     2.1120 
   77.8750    77.6540    -3.6220    -1.2020    -4.5490    73.1510     7.3620     8.1470     6.7010     2.0830 
   78.0000    77.7770    -3.6420    -1.2130    -3.6220    66.0680     8.7800     9.5980     7.4110     2.0660 
   78.1250    77.9000    -3.6620    -1.2230    -2.7150    62.5790    10.3990    11.3770     8.6630     2.0570 
   78.2500    78.0230    -3.6820    -1.2330    -1.7650    62.2880    12.0050    13.1530    11.7510     2.0490 
   78.3750    78.1460    -3.7020    -1.2430    -0.9480    61.5000    13.4540    14.9250    15.1600     2.0360 
   78.5000    78.2690    -3.7220    -1.2530    -0.2630    59.9880    14.6620    16.4130    16.5860     2.0230 
