~V
VERS. 2.00: Ver 2.00
~W
STRT.M 32.0000:
STOP.M 275.0000:
STEP.M 0.1250:
NULL. -999.2500:
UWI. FD10902:
~C
DEPT.M :
TVD. :
DX. :
DY. :
SP.MV :
GR.API :
RI. :
RML.OHMM :
RXO.OHMM :
DEN.GM/CC :
~A
# ...
  241.8750   227.4400    65.8670   -20.0240    -5.6750    46.8310     2.4220     3.3200     2.6410     2.3510 
  242.0000   227.5500    65.9240   -20.0420    -5.4460    48.0330     2.5650     3.5000     2.9310     2.3400 
  242.1250   227.6610    65.9800   -20.0610    -5.1730    51.1260     2.6270     3.5630     3.1290     2.3370 
  242.2500   227.7710    66.0360   -20.0790    -4.9340    52.7900     2.5690     3.4560     2.9560     2.3480 
  242.3750   227.8810    66.0920   -20.0980    -4.7120    51.1650     2.4290     3.2460     2.6240     2.3640 
  242.5000   227.9910    66.1480   -20.1170    -4.5050    46.0730     2.2630     3.0160     2.3670     2.3790 
  242.6250   228.1010    66.2040   -20.1360    -4.2310    42.4610     2.1280     2.8330     2.2170     2.3870 
  242.7500   228.2110    66.2600   -20.1540    -3.9780    41.1830     2.0520     2.7490     2.1390     2.3890 
  242.8750   228.3210    66.3170   -20.1730    -3.8650    41.7360     2.0350     2.7250     2.1110     2.3850 
  243.0000   228.4310    66.3730   -20.1920    -3.9870    41.1330     2.0490     2.7470     2.1300     2.3790 
  243.1250   228.5410    66.4290   -20.2100    -4.2070    41.3860     2.0810     2.7780     2.1270     2.3650 
  243.2500   228.6520    66.4850   -20.2290    -4.5010    43.4410     2.1350     2.8420     2.1050     2.3470 
  243.3750   228.7620    66.5410   -20.2470    -4.8720    47.3270     2.2260     2.9680     2.2180     2.3280 
  243.5000   228.8720    66.5980   -20.2660    -5.1890    53.4340     2.3890     3.1870     2.8150     2.3090 
  243.6250   228.9820    66.6540   -20.2840    -5.3710    60.5480     2.5900     3.4530     3.4700     2.2900 
  243.7500   229.0920    66.7100   -20.3020    -5.4810    66.5050     2.7790     3.6980     4.9870     2.2770 
  243.8750   229.2020    66.7670   -20.3200    -5.6860    68.1940     2.9210     3.8700     6.3030     2.2810 
  244.0000   229.3120    66.8230   -20.3390    -6.2080    66.7500     3.0050     3.9600     5.6660     2.2960 
  244.1250   229.4220    66.8790   -20.3570    -6.8390    67.2400     3.0630     4.0120     4.3050     2.3130 
  244.2500   229.5320    66.9360   -20.3750    -7.3970    70.1740     3.1280     4.0760     3.8430     2.3170 
  244.3750   229.6420    66.9920   -20.3940    -7.7140    73.9280     3.2470     4.2200     3.8150     2.3160 
  244.5000   229.7520    67.0480   -20.4120    -7.9740    76.4700     3.4460     4.4710     3.9930     2.3120 
  244.6250   229.8620    67.1050   -20.4310    -8.3080    80.3330     3.7240     4.8070     4.4680     2.3200 
  244.7500   229.9720    67.1610   -20.4490    -8.6450    84.8820     4.0750     5.2260     5.2530     2.3310 
  244.8750   230.0820    67.2180   -20.4680    -8.6640    90.3460     4.4430     5.6300     6.2210     2.3360 
  245.0000   230.1920    67.2740   -20.4860    -8.3390    93.0890     4.7870     5.9990     7.1430     2.3320 
  245.1250   230.3020    67.3300   -20.5050    -7.8130    92.5390     5.0630     6.2840     7.9150     2.3310 
  245.2500   230.4120    67.3870   -20.5230    -7.2770    89.7370     5.2660     6.5110     8.0900     2.3390 
  245.3750   230.5220    67.4430   -20.5420    -6.8640    87.7820     5.3860     6.6510     7.5160     2.3410 
  245.5000   230.6320    67.5000   -20.5600    -6.2840    87.7890     5.3130     6.5670     7.1690     2.3400 
  245.6250   230.7420    67.5560   -20.5790    -5.4800    86.7550     5.0830     6.3040     7.6140     2.3500 
  245.7500   230.8520    67.6120   -20.5980    -4.7160    82.1010     4.6670     5.7870     7.7410     2.3870 
  245.8750   230.9620    67.6690   -20.6160    -4.3720    73.8650     4.1060     5.1020     6.6810     2.4200 
  246.0000   231.0720    67.7250   -20.6340    -4.3650    62.2090     3.5350     4.4130     5.5410     2.4270 
  246.1250   231.1820    67.7810   -20.6530    -4.5480    50.7320     3.0070     3.7880     5.1890     2.4000 
  246.2500   231.2920    67.8380   -20.6710    -4.7810    41.0760     2.5830     3.2930     4.4890     2.3620 
  246.3750   231.4020    67.8940   -20.6900    -4.8940    35.6970     2.3000     2.9660     3.3650     2.3240 
  246.5000   231.5130    67.9500   -20.7080    -4.9710    33.5430     2.1110     2.7450     2.6810     2.3050 
  246.6250   231.6230    68.0070   -20.7260    -5.0840    33.9140     2.0250     2.6450     2.4570     2.3020 
  246.7500   231.7330    68.0630   -20.7440    -5.2590    35.9920     2.0740     2.7070     2.5550     2.3100 
  246.8750   231.8430    68.1190   -20.7630    -5.5150    41.4020     2.2570     2.9370     2.8650     2.3120 
  247.0000   231.9530    68.1750   -20.7810    -5.6780    49.1220     2.5710     3.3210     3.6540     2.3010 
  247.1250   232.0630    68.2310   -20.7990    -5.6850    57.9250     2.9590     3.8030     4.6400     2.2880 
  247.2500   232.1740    68.2870   -20.8170    -5.5120    64.2450     3.3780     4.3280     5.1870     2.2860 
  247.3750   232.2840    68.3430   -20.8350    -5.2240    67.8450     3.6420     4.6380     5.3830     2.2940 
  247.5000   232.3940    68.3990   -20.8530    -4.9250    69.0930     3.6670     4.6480     5.0160     2.3010 
  247.6250   232.5050    68.4550   -20.8720    -4.6920    68.4680     3.4910     4.3850     4.8440     2.2920 
  247.7500   232.6150    68.5110   -20.8900    -4.5540    66.1490     3.1480     3.9320     5.8860     2.2760 
  247.8750   232.7250    68.5670   -20.9080    -4.5590    61.5710     2.8210     3.5120     6.4050     2.2690 
  248.0000   232.8360    68.6230   -20.9260    -4.7730    56.4830     2.5590     3.2080     5.0200     2.2880 
  248.1250   232.9460    68.6780   -20.9440    -5.0000    51.5330     2.4130     3.0660     3.2320     2.3260 
  248.2500   233.0570    68.7340   -20.9630    -5.1330    47.3170     2.3680     3.0420     2.5210     2.3690 
  248.3750   233.1670    68.7900   -20.9810    -5.0210    44.0330     2.4140     3.1330     2.6250     2.4000 
  248.5000   233.2770    68.8450   -20.9990    -4.7160    42.7160     2.4850     3.2390     2.9220     2.4050 
  248.6250   233.3880    68.9010   -21.0170    -4.4480    41.2460     2.5570     3.3290     3.3260     2.3840 
  248.7500   233.4980    68.9560   -21.0360    -4.5290    38.8980     2.5980     3.3750     3.8290     2.3480 
  248.8750   233.6090    69.0120   -21.0540    -4.7230    36.1850     2.5670     3.3110     3.8080     2.3150 
  249.0000   233.7190    69.0680   -21.0720    -4.8600    34.9730     2.4630     3.1460     3.0470     2.2940 
  249.1250   233.8300    69.1230   -21.0900    -4.9030    35.6830     2.3210     2.9540     2.4360     2.2810 
  249.2500   233.9400    69.1790   -21.1080    -4.8080    36.8330     2.1880     2.7780     2.2370     2.2720 
  249.3750   234.0500    69.2350   -21.1260    -4.7100    37.0740     2.0760     2.6430     2.1140     2.2700 
  249.5000   234.1610    69.2910   -21.1440    -4.7960    35.2030     2.0140     2.5660     2.0220     2.2740 
  249.6250   234.2710    69.3460   -21.1630    -4.9130    32.4610     1.9780     2.5290     1.9900     2.2760 
  249.7500   234.3820    69.4020   -21.1810    -4.9400    30.3560     1.9720     2.5330     2.0210     2.2710 
  249.8750   234.4920    69.4580   -21.1990    -4.9370    29.4480     1.9850     2.5570     2.0450     2.2610 
  250.0000   234.6020    69.5140   -21.2170    -4.9610    30.0390     1.9910     2.5770     2.0490     2.2550 
  250.1250   234.7130    69.5690   -21.2360    -4.9680    31.0580     1.9850     2.5750     2.0530     2.2500 
  250.2500   234.8230    69.6250   -21.2540    -4.9470    32.5920     1.9620     2.5610     2.0620     2.2460 
  250.3750   234.9330    69.6810   -21.2720    -5.0590    33.6120     1.9420     2.5470     2.0900     2.2390 
  250.5000   235.0440    69.7370   -21.2910    -5.2680    35.2660     1.9440     2.5600     2.1390     2.2390 
  250.6250   235.1540    69.7920   -21.3090    -5.5310    36.8930     1.9650     2.5980     2.2000     2.2410 
  250.7500   235.2650    69.8480   -21.3270    -5.8570    38.3700     2.0080     2.6520     2.2970     2.2550 
  250.8750   235.3750    69.9040   -21.3460    -6.4160    39.1930     2.0950     2.7470     2.4700     2.2840 
