~V
VERS. 2.00: Ver 2.00
~W
STRT.M 43.0000:
STOP.M 257.0000:
STEP.M 0.1250:
NULL. -999.2500:
UWI. FD10872:
~C
DEPT.M :
TVD. :
DX. :
DY. :
SP.MV :
GR.API :
RI. :
RML.OHMM :
RXO.OHMM :
DEN.GM/CC :
~A
# ...
   70.3750    70.3150     1.0360    -1.2300    -6.3130    92.6200     6.1100     7.1380     5.6770     2.1960 
   70.5000    70.4390     1.0470    -1.2400    -5.4300    90.1730     7.4310     8.8760     6.6890     2.1780 
   70.6250    70.5640     1.0570    -1.2500    -4.3150    84.1100     9.1890    11.1520    10.4390     2.1560 
   70.7500    70.6880     1.0680    -1.2600    -3.1040    76.5810    11.3390    13.8610    14.6740     2.1350 
   70.8750    70.8120     1.0790    -1.2710    -1.9480    71.3360    13.1540    16.0260    15.6960     2.1160 
   71.0000    70.9360     1.0900    -1.2810    -0.9650    69.6060    14.2260    17.2430    14.7930     2.1030 
   71.1250    71.0600     1.1000    -1.2920    -0.2010    69.8980    14.4690    17.4500    14.7630     2.0940 
   71.2500    71.1840     1.1110    -1.3020     0.4480    69.8540    14.0620    16.9520    15.5420     2.0870 
   71.3750    71.3080     1.1220    -1.3130     1.1020    68.0150    13.6260    16.5440    15.5660     2.0810 
   71.5000    71.4320     1.1340    -1.3230     1.8250    66.7960    13.4550    16.5010    14.9040     2.0750 
   71.6250    71.5560     1.1450    -1.3340     2.5700    66.2980    13.4820    16.7120    14.5020     2.0700 
   71.7500    71.6800     1.1560    -1.3440     3.2020    66.1790    13.6150    17.0460    14.4640     2.0650 
   71.8750    71.8040     1.1670    -1.3550     3.5570    65.1440    13.7740    17.3610    14.9500     2.0610 
   72.0000    71.9280     1.1790    -1.3660     3.5960    63.4040    13.8910    17.5400    16.0920     2.0600 
   72.1250    72.0520     1.1900    -1.3760     3.3450    62.2010    13.9280    17.5650    17.0990     2.0590 
   72.2500    72.1760     1.2020    -1.3870     2.9370    61.7560    13.8670    17.4210    17.2730     2.0590 
   72.3750    72.3000     1.2130    -1.3980     2.4800    62.1120    13.6860    17.1440    16.6700     2.0620 
   72.5000    72.4240     1.2250    -1.4090     2.0380    63.1990    13.4810    16.8560    15.8500     2.0660 
   72.6250    72.5480     1.2370    -1.4200     1.5920    65.0160    13.1840    16.4160    15.3570     2.0720 
   72.7500    72.6720     1.2480    -1.4300     1.0880    67.9900    12.5950    15.5700    14.7010     2.0780 
   72.8750    72.7960     1.2600    -1.4410     0.4590    71.5180    11.5900    14.1980    14.3000     2.0820 
   73.0000    72.9200     1.2720    -1.4520    -0.3360    73.3390    10.3720    12.5550    15.3200     2.0860 
   73.1250    73.0440     1.2840    -1.4630    -1.3340    73.9070     9.1320    10.9570    14.6870     2.0910 
   73.2500    73.1680     1.2960    -1.4740    -2.5020    74.9720     8.1230     9.7090    10.9450     2.0980 
   73.3750    73.2920     1.3080    -1.4850    -3.7830    76.3650     7.4700     8.9190     7.9930     2.1080 
   73.5000    73.4160     1.3200    -1.4960    -5.0740    77.1600     7.0360     8.4240     7.2040     2.1200 
   73.6250    73.5400     1.3330    -1.5070    -6.2750    79.7500     6.8560     8.2350     7.1570     2.1320 
   73.7500    73.6640     1.3450    -1.5180    -7.3530    84.1480     6.6930     8.0370     7.1460     2.1450 
   73.8750    73.7880     1.3570    -1.5290    -8.3170    85.2950     6.3800     7.6180     7.1750     2.1590 
   74.0000    73.9110     1.3700    -1.5400    -9.2130    83.7230     5.9550     7.0510     7.2630     2.1740 
   74.1250    74.0350     1.3820    -1.5520   -10.0680    84.7780     5.5970     6.5780     6.8420     2.1940 
   74.2500    74.1590     1.3950    -1.5630   -10.8590    88.5620     5.3900     6.3070     5.7930     2.2190 
   74.3750    74.2830     1.4070    -1.5740   -11.4930    92.0000     5.2920     6.2040     5.4250     2.2530 
   74.5000    74.4070     1.4200    -1.5850   -11.8760    92.1600     5.3000     6.2450     7.8360     2.2890 
   74.6250    74.5310     1.4330    -1.5960   -11.9090    89.8690     5.4050     6.3910    10.1840     2.3180 
   74.7500    74.6550     1.4460    -1.6070   -11.6490    86.5670     5.5260     6.5410     8.3390     2.3300 
   74.8750    74.7780     1.4590    -1.6190   -11.2140    84.5470     5.6360     6.6850     6.0680     2.3180 
   75.0000    74.9020     1.4720    -1.6300   -10.8020    84.5410     5.7170     6.8000     6.1770     2.2910 
   75.1250    75.0260     1.4850    -1.6410   -10.5760    84.5890     5.7710     6.8950     6.7920     2.2590 
   75.2500    75.1500     1.4990    -1.6530   -10.5620    83.0630     5.8660     7.0360     7.1880     2.2350 
   75.3750    75.2730     1.5120    -1.6640   -10.7030    81.8160     5.9000     7.0640     7.3950     2.2230 
   75.5000    75.3970     1.5260    -1.6750   -10.8680    82.2940     5.7920     6.8890     7.2760     2.2200 
   75.6250    75.5210     1.5400    -1.6870   -10.9480    82.8520     5.5820     6.5920     7.0520     2.2200 
   75.7500    75.6450     1.5540    -1.6980   -10.9200    82.8090     5.4580     6.4270     6.9010     2.2230 
   75.8750    75.7680     1.5680    -1.7100   -10.8230    83.3200     5.4570     6.4310     6.4380     2.2320 
   76.0000    75.8920     1.5810    -1.7220   -10.7280    84.3100     5.5650     6.6080     6.1020     2.2520 
   76.1250    76.0160     1.5950    -1.7330   -10.6890    83.1940     5.7510     6.8810     7.7730     2.2820 
   76.2500    76.1390     1.6090    -1.7450   -10.7210    80.6970     5.8780     7.0650     9.6650     2.3120 
   76.3750    76.2630     1.6230    -1.7570   -10.8280    79.6310     5.8670     7.0350     8.5210     2.3290 
   76.5000    76.3870     1.6370    -1.7690   -10.9890    81.8370     5.5920     6.6720     6.6770     2.3250 
   76.6250    76.5100     1.6520    -1.7800   -11.1930    84.8950     5.0870     6.0350     6.0710     2.3040 
   76.7500    76.6340     1.6660    -1.7920   -11.4300    87.8350     4.4980     5.3090     5.6320     2.2800 
   76.8750    76.7570     1.6800    -1.8040   -11.6890    89.8940     4.0750     4.8240     4.9820     2.2660 
   77.0000    76.8810     1.6940    -1.8160   -11.9550    90.3940     3.9430     4.6880     4.4970     2.2630 
   77.1250    77.0050     1.7090    -1.8280   -12.2150    89.6400     4.0860     4.9030     4.5560     2.2680 
   77.2500    77.1280     1.7240    -1.8400   -12.4490    89.4310     4.4850     5.4550     5.2200     2.2750 
   77.3750    77.2520     1.7380    -1.8520   -12.6120    89.3280     5.0450     6.1880     7.3790     2.2820 
   77.5000    77.3750     1.7530    -1.8640   -12.6610    85.7870     5.5530     6.8040     9.5560     2.2880 
   77.6250    77.4990     1.7680    -1.8760   -12.5150    79.2630     5.8370     7.0800     8.9020     2.2930 
   77.7500    77.6220     1.7830    -1.8880   -12.1500    74.6400     5.8650     7.0050     7.1700     2.2940 
   77.8750    77.7460     1.7980    -1.9000   -11.5830    74.7550     5.7310     6.7500     6.4240     2.2880 
   78.0000    77.8690     1.8130    -1.9120   -10.9460    76.9480     5.6430     6.6010     6.3980     2.2780 
   78.1250    77.9930     1.8280    -1.9240   -10.4160    77.5260     5.8930     6.9450     6.7180     2.2690 
   78.2500    78.1160     1.8430    -1.9360   -10.1380    75.8150     6.4940     7.7470     7.0090     2.2680 
   78.3750    78.2400     1.8580    -1.9490   -10.1890    74.1130     7.1110     8.5160     7.0700     2.2860 
   78.5000    78.3630     1.8740    -1.9610   -10.4650    73.9420     7.4540     8.9200     8.0520     2.3220 
   78.6250    78.4870     1.8890    -1.9730   -10.7960    74.0360     7.3220     8.6860    10.7770     2.3690 
   78.7500    78.6100     1.9050    -1.9850   -10.9990    73.2530     6.8350     8.0000    10.9690     2.4060 
   78.8750    78.7330     1.9200    -1.9980   -10.9450    71.8500     6.2440     7.2460     7.4310     2.4130 
   79.0000    78.8570     1.9360    -2.0100   -10.6650    72.2920     5.7120     6.6050     5.5420     2.3870 
   79.1250    78.9800     1.9520    -2.0220   -10.2460    75.4290     5.3970     6.2760     6.0090     2.3390 
   79.2500    79.1040     1.9670    -2.0350    -9.8150    78.1930     5.2980     6.2220     6.4690     2.2890 
   79.3750    79.2270     1.9830    -2.0470    -9.4640    78.6130     5.4290     6.4200     6.6460     2.2520 
