~V
VERS. 2.00: Ver 2.00
~W
STRT.M 30.0000:
STOP.M 223.0000:
STEP.M 0.1250:
NULL. -999.2500:
UWI. FD10814:
~C
DEPT.M :
TVD. :
DX. :
DY. :
SP.MV :
GR.API :
RI. :
RML.OHMM :
RXO.OHMM :
DEN.GM/CC :
~A
# ...
   39.1250    39.1240    -0.1400    -0.0040   123.3230    45.6230     0.0560     0.3170     0.1570     2.2630 
   39.2500    39.2490    -0.1430    -0.0050   124.1570    45.7120     0.0560     0.3220     0.1600     2.2480 
   39.3750    39.3740    -0.1450    -0.0050   124.8400    44.8740     0.0400     0.3380     0.2080     2.2370 
   39.5000    39.4990    -0.1470    -0.0060   125.3510    43.6650     0.0250     0.3560     0.2880     2.2250 
   39.6250    39.6240    -0.1490    -0.0060   125.7120    42.7060     0.0220     0.3650     0.2800     2.2090 
   39.7500    39.7490    -0.1510    -0.0070   125.7960    42.3880     0.0120     0.3640     0.2040     2.1920 
   39.8750    39.8740    -0.1530    -0.0070   125.4800    42.4260     0.0280     0.3530     0.1750     2.1820 
   40.0000    39.9990    -0.1550    -0.0070   124.7920    42.4320     0.0380     0.3470     0.1840     2.1830 
   40.1250    40.1240    -0.1570    -0.0080   123.7650    42.3820     0.0470     0.3480     0.1730     2.1830 
   40.2500    40.2490    -0.1590    -0.0080   122.5180    41.8430     0.0570     0.3480     0.1570     2.1820 
   40.3750    40.3740    -0.1620    -0.0090   121.2460    42.3960     0.0570     0.3450     0.1570     2.1760 
   40.5000    40.4990    -0.1640    -0.0090   120.2190    42.7720     0.0570     0.3400     0.1520     2.1700 
   40.6250    40.6240    -0.1660    -0.0090   119.4510    43.5950     0.0570     0.3330     0.1360     2.1560 
   40.7500    40.7490    -0.1680    -0.0100   118.8600    42.9810     0.0570     0.3240     0.1240     2.1470 
   40.8750    40.8740    -0.1700    -0.0100   118.3070    43.3450     0.0570     0.3160     0.1150     2.1490 
   41.0000    40.9990    -0.1720    -0.0100   117.8200    43.4090     0.0570     0.3130     0.1130     2.1670 
   41.1250    41.1240    -0.1740    -0.0110   117.4090    44.0220     0.0570     0.3120     0.1240     2.1870 
   41.2500    41.2490    -0.1770    -0.0110   117.1150    43.0190     0.0580     0.3080     0.1330     2.2050 
   41.3750    41.3740    -0.1790    -0.0110   116.9690    42.5050     0.0580     0.2990     0.1290     2.2220 
   41.5000    41.4990    -0.1810    -0.0110   117.0340    42.1260     0.0570     0.2860     0.1180     2.2500 
   41.6250    41.6240    -0.1830    -0.0120   117.1680    42.3920     0.0570     0.2730     0.1180     2.2890 
   41.7500    41.7490    -0.1850    -0.0120   117.3460    42.6120     0.0570     0.2630     0.1290     2.3380 
   41.8750    41.8730    -0.1880    -0.0120   117.6620    43.2270     0.0570     0.2510     0.1350     2.3940 
   42.0000    41.9980    -0.1900    -0.0120   117.9940    44.1790     0.0580     0.2370     0.1380     2.4470 
   42.1250    42.1230    -0.1920    -0.0120   118.2930    44.6460     0.0580     0.2270     0.1400     2.4820 
   42.2500    42.2480    -0.1940    -0.0120   118.5210    45.8330     0.0570     0.2190     0.1400     2.4670 
   42.3750    42.3730    -0.1960    -0.0120   118.7480    49.3280     0.0570     0.2140     0.1390     2.4000 
   42.5000    42.4980    -0.1990    -0.0120   119.0130    54.2840     0.0690     0.2060     0.1410     2.3190 
   42.6250    42.6230    -0.2010    -0.0120   119.3420    56.3220     0.0840     0.1920     0.1430     2.2680 
   42.7500    42.7480    -0.2030    -0.0120   119.6540    55.6340     0.1000     0.1770     0.1440     2.2470 
   42.8750    42.8730    -0.2050    -0.0120   119.8270    54.4960     0.1120     0.1640     0.1400     2.2400 
   43.0000    42.9980    -0.2080    -0.0120   119.9090    55.1060     0.1110     0.1540     0.1300     2.2260 
   43.1250    43.1230    -0.2100    -0.0120   119.9400    57.0890     0.1100     0.1480     0.1250     2.2080 
   43.2500    43.2480    -0.2120    -0.0110   120.0380    58.0840     0.1140     0.1450     0.1280     2.1900 
   43.3750    43.3730    -0.2140    -0.0110   120.2100    57.6690     0.1260     0.1460     0.1330     2.1840 
   43.5000    43.4980    -0.2160    -0.0110   120.4630    55.7840     0.1380     0.1470     0.1310     2.1990 
   43.6250    43.6230    -0.2190    -0.0110   120.5740    53.9000     0.1510     0.1570     0.1250     2.2540 
   43.7500    43.7480    -0.2210    -0.0100   120.3480    52.0000     0.1520     0.1720     0.1280     2.3460 
   43.8750    43.8730    -0.2230    -0.0100   119.7190    50.5030     0.1490     0.1880     0.1380     2.4530 
   44.0000    43.9980    -0.2250    -0.0100   118.5880    48.7700     0.1320     0.1930     0.1390     2.5290 
   44.1250    44.1230    -0.2280    -0.0090   116.1830    47.2820     0.1070     0.1700     0.1260     2.5570 
   44.2500    44.2480    -0.2300    -0.0090   112.5500    45.9360     0.0750     0.1260     0.1210     2.5530 
   44.3750    44.3730    -0.2320    -0.0080   108.0400    44.8830     0.0440     0.0760     0.1430     2.5480 
   44.5000    44.4980    -0.2340    -0.0080   102.4450    44.5240     0.0290     0.0420     0.2640     2.5540 
   44.6250    44.6230    -0.2360    -0.0070    94.8150    45.9230     0.0400     0.0470     1.2390     2.5870 
   44.7500    44.7480    -0.2390    -0.0070    83.8950    48.8280     0.1140     0.1230     2.4780     2.6200 
   44.8750    44.8730    -0.2410    -0.0060    68.5230    54.1400     0.3420     0.3950     3.8340     2.5840 
   45.0000    44.9980    -0.2430    -0.0050    50.0610    60.8530     1.0030     1.6330     6.4090     2.4300 
   45.1250    45.1230    -0.2450    -0.0050    32.7600    67.7210     3.0820     5.1880     8.2160     2.2270 
   45.2500    45.2480    -0.2470    -0.0040    20.2830    73.0210     5.1090     8.4960     8.3080     2.1140 
   45.3750    45.3730    -0.2500    -0.0030    12.4510    75.1750     6.4820    10.0930     7.9880     2.0750 
   45.5000    45.4980    -0.2520    -0.0030     7.0730    75.2840     7.0990     9.6550     7.4670     2.0660 
   45.6250    45.6230    -0.2540    -0.0020     3.3640    73.7370     6.5180     7.3730     6.8320     2.0590 
   45.7500    45.7480    -0.2560    -0.0010     0.7840    73.1320     6.5640     6.2960     6.2660     2.0550 
   45.8750    45.8730    -0.2580    -0.0010    -1.0300    72.5160     6.9640     6.4330     5.8880     2.0580 
   46.0000    45.9980    -0.2600     0.0000    -2.3490    70.7910     7.5190     7.0210     5.8250     2.0610 
   46.1250    46.1230    -0.2630     0.0010    -3.3340    68.3560     8.1300     7.8120     6.1030     2.0550 
   46.2500    46.2480    -0.2650     0.0020    -4.0610    65.7820     8.6400     8.5570     6.8040     2.0380 
   46.3750    46.3730    -0.2670     0.0030    -4.7390    66.1490     8.9990     9.0810     7.4500     2.0190 
   46.5000    46.4980    -0.2690     0.0030    -5.3590    67.9400     9.1100     9.3710     7.2590     2.0130 
   46.6250    46.6230    -0.2710     0.0040    -6.0220    70.8080     9.0040     9.4910     6.3480     2.0260 
   46.7500    46.7480    -0.2730     0.0050    -6.7660    72.5780     8.7630     9.5410     5.4450     2.0500 
   46.8750    46.8730    -0.2750     0.0060    -7.5720    73.7520     8.5300     9.5450     5.2900     2.0700 
   47.0000    46.9980    -0.2780     0.0070    -8.3690    74.5900     8.4200     9.4240     6.1680     2.0810 
   47.1250    47.1230    -0.2800     0.0080    -9.1060    75.7360     8.4030     9.1440     7.5920     2.0850 
   47.2500    47.2480    -0.2820     0.0090    -9.8770    77.8260     8.2340     8.7460     8.8760     2.0880 
   47.3750    47.3730    -0.2840     0.0100   -10.6500    80.5540     7.9400     8.3180     8.9660     2.0950 
   47.5000    47.4980    -0.2860     0.0110   -11.5050    83.1750     7.5760     8.0060     7.5870     2.1080 
   47.6250    47.6230    -0.2880     0.0120   -12.5670    83.7760     7.3650     7.9530     6.8020     2.1130 
   47.7500    47.7480    -0.2900     0.0130   -14.0300    83.6230     7.4290     8.2230     7.1940     2.1020 
   47.8750    47.8720    -0.2930     0.0140   -15.7950    81.9470     7.8010     8.8870     7.3050     2.0760 
   48.0000    47.9970    -0.2950     0.0150   -17.6110    79.9900     8.3050     9.7200     7.3450     2.0560 
   48.1250    48.1220    -0.2970     0.0160   -19.1110    78.5240     8.8220    10.4680     7.8540     2.0450 
