~V
VERS. 2.00: Ver 2.00
~W
STRT.M 63.0000:
STOP.M 256.0000:
STEP.M 0.1250:
NULL. -999.2500:
UWI. FD10901:
~C
DEPT.M :
TVD. :
DX. :
DY. :
SP.MV :
GR.API :
RI. :
RML.OHMM :
RXO.OHMM :
DEN.GM/CC :
~A
# ...
   72.1250    72.1240    -0.0810     0.0930    -2.4910   112.0780     3.3450     4.5470     2.9940     2.2920 
   72.2500    72.2490    -0.0830     0.0940    -2.5500   112.0360     3.2330     4.4300     2.9230     2.2900 
   72.3750    72.3740    -0.0840     0.0950    -2.5470   110.1360     3.0810     4.2520     2.8460     2.2850 
   72.5000    72.4990    -0.0850     0.0970    -2.6420   108.4920     2.9070     4.0380     2.8850     2.2890 
   72.6250    72.6240    -0.0860     0.0980    -2.8430   108.8740     2.7520     3.8370     2.9750     2.3010 
   72.7500    72.7490    -0.0870     0.0990    -3.1440   110.8540     2.6590     3.6730     2.9500     2.3080 
   72.8750    72.8740    -0.0890     0.1000    -3.5030   112.3900     2.8060     3.8450     2.9350     2.3180 
   73.0000    72.9990    -0.0900     0.1020    -4.0130   111.1460     3.3480     4.6210     3.1580     2.3460 
   73.1250    73.1240    -0.0910     0.1030    -4.8280   105.7930     4.7720     6.8770     5.6630     2.4100 
   73.2500    73.2490    -0.0920     0.1040    -6.0010    95.4930     7.3190    11.0080    16.0940     2.4890 
   73.3750    73.3740    -0.0930     0.1050    -7.5570    83.0390    10.3740    15.9440    28.1650     2.5390 
   73.5000    73.4990    -0.0950     0.1070    -9.4130    71.1830    12.1080    18.5100    25.6340     2.5130 
   73.6250    73.6240    -0.0960     0.1080   -11.7000    66.1040    11.5610    17.3390    13.7110     2.4180 
   73.7500    73.7490    -0.0970     0.1090   -14.2670    66.8860     9.2540    13.3980     6.8570     2.3110 
   73.8750    73.8740    -0.0980     0.1100   -16.7950    71.5520     6.5430     9.0300     4.9260     2.2440 
   74.0000    73.9990    -0.1000     0.1120   -18.8550    75.4910     4.9860     6.7670     4.5000     2.2160 
   74.1250    74.1240    -0.1010     0.1130   -20.4240    76.3610     4.6910     6.5200     4.7310     2.2080 
   74.2500    74.2490    -0.1020     0.1140   -22.0110    76.0730     4.9670     7.1530     5.1760     2.2120 
   74.3750    74.3740    -0.1030     0.1150   -24.0500    75.0610     5.6250     8.3150     6.5140     2.2350 
   74.5000    74.4990    -0.1040     0.1170   -26.2150    74.2720     6.3160     9.4430     8.1550     2.2660 
   74.6250    74.6240    -0.1060     0.1180   -28.0690    72.0960     6.7830    10.0730     8.6560     2.2780 
   74.7500    74.7490    -0.1070     0.1190   -29.7380    69.8050     6.9080    10.0720     8.1330     2.2620 
   74.8750    74.8740    -0.1080     0.1200   -31.2160    69.3780     6.7460     9.6710     7.1450     2.2320 
   75.0000    74.9990    -0.1090     0.1220   -32.4190    71.3430     6.4360     9.1340     6.4870     2.2050 
   75.1250    75.1240    -0.1110     0.1230   -33.3460    73.3470     6.1670     8.7870     6.4670     2.1850 
   75.2500    75.2490    -0.1120     0.1240   -34.2150    73.4260     5.9920     8.6580     6.5350     2.1700 
   75.3750    75.3740    -0.1130     0.1250   -35.0280    72.0690     5.9000     8.6440     6.4880     2.1630 
   75.5000    75.4990    -0.1140     0.1270   -35.7900    71.2770     5.8370     8.6480     6.4380     2.1630 
   75.6250    75.6240    -0.1160     0.1280   -36.3900    70.0850     5.7780     8.6230     6.5110     2.1640 
   75.7500    75.7490    -0.1170     0.1290   -36.9630    68.8990     5.7160     8.5910     6.6800     2.1580 
   75.8750    75.8740    -0.1180     0.1300   -37.7150    68.1770     5.6730     8.6070     6.8130     2.1510 
   76.0000    75.9990    -0.1200     0.1310   -38.5520    70.7690     5.6650     8.6740     6.8200     2.1450 
   76.1250    76.1240    -0.1210     0.1330   -39.2460    72.1470     5.6600     8.7350     6.6870     2.1380 
   76.2500    76.2490    -0.1220     0.1340   -39.7670    72.4640     5.6600     8.7660     6.5220     2.1270 
   76.3750    76.3740    -0.1230     0.1350   -40.1760    69.7410     5.6520     8.7560     6.4690     2.1200 
   76.5000    76.4990    -0.1250     0.1360   -40.4280    69.3080     5.6400     8.7450     6.4910     2.1230 
   76.6250    76.6240    -0.1260     0.1370   -40.4820    69.7360     5.6150     8.7390     6.4580     2.1330 
   76.7500    76.7490    -0.1270     0.1390   -40.2650    72.2970     5.5670     8.7130     6.3820     2.1440 
   76.8750    76.8740    -0.1290     0.1400   -39.7470    75.1760     5.4660     8.5920     6.2760     2.1490 
   77.0000    76.9990    -0.1300     0.1410   -39.0040    78.8480     5.3280     8.4130     6.1530     2.1490 
   77.1250    77.1240    -0.1310     0.1420   -38.0810    80.8580     5.2070     8.2210     6.0820     2.1450 
   77.2500    77.2490    -0.1330     0.1440   -36.9660    82.0720     5.0950     8.0360     5.9180     2.1470 
   77.3750    77.3740    -0.1340     0.1450   -35.6950    82.4230     5.0260     7.9360     5.7220     2.1530 
   77.5000    77.4990    -0.1350     0.1460   -34.4070    82.5960     5.0080     7.8810     5.7200     2.1640 
   77.6250    77.6240    -0.1370     0.1470   -33.3890    81.9820     4.9980     7.8610     5.7150     2.1680 
   77.7500    77.7490    -0.1380     0.1480   -32.8500    80.6230     5.0220     7.9000     5.6390     2.1720 
   77.8750    77.8740    -0.1390     0.1500   -32.6650    80.2690     5.0670     7.9680     5.6010     2.1740 
   78.0000    77.9990    -0.1410     0.1510   -32.4630    80.3630     5.1140     8.0510     5.6280     2.1760 
   78.1250    78.1240    -0.1420     0.1520   -32.1050    79.3380     5.1810     8.1600     5.9060     2.1790 
   78.2500    78.2490    -0.1440     0.1530   -31.7960    76.6150     5.2510     8.2670     6.2050     2.1850 
   78.3750    78.3740    -0.1450     0.1540   -31.5720    74.4460     5.2540     8.2230     6.2380     2.1930 
   78.5000    78.4990    -0.1460     0.1550   -31.2650    74.8050     5.2110     8.1010     6.2700     2.1950 
   78.6250    78.6240    -0.1480     0.1570   -30.6900    77.1440     5.1600     7.9460     6.7570     2.1900 
   78.7500    78.7480    -0.1490     0.1580   -30.0400    77.9990     5.1370     7.8790     7.1150     2.1830 
   78.8750    78.8730    -0.1500     0.1590   -29.3810    75.5540     5.2300     8.0490     6.5970     2.1840 
   79.0000    78.9980    -0.1520     0.1600   -28.8280    71.7130     5.4820     8.4910     6.3130     2.1880 
   79.1250    79.1230    -0.1530     0.1610   -28.5400    70.2400     5.7050     8.8230     6.6530     2.1990 
   79.2500    79.2480    -0.1550     0.1620   -28.2490    71.3150     5.6790     8.7340     6.9900     2.2220 
   79.3750    79.3730    -0.1560     0.1640   -27.3790    74.2590     5.3840     8.2130     7.2690     2.2550 
   79.5000    79.4980    -0.1570     0.1650   -25.7060    78.7620     4.8730     7.3820     6.4610     2.2840 
   79.6250    79.6230    -0.1590     0.1660   -23.3230    82.8750     4.4050     6.6900     4.7080     2.2870 
   79.7500    79.7480    -0.1600     0.1670   -20.6730    85.8120     4.1100     6.3210     4.1020     2.2680 
   79.8750    79.8730    -0.1620     0.1680   -18.6300    85.1960     4.0500     6.3400     4.6580     2.2410 
   80.0000    79.9980    -0.1630     0.1690   -17.8530    83.8180     4.1180     6.5790     5.0020     2.2220 
   80.1250    80.1230    -0.1640     0.1700   -18.4530    82.5440     4.2750     6.9100     4.7880     2.2170 
   80.2500    80.2480    -0.1660     0.1710   -19.4960    81.4540     4.4450     7.1330     4.6620     2.2280 
   80.3750    80.3730    -0.1670     0.1720   -20.5160    79.3930     4.5420     7.1840     4.8810     2.2520 
   80.5000    80.4980    -0.1690     0.1740   -21.4640    75.9390     4.6300     7.2080     4.9580     2.2790 
   80.6250    80.6230    -0.1700     0.1750   -22.3900    74.0170     4.7400     7.3270     5.0520     2.2740 
   80.7500    80.7480    -0.1710     0.1760   -23.1950    74.1490     4.8910     7.5330     5.3390     2.2530 
   80.8750    80.8730    -0.1730     0.1770   -23.7040    77.0020     5.0930     7.8070     5.5700     2.2140 
   81.0000    80.9980    -0.1740     0.1780   -23.9380    79.9260     5.4010     8.2730     5.6410     2.1910 
   81.1250    81.1230    -0.1760     0.1790   -23.8920    81.2890     5.7320     8.8170     5.6450     2.1770 
