~V
VERS. 2.00: Ver 2.00
~W
STRT.M 1.0000:
STOP.M 198.0000:
STEP.M 0.1250:
NULL. -999.2500:
UWI. FD10802:
~C
DEPT.M :
TVD. :
DX. :
DY. :
SP.MV :
GR.API :
RI. :
RML.OHMM :
RXO.OHMM :
DEN.GM/CC :
~A
# ...
  137.8750   135.0040   -12.1350    14.3190   -16.2140    50.5290    11.2030    13.0190    12.4860     2.4560 
  138.0000   135.1190   -12.1680    14.3530   -16.0720    52.3830    11.0820    12.8730    11.1500     2.4410 
  138.1250   135.2350   -12.2020    14.3860   -15.9040    54.9930    10.8750    12.6180     9.5540     2.4240 
  138.2500   135.3500   -12.2360    14.4190   -15.6170    57.0530    10.6890    12.4060     9.7270     2.4030 
  138.3750   135.4660   -12.2700    14.4520   -15.3200    59.1440    10.6320    12.3460    11.8930     2.3870 
  138.5000   135.5820   -12.3040    14.4860   -14.9940    61.2620    10.7180    12.4820    13.2940     2.3760 
  138.6250   135.6970   -12.3380    14.5190   -14.7130    63.3700    10.9760    12.8360    12.8810     2.3800 
  138.7500   135.8130   -12.3710    14.5520   -14.5750    63.9810    11.1540    13.0750    12.8420     2.3930 
  138.8750   135.9290   -12.4050    14.5850   -14.5830    62.8610    11.1370    13.0610    13.5520     2.4040 
  139.0000   136.0440   -12.4390    14.6190   -14.7400    62.1220    10.9240    12.7960    13.6690     2.4020 
  139.1250   136.1600   -12.4730    14.6520   -15.0260    61.6850    10.6130    12.3970    12.6470     2.4020 
  139.2500   136.2760   -12.5070    14.6850   -15.2960    62.5420    10.2340    11.9010    11.1070     2.4020 
  139.3750   136.3910   -12.5410    14.7180   -15.4460    62.8730    10.0230    11.6370    10.0740     2.4110 
  139.5000   136.5070   -12.5750    14.7520   -15.4540    64.2750    10.2240    11.8950     9.9740     2.4200 
  139.6250   136.6220   -12.6090    14.7850   -15.3060    64.8890    10.7380    12.5470    10.4470     2.4270 
  139.7500   136.7380   -12.6430    14.8180   -15.0530    65.0790    11.4050    13.4110    10.5520     2.4350 
  139.8750   136.8540   -12.6770    14.8510   -14.7460    63.2090    12.0050    14.1850    11.8650     2.4430 
  140.0000   136.9690   -12.7100    14.8850   -14.4000    61.6720    12.2270    14.4220    14.9060     2.4560 
  140.1250   137.0850   -12.7440    14.9180   -14.0840    61.4760    12.0470    14.1490    15.4280     2.4590 
  140.2500   137.2010   -12.7780    14.9510   -13.8230    62.2730    11.6120    13.5460    14.0640     2.4490 
  140.3750   137.3160   -12.8120    14.9850   -13.6730    63.0050    10.9900    12.7450    13.7080     2.4300 
  140.5000   137.4320   -12.8460    15.0180   -13.6680    63.5130    10.4510    12.1200    12.5390     2.4180 
  140.6250   137.5470   -12.8800    15.0510   -13.7540    65.0230    10.1760    11.8290    10.9940     2.4180 
  140.7500   137.6630   -12.9140    15.0840   -13.7670    66.4790    10.1070    11.7710    10.7260     2.4210 
  140.8750   137.7790   -12.9480    15.1180   -13.8510    66.6320    10.1050    11.7620    11.0070     2.4170 
  141.0000   137.8940   -12.9820    15.1510   -14.0360    65.4480    10.1650    11.8300    11.3210     2.4160 
  141.1250   138.0100   -13.0160    15.1840   -14.2710    63.3400    10.3850    12.0980    11.1400     2.4130 
  141.2500   138.1250   -13.0500    15.2180   -14.4110    62.3550    10.6900    12.4570    10.9980     2.4070 
  141.3750   138.2410   -13.0840    15.2510   -14.5820    62.6770    11.1040    12.9680    11.7280     2.3880 
  141.5000   138.3560   -13.1180    15.2840   -14.6180    64.4030    11.5610    13.5030    12.6590     2.3720 
  141.6250   138.4720   -13.1520    15.3180   -14.5650    65.9910    11.9110    13.9060    13.2460     2.3740 
  141.7500   138.5880   -13.1860    15.3510   -14.4590    67.0040    12.0080    13.9460    12.9770     2.3900 
  141.8750   138.7030   -13.2200    15.3840   -14.3230    68.0410    11.7570    13.5780    12.4370     2.4090 
  142.0000   138.8190   -13.2540    15.4180   -14.2430    68.1620    11.3120    12.9870    12.5730     2.4160 
  142.1250   138.9340   -13.2880    15.4510   -14.3700    66.5050    10.7540    12.2810    12.2850     2.4220 
  142.2500   139.0500   -13.3220    15.4840   -14.6370    64.1480    10.2950    11.7360    11.0930     2.4320 
  142.3750   139.1660   -13.3560    15.5170   -14.9020    62.2580     9.9910    11.3770    10.7770     2.4440 
  142.5000   139.2810   -13.3900    15.5510   -15.2370    61.6200     9.9560    11.3550    11.2700     2.4450 
  142.6250   139.3970   -13.4240    15.5840   -15.6700    61.1100    10.1070    11.5460    10.6110     2.4340 
  142.7500   139.5120   -13.4580    15.6170   -16.1990    60.9510    10.3660    11.8410    10.3640     2.4220 
  142.8750   139.6280   -13.4920    15.6510   -16.7210    61.7710    10.6130    12.0870    12.1430     2.4150 
  143.0000   139.7440   -13.5260    15.6840   -17.1820    61.1640    10.7670    12.1770    12.9990     2.4230 
  143.1250   139.8590   -13.5600    15.7170   -17.5750    60.7870    10.9050    12.2070    11.8320     2.4300 
  143.2500   139.9750   -13.5940    15.7500   -17.8410    59.7440    10.9950    12.1610    10.9780     2.4350 
  143.3750   140.0900   -13.6280    15.7840   -18.0380    61.5220    11.1500    12.2120    11.6260     2.4280 
  143.5000   140.2060   -13.6620    15.8170   -18.2910    63.4430    11.4450    12.4540    12.9290     2.4180 
  143.6250   140.3220   -13.6960    15.8500   -18.6070    66.1520    11.8900    12.9020    13.6640     2.4090 
  143.7500   140.4370   -13.7300    15.8840   -18.8460    67.3770    12.2630    13.2340    13.8340     2.4120 
  143.8750   140.5530   -13.7640    15.9170   -19.0810    66.0750    12.3100    13.1700    13.5430     2.4200 
  144.0000   140.6680   -13.7980    15.9500   -19.1420    63.5100    12.1500    12.9090    12.9020     2.4300 
  144.1250   140.7840   -13.8320    15.9840   -19.1310    61.1070    11.7900    12.4810    12.2000     2.4350 
  144.2500   140.8990   -13.8660    16.0170   -19.0580    61.0300    11.3890    11.9990    11.2480     2.4420 
  144.3750   141.0150   -13.9000    16.0500   -19.0320    60.0470    10.9480    11.5020    10.8010     2.4350 
  144.5000   141.1300   -13.9340    16.0840   -19.0830    58.5870    10.4930    11.0120    11.1380     2.4140 
  144.6250   141.2460   -13.9680    16.1170   -19.1570    57.0970    10.1090    10.6380    10.9920     2.3810 
  144.7500   141.3610   -14.0020    16.1510   -19.2870    57.8150    10.1190    10.6730    10.0970     2.3530 
  144.8750   141.4770   -14.0360    16.1840   -19.3560    60.3040    10.6440    11.2970     9.2090     2.3230 
  145.0000   141.5930   -14.0700    16.2170   -19.4660    64.0750    11.9660    12.8060    10.0850     2.2750 
  145.1250   141.7080   -14.1050    16.2510   -19.7050    68.0490    14.2560    15.3890    14.8160     2.2150 
  145.2500   141.8240   -14.1390    16.2840   -20.0300    71.4470    17.8560    19.0220    21.6530     2.1630 
  145.3750   141.9390   -14.1730    16.3180   -20.1860    73.0680    21.6380    22.6520    25.9540     2.1380 
  145.5000   142.0550   -14.2070    16.3510   -20.1210    73.6110    24.2550    25.0000    27.2280     2.1350 
  145.6250   142.1700   -14.2410    16.3840   -19.8970    73.7380    24.9890    25.5400    27.4880     2.1440 
  145.7500   142.2860   -14.2750    16.4180   -19.6730    74.9020    24.1070    24.7990    26.6920     2.1610 
  145.8750   142.4010   -14.3090    16.4510   -19.4650    76.1560    23.5110    24.4300    23.5700     2.1770 
  146.0000   142.5170   -14.3430    16.4850   -19.1800    76.6180    24.4760    25.9770    23.5220     2.1900 
  146.1250   142.6320   -14.3780    16.5180   -18.8030    75.4380    27.9390    30.8050    30.9830     2.1900 
  146.2500   142.7480   -14.4120    16.5510   -18.2200    73.8810    36.9870    41.7370    45.7740     2.1800 
  146.3750   142.8630   -14.4460    16.5850   -17.4160    73.1960    53.0440    59.6240    67.5010     2.1610 
  146.5000   142.9790   -14.4800    16.6180   -16.4690    72.8980    74.5070    83.2580    96.2340     2.1480 
  146.6250   143.0940   -14.5140    16.6520   -15.6040    73.1480    99.1320   108.9560   125.4820     2.1420 
  146.7500   143.2100   -14.5480    16.6850   -14.7410    73.1640   121.3870   132.8000   135.7280     2.1380 
  146.8750   143.3250   -14.5830    16.7190   -13.9830    73.5890   139.5150   152.8380   133.6090     2.1320 
