~V
VERS. 2.00: Ver 2.00
~W
STRT.M 44.0000:
STOP.M 206.0000:
STEP.M 0.1250:
NULL. -999.2500:
UWI. FD10808:
~C
DEPT.M :
TVD. :
DX. :
DY. :
SP.MV :
GR.API :
RI. :
RML.OHMM :
RXO.OHMM :
DEN.GM/CC :
~A
# ...
  171.7500   160.9900   -18.8770    40.3780   -12.0540    62.9750    56.8860    61.2440    55.6450     2.6040 
  171.8750   161.0940   -18.9090    40.4400   -11.8620    63.2230    59.2550    64.1150    55.5510     2.6110 
  172.0000   161.1970   -18.9410    40.5030   -11.5890    63.8840    63.2370    68.5050    58.1270     2.6160 
  172.1250   161.3010   -18.9720    40.5650   -11.2140    64.3880    69.5670    74.8020    64.6520     2.6200 
  172.2500   161.4050   -19.0040    40.6280   -10.9010    64.4560    77.7430    82.8480    75.2280     2.6310 
  172.3750   161.5080   -19.0350    40.6900   -10.6430    64.3180    88.0610    91.9830    89.0070     2.6450 
  172.5000   161.6120   -19.0670    40.7530   -10.3410    65.4720    98.0610   100.6360    96.4970     2.6670 
  172.6250   161.7150   -19.0980    40.8150   -10.1670    66.2520   105.6870   107.4630    99.2300     2.6810 
  172.7500   161.8190   -19.1300    40.8780   -10.0730    66.5280   110.2340   113.1220   107.9360     2.6780 
  172.8750   161.9220   -19.1620    40.9400    -9.9260    65.9590   113.1770   117.9410   119.5130     2.6580 
  173.0000   162.0260   -19.1930    41.0030    -9.8120    65.0330   112.8310   114.8340   129.1620     2.6480 
  173.1250   162.1290   -19.2250    41.0650    -9.6940    64.0710    89.4640    95.3400   134.8560     2.6610 
  173.2500   162.2330   -19.2570    41.1270    -9.4120    63.3470    60.3140    64.5240   126.2040     2.6780 
  173.3750   162.3360   -19.2890    41.1900    -9.1920    65.5980    27.9760    31.8060    96.4260     2.6650 
  173.5000   162.4400   -19.3210    41.2520    -8.9880    70.7640     6.2040    10.2420    55.2070     2.6200 
  173.6250   162.5440   -19.3530    41.3140    -8.9000    76.1140     2.4410     3.0580    19.6100     2.5640 
  173.7500   162.6470   -19.3860    41.3760    -8.7070    78.7120     0.9740     1.2090     4.7320     2.5090 
  173.8750   162.7510   -19.4190    41.4380    -8.3250    78.4690     0.6010     0.7510     3.6830     2.4400 
  174.0000   162.8540   -19.4510    41.5000    -7.8560    76.2630     0.5880     0.8080     3.1190     2.3540 
  174.1250   162.9580   -19.4830    41.5620    -7.3220    73.4540     0.8410     1.2480     3.4660     2.2840 
  174.2500   163.0620   -19.5150    41.6240    -6.7160    70.5770     1.3120     1.9530     4.2770     2.2430 
  174.3750   163.1650   -19.5470    41.6860    -6.1670    68.8190     1.8050     2.6510     4.5510     2.2260 
  174.5000   163.2690   -19.5790    41.7490    -5.6450    67.6030     2.1590     3.0680     4.5130     2.2130 
  174.6250   163.3720   -19.6110    41.8110    -5.1140    66.8670     2.2720     3.0860     4.3800     2.2030 
  174.7500   163.4760   -19.6430    41.8730    -4.7870    65.6350     2.2490     2.8780     3.9730     2.1990 
  174.8750   163.5790   -19.6740    41.9360    -4.5770    66.2580     2.2890     2.7350     3.0350     2.1920 
  175.0000   163.6830   -19.7060    41.9980    -4.4850    67.8840     2.4680     2.7980     2.3380     2.1850 
  175.1250   163.7860   -19.7380    42.0610    -4.4480    70.1250     2.7530     3.0400     2.4510     2.1760 
  175.2500   163.8900   -19.7700    42.1230    -4.5600    70.2100     3.0740     3.3740     2.8210     2.1750 
  175.3750   163.9930   -19.8010    42.1860    -4.7620    69.2610     3.3860     3.7360     3.0200     2.1860 
  175.5000   164.0970   -19.8330    42.2480    -5.0480    67.5660     3.6450     4.0760     3.4060     2.2040 
  175.6250   164.2000   -19.8640    42.3110    -5.3550    66.9500     3.8390     4.3750     4.2500     2.2130 
  175.7500   164.3040   -19.8960    42.3730    -5.5190    66.5410     4.0050     4.6450     4.9890     2.2070 
  175.8750   164.4070   -19.9280    42.4360    -5.5530    66.4840     4.1530     4.8900     5.2860     2.1910 
  176.0000   164.5110   -19.9590    42.4990    -5.5430    67.6290     4.2790     5.1040     5.3270     2.1820 
  176.1250   164.6140   -19.9910    42.5610    -5.7090    70.5660     4.3700     5.2800     5.2040     2.1810 
  176.2500   164.7180   -20.0220    42.6240    -5.8310    74.2710     4.4300     5.4200     5.1160     2.1840 
  176.3750   164.8210   -20.0540    42.6870    -5.7740    75.7200     4.4590     5.5190     4.9800     2.1810 
  176.5000   164.9240   -20.0850    42.7500    -5.6140    75.7380     4.4800     5.6060     5.0930     2.1740 
  176.6250   165.0280   -20.1170    42.8120    -5.6110    74.8200     4.5200     5.7280     5.8050     2.1650 
  176.7500   165.1310   -20.1490    42.8750    -5.7430    76.0830     4.6070     5.8970     6.1280     2.1580 
  176.8750   165.2350   -20.1800    42.9380    -5.9430    77.1280     4.7310     6.1100     5.6300     2.1500 
  177.0000   165.3380   -20.2120    43.0010    -5.9980    78.9030     4.8690     6.3380     5.1080     2.1500 
  177.1250   165.4410   -20.2430    43.0640    -5.9230    78.5580     4.9800     6.5210     4.8900     2.1550 
  177.2500   165.5450   -20.2750    43.1270    -5.9770    78.2530     5.0440     6.6430     4.9320     2.1610 
  177.3750   165.6480   -20.3070    43.1890    -6.0640    77.6310     5.0850     6.7160     5.1750     2.1640 
  177.5000   165.7510   -20.3380    43.2520    -6.1160    77.4680     5.0990     6.7510     5.4720     2.1660 
  177.6250   165.8540   -20.3700    43.3150    -6.0060    77.2830     5.0830     6.7530     5.7220     2.1680 
  177.7500   165.9580   -20.4020    43.3780    -5.8650    77.2620     5.0500     6.7360     5.7570     2.1720 
  177.8750   166.0610   -20.4330    43.4410    -5.7480    76.9980     5.0240     6.7120     5.6320     2.1760 
  178.0000   166.1640   -20.4650    43.5040    -5.7230    77.0830     5.0090     6.6990     5.5790     2.1830 
  178.1250   166.2680   -20.4970    43.5660    -5.7570    76.3360     5.0140     6.7120     5.6150     2.1880 
  178.2500   166.3710   -20.5290    43.6290    -5.7940    75.8820     5.0380     6.7450     5.7920     2.1920 
  178.3750   166.4740   -20.5610    43.6920    -5.7690    74.9250     5.0640     6.7870     6.0070     2.1870 
  178.5000   166.5780   -20.5920    43.7550    -5.6590    74.7490     5.1000     6.8290     6.0050     2.1790 
  178.6250   166.6810   -20.6240    43.8180    -5.2300    75.2610     5.1370     6.8650     6.0490     2.1700 
  178.7500   166.7840   -20.6560    43.8800    -4.6240    77.3310     5.1640     6.8950     6.0770     2.1710 
  178.8750   166.8870   -20.6880    43.9430    -4.1850    80.0090     5.1870     6.9170     5.7130     2.1760 
  179.0000   166.9910   -20.7200    44.0060    -3.7900    82.0760     5.1810     6.9220     5.3540     2.1730 
  179.1250   167.0940   -20.7520    44.0690    -3.4000    81.1560     5.1470     6.8950     5.2850     2.1650 
  179.2500   167.1970   -20.7840    44.1310    -2.9760    78.2450     5.0860     6.8430     6.6930     2.1520 
  179.3750   167.3000   -20.8160    44.1940    -2.6420    75.3020     5.0250     6.7930     8.3790     2.1430 
  179.5000   167.4040   -20.8480    44.2570    -2.3120    74.6540     4.9920     6.7800     7.3060     2.1380 
  179.6250   167.5070   -20.8800    44.3200    -2.0030    75.3140     5.0000     6.8310     5.5990     2.1400 
  179.7500   167.6100   -20.9120    44.3830    -1.6740    77.3010     5.0900     6.9450     5.2660     2.1440 
  179.8750   167.7130   -20.9440    44.4460    -1.3610    80.2560     5.2350     7.1130     5.2680     2.1550 
  180.0000   167.8160   -20.9750    44.5090    -1.2270    83.5480     5.4360     7.3110     5.1720     2.1680 
  180.1250   167.9200   -21.0070    44.5720    -1.1810    86.5010     5.6360     7.5080     5.2150     2.1850 
  180.2500   168.0230   -21.0390    44.6350    -0.9830    88.5970     5.8360     7.6920     5.4750     2.2020 
  180.3750   168.1260   -21.0710    44.6980    -0.7200    89.7240     5.9960     7.8540     5.4010     2.2250 
  180.5000   168.2290   -21.1030    44.7610    -0.5110    90.1560     6.1320     8.0040     5.2570     2.2410 
  180.6250   168.3320   -21.1350    44.8240    -0.3700    91.4930     6.2680     8.1480     5.5730     2.2470 
  180.7500   168.4350   -21.1660    44.8870    -0.2640    93.3660     6.3380     8.2550     5.9090     2.2460 
