~V
VERS. 2.00: Ver 2.00
~W
STRT.M 50.0000:
STOP.M 219.0000:
STEP.M 0.1250:
NULL. -999.2500:
UWI. FD10804:
~C
DEPT.M :
TVD. :
DX. :
DY. :
SP.MV :
GR.API :
RI. :
RML.OHMM :
RXO.OHMM :
DEN.GM/CC :
~A
# ...
   59.1250    59.1240    -0.1030    -0.0050  -117.8810    74.2680     6.7430     8.2670    31.2670     2.4670 
   59.2500    59.2490    -0.1050    -0.0050  -118.4290    70.5470     7.3050     9.0230    28.5810     2.5150 
   59.3750    59.3740    -0.1070    -0.0050  -119.1090    70.0360     6.8300     8.4430    15.8370     2.4440 
   59.5000    59.4990    -0.1100    -0.0050  -119.8370    71.1850     5.5570     6.9250     7.0560     2.3060 
   59.6250    59.6240    -0.1120    -0.0060  -120.5410    72.1220     4.1770     5.3340     4.8210     2.1760 
   59.7500    59.7490    -0.1140    -0.0060  -121.1730    71.8710     3.4340     4.4000     4.5270     2.1020 
   59.8750    59.8740    -0.1170    -0.0060  -121.7050    70.6730     3.2170     4.1910     4.5260     2.0760 
   60.0000    59.9990    -0.1190    -0.0070  -122.1390    69.4750     3.2530     4.3380     4.5520     2.0690 
   60.1250    60.1240    -0.1210    -0.0070  -122.4750    67.8030     3.3640     4.6010     4.5910     2.0560 
   60.2500    60.2490    -0.1240    -0.0070  -122.7310    66.5940     3.4930     4.8970     4.7640     2.0400 
   60.3750    60.3740    -0.1260    -0.0080  -122.9200    66.4420     3.7110     5.2730     4.8840     2.0340 
   60.5000    60.4990    -0.1290    -0.0080  -123.0680    66.9150     4.0070     5.7450     4.7460     2.0740 
   60.6250    60.6240    -0.1310    -0.0080  -123.1880    66.6400     4.3010     6.2280     4.4860     2.1850 
   60.7500    60.7490    -0.1340    -0.0090  -123.2880    65.0800     4.4980     6.5700     4.3060     2.3360 
   60.8750    60.8740    -0.1360    -0.0090  -123.3640    63.1220     4.4860     6.6120     4.2670     2.4400 
   61.0000    60.9990    -0.1390    -0.0100  -123.4150    62.0270     4.2770     6.3450     4.5040     2.4260 
   61.1250    61.1240    -0.1410    -0.0100  -123.4550    62.8440     3.9380     5.8700     4.9530     2.2990 
   61.2500    61.2490    -0.1440    -0.0100  -123.5190    64.1120     3.5760     5.3840     5.2990     2.1600 
   61.3750    61.3740    -0.1470    -0.0110  -123.6530    66.1720     3.3070     5.0620     5.4890     2.0760 
   61.5000    61.4990    -0.1500    -0.0110  -123.8690    67.8110     3.1980     4.9590     5.5770     2.0480 
   61.6250    61.6240    -0.1520    -0.0120  -124.1470    69.1990     3.2090     5.0360     5.5240     2.0470 
   61.7500    61.7490    -0.1550    -0.0120  -124.4140    68.6300     3.2660     5.1850     5.3730     2.0540 
   61.8750    61.8740    -0.1580    -0.0130  -124.5710    68.5620     3.3180     5.3270     5.1980     2.0650 
   62.0000    61.9990    -0.1610    -0.0130  -124.5490    68.9590     3.3260     5.4000     5.0730     2.0730 
   62.1250    62.1240    -0.1640    -0.0140  -124.3070    70.6240     3.2730     5.3570     5.0390     2.0780 
   62.2500    62.2490    -0.1660    -0.0140  -123.8890    73.1970     3.1430     5.1910     5.0940     2.0820 
   62.3750    62.3740    -0.1690    -0.0150  -123.3450    76.1600     2.9350     4.9140     4.9830     2.0900 
   62.5000    62.4990    -0.1720    -0.0160  -122.7570    79.1670     2.7050     4.5780     4.5990     2.1090 
   62.6250    62.6240    -0.1750    -0.0160  -122.1880    82.1390     2.4700     4.2130     4.1400     2.1370 
   62.7500    62.7490    -0.1780    -0.0170  -121.6710    86.3150     2.2640     3.8580     3.8080     2.1630 
   62.8750    62.8740    -0.1810    -0.0170  -121.2320    89.7770     2.1530     3.6080     3.7470     2.1750 
   63.0000    62.9980    -0.1840    -0.0180  -120.8740    91.2570     2.1800     3.5890     3.6390     2.1850 
   63.1250    63.1230    -0.1880    -0.0190  -120.6020    88.5310     2.4690     4.0440     3.6380     2.2210 
   63.2500    63.2480    -0.1910    -0.0190  -120.4060    81.5410     3.1160     5.2300     4.5150     2.3010 
   63.3750    63.3730    -0.1940    -0.0200  -120.3010    73.6320     4.3850     7.3410     7.8470     2.4130 
   63.5000    63.4980    -0.1970    -0.0210  -120.2970    67.3440     6.0010     9.7090    13.7050     2.5070 
   63.6250    63.6230    -0.2000    -0.0210  -120.4200    64.7040     7.0300    11.2000    20.4760     2.5470 
   63.7500    63.7480    -0.2040    -0.0220  -120.6700    63.4250     7.2360    11.1870    24.0920     2.5200 
   63.8750    63.8730    -0.2070    -0.0230  -121.0350    62.1880     6.2820     9.6370    18.8120     2.4240 
   64.0000    63.9980    -0.2110    -0.0230  -121.4580    62.6910     4.9700     7.6020     9.7360     2.2890 
   64.1250    64.1230    -0.2140    -0.0240  -121.8730    64.2380     3.9340     6.0310     5.5550     2.1720 
   64.2500    64.2480    -0.2180    -0.0250  -122.2260    65.7870     3.2950     5.1690     5.1080     2.1040 
   64.3750    64.3730    -0.2210    -0.0260  -122.4780    65.7290     3.0810     4.9290     5.2250     2.0860 
   64.5000    64.4980    -0.2250    -0.0260  -122.6340    65.5080     3.0410     4.9790     5.4260     2.0870 
   64.6250    64.6230    -0.2280    -0.0270  -122.7050    65.6230     3.0660     5.0700     5.6500     2.0920 
   64.7500    64.7480    -0.2320    -0.0280  -122.7170    65.8660     3.0860     5.0890     5.7290     2.0950 
   64.8750    64.8730    -0.2360    -0.0290  -122.6810    64.8430     3.1300     5.1270     5.9390     2.1060 
   65.0000    64.9980    -0.2400    -0.0300  -122.5990    64.2320     3.3360     5.4240     7.0910     2.1300 
   65.1250    65.1230    -0.2430    -0.0300  -122.4650    64.5390     3.8340     6.2470     7.8460     2.1720 
   65.2500    65.2480    -0.2470    -0.0310  -122.2900    66.2400     4.6290     7.5000     8.0480     2.2400 
   65.3750    65.3720    -0.2510    -0.0320  -122.1040    67.3890     5.3850     8.7420    12.9200     2.3400 
   65.5000    65.4970    -0.2550    -0.0330  -121.9590    68.3440     5.8490     9.4160    20.9120     2.4300 
   65.6250    65.6220    -0.2590    -0.0340  -121.9220    69.1190     5.6650     9.0860    21.2090     2.4320 
   65.7500    65.7470    -0.2630    -0.0350  -122.0170    70.2270     4.9910     7.9890    13.0380     2.3290 
   65.8750    65.8720    -0.2670    -0.0360  -122.2500    70.7080     4.1620     6.6420     6.3830     2.2230 
   66.0000    65.9970    -0.2720    -0.0370  -122.5790    69.3540     3.4390     5.5670     4.6440     2.1670 
   66.1250    66.1220    -0.2760    -0.0380  -122.9630    67.1440     3.0890     5.0620     4.6090     2.1450 
   66.2500    66.2470    -0.2800    -0.0390  -123.3520    64.2040     2.9780     4.9780     4.6290     2.1360 
   66.3750    66.3720    -0.2840    -0.0400  -123.7060    63.2190     2.9900     5.0530     4.5100     2.1210 
   66.5000    66.4970    -0.2890    -0.0410  -123.9980    63.1740     2.9720     5.0550     4.3130     2.1020 
   66.6250    66.6220    -0.2930    -0.0420  -124.2010    64.6790     2.9170     4.9810     4.1880     2.0860 
   66.7500    66.7470    -0.2970    -0.0430  -124.3240    65.8390     2.9590     5.0630     4.1210     2.0780 
   66.8750    66.8720    -0.3020    -0.0440  -124.3810    66.3280     3.2700     5.5330     4.1230     2.0820 
   67.0000    66.9970    -0.3060    -0.0450  -124.4150    65.5310     3.7160     6.2760     5.1630     2.1130 
   67.1250    67.1210    -0.3110    -0.0470  -124.4660    63.9700     4.1230     6.9770    13.9370     2.1780 
   67.2500    67.2460    -0.3160    -0.0480  -124.5670    62.2910     4.3300     7.2930    25.7900     2.2440 
   67.3750    67.3710    -0.3200    -0.0490  -124.7460    61.7510     4.1290     6.9830    22.5250     2.2520 
   67.5000    67.4960    -0.3250    -0.0500  -124.9970    62.1440     3.6870     6.2480    10.1540     2.1910 
   67.6250    67.6210    -0.3300    -0.0520  -125.3040    63.6490     3.1620     5.4170     4.7550     2.1070 
   67.7500    67.7460    -0.3340    -0.0530  -125.6210    65.6120     2.7180     4.7980     4.3610     2.0480 
   67.8750    67.8710    -0.3390    -0.0540  -125.9010    66.9300     2.4960     4.5670     4.3700     2.0250 
   68.0000    67.9960    -0.3440    -0.0560  -126.1200    67.6910     2.4740     4.6060     4.4030     2.0170 
   68.1250    68.1210    -0.3490    -0.0570  -126.2690    67.5130     2.4930     4.7020     4.4100     2.0120 
