~V
VERS. 2.00: Ver 2.00
~W
STRT.M 50.0000:
STOP.M 287.0000:
STEP.M 0.1250:
NULL. -999.2500:
UWI. FD10894:
~C
DEPT.M :
TVD. :
DX. :
DY. :
SP.MV :
GR.API :
RI. :
RML.OHMM :
RXO.OHMM :
DEN.GM/CC :
~A
# ...
   77.3750    77.3720     0.2660    -0.0160   -18.9590    77.0210     5.7460     6.4980    11.1230     2.2870 
   77.5000    77.4970     0.2700    -0.0130   -19.0640    76.2380     5.5970     6.2680     6.6210     2.2490 
   77.6250    77.6220     0.2730    -0.0110   -19.1340    74.9480     5.3910     6.0260     6.9170     2.1970 
   77.7500    77.7470     0.2770    -0.0080   -19.1560    73.4200     5.3060     5.9750     7.4360     2.1540 
   77.8750    77.8720     0.2810    -0.0050   -19.1330    72.5890     5.3420     6.0730     7.4090     2.1320 
   78.0000    77.9970     0.2850    -0.0020   -19.0920    71.5980     5.3400     6.1070     7.3330     2.1270 
   78.1250    78.1220     0.2890     0.0000   -19.0610    70.8090     5.1970     5.9450     7.0760     2.1300 
   78.2500    78.2460     0.2930     0.0030   -19.0680    71.8840     4.8730     5.5680     6.4540     2.1340 
   78.3750    78.3710     0.2970     0.0060   -19.1390    75.1040     4.4890     5.1290     6.1080     2.1400 
   78.5000    78.4960     0.3010     0.0090   -19.2890    78.2740     4.1570     4.7450     5.6970     2.1530 
   78.6250    78.6210     0.3050     0.0120   -19.5410    81.3570     3.9860     4.5470     5.2120     2.1730 
   78.7500    78.7460     0.3090     0.0150   -19.8960    84.8530     4.1280     4.7210     5.5230     2.1950 
   78.8750    78.8710     0.3130     0.0180   -20.3600    86.7280     4.5060     5.2010     6.2210     2.2090 
   79.0000    78.9960     0.3180     0.0210   -20.9090    83.2900     5.0210     5.8450     6.7820     2.2110 
   79.1250    79.1210     0.3220     0.0240   -21.5120    75.8130     5.6040     6.5340     7.3520     2.1980 
   79.2500    79.2460     0.3270     0.0280   -22.1110    69.5010     6.0840     7.0680     7.5870     2.1730 
   79.3750    79.3700     0.3310     0.0310   -22.6330    66.8790     6.3340     7.3230     7.4950     2.1420 
   79.5000    79.4950     0.3360     0.0340   -23.0230    66.9180     6.3980     7.3970     7.4680     2.1120 
   79.6250    79.6200     0.3410     0.0370   -23.2250    68.4190     6.2730     7.2620     7.5160     2.0880 
   79.7500    79.7450     0.3460     0.0410   -23.2490    68.4260     6.1300     7.1010     7.5870     2.0760 
   79.8750    79.8700     0.3500     0.0440   -23.1180    66.3030     6.0500     7.0100     7.6580     2.0770 
   80.0000    79.9950     0.3550     0.0470   -22.9070    64.6820     6.0370     7.0110     7.5360     2.0870 
   80.1250    80.1200     0.3600     0.0510   -22.6860    65.5450     6.0950     7.1390     7.4630     2.0990 
   80.2500    80.2440     0.3650     0.0540   -22.5070    66.8420     6.1960     7.3190     7.6900     2.1080 
   80.3750    80.3690     0.3700     0.0570   -22.3980    66.3410     6.3250     7.5200     7.8390     2.1120 
   80.5000    80.4940     0.3750     0.0610   -22.3390    65.7410     6.4540     7.6940     7.9380     2.1140 
   80.6250    80.6190     0.3800     0.0640   -22.3010    66.3730     6.5220     7.7740     8.2420     2.1170 
   80.7500    80.7440     0.3860     0.0680   -22.2470    67.3260     6.5160     7.7750     8.4830     2.1210 
   80.8750    80.8690     0.3910     0.0710   -22.1590    67.0660     6.4660     7.6960     8.4160     2.1230 
   81.0000    80.9940     0.3960     0.0750   -22.0410    65.0300     6.4100     7.5840     8.1970     2.1190 
   81.1250    81.1180     0.4020     0.0790   -21.9130    61.8930     6.3540     7.4740     7.9420     2.1110 
   81.2500    81.2430     0.4070     0.0820   -21.8020    59.7520     6.3050     7.3940     7.7530     2.1020 
   81.3750    81.3680     0.4130     0.0860   -21.7380    60.1620     6.2690     7.3650     7.7850     2.0970 
   81.5000    81.4930     0.4190     0.0900   -21.7310    61.7520     6.2390     7.3620     7.9580     2.0950 
   81.6250    81.6180     0.4240     0.0930   -21.7920    62.3860     6.2000     7.3230     8.1460     2.0930 
   81.7500    81.7420     0.4300     0.0970   -21.9110    62.3490     6.1570     7.2480     8.2160     2.0900 
   81.8750    81.8670     0.4360     0.1010   -22.0840    62.1100     6.1130     7.1770     8.0190     2.0860 
   82.0000    81.9920     0.4420     0.1050   -22.2970    61.8130     6.0870     7.1390     7.5840     2.0830 
   82.1250    82.1170     0.4480     0.1090   -22.5380    63.0220     6.0910     7.1400     7.3880     2.0820 
   82.2500    82.2420     0.4540     0.1120   -22.7860    65.2010     6.0970     7.1710     7.6930     2.0840 
   82.3750    82.3660     0.4600     0.1160   -23.0110    65.7330     6.1070     7.2080     7.9740     2.0870 
   82.5000    82.4910     0.4660     0.1200   -23.1850    63.4500     6.1190     7.2260     7.9880     2.0880 
   82.6250    82.6160     0.4720     0.1240   -23.2670    62.2170     6.0940     7.1860     7.9840     2.0860 
   82.7500    82.7410     0.4790     0.1280   -23.2450    62.9880     6.0440     7.1080     8.0810     2.0830 
   82.8750    82.8660     0.4850     0.1320   -23.1110    63.2350     5.9970     7.0440     8.2000     2.0820 
   83.0000    82.9900     0.4920     0.1370   -22.9020    62.8590     5.9680     7.0010     8.1490     2.0850 
   83.1250    83.1150     0.4980     0.1410   -22.6690    62.3120     5.9410     6.9530     8.1110     2.0900 
   83.2500    83.2400     0.5050     0.1450   -22.4710    62.7070     5.8920     6.8690     8.3770     2.0950 
   83.3750    83.3650     0.5120     0.1490   -22.3630    64.6070     5.7980     6.7480     8.6220     2.0990 
   83.5000    83.4890     0.5180     0.1530   -22.3530    67.0000     5.6820     6.6240     8.4360     2.1020 
   83.6250    83.6140     0.5250     0.1580   -22.4340    68.5430     5.5730     6.5400     8.0140     2.1050 
   83.7500    83.7390     0.5320     0.1620   -22.5580    68.3000     5.5130     6.5080     7.7910     2.1040 
   83.8750    83.8630     0.5390     0.1660   -22.6790    67.7520     5.5160     6.5350     7.6800     2.0960 
   84.0000    83.9880     0.5470     0.1710   -22.7610    66.6220     5.5810     6.6020     7.5640     2.0820 
   84.1250    84.1130     0.5540     0.1750   -22.7870    64.6640     5.6670     6.6850     7.5490     2.0680 
   84.2500    84.2380     0.5610     0.1800   -22.7710    63.6570     5.7420     6.7420     7.5920     2.0600 
   84.3750    84.3620     0.5690     0.1840   -22.7360    64.5730     5.7760     6.7570     7.7320     2.0610 
   84.5000    84.4870     0.5760     0.1890   -22.7120    65.8090     5.7930     6.7470     7.8150     2.0680 
   84.6250    84.6120     0.5840     0.1930   -22.7230    65.3600     5.7930     6.7090     7.6510     2.0760 
   84.7500    84.7360     0.5920     0.1980   -22.7810    63.1140     5.7930     6.6670     7.4860     2.0810 
   84.8750    84.8610     0.5990     0.2030   -22.8890    61.8850     5.8240     6.6530     7.5620     2.0830 
   85.0000    84.9860     0.6070     0.2070   -23.0370    62.1670     5.8590     6.6600     7.6490     2.0830 
   85.1250    85.1100     0.6150     0.2120   -23.2160    61.0900     5.9120     6.6810     7.6750     2.0840 
   85.2500    85.2350     0.6230     0.2170   -23.4100    60.2210     5.9540     6.7250     7.8700     2.0850 
   85.3750    85.3600     0.6310     0.2220   -23.6010    61.7220     5.9900     6.7620     8.0450     2.0840 
   85.5000    85.4840     0.6400     0.2260   -23.7630    62.7940     6.0090     6.8040     8.0480     2.0830 
   85.6250    85.6090     0.6480     0.2310   -23.8590    61.1640     6.0170     6.8320     8.0820     2.0800 
   85.7500    85.7340     0.6560     0.2360   -23.8530    60.1260     6.0090     6.8420     8.1270     2.0780 
   85.8750    85.8580     0.6650     0.2410   -23.6950    61.6440     5.9460     6.7790     8.0500     2.0750 
   86.0000    85.9830     0.6730     0.2460   -23.3700    63.5420     5.7700     6.5420     7.8140     2.0730 
   86.1250    86.1070     0.6820     0.2510   -22.8660    64.7240     5.5230     6.2130     7.5760     2.0720 
   86.2500    86.2320     0.6910     0.2560   -22.2260    66.8240     5.3750     6.0330     7.5320     2.0760 
   86.3750    86.3570     0.6990     0.2610   -21.5010    69.1920     5.4790     6.1850     7.2180     2.0920 
