~V
VERS. 2.00: Ver 2.00
~W
STRT.M 50.0000:
STOP.M 219.0000:
STEP.M 0.1250:
NULL. -999.2500:
UWI. FD10804:
~C
DEPT.M :
TVD. :
DX. :
DY. :
SP.MV :
GR.API :
RI. :
RML.OHMM :
RXO.OHMM :
DEN.GM/CC :
~A
# ...
  159.5000   157.2790   -14.5080   -11.5550  -121.4430    70.1460    75.3760    93.1650    54.6720     2.2420 
  159.6250   157.3960   -14.5420   -11.5830  -121.0360    69.9710    78.5120    97.2420    62.9430     2.2480 
  159.7500   157.5130   -14.5760   -11.6110  -120.6260    70.3170    85.3720   105.1890    74.2040     2.2640 
  159.8750   157.6300   -14.6100   -11.6380  -120.1640    70.5380    93.2540   114.5660    80.9790     2.2810 
  160.0000   157.7470   -14.6440   -11.6660  -119.6640    69.7190   100.6180   123.3610    81.4690     2.2900 
  160.1250   157.8630   -14.6790   -11.6940  -119.1930    70.0600   106.3940   129.5310    81.2680     2.2890 
  160.2500   157.9800   -14.7130   -11.7220  -118.8270    70.7250   108.4250   128.9260    87.4620     2.2990 
  160.3750   158.0970   -14.7470   -11.7510  -118.6510    72.7920    98.3060   116.0640    96.3840     2.3290 
  160.5000   158.2140   -14.7810   -11.7790  -118.6750    73.7090    78.8960    92.8040    95.5990     2.3700 
  160.6250   158.3310   -14.8160   -11.8080  -118.8790    75.3320    54.5480    65.0510    82.2390     2.3880 
  160.7500   158.4470   -14.8500   -11.8360  -119.1840    77.2330    33.3840    41.2310    60.3020     2.3900 
  160.8750   158.5640   -14.8850   -11.8650  -119.5120    81.4770    21.1530    26.3280    33.3030     2.3810 
  161.0000   158.6810   -14.9200   -11.8930  -119.7740    86.4610    14.8440    18.1430    16.1020     2.3790 
  161.1250   158.7970   -14.9540   -11.9220  -119.8880    89.5540    11.7000    14.0870    12.6400     2.3830 
  161.2500   158.9140   -14.9890   -11.9500  -119.8310    91.1740    10.2720    12.2890    11.6490     2.3800 
  161.3750   159.0310   -15.0240   -11.9790  -119.5830    91.7040    10.3190    12.1510    10.0330     2.3520 
  161.5000   159.1470   -15.0590   -12.0070  -119.2020    91.4730    11.1290    13.0770     9.2370     2.3050 
  161.6250   159.2640   -15.0940   -12.0360  -118.7500    88.2970    12.7440    14.8260    11.8040     2.2740 
  161.7500   159.3800   -15.1290   -12.0650  -118.2940    84.7550    14.6800    16.7850    17.3890     2.2720 
  161.8750   159.4970   -15.1640   -12.0930  -117.8990    82.5040    15.9900    18.0540    20.7350     2.2960 
  162.0000   159.6130   -15.1990   -12.1220  -117.6210    81.4380    16.0650    18.0080    20.0070     2.3230 
  162.1250   159.7300   -15.2340   -12.1510  -117.5020    81.3670    14.7070    16.5260    18.5960     2.3460 
  162.2500   159.8460   -15.2700   -12.1800  -117.5380    82.4780    12.7370    14.3700    16.9240     2.3610 
  162.3750   159.9620   -15.3050   -12.2090  -117.7400    85.2450    10.9390    12.3570    13.5410     2.3650 
  162.5000   160.0790   -15.3400   -12.2380  -118.0640    88.7710     9.7750    10.9720    10.4330     2.3590 
  162.6250   160.1950   -15.3750   -12.2670  -118.4580    92.1510     9.2040    10.3520     9.2730     2.3510 
  162.7500   160.3110   -15.4110   -12.2960  -118.8460    95.9350     9.1320    10.3560     9.2290     2.3510 
  162.8750   160.4280   -15.4460   -12.3250  -119.1340    97.1050     9.5860    10.8860     9.8500     2.3650 
  163.0000   160.5440   -15.4820   -12.3540  -119.2620    96.7330    10.2490    11.6720    10.7110     2.3820 
  163.1250   160.6600   -15.5180   -12.3830  -119.2050    93.3400    10.9980    12.5160    11.0190     2.3910 
  163.2500   160.7760   -15.5530   -12.4120  -119.0180    89.9500    11.6810    13.2610    11.3430     2.3820 
  163.3750   160.8930   -15.5890   -12.4410  -118.7800    86.1880    12.1520    13.7730    12.2170     2.3590 
  163.5000   161.0090   -15.6250   -12.4700  -118.5830    84.1430    12.3930    14.0150    12.6610     2.3310 
  163.6250   161.1250   -15.6600   -12.5000  -118.4850    83.9980    12.3740    14.0010    12.8200     2.3170 
  163.7500   161.2410   -15.6960   -12.5290  -118.4860    86.2170    12.2280    13.8870    13.3120     2.3220 
  163.8750   161.3570   -15.7320   -12.5580  -118.5820    89.0040    12.1350    13.9290    13.2770     2.3350 
  164.0000   161.4730   -15.7680   -12.5880  -118.7390    90.7050    12.3540    14.4250    12.2060     2.3380 
  164.1250   161.5890   -15.8040   -12.6170  -118.9360    89.3100    13.2300    15.6950    11.8300     2.3220 
  164.2500   161.7050   -15.8400   -12.6460  -119.1530    86.0440    14.7450    17.8120    14.4100     2.3000 
  164.3750   161.8220   -15.8760   -12.6760  -119.3400    82.5890    17.1860    20.9440    19.2360     2.2830 
  164.5000   161.9380   -15.9120   -12.7050  -119.4450    79.8680    20.4630    24.9600    24.3410     2.2710 
  164.6250   162.0540   -15.9480   -12.7340  -119.4310    77.4640    24.4010    29.8490    28.4280     2.2610 
  164.7500   162.1690   -15.9840   -12.7640  -119.2990    74.5240    29.1660    35.9230    32.3460     2.2470 
  164.8750   162.2850   -16.0200   -12.7930  -119.0660    71.7970    35.4570    44.4550    39.2850     2.2310 
  165.0000   162.4010   -16.0570   -12.8230  -118.7900    70.2220    44.9850    57.3360    47.8510     2.2130 
  165.1250   162.5170   -16.0930   -12.8520  -118.5130    69.6600    60.9900    78.7550    57.3930     2.1940 
  165.2500   162.6330   -16.1290   -12.8810  -118.2530    69.2480    85.9580   113.6510    87.2900     2.1690 
  165.3750   162.7490   -16.1660   -12.9110  -118.0310    67.0540   130.4830   167.9480   148.0300     2.1480 
  165.5000   162.8650   -16.2020   -12.9400  -117.8590    64.0460   189.0980   234.5700   193.7650     2.1340 
  165.6250   162.9810   -16.2390   -12.9700  -117.7310    59.4480   245.4320   298.3730   212.0070     2.1270 
  165.7500   163.0970   -16.2760   -13.0000  -117.6280    56.9010   288.6310   344.8530   234.8300     2.1180 
  165.8750   163.2120   -16.3120   -13.0290  -117.5180    56.4630   306.5640   365.7340   241.8900     2.1120 
  166.0000   163.3280   -16.3490   -13.0590  -117.3750    57.2470   309.1410   369.1490   216.2830     2.1110 
  166.1250   163.4440   -16.3860   -13.0890  -117.1620    57.4100   307.0300   365.6040   189.8810     2.1160 
  166.2500   163.5590   -16.4230   -13.1190  -116.8560    56.6700   306.3150   363.8020   191.6000     2.1190 
  166.3750   163.6750   -16.4590   -13.1480  -116.4250    56.7050   312.9020   366.6140   209.5020     2.1210 
  166.5000   163.7910   -16.4960   -13.1780  -115.8610    58.2130   320.9790   368.5630   218.0540     2.1270 
  166.6250   163.9060   -16.5330   -13.2080  -115.1470    59.7040   320.5510   359.4440   216.1830     2.1330 
  166.7500   164.0220   -16.5700   -13.2380  -114.3240    60.7520   303.8940   332.6650   212.4110     2.1350 
  166.8750   164.1370   -16.6070   -13.2680  -113.4260    61.0950   265.8430   289.8760   204.3750     2.1360 
  167.0000   164.2530   -16.6450   -13.2980  -112.4790    62.1140   226.7920   246.0000   189.1640     2.1420 
  167.1250   164.3690   -16.6820   -13.3280  -111.4940    64.0210   197.9790   214.8330   160.4560     2.1560 
  167.2500   164.4840   -16.7190   -13.3580  -110.4490    65.1190   187.0140   202.8350   123.0040     2.1640 
  167.3750   164.5990   -16.7560   -13.3880  -109.3260    65.3080   196.8080   215.8440   108.6120     2.1580 
  167.5000   164.7150   -16.7930   -13.4180  -108.1540    63.8980   230.2490   251.4960   142.5270     2.1430 
  167.6250   164.8300   -16.8300   -13.4490  -106.9650    61.8820   282.7560   297.2580   198.7310     2.1260 
  167.7500   164.9460   -16.8680   -13.4790  -105.8370    60.3840   317.8610   327.9980   224.9830     2.1170 
  167.8750   165.0610   -16.9050   -13.5090  -104.8270    60.4570   312.5060   320.0000   229.0580     2.1150 
  168.0000   165.1770   -16.9420   -13.5390  -103.9340    61.4320   269.6030   277.7780   231.0310     2.1290 
  168.1250   165.2920   -16.9800   -13.5690  -103.1720    61.9960   213.2250   224.6850   195.4620     2.1510 
  168.2500   165.4070   -17.0170   -13.6000  -102.4940    61.7610   173.9130   184.9350   132.8410     2.1680 
  168.3750   165.5230   -17.0550   -13.6300  -101.8710    62.3550   156.8340   165.9120    99.0900     2.1710 
  168.5000   165.6380   -17.0920   -13.6600  -101.2740    63.5270   152.9660   162.1680   103.1120     2.1690 
