~V
VERS. 2.00: Ver 2.00
~W
STRT.M 32.0000:
STOP.M 269.0000:
STEP.M 0.1250:
NULL. -999.2500:
UWI. FD10881:
~C
DEPT.M :
TVD. :
DX. :
DY. :
SP.MV :
GR.API :
RI. :
RML.OHMM :
RXO.OHMM :
~A
# ...
  172.0000   165.5520   -31.3240   -15.1530   -13.2780    52.6080     5.0230     5.8740     8.9230 
  172.1250   165.6560   -31.3840   -15.1880   -12.7870    53.9790     4.8920     5.7340     8.3930 
  172.2500   165.7610   -31.4430   -15.2220   -12.3650    52.5890     4.7590     5.5790     8.0530 
  172.3750   165.8650   -31.5030   -15.2570   -12.1060    51.7210     4.6340     5.4270     7.9200 
  172.5000   165.9690   -31.5630   -15.2910   -11.9800    51.4690     4.5360     5.2880     8.0530 
  172.6250   166.0730   -31.6230   -15.3250   -12.0600    50.7250     4.5150     5.2500     7.8060 
  172.7500   166.1780   -31.6830   -15.3590   -12.2710    49.6580     4.5840     5.3290     7.2510 
  172.8750   166.2820   -31.7430   -15.3930   -12.5120    49.6310     4.7350     5.4960     7.2790 
  173.0000   166.3860   -31.8030   -15.4280   -12.8040    51.0220     4.9230     5.7060     7.9000 
  173.1250   166.4900   -31.8630   -15.4620   -13.0590    51.6740     5.1380     5.9490     8.9060 
  173.2500   166.5940   -31.9240   -15.4960   -13.2750    51.0750     5.3650     6.1940     9.8110 
  173.3750   166.6980   -31.9840   -15.5310   -13.5450    51.8020     5.5580     6.4190     9.9360 
  173.5000   166.8020   -32.0450   -15.5650   -13.8820    55.4010     5.6860     6.5490    10.0720 
  173.6250   166.9060   -32.1050   -15.5990   -14.2250    58.2020     5.7230     6.5680    10.7670 
  173.7500   167.0090   -32.1660   -15.6330   -14.5980    56.9630     5.6780     6.4700    11.5900 
  173.8750   167.1130   -32.2260   -15.6680   -14.9410    54.7440     5.6030     6.3330    11.7550 
  174.0000   167.2170   -32.2870   -15.7020   -14.9710    54.0790     5.5660     6.2750    10.7950 
  174.1250   167.3200   -32.3480   -15.7370   -14.5630    53.9060     5.5700     6.2960     9.9810 
  174.2500   167.4240   -32.4090   -15.7710   -13.8400    53.0660     5.6050     6.3950    10.4450 
  174.3750   167.5270   -32.4700   -15.8050   -13.1540    52.8450     5.6290     6.4740    11.2300 
  174.5000   167.6310   -32.5310   -15.8400   -12.9290    53.3980     5.5850     6.4450    11.3460 
  174.6250   167.7340   -32.5930   -15.8740   -13.2330    53.6280     5.4920     6.3310    11.4700 
  174.7500   167.8380   -32.6540   -15.9080   -13.8440    53.4510     5.3920     6.1950    10.7520 
  174.8750   167.9410   -32.7160   -15.9410   -14.5220    53.8850     5.3310     6.1240     9.0730 
  175.0000   168.0440   -32.7770   -15.9750   -14.9590    53.5870     5.3280     6.1410     8.9070 
  175.1250   168.1480   -32.8390   -16.0090   -14.8560    51.6180     5.3710     6.2310    10.2130 
  175.2500   168.2510   -32.9010   -16.0440   -14.2620    50.4640     5.4320     6.3310    10.8330 
  175.3750   168.3540   -32.9630   -16.0780   -13.6670    53.3990     5.4790     6.3940    10.2520 
  175.5000   168.4570   -33.0250   -16.1110   -13.2230    59.3990     5.4980     6.4150     9.7830 
  175.6250   168.5600   -33.0870   -16.1450   -12.8540    64.0020     5.4860     6.4070     9.6890 
  175.7500   168.6630   -33.1490   -16.1790   -12.6580    63.4690     5.4470     6.3700    10.0320 
  175.8750   168.7660   -33.2110   -16.2130   -12.6900    59.6620     5.4090     6.3520    10.7340 
  176.0000   168.8690   -33.2730   -16.2470   -12.8380    56.6250     5.4070     6.3820    10.3380 
  176.1250   168.9720   -33.3360   -16.2810   -13.0200    56.9530     5.4660     6.5040     9.5830 
  176.2500   169.0750   -33.3980   -16.3150   -13.1810    56.7630     5.5480     6.6480     9.7860 
  176.3750   169.1780   -33.4610   -16.3490   -13.2850    55.6770     5.5820     6.7000    10.3060 
  176.5000   169.2800   -33.5230   -16.3830   -13.4220    55.6630     5.5090     6.6010    11.0720 
  176.6250   169.3830   -33.5860   -16.4160   -13.7040    58.6010     5.3310     6.3660    12.9190 
  176.7500   169.4860   -33.6480   -16.4500   -14.0760    62.2630     5.1340     6.1330    16.5580 
  176.8750   169.5890   -33.7110   -16.4840   -14.4640    63.3980     5.0080     6.0290    17.0440 
  177.0000   169.6910   -33.7740   -16.5190   -14.8190    61.2430     4.9840     6.0340    12.1750 
  177.1250   169.7940   -33.8360   -16.5530   -14.8790    58.7930     5.0530     6.1180     9.4290 
  177.2500   169.8960   -33.8990   -16.5870   -14.3460    58.4540     5.1460     6.2130    10.0350 
  177.3750   169.9990   -33.9620   -16.6210   -13.4260    59.1450     5.1920     6.2600    10.4530 
  177.5000   170.1010   -34.0250   -16.6550   -12.4600    59.5580     5.1460     6.2000    11.1010 
  177.6250   170.2040   -34.0880   -16.6890   -11.8500    59.8290     5.0000     6.0410    11.5190 
  177.7500   170.3060   -34.1510   -16.7230   -11.9270    59.0300     4.8150     5.8420    10.4060 
  177.8750   170.4090   -34.2140   -16.7570   -12.4210    55.3390     4.6090     5.6000     9.3930 
  178.0000   170.5110   -34.2780   -16.7910   -13.0240    50.4700     4.4190     5.3880     9.3970 
  178.1250   170.6130   -34.3410   -16.8260   -13.4840    49.1870     4.2600     5.2060     9.3890 
  178.2500   170.7150   -34.4040   -16.8600   -13.5440    51.7190     4.1130     5.0540     8.9540 
  178.3750   170.8170   -34.4670   -16.8950   -13.0610    54.8350     4.0110     4.9810     8.3390 
  178.5000   170.9200   -34.5300   -16.9290   -12.4140    55.7200     3.9310     4.9010     7.9350 
  178.6250   171.0220   -34.5940   -16.9640   -11.9640    55.2620     3.8720     4.8410     7.6370 
  178.7500   171.1240   -34.6570   -16.9980   -11.5760    54.6980     3.8030     4.7240     7.5270 
  178.8750   171.2260   -34.7210   -17.0330   -11.3270    54.5140     3.7130     4.5620     7.5910 
  179.0000   171.3280   -34.7840   -17.0670   -11.2810    53.0480     3.6100     4.3940     7.7940 
  179.1250   171.4300   -34.8480   -17.1020   -11.3960    49.4180     3.5390     4.2900     8.0770 
  179.2500   171.5320   -34.9110   -17.1370   -11.5750    45.9440     3.5310     4.3230     7.7560 
  179.3750   171.6330   -34.9750   -17.1710   -11.7740    45.5940     3.5900     4.4980     7.0210 
  179.5000   171.7350   -35.0380   -17.2060   -11.9070    47.5220     3.6510     4.6800     6.9680 
  179.6250   171.8370   -35.1020   -17.2410   -12.0670    49.3020     3.5230     4.5890     7.7320 
  179.7500   171.9390   -35.1650   -17.2760   -12.3660    49.6500     3.1060     4.0870     8.7370 
  179.8750   172.0410   -35.2280   -17.3120   -12.7600    48.4420     2.5610     3.3610     9.3640 
  180.0000   172.1430   -35.2920   -17.3470   -13.2300    47.4780     1.9920     2.5870     9.5830 
  180.1250   172.2440   -35.3550   -17.3820   -13.7310    48.7960     1.5860     2.0620     9.2940 
  180.2500   172.3460   -35.4190   -17.4170   -14.0500    50.9750     1.3450     1.7650     7.2200 
  180.3750   172.4480   -35.4830   -17.4520   -13.8300    51.5000     1.1950     1.6120     4.1630 
  180.5000   172.5500   -35.5460   -17.4870   -13.0650    48.8560     1.1390     1.5800     2.6260 
  180.6250   172.6520   -35.6100   -17.5220   -12.1400    45.9630     1.1460     1.6210     2.4550 
  180.7500   172.7530   -35.6730   -17.5570   -11.4860    44.4450     1.1740     1.6750     2.4160 
  180.8750   172.8550   -35.7370   -17.5920   -11.3640    44.5750     1.2030     1.7190     2.3540 
  181.0000   172.9570   -35.8000   -17.6270   -11.5950    44.3210     1.2240     1.7320     2.3900 
  181.1250   173.0590   -35.8640   -17.6620   -11.9350    43.0980     1.2290     1.7150     2.5360 
  181.2500   173.1600   -35.9280   -17.6970   -12.2750    43.0910     1.2200     1.6780     2.6710 
  181.3750   173.2620   -35.9910   -17.7330   -12.3230    44.1270     1.1990     1.6500     2.6370 
  181.5000   173.3640   -36.0550   -17.7680   -11.9730    45.1110     1.1770     1.6300     2.5940 
  181.6250   173.4650   -36.1180   -17.8030   -11.5410    45.4590     1.1600     1.6120     2.6630 
  181.7500   173.5670   -36.1820   -17.8380   -11.2140    44.5540     1.1430     1.5950     2.6690 
  181.8750   173.6690   -36.2460   -17.8730   -10.9450    44.0220     1.1320     1.5750     2.5630 
