~V
VERS. 2.00: Ver 2.00
~W
STRT.M 20.0000:
STOP.M 282.0000:
STEP.M 0.1250:
NULL. -999.2500:
UWI. FD10228:
~C
DEPT.M :
TVD. :
DX. :
DY. :
GR.API :
RML.OHMM :
RI. :
RXO.OHMM :
CALI.CM :
SP.MV :
DEN.GM/CC :
~A
# ...
  160.2500   159.9770     2.8860     1.9160    65.2000    38.2890    37.7660    24.1780    18.3470   -12.6400     2.1850 
  160.3750   160.1000     2.9060     1.9200    65.3000    31.8540    31.2450    23.1620    18.3250   -12.6090     2.1980 
  160.5000   160.2240     2.9260     1.9230    66.0160    27.8160    26.6500    20.6740    18.3170   -12.5980     2.2080 
  160.6250   160.3470     2.9460     1.9260    64.8960    26.6860    24.5600    18.4360    18.3160   -12.6290     2.2120 
  160.7500   160.4710     2.9660     1.9300    63.1510    27.7180    24.4620    19.2990    18.3160   -12.6350     2.2100 
  160.8750   160.5940     2.9860     1.9330    61.5820    30.4780    26.1350    22.1820    18.3160   -12.6420     2.2070 
  161.0000   160.7170     3.0050     1.9360    59.9010    34.4380    29.3190    23.6080    18.3160   -12.6660     2.2060 
  161.1250   160.8410     3.0250     1.9400    60.2010    38.8060    33.6030    24.6830    18.3160   -12.6660     2.2070 
  161.2500   160.9640     3.0450     1.9430    62.7050    42.5440    37.8770    25.8030    18.3160   -12.6480     2.2090 
  161.3750   161.0870     3.0650     1.9460    63.8950    45.1270    41.3520    26.7070    18.3160   -12.6350     2.2090 
  161.5000   161.2110     3.0850     1.9490    63.0930    46.5990    43.7580    27.4250    18.3160   -12.6240     2.2070 
  161.6250   161.3340     3.1050     1.9530    64.0620    47.1880    45.1220    27.9210    18.3160   -12.5710     2.2040 
  161.7500   161.4570     3.1250     1.9560    65.5810    47.2050    45.7400    27.8970    18.3160   -12.5030     2.2000 
  161.8750   161.5810     3.1450     1.9590    65.5170    46.6730    45.6760    27.4400    18.3160   -12.4480     2.1960 
  162.0000   161.7040     3.1640     1.9630    64.8450    45.2790    44.7630    27.1410    18.3160   -12.3870     2.1900 
  162.1250   161.8270     3.1840     1.9660    64.2170    41.7520    41.7740    26.6830    18.3160   -12.3110     2.1820 
  162.2500   161.9510     3.2040     1.9690    62.8060    35.8220    36.2510    26.3350    18.3160   -12.2630     2.1740 
  162.3750   162.0740     3.2250     1.9730    63.1070    28.3560    28.9810    25.9780    18.3160   -12.2370     2.1730 
  162.5000   162.1960     3.2500     1.9760    68.6230    21.1050    21.7820    25.1190    18.3160   -12.1750     2.1830 
  162.6250   162.3190     3.2740     1.9800    78.8300    17.5180    16.5040    20.2230    18.3160   -12.1410     2.2030 
  162.7500   162.4420     3.2990     1.9840    87.2660    14.2420    13.2460    14.7270    18.3160   -12.1840     2.2270 
  162.8750   162.5640     3.3230     1.9880    89.8420    13.0540    11.7210    12.0240    18.3160   -12.2410     2.2450 
  163.0000   162.6870     3.3480     1.9910    85.4430    13.4800    11.5900    12.4560    18.3160   -12.2910     2.2510 
  163.1250   162.8090     3.3720     1.9950    77.8700    15.2360    12.7790    14.5730    18.3160   -12.3950     2.2490 
  163.2500   162.9320     3.3970     1.9990    73.6030    17.6100    14.8300    16.7010    18.3160   -12.5240     2.2450 
  163.3750   163.0540     3.4210     2.0030    72.7110    19.9450    17.2490    17.7200    18.3160   -12.6430     2.2480 
  163.5000   163.1770     3.4460     2.0060    72.4330    21.5020    19.2810    17.8210    18.3160   -12.8050     2.2590 
  163.6250   163.2990     3.4700     2.0100    72.9470    21.5960    20.0290    17.7290    18.3160   -13.0130     2.2790 
  163.7500   163.4220     3.4950     2.0140    74.3700    20.5650    19.5660    17.7680    18.3160   -13.1900     2.3040 
  163.8750   163.5440     3.5190     2.0170    75.3700    18.8560    18.2500    17.6300    18.3160   -13.3400     2.3280 
  164.0000   163.6670     3.5430     2.0210    76.5080    16.9900    16.5760    16.3650    18.3160   -13.5140     2.3440 
  164.1250   163.7890     3.5680     2.0250    79.6550    15.5190    15.0490    14.0480    18.3160   -13.7100     2.3510 
  164.2500   163.9120     3.5920     2.0290    82.3830    14.6670    13.9430    13.0160    18.3160   -13.9020     2.3500 
  164.3750   164.0340     3.6170     2.0320    84.3100    14.4860    13.3550    13.0330    18.3160   -14.0900     2.3470 
  164.5000   164.1570     3.6410     2.0360    87.6670    14.9270    13.3020    13.3290    18.3160   -14.2780     2.3460 
  164.6250   164.2790     3.6660     2.0400    88.0200    16.0050    13.8620    13.8380    18.3160   -14.4550     2.3450 
  164.7500   164.4020     3.6900     2.0430    82.7390    17.5460    14.9130    14.8520    18.3160   -14.6260     2.3430 
  164.8750   164.5240     3.7150     2.0470    76.9810    19.4160    16.3630    16.0020    18.3160   -14.8290     2.3370 
  165.0000   164.6470     3.7390     2.0510    75.9010    21.3570    18.0070    17.0240    18.3160   -15.0540     2.3280 
  165.1250   164.7690     3.7640     2.0550    79.8690    22.8680    19.4160    18.1840    18.3160   -15.2170     2.3190 
  165.2500   164.8920     3.7880     2.0580    82.9610    23.5990    20.1960    19.5490    18.3160   -15.3600     2.3140 
  165.3750   165.0140     3.8130     2.0620    83.3910    23.4890    20.1910    19.9410    18.3160   -15.5430     2.3130 
  165.5000   165.1370     3.8370     2.0660    81.5470    22.9050    19.6060    18.5350    18.3160   -15.7080     2.3140 
  165.6250   165.2590     3.8620     2.0700    81.2000    22.6670    19.0100    17.2620    18.3160   -15.8650     2.3140 
  165.7500   165.3820     3.8860     2.0730    84.5560    23.4630    18.9980    17.1530    18.3160   -16.0590     2.3120 
  165.8750   165.5040     3.9110     2.0770    87.2090    25.6990    19.9550    18.7510    18.3160   -16.2350     2.3090 
  166.0000   165.6270     3.9350     2.0810    85.9650    29.5780    22.1450    20.3040    18.3160   -16.3500     2.3080 
  166.1250   165.7490     3.9600     2.0840    81.5450    35.4010    25.9930    21.8280    18.3160   -16.5010     2.3080 
  166.2500   165.8720     3.9840     2.0880    78.0680    42.7450    31.2950    23.4820    18.3150   -16.6740     2.3090 
  166.3750   165.9940     4.0090     2.0920    74.9560    51.5800    38.0190    24.1320    18.3100   -16.8010     2.3090 
  166.5000   166.1170     4.0330     2.0960    70.5240    62.3630    46.4480    22.4670    18.3150   -16.9240     2.3040 
  166.6250   166.2400     4.0580     2.0990    67.1430    76.7430    58.0500    21.1280    18.3150   -17.0280     2.2910 
  166.7500   166.3620     4.0820     2.1030    67.0100    95.0990    73.4520    21.5880    18.3160   -17.0930     2.2700 
  166.8750   166.4850     4.1060     2.1070    66.5740   116.6750    92.4290    23.4180    18.3160   -17.1340     2.2470 
  167.0000   166.6070     4.1310     2.1110    62.8870   138.0250   112.5300    25.3030    18.3160   -17.1690     2.2280 
  167.1250   166.7300     4.1550     2.1140    58.6700   149.9570   126.6530    26.9730    18.3160   -17.1850     2.2190 
  167.2500   166.8520     4.1800     2.1180    56.6860   146.4950   128.6800    28.8270    18.3160   -17.1730     2.2200 
  167.3750   166.9750     4.2040     2.1220    57.6510   128.9690   117.5840    30.2530    18.3150   -17.1380     2.2260 
  167.5000   167.0970     4.2290     2.1250    61.1460   105.2550    98.4960    29.9770    18.3130   -17.1030     2.2330 
  167.6250   167.2200     4.2530     2.1290    63.3320    83.9170    78.9520    28.5130    18.3030   -17.0360     2.2420 
  167.7500   167.3420     4.2780     2.1330    62.9600    68.4360    63.6570    26.2200    18.2960   -16.9240     2.2520 
  167.8750   167.4650     4.3020     2.1370    63.5150    59.4630    53.8640    23.9070    18.2960   -16.8380     2.2640 
  168.0000   167.5870     4.3270     2.1400    68.9570    56.6170    49.4550    21.8010    18.3050   -16.7990     2.2740 
  168.1250   167.7100     4.3510     2.1440    74.7360    60.1110    50.6900    21.2130    18.3140   -16.7150     2.2780 
  168.2500   167.8320     4.3760     2.1480    74.8680    68.4420    56.4490    22.0730    18.3160   -16.6380     2.2710 
  168.3750   167.9550     4.4000     2.1510    71.5630    80.8290    66.3690    24.0260    18.3160   -16.6100     2.2580 
