~V
VERS. 2.00: Ver 2.00
~W
STRT.M 12.0000:
STOP.M 226.0000:
STEP.M 0.1250:
NULL. -999.2500:
UWI. FD10605:
~C
DEPT.M :
TVD. :
DX. :
DY. :
GR.API :
RML.OHMM :
RI. :
RXO.OHMM :
CALI.CM :
DEN.GM/CC :
SP.MV :
~A
# ...
   69.7500    69.3110     5.8450     1.6180    55.7690    16.7190    13.8920    15.4590    24.1660     2.1530   -21.5360 
   69.8750    69.4330     5.8680     1.6300    55.6730    16.9980    14.3140    15.3740    24.4200     2.0880   -21.4280 
   70.0000    69.5560     5.8920     1.6430    57.9350    16.7630    14.3030    14.3940    24.6570     2.0140   -21.3650 
   70.1250    69.6780     5.9150     1.6550    58.3710    16.0700    13.8620    13.5760    24.6920     1.9620   -21.3360 
   70.2500    69.8000     5.9390     1.6680    55.9120    15.2570    13.2760    12.5310    24.4540     1.9510   -21.3440 
   70.3750    69.9220     5.9630     1.6800    56.1270    14.5550    12.7490    12.0310    23.9320     1.9780   -21.3020 
   70.5000    70.0440     5.9860     1.6920    61.5440    14.0880    12.3950    12.1880    23.4540     2.0260   -21.2240 
   70.6250    70.1660     6.0100     1.7050    64.9030    13.8780    12.2450    12.4340    23.3250     2.0680   -21.1600 
   70.7500    70.2880     6.0330     1.7170    62.9560    13.7490    12.1790    12.4900    23.4040     2.0860   -21.1060 
   70.8750    70.4100     6.0570     1.7290    60.2720    13.5270    12.0540    12.1420    23.5080     2.0820   -21.0370 
   71.0000    70.5320     6.0800     1.7420    61.1510    13.0770    11.7300    11.5160    23.5240     2.0690   -20.8880 
   71.1250    70.6540     6.1040     1.7540    63.9870    12.3430    11.1250    10.8520    23.3340     2.0740   -20.6290 
   71.2500    70.7760     6.1270     1.7660    66.6130    11.5020    10.3950    10.4620    22.9710     2.1030   -20.2840 
   71.3750    70.8990     6.1510     1.7790    69.9070    10.7380     9.6980     9.6230    22.5910     2.1480   -19.9330 
   71.5000    71.0210     6.1740     1.7910    72.7910    10.1970     9.1570     8.4400    22.3440     2.1930   -19.6460 
   71.6250    71.1430     6.1980     1.8030    73.6180     9.9690     8.8590     8.0450    22.2850     2.2200   -19.2110 
   71.7500    71.2650     6.2210     1.8160    73.3830     9.9290     8.7260     8.2790    22.3200     2.2310   -18.7230 
   71.8750    71.3870     6.2450     1.8280    74.2640     9.9450     8.6670     8.1370    22.4410     2.2350   -18.2290 
   72.0000    71.5090     6.2680     1.8400    77.2110     9.9090     8.5980     7.6190    22.5740     2.2410   -17.8200 
   72.1250    71.6310     6.2920     1.8530    79.3170     9.7750     8.4830     7.2150    22.6130     2.2510   -17.5020 
   72.2500    71.7530     6.3150     1.8650    79.4390     9.6130     8.3740     7.1850    22.5390     2.2600   -17.2790 
   72.3750    71.8750     6.3390     1.8780    78.7520     9.5150     8.3360     7.2250    22.4230     2.2650   -17.1260 
   72.5000    71.9970     6.3630     1.8900    77.7900     9.5710     8.4330     7.5490    22.3390     2.2640   -16.9670 
   72.6250    72.1200     6.3860     1.9020    74.8950     9.9170     8.7590     8.4550    22.3190     2.2590   -16.9250 
   72.7500    72.2420     6.4100     1.9150    72.4460    10.6090     9.3410     9.3890    22.3380     2.2510   -16.9870 
   72.8750    72.3640     6.4330     1.9270    74.0670    11.6840    10.2350     9.3670    22.4140     2.2360   -17.1050 
   73.0000    72.4860     6.4570     1.9390    77.4710    13.0420    11.4330    10.0180    22.5250     2.2120   -17.1950 
   73.1250    72.6080     6.4800     1.9520    76.5510    14.2300    12.6660    12.2850    22.4480     2.1850   -17.3250 
   73.2500    72.7300     6.5040     1.9640    72.2150    14.6400    13.3030    14.8850    22.2120     2.1700   -17.3400 
   73.3750    72.8520     6.5270     1.9760    70.5970    13.8990    12.8190    14.8930    21.9830     2.1810   -17.2590 
   73.5000    72.9740     6.5510     1.9890    74.3050    12.1730    11.2320    12.2210    21.8800     2.2200   -17.1280 
   73.6250    73.0960     6.5740     2.0010    80.6920    10.0840     9.1550     8.4640    21.9040     2.2740   -16.9230 
   73.7500    73.2180     6.5980     2.0130    87.0960     8.2790     7.3440     6.1100    21.9740     2.3210   -16.7390 
   73.8750    73.3400     6.6210     2.0260    92.2590     6.9920     6.0580     5.4110    22.0310     2.3510   -16.5790 
   74.0000    73.4630     6.6450     2.0380    95.9070     6.3290     5.3360     5.4090    22.0520     2.3600   -16.5100 
   74.1250    73.5850     6.6680     2.0500    96.1390     6.4780     5.2410     5.6730    22.0560     2.3490   -16.5460 
   74.2500    73.7070     6.6920     2.0630    93.1090     7.2890     5.6690     6.0660    22.1130     2.3250   -16.7250 
   74.3750    73.8290     6.7150     2.0750    86.2320     8.6630     6.6140     6.8910    22.3210     2.2890   -17.0510 
   74.5000    73.9510     6.7390     2.0880    76.4130    10.4170     8.0140     8.6750    22.6810     2.2440   -17.4370 
   74.6250    74.0730     6.7630     2.1000    69.1480    12.1660     9.6640    10.6340    22.8390     2.1980   -17.9350 
   74.7500    74.1950     6.7860     2.1120    65.6500    13.4560    11.0940    12.3530    22.6530     2.1590   -18.4040 
   74.8750    74.3170     6.8100     2.1250    63.3340    14.0620    11.9520    12.5700    22.3400     2.1360   -18.8620 
   75.0000    74.4390     6.8330     2.1370    61.2300    14.0840    12.2000    11.6330    22.0870     2.1300   -19.2230 
   75.1250    74.5610     6.8570     2.1490    61.6920    13.9460    12.1550    11.1550    21.9980     2.1410   -19.4480 
   75.2500    74.6830     6.8800     2.1620    65.2840    14.1220    12.2750    11.4560    21.9410     2.1560   -19.5850 
   75.3750    74.8060     6.9040     2.1740    68.8360    14.7140    12.7150    12.8000    21.8510     2.1680   -19.6370 
   75.5000    74.9280     6.9270     2.1860    71.4760    15.4620    13.3410    14.3130    21.7790     2.1750   -19.6390 
   75.6250    75.0500     6.9510     2.1990    73.9270    15.7100    13.6080    14.5450    21.7900     2.1810   -19.5380 
   75.7500    75.1720     6.9740     2.2110    75.8470    15.0680    13.0720    13.5280    21.8430     2.1950   -19.3670 
   75.8750    75.2940     6.9980     2.2230    78.2360    13.5740    11.7330    11.8380    21.8580     2.2190   -19.1200 
   76.0000    75.4160     7.0210     2.2360    82.6460    11.6760    10.0320     9.8980    21.7960     2.2490   -18.8470 
   76.1250    75.5380     7.0450     2.2480    86.4080    10.0790     8.5920     7.9710    21.7220     2.2740   -18.5200 
   76.2500    75.6600     7.0680     2.2600    85.8820     9.1750     7.6910     7.0780    21.6740     2.2820   -18.2630 
   76.3750    75.7820     7.0920     2.2730    81.8140     9.0380     7.3730     7.0410    21.6650     2.2700   -18.0460 
   76.5000    75.9040     7.1150     2.2850    78.5730     9.5240     7.5690     7.4880    21.6850     2.2410   -17.8670 
   76.6250    76.0270     7.1390     2.2980    78.0800    10.3450     8.1530     8.5940    21.7340     2.2150   -17.7340 
   76.7500    76.1490     7.1630     2.3100    80.1570    11.0680     8.7880    10.7800    21.7680     2.2120   -17.5850 
   76.8750    76.2710     7.1860     2.3220    84.6160    11.4660     9.2240    12.3150    21.7620     2.2460   -17.4710 
   77.0000    76.3930     7.2100     2.3350    90.6520    11.5350     9.3780    12.7120    21.7180     2.3090   -17.4300 
   77.1250    76.5150     7.2330     2.3470    93.4560    11.5240     9.3940    11.4500    21.6800     2.3760   -17.5010 
   77.2500    76.6370     7.2570     2.3590    89.4870    11.7790     9.5470    11.7300    21.6780     2.4180   -17.6180 
   77.3750    76.7590     7.2800     2.3720    81.1310    12.4750    10.0020    12.7060    21.7040     2.4200   -17.7760 
   77.5000    76.8810     7.3040     2.3840    73.7510    13.5850    10.8140    13.8340    21.7720     2.3840   -17.9940 
   77.6250    77.0030     7.3270     2.3960    70.9770    14.8310    11.8760    13.8030    21.9870     2.3200   -18.1750 
   77.7500    77.1250     7.3510     2.4090    70.3300    15.7530    12.8060    13.9860    22.3220     2.2510   -18.3740 
   77.8750    77.2470     7.3740     2.4210    70.2010    16.0460    13.2820    14.1370    22.5500     2.1910   -18.5160 
