~V
VERS. 2.00: Ver 2.00
~W
STRT.M 20.0000:
STOP.M 242.0000:
STEP.M 0.1250:
NULL. -999.2500:
UWI. FD10624:
~C
DEPT.M :
TVD. :
DX. :
DY. :
GR.API :
RML.OHMM :
RI. :
RXO.OHMM :
CALI.CM :
DEN.GM/CC :
SP.MV :
~A
# ...
  160.2500   155.4350    19.9220    19.8180    49.0180    16.3940    15.6370    15.9340    19.1710     2.5460   -12.7620 
  160.3750   155.5460    19.9630    19.8590    47.5570    16.6710    15.9690    16.0790    19.1890     2.5430   -12.9080 
  160.5000   155.6570    20.0030    19.9000    45.6250    16.8850    16.2670    16.1890    19.2460     2.5390   -13.0110 
  160.6250   155.7680    20.0440    19.9410    44.5440    16.9730    16.4710    16.2010    19.2600     2.5360   -13.2420 
  160.7500   155.8790    20.0840    19.9820    43.9930    16.9270    16.5520    16.6320    19.2140     2.5370   -13.5360 
  160.8750   155.9900    20.1240    20.0230    43.9000    16.7780    16.4830    16.9320    19.1020     2.5420   -13.8680 
  161.0000   156.1010    20.1650    20.0630    44.9900    16.6000    16.2740    16.4080    18.9860     2.5490   -14.0600 
  161.1250   156.2120    20.2050    20.1040    46.1210    16.4650    15.9660    15.5020    18.9240     2.5530   -14.2270 
  161.2500   156.3230    20.2460    20.1450    46.6650    16.3750    15.6560    14.8650    18.9060     2.5500   -14.4070 
  161.3750   156.4340    20.2860    20.1860    47.4380    16.3200    15.4030    14.6940    18.8970     2.5410   -14.5360 
  161.5000   156.5450    20.3270    20.2270    48.7730    16.3050    15.2410    14.6360    18.9070     2.5280   -14.6020 
  161.6250   156.6560    20.3670    20.2680    49.2850    16.3270    15.1770    14.5810    18.9560     2.5170   -14.6250 
  161.7500   156.7670    20.4070    20.3090    48.0720    16.3420    15.1490    14.4790    19.0260     2.5120   -14.5890 
  161.8750   156.8780    20.4480    20.3500    46.2150    16.3250    15.1170    14.4850    19.0630     2.5170   -14.5400 
  162.0000   156.9890    20.4880    20.3910    45.8900    16.2890    15.0670    14.4990    19.0420     2.5300   -14.5760 
  162.1250   157.1000    20.5290    20.4320    46.7590    16.3070    15.0350    14.6090    18.9770     2.5450   -14.6020 
  162.2500   157.2110    20.5690    20.4730    46.8320    16.4420    15.0810    14.8510    18.9210     2.5550   -14.6100 
  162.3750   157.3220    20.6090    20.5140    45.3950    16.7370    15.2580    14.9240    18.9410     2.5560   -14.6250 
  162.5000   157.4330    20.6500    20.5540    42.8500    17.1890    15.5900    14.9930    19.0470     2.5500   -14.6860 
  162.6250   157.5440    20.6900    20.5950    41.7200    17.7290    16.0490    15.2190    19.1660     2.5370   -14.7880 
  162.7500   157.6550    20.7310    20.6360    42.3200    18.2070    16.4930    14.9350    19.1580     2.5230   -14.8600 
  162.8750   157.7660    20.7710    20.6770    43.9010    18.4900    16.7860    14.5170    19.0400     2.5090   -14.8870 
  163.0000   157.8770    20.8120    20.7180    46.2970    18.4980    16.8240    15.0560    18.8930     2.5000   -14.8470 
  163.1250   157.9880    20.8520    20.7590    47.9580    18.2060    16.5590    15.4310    18.8190     2.5030   -14.8530 
  163.2500   158.0990    20.8920    20.8000    47.8680    17.7790    16.1550    14.9890    18.7780     2.5170   -14.9190 
  163.3750   158.2100    20.9330    20.8410    46.0820    17.3560    15.7500    14.4040    18.7670     2.5360   -15.0100 
  163.5000   158.3210    20.9730    20.8820    45.0460    17.0410    15.4400    14.4450    18.7650     2.5530   -15.1260 
  163.6250   158.4320    21.0140    20.9230    46.5800    16.9000    15.2710    14.5710    18.7640     2.5580   -15.2890 
  163.7500   158.5420    21.0540    20.9640    48.7860    16.8720    15.1930    14.1620    18.7680     2.5540   -15.5660 
  163.8750   158.6530    21.0950    21.0050    50.8240    16.8960    15.1640    13.2500    18.7940     2.5480   -15.9380 
  164.0000   158.7640    21.1350    21.0460    51.5220    16.9220    15.1530    12.8120    18.9010     2.5440   -16.4460 
  164.1250   158.8750    21.1750    21.0860    49.6930    16.9430    15.1730    12.8790    19.0830     2.5460   -16.9790 
  164.2500   158.9860    21.2160    21.1270    47.0990    16.9980    15.2470    14.1680    19.2900     2.5480   -17.5290 
  164.3750   159.0970    21.2560    21.1680    46.5550    17.1270    15.3850    15.4450    19.4060     2.5460   -18.0720 
  164.5000   159.2080    21.2970    21.2090    48.5000    17.3460    15.5790    15.8100    19.4570     2.5380   -18.5520 
  164.6250   159.3190    21.3370    21.2500    50.4520    17.6470    15.8060    15.6540    19.4790     2.5310   -18.8720 
  164.7500   159.4300    21.3780    21.2910    51.3100    17.9870    16.0230    15.7590    19.4840     2.5300   -19.0980 
  164.8750   159.5410    21.4180    21.3320    52.3360    18.3360    16.2020    15.6490    19.4550     2.5340   -19.2230 
  165.0000   159.6520    21.4580    21.3730    54.8440    18.6630    16.3220    15.5850    19.3930     2.5410   -19.2040 
  165.1250   159.7630    21.4990    21.4140    56.0250    18.8980    16.3460    16.4080    19.3610     2.5430   -19.1130 
  165.2500   159.8740    21.5390    21.4550    53.7230    18.9510    16.2640    17.3220    19.3520     2.5400   -18.9290 
  165.3750   159.9850    21.5800    21.4960    49.7960    18.6940    16.0730    17.3420    19.3520     2.5340   -18.6560 
  165.5000   160.0960    21.6200    21.5370    48.4110    18.0770    15.7950    17.9570    19.3520     2.5290   -18.3920 
  165.6250   160.2070    21.6600    21.5780    50.4810    17.2750    15.4720    17.0840    19.3520     2.5270   -18.1970 
  165.7500   160.3180    21.7010    21.6180    51.0750    16.6610    15.1850    15.2470    19.3520     2.5260   -18.0110 
  165.8750   160.4290    21.7410    21.6590    49.5480    16.3870    15.0110    13.7840    19.3520     2.5220   -17.8690 
  166.0000   160.5400    21.7820    21.7000    48.2050    16.3840    14.9800    13.2920    19.3520     2.5140   -17.7490 
  166.1250   160.6510    21.8220    21.7410    49.6240    16.4740    15.0210    13.3880    19.3520     2.5050   -17.6810 
  166.2500   160.7620    21.8630    21.7820    52.1290    16.4670    14.9410    14.0860    19.3520     2.5010   -17.6560 
  166.3750   160.8730    21.9030    21.8230    54.4000    16.1790    14.5840    15.0650    19.3520     2.5020   -17.7000 
  166.5000   160.9840    21.9430    21.8640    57.4440    15.4080    13.8950    15.4340    19.3520     2.5050   -17.7400 
  166.6250   161.0950    21.9840    21.9050    62.8210    14.0480    12.9440    14.0380    19.3520     2.5010   -17.7470 
  166.7500   161.2060    22.0240    21.9460    68.6610    12.5240    11.9700    11.6810    19.3520     2.4870   -17.7530 
  166.8750   161.3170    22.0650    21.9870    73.1420    11.2540    11.1320    10.2540    19.3520     2.4620   -17.7400 
  167.0000   161.4280    22.1050    22.0280    76.4730    10.4410    10.5100     9.8600    19.3520     2.4300   -17.7400 
  167.1250   161.5390    22.1460    22.0690    80.8200    10.0330    10.1340    10.2230    19.3520     2.3980   -17.6260 
  167.2500   161.6500    22.1860    22.1090    83.7120     9.7770     9.8920    10.1630    19.3520     2.3710   -17.5250 
  167.3750   161.7610    22.2260    22.1500    82.1500     9.5830     9.7010    10.0290    19.3520     2.3510   -17.4420 
  167.5000   161.8720    22.2670    22.1910    77.8920     9.4100     9.4930     9.9580    19.3520     2.3400   -17.4270 
  167.6250   161.9820    22.3070    22.2320    76.3590     9.2400     9.2460     9.4910    19.3520     2.3440   -17.4360 
  167.7500   162.0930    22.3480    22.2730    78.6990     9.1090     9.0090     8.7510    19.3520     2.3560   -17.4310 
  167.8750   162.2040    22.3880    22.3140    82.0740     9.1070     8.8540     8.2130    19.3520     2.3660   -17.4270 
  168.0000   162.3150    22.4290    22.3550    83.2490     9.3270     8.8670     8.2760    19.3520     2.3690   -17.4190 
  168.1250   162.4260    22.4690    22.3960    80.4780     9.8860     9.1910     8.9000    19.3510     2.3670   -17.4360 
  168.2500   162.5370    22.5090    22.4370    75.2520    10.7650     9.8560     9.8510    19.3490     2.3780   -17.4310 
  168.3750   162.6480    22.5500    22.4780    69.6720    11.9500    10.8790    11.3690    19.3480     2.4070   -17.4080 
