~V
VERS. 2.00: Ver 2.00
~W
STRT.M 43.0000:
STOP.M 257.0000:
STEP.M 0.1250:
NULL. -999.2500:
UWI. FD10872:
~C
DEPT.M :
TVD. :
DX. :
DY. :
SP.MV :
GR.API :
RI. :
RML.OHMM :
RXO.OHMM :
DEN.GM/CC :
~A
# ...
   79.5000    79.3500     1.9990    -2.0590    -9.2310    77.2150     5.6070     6.6310     6.6310     2.2310 
   79.6250    79.4740     2.0160    -2.0720    -9.1320    75.7000     5.8520     6.9220     6.6130     2.2260 
   79.7500    79.5970     2.0320    -2.0840    -9.1410    73.9700     6.3480     7.5390     6.7800     2.2310 
   79.8750    79.7200     2.0480    -2.0960    -9.2550    72.9360     6.9300     8.2670     7.4850     2.2470 
   80.0000    79.8440     2.0650    -2.1090    -9.4490    72.1590     7.4620     8.9370    11.3540     2.2730 
   80.1250    79.9670     2.0810    -2.1210    -9.7090    70.8690     7.6880     9.1640    20.0520     2.3050 
   80.2500    80.0900     2.0980    -2.1330   -10.0030    70.4240     7.4700     8.7770    22.2200     2.3340 
   80.3750    80.2130     2.1140    -2.1460   -10.2950    70.1600     7.0160     8.0930    13.4290     2.3480 
   80.5000    80.3370     2.1310    -2.1580   -10.5450    69.4930     6.4860     7.3730     8.4110     2.3420 
   80.6250    80.4600     2.1480    -2.1710   -10.7030    70.2460     6.1110     6.9210     8.2170     2.3200 
   80.7500    80.5830     2.1640    -2.1840   -10.7290    73.6810     5.8790     6.6690     6.8010     2.2900 
   80.8750    80.7060     2.1810    -2.1960   -10.5620    77.2180     5.8250     6.6260     6.5420     2.2610 
   81.0000    80.8300     2.1980    -2.2090   -10.2070    78.4830     5.8240     6.6100     6.7550     2.2390 
   81.1250    80.9530     2.2150    -2.2220    -9.7140    79.0230     5.8250     6.5960     6.4630     2.2240 
   81.2500    81.0760     2.2320    -2.2340    -9.2200    78.5480     5.8840     6.6640     6.4960     2.2150 
   81.3750    81.1990     2.2490    -2.2470    -8.8780    76.2510     5.9440     6.7370     6.6100     2.2100 
   81.5000    81.3220     2.2670    -2.2590    -8.7680    75.3410     5.9340     6.7370     6.5660     2.2070 
   81.6250    81.4450     2.2840    -2.2720    -8.9030    76.4390     5.8220     6.6100     6.6530     2.2060 
   81.7500    81.5690     2.3020    -2.2840    -9.1650    76.6280     5.5480     6.2740     6.7440     2.2070 
   81.8750    81.6920     2.3190    -2.2970    -9.4190    75.7060     5.1920     5.8480     6.3470     2.2120 
   82.0000    81.8150     2.3370    -2.3100    -9.5500    76.7610     4.8830     5.4790     5.6430     2.2230 
   82.1250    81.9380     2.3550    -2.3220    -9.4930    78.8720     4.7010     5.2770     5.1750     2.2380 
   82.2500    82.0610     2.3720    -2.3350    -9.2700    79.2370     4.7430     5.3710     5.2630     2.2530 
   82.3750    82.1840     2.3900    -2.3480    -8.9140    79.4000     5.0010     5.7270     5.7610     2.2640 
   82.5000    82.3070     2.4080    -2.3610    -8.4860    79.4490     5.4460     6.2960     6.2790     2.2680 
   82.6250    82.4300     2.4260    -2.3740    -8.0380    77.5700     5.9850     6.9650     6.7990     2.2630 
   82.7500    82.5530     2.4440    -2.3870    -7.6250    74.3850     6.4850     7.5560     7.2440     2.2520 
   82.8750    82.6760     2.4620    -2.4000    -7.2850    72.6630     6.8700     7.9990     7.5630     2.2380 
   83.0000    82.7990     2.4800    -2.4140    -7.0310    72.1600     7.1070     8.2470     7.7670     2.2230 
   83.1250    82.9220     2.4980    -2.4270    -6.8580    71.5860     7.2560     8.3910     7.7630     2.2110 
   83.2500    83.0450     2.5160    -2.4400    -6.7330    71.0460     7.3940     8.5240     7.8110     2.2000 
   83.3750    83.1680     2.5340    -2.4540    -6.6320    71.5460     7.6080     8.7500     8.0880     2.1910 
   83.5000    83.2910     2.5530    -2.4670    -6.5300    71.2820     7.8960     9.0710     8.5990     2.1810 
   83.6250    83.4140     2.5710    -2.4810    -6.4160    70.0330     8.2590     9.5290     9.3070     2.1700 
   83.7500    83.5370     2.5900    -2.4940    -6.2790    69.6670     8.7230    10.1330     9.5810     2.1610 
   83.8750    83.6590     2.6080    -2.5080    -6.0800    69.1670     9.1430    10.7080     9.4340     2.1570 
   84.0000    83.7820     2.6270    -2.5220    -5.7640    67.6380     9.4540    11.1280     9.6300     2.1600 
   84.1250    83.9050     2.6450    -2.5350    -5.2440    65.5150     9.5430    11.2580    10.2540     2.1730 
   84.2500    84.0280     2.6640    -2.5490    -4.5100    66.2020     9.4790    11.1890    10.5800     2.1890 
   84.3750    84.1510     2.6830    -2.5630    -3.6100    69.1710     9.4090    11.1280     9.9320     2.2000 
   84.5000    84.2740     2.7020    -2.5760    -2.6760    70.7680     9.4580    11.2550     9.1090     2.1990 
   84.6250    84.3960     2.7210    -2.5900    -1.8550    68.7360     9.7510    11.7240     9.2780     2.1820 
   84.7500    84.5190     2.7400    -2.6040    -1.2260    64.8020    10.3550    12.5910    10.7230     2.1580 
   84.8750    84.6420     2.7590    -2.6170    -0.8020    61.7070    11.2680    13.7890    12.8130     2.1350 
   85.0000    84.7650     2.7780    -2.6310    -0.5090    61.0920    12.3440    15.1390    13.9630     2.1210 
   85.1250    84.8880     2.7970    -2.6450    -0.2810    62.0760    13.6180    16.7230    13.7960     2.1230 
   85.2500    85.0100     2.8160    -2.6580    -0.0700    62.7960    15.5160    19.0740    13.8200     2.1480 
   85.3750    85.1330     2.8350    -2.6720     0.1140    62.9620    18.6040    23.0630    14.6300     2.2040 
   85.5000    85.2560     2.8550    -2.6860     0.2450    62.6240    22.5660    28.2160    18.4510     2.2890 
   85.6250    85.3780     2.8740    -2.7000     0.2960    60.6250    25.9560    32.2460    26.1580     2.3960 
   85.7500    85.5010     2.8930    -2.7140     0.2850    57.4070    26.5500    32.6480    28.0040     2.4980 
   85.8750    85.6240     2.9130    -2.7270     0.2320    55.9150    24.5440    29.5670    21.5750     2.5630 
   86.0000    85.7470     2.9320    -2.7410     0.1490    57.5910    20.8350    24.5140    17.2190     2.5720 
   86.1250    85.8690     2.9520    -2.7550     0.0080    58.9550    17.3480    20.1690    16.2170     2.5140 
   86.2500    85.9920     2.9710    -2.7690    -0.2430    58.7960    15.4340    17.9270    15.4140     2.4110 
   86.3750    86.1150     2.9910    -2.7830    -0.6830    58.3350    14.1850    16.4790    14.9130     2.2920 
   86.5000    86.2370     3.0110    -2.7970    -1.3460    60.0080    13.0820    15.1080    14.4080     2.1910 
   86.6250    86.3600     3.0300    -2.8110    -2.2800    62.1930    11.8680    13.5090    15.2140     2.1290 
   86.7500    86.4820     3.0500    -2.8260    -3.4680    64.8430    10.2410    11.3880    15.9420     2.1050 
   86.8750    86.6050     3.0700    -2.8400    -4.8650    69.2400     8.7080     9.4790    12.6870     2.1100 
   87.0000    86.7280     3.0900    -2.8540    -6.3250    73.4220     7.4010     7.9170     8.5210     2.1310 
   87.1250    86.8500     3.1100    -2.8690    -7.6300    76.9820     6.4110     6.7790     6.9080     2.1560 
   87.2500    86.9730     3.1300    -2.8830    -8.5730    80.1790     5.7550     6.0810     6.4090     2.1800 
   87.3750    87.0950     3.1500    -2.8970    -8.9880    82.9910     5.4890     5.8370     5.9200     2.1990 
   87.5000    87.2180     3.1700    -2.9120    -8.9500    84.1960     5.4510     5.8280     5.1470     2.2130 
   87.6250    87.3400     3.1900    -2.9260    -8.6060    82.9340     5.5060     5.9230     4.9130     2.2240 
   87.7500    87.4630     3.2100    -2.9410    -8.2010    80.2900     5.5720     6.0290     5.5120     2.2320 
   87.8750    87.5850     3.2310    -2.9550    -7.9070    78.0010     5.5540     6.0290     5.9860     2.2370 
   88.0000    87.7080     3.2510    -2.9700    -7.7440    78.1150     5.5050     5.9970     5.8440     2.2410 
   88.1250    87.8300     3.2720    -2.9840    -7.6090    80.2450     5.4670     5.9630     5.4410     2.2450 
   88.2500    87.9530     3.2920    -2.9990    -7.3370    82.0480     5.5060     6.0390     5.2810     2.2510 
   88.3750    88.0750     3.3130    -3.0140    -6.7550    82.7370     5.9030     6.5640     5.4330     2.2590 
   88.5000    88.1970     3.3330    -3.0280    -5.8180    82.3340     6.8270     7.7840     6.0710     2.2660 
