~V
VERS. 2.00: Ver 2.00
~W
STRT.M 20.0000:
STOP.M 242.0000:
STEP.M 0.1250:
NULL. -999.2500:
UWI. FD10624:
~C
DEPT.M :
TVD. :
DX. :
DY. :
GR.API :
RML.OHMM :
RI. :
RXO.OHMM :
CALI.CM :
DEN.GM/CC :
SP.MV :
~A
# ...
  234.5000   220.8170    43.9410    45.4860    32.1880     4.7250     4.1590     4.7770    20.0790     2.3480    -7.7850 
  234.6250   220.9280    43.9800    45.5300    32.1880     4.6710     4.1130     4.7050    20.0510     2.3660    -7.7750 
  234.7500   221.0380    44.0190    45.5740    32.1880     4.6320     4.0800     4.7320    20.0270     2.3890    -7.7770 
  234.8750   221.1480    44.0580    45.6170    32.1880     4.6000     4.0530     4.8240    20.0200     2.4130    -7.8010 
  235.0000   221.2590    44.0970    45.6610    32.1880     4.5630     4.0260     4.8530    20.0410     2.4320    -7.8070 
  235.1250   221.3690    44.1350    45.7050    32.1880     4.5100     3.9900     4.6860    20.0360     2.4430    -7.7770 
  235.2500   221.4800    44.1740    45.7490    32.1880     4.4480     3.9460     4.5640    20.0020     2.4450    -7.7810 
  235.3750   221.5900    44.2130    45.7920    32.1880     4.3880     3.9000     4.5300    19.9880     2.4400    -7.8230 
  235.5000   221.7010    44.2520    45.8360    32.1880     4.3430     3.8600     4.5150    19.9960     2.4290    -7.9460 
  235.6250   221.8110    44.2910    45.8800    32.1880     4.3160     3.8340     4.5150    19.9790     2.4120    -8.0790 
  235.7500   221.9220    44.3290    45.9240    32.1880     4.2990     3.8180     4.5600    19.9660     2.3910    -8.2680 
  235.8750   222.0320    44.3680    45.9680    32.1880     4.2830     3.8030     4.5750    19.9620     2.3690    -8.5280 
  236.0000   222.1430    44.4070    46.0110    32.1880     4.2610     3.7860     4.4650    19.9640     2.3480    -8.8250 
  236.1250   222.2530    44.4460    46.0550    32.1880     4.2330     3.7640     4.3330    19.9750     2.3350    -9.2220 
  236.2500   222.3630    44.4850    46.0990    32.1880     4.2070     3.7450     4.2860    19.9980     2.3320    -9.6890 
  236.3750   222.4740    44.5230    46.1430    32.1880     4.1860     3.7320     4.3950    20.0270     2.3370    -9.9750 
  236.5000   222.5840    44.5620    46.1860    32.1880     4.1720     3.7280     4.6250    20.0530     2.3440    -9.7910 
  236.6250   222.6950    44.6010    46.2300    32.1880     4.1650     3.7290     4.7960    20.0830     2.3480    -9.4360 
  236.7500   222.8050    44.6400    46.2740    32.1880     4.1600     3.7320     4.5690    20.0880     2.3500    -9.0440 
  236.8750   222.9160    44.6780    46.3180    32.1880     4.1570     3.7330     4.4290    20.0560     2.3560    -8.5870 
  237.0000   223.0260    44.7170    46.3610    32.1880     4.1550     3.7320     4.4710    19.9710     2.3700    -8.0190 
  237.1250   223.1370    44.7560    46.4050    32.1880     4.1540     3.7310     4.5720    19.8780     2.3940    -7.3910 
  237.2500   223.2470    44.7950    46.4490    32.1880     4.1530     3.7310     4.6520    19.8060     2.4220    -6.6710 
  237.3750   223.3580    44.8340    46.4930    32.1880     4.1530     3.7310     4.6790    19.7800     2.4450    -6.0730 
  237.5000   223.4680    44.8720    46.5360    32.1880     4.1530     3.7310     4.6570    19.7770     2.4570    -5.8800 
  237.6250   223.5780    44.9110    46.5800    32.1880     4.1530     3.7310     4.6570    19.7760     2.4510    -5.8220 
  237.7500   223.6890    44.9500    46.6240    32.1880     4.1530     3.7310     4.6940    19.7740     2.4350    -5.6790 
  237.8750   223.7990    44.9890    46.6680    32.1880     4.1530     3.7310     4.7060    19.7690     2.4130    -5.5360 
  238.0000   223.9100    45.0280    46.7120    32.1880     4.1530     3.7310     4.6640    19.7620     2.3910    -5.4630 
  238.1250   224.0200    45.0660    46.7550    32.1880     4.1530     3.7310     4.6420    19.7740     2.3730    -5.3750 
  238.2500   224.1310    45.1050    46.7990    32.1880     4.1530     3.7310     4.6250    19.8770     2.3560    -5.3090 
  238.3750   224.2410    45.1440    46.8430    32.1880     4.1530     3.7310     4.5730    20.0920     2.3400    -5.2600 
  238.5000   224.3520    45.1830    46.8870    32.1880     4.1530     3.7310     4.4690    20.3560     2.3260    -5.2140 
  238.6250   224.4620    45.2220    46.9300    32.1880     4.1530     3.7310     4.3560    20.4970     2.3200    -5.2140 
  238.7500   224.5730    45.2600    46.9740    32.1880     4.1530     3.7310     4.3580    20.4550     2.3260    -5.2140 
  238.8750   224.6830    45.2990    47.0180    32.1880     4.1530     3.7310     4.6300    20.2350     2.3460  -999.2500 
  239.0000   224.7930    45.3380    47.0620    32.1880     4.1530     3.7310     5.3290    19.9410     2.3770  -999.2500 
  239.1250   224.9040    45.3770    47.1050    32.1880     4.1530     3.7310     6.3880    19.7870     2.4100  -999.2500 
  239.2500   225.0140    45.4150    47.1490    32.1880     4.1530     3.7310     7.4290    19.6790     2.4370  -999.2500 
  239.3750   225.1250    45.4540    47.1930    32.1880     4.1530     3.7310     8.3760    19.6020     2.4560  -999.2500 
  239.5000   225.2350    45.4930    47.2370    32.1880     4.1530     3.7310     8.4100    19.5210     2.4670  -999.2500 
  239.6250   225.3460    45.5320    47.2810    32.1880     4.1530     3.7310     7.7240    19.4640     2.4740  -999.2500 
  239.7500   225.4560    45.5710    47.3240    32.1880     4.1530     3.7310     7.4680    19.4220     2.4790  -999.2500 
  239.8750   225.5670    45.6090    47.3680    32.1880     4.1530     3.7310     7.8520    19.3960     2.4810  -999.2500 
  240.0000   225.6770    45.6480    47.4120    32.1880     4.1530     3.7310     7.8120    19.3150     2.4760  -999.2500 
  240.1250   225.7880    45.6860    47.4550    32.1880     4.1530     3.7310     7.6110    19.1160     2.4590  -999.2500 
  240.2500   225.8990    45.7240    47.4980    32.1880     4.1530     3.7310     7.4570    18.9680     2.4350  -999.2500 
  240.3750   226.0100    45.7620    47.5400    32.1880     4.1530     3.7310     7.5170    19.2570     2.4090  -999.2500 
  240.5000   226.1220    45.8000    47.5830    32.1880     4.1530     3.7310     7.5210    19.7070     2.3860  -999.2500 
  240.6250   226.2330    45.8380    47.6260    32.1880     4.1530     3.7310     7.5170    20.0050     2.3680  -999.2500 
  240.7500   226.3440    45.8760    47.6690    32.1880     4.1530     3.7310     7.7730    20.1440     2.3490  -999.2500 
  240.8750   226.4550    45.9140    47.7120    32.1880     4.1530     3.7310     7.2160    20.1260     2.3190  -999.2500 
  241.0000   226.5660    45.9520    47.7550    32.1880     4.1530     3.7310     6.4810    19.9520     2.2740  -999.2500 
  241.1250   226.6770    45.9900    47.7980    32.1880     4.1530     3.7310     5.9590    19.6810     2.2190  -999.2500 
  241.2500   226.7880    46.0270    47.8400    32.1880     4.1530     3.7310     5.7450    19.4660     2.1660  -999.2500 
  241.3750   226.8990    46.0650    47.8830    32.1880     4.1530     3.7310     5.6910    19.3990     2.1240  -999.2500 
  241.5000   227.0100    46.1030    47.9260    32.1880     4.1530     3.7310     5.6830    19.3860     2.0870  -999.2500 
  241.6250   227.1220    46.1410    47.9690    32.1880     4.1530     3.7310     5.6780    19.3860     2.0820  -999.2500 
  241.7500   227.2330    46.1790    48.0120    32.1880     4.1530     3.7310     5.6750    19.3860     2.0890  -999.2500 
  241.8750   227.3440    46.2170    48.0550    32.1880     4.1530     3.7310     5.6750    19.3860     2.1060  -999.2500 
  242.0000   227.4550    46.2550    48.0980    32.1880     4.1530     3.7310     5.6760    19.3860  -999.2500  -999.2500 
