~V
VERS. 2.00: Ver 2.00
~W
STRT.M 24.0000:
STOP.M 309.0000:
STEP.M 0.1250:
NULL. -999.2500:
UWI. FD10911:
~C
DEPT.M :
TVD. :
DX. :
DY. :
SP.MV :
GR.API :
RI. :
RML.OHMM :
RXO.OHMM :
DEN.GM/CC :
~A
# ...
  297.7500   268.4860    50.6130   -95.2800   -11.5770    45.3380     3.5190     3.6980     5.4110     2.3800 
  297.8750   268.5890    50.6510   -95.3400   -11.5770    45.1730     3.3740     3.5430     4.4040     2.3720 
  298.0000   268.6920    50.6880   -95.4000   -11.5770    45.3720     3.2140     3.3740     3.9050     2.3660 
  298.1250   268.7950    50.7250   -95.4590   -11.5770    46.9630     3.0810     3.2330     3.7050     2.3670 
  298.2500   268.8990    50.7630   -95.5190   -11.5770    47.6800     2.9950     3.1530     3.6640     2.3700 
  298.3750   269.0020    50.8000   -95.5790   -11.5770    47.5670     2.9470     3.1180     3.6890     2.3640 
  298.5000   269.1050    50.8370   -95.6390   -11.5770    45.8930     2.9240     3.1160     3.7510     2.3480 
  298.6250   269.2080    50.8750   -95.6980   -11.5770    44.7610     2.9140     3.1260     3.8440     2.3320 
  298.7500   269.3120    50.9120   -95.7580   -11.5770    44.8610     2.9210     3.1410     3.8650     2.3190 
  298.8750   269.4150    50.9490   -95.8180   -11.5770    46.0470     2.9420     3.1640     3.7420     2.3070 
  299.0000   269.5180    50.9870   -95.8770   -11.5770    45.8860     2.9680     3.1920     3.5840     2.2990 
  299.1250   269.6220    51.0240   -95.9370   -11.5770    44.5120     2.9900     3.2190     3.5120     2.2990 
  299.2500   269.7250    51.0610   -95.9970   -11.5770    43.4230     2.9970     3.2290     3.5370     2.3080 
  299.3750   269.8280    51.0990   -96.0560   -11.5770    43.0560     2.9860     3.2180     3.6330     2.3190 
  299.5000   269.9310    51.1360   -96.1160   -11.5770    43.2330     2.9590     3.1890     3.7480     2.3240 
  299.6250   270.0350    51.1730   -96.1760   -11.5770    43.4300     2.9260     3.1580     3.8070     2.3250 
  299.7500   270.1380    51.2110   -96.2360   -11.5770    44.1110     2.8940     3.1340     3.8070     2.3250 
  299.8750   270.2410    51.2480   -96.2950   -11.5770    44.5900     2.8740     3.1240     3.7740     2.3290 
  300.0000   270.3450    51.2850   -96.3550   -11.5770    44.8370     2.8660     3.1220     3.7210     2.3340 
  300.1250   270.4480    51.3230   -96.4150   -11.5770    45.1310     2.8630     3.1220     3.6750     2.3370 
  300.2500   270.5510    51.3600   -96.4740   -11.5770    46.2820     2.8630     3.1220     3.6490     2.3360 
  300.3750   270.6540    51.3970   -96.5340   -11.5770    47.0260     2.8630     3.1220     3.6130     2.3370 
  300.5000   270.7580    51.4350   -96.5940   -11.5770    47.4610     2.8640     3.1220     3.5190     2.3430 
  300.6250   270.8610    51.4720   -96.6540   -11.5770    47.3500     2.8640     3.1220     3.3900     2.3500 
  300.7500   270.9640    51.5090   -96.7130   -11.5770    46.9950     2.8640     3.1220     3.3440     2.3550 
  300.8750   271.0680    51.5470   -96.7730   -11.5770    46.2130     2.8640     3.1220     3.4630     2.3600 
  301.0000   271.1710    51.5840   -96.8330   -11.5770    45.6460     2.8640     3.1220     3.7080     2.3660 
  301.1250   271.2740    51.6210   -96.8920   -11.5770    45.5290     2.8640     3.1220     3.9270     2.3740 
  301.2500   271.3770    51.6590   -96.9520   -11.5770    45.5290     2.8640     3.1220     4.0020     2.3780 
  301.3750   271.4810    51.6960   -97.0120   -11.5770    45.5290     2.8640     3.1220     3.9340     2.3750 
  301.5000   271.5840    51.7330   -97.0710   -11.5770    45.5290     2.8640     3.1220     3.7860     2.3660 
  301.6250   271.6870    51.7710   -97.1310   -11.5770    45.5290     2.8640     3.1220     3.6540     2.3540 
  301.7500   271.7910    51.8080   -97.1910   -11.5770    45.5290     2.8640     3.1220     3.5780     2.3410 
  301.8750   271.8940    51.8450   -97.2510   -11.5770    45.5290     2.8640     3.1220     3.5380     2.3290 
  302.0000   271.9970    51.8830   -97.3100   -11.5770    45.5290     2.8640     3.1220     3.5200     2.3180 
  302.1250   272.1000    51.9200   -97.3700   -11.5770    45.5290     2.8650     3.1220     3.5080     2.3060 
  302.2500   272.2040    51.9570   -97.4300   -11.5770    45.5290     2.8650     3.1220     3.4840     2.2920 
  302.3750   272.3070    51.9950   -97.4890   -11.5770    45.5290     2.8660     3.1220     3.4560     2.2780 
  302.5000   272.4100    52.0320   -97.5490   -11.5770    45.5290     2.8660     3.1220     3.4290     2.2620 
  302.6250   272.5130    52.0690   -97.6090   -11.5770    45.5290     2.8670     3.1220     3.4070     2.2440 
  302.7500   272.6170    52.1060   -97.6690   -11.5770    45.5290     2.8670     3.1220     3.4100     2.2300 
  302.8750   272.7200    52.1440   -97.7280   -11.5770    45.5290     2.8670     3.1220     3.4430     2.2290 
  303.0000   272.8230    52.1810   -97.7880   -11.5770    45.5290     2.8670     3.1220     3.5130     2.2430 
  303.1250   272.9270    52.2180   -97.8480   -11.5770    45.5290     2.8670     3.1220     3.5890     2.2600 
  303.2500   273.0300    52.2560   -97.9070   -11.5770    45.5290     2.8670     3.1220     3.5970     2.2690 
  303.3750   273.1330    52.2930   -97.9670   -11.5770    45.5290     2.8670     3.1220     3.5380     2.2650 
  303.5000   273.2360    52.3300   -98.0270   -11.5770    45.5290     2.8670     3.1220     3.5020     2.2520 
  303.6250   273.3400    52.3680   -98.0860   -11.5770    45.5290     2.8670     3.1220     3.5730     2.2430 
  303.7500   273.4430    52.4050   -98.1460   -11.5770    45.5290     2.8670     3.1220     3.6380     2.2510 
  303.8750   273.5460    52.4420   -98.2060   -11.5770    45.5290     2.8670     3.1220     3.7310     2.2750 
  304.0000   273.6500    52.4800   -98.2660   -11.5770    45.5290     2.8670     3.1220     3.8350     2.3040 
  304.1250   273.7530    52.5170   -98.3250   -11.5770    45.5290     2.8670     3.1220     3.9190     2.3240 
  304.2500   273.8560    52.5540   -98.3850   -11.5770    45.5290     2.8670     3.1220     3.9700     2.3290 
  304.3750   273.9590    52.5920   -98.4450   -11.5770    45.5290     2.8670     3.1220     4.0150     2.3250 
  304.5000   274.0630    52.6290   -98.5040   -11.5770    45.5290     2.8670     3.1220     4.0690     2.3140 
  304.6250   274.1660    52.6660   -98.5640   -11.5770    45.5290     2.8670     3.1220     4.0890     2.3020 
  304.7500   274.2690    52.7040   -98.6240   -11.5770    45.5290     2.8670     3.1220     4.0330     2.2960 
  304.8750   274.3730    52.7410   -98.6840   -11.5770    45.5290     2.8670     3.1220     3.9190     2.2980 
  305.0000   274.4760    52.7780   -98.7430   -11.5770    45.5290     2.8670     3.1220     3.7660     2.3040 
  305.1250   274.5790    52.8160   -98.8030   -11.5770    45.5290     2.8670     3.1220     3.5320     2.3080 
  305.2500   274.6820    52.8530   -98.8630   -11.5770    45.5290     2.8670     3.1220     3.3090     2.2980 
  305.3750   274.7860    52.8900   -98.9220   -11.5770    45.5290     2.8670     3.1220     3.2380     2.2610 
  305.5000   274.8890    52.9280   -98.9820   -11.5770    45.5290     2.8670     3.1220     3.2380     2.1880 
  305.6250   274.9920    52.9650   -99.0420   -11.5770    45.5290     2.8670     3.1220     3.2380     2.0960 
  305.7500   275.0960    53.0020   -99.1010   -11.5770    45.5290     2.8670     3.1220     3.2380     2.0170 
  305.8750   275.1990    53.0400   -99.1610   -11.5770    45.5290     2.8670     3.1220     3.2380     1.9700 
  306.0000   275.3020    53.0770   -99.2210   -11.5770    45.5290     2.8670     3.1220     3.2380     1.9540 
  306.1250   275.4050    53.1140   -99.2810   -11.5770    45.5290     2.8670     3.1220     3.2380     1.9510 
  306.2500   275.5090    53.1520   -99.3400   -11.5770    45.5290     2.8670     3.1220     3.2380     1.9480 
  306.3750   275.6120    53.1890   -99.4000   -11.5770    45.5290     2.8670     3.1220     3.2380     1.9460 
  306.5000   275.7150    53.2260   -99.4600   -11.5770    45.5290     2.8670     3.1220     3.2380     1.9450 
  306.6250   275.8180    53.2640   -99.5190   -11.5770    45.5290     2.8670     3.1220     3.2380     1.9460 
  306.7500   275.9220    53.3010   -99.5790   -11.5770    45.5290     2.8670     3.1220     3.2380     1.9480 
