~V
VERS. 2.00: Ver 2.00
~W
STRT.M 25.0000:
STOP.M 295.0000:
STEP.M 0.1250:
NULL. -999.2500:
UWI. FD10906:
~C
DEPT.M :
TVD. :
DX. :
DY. :
SP.MV :
GR.API :
RI. :
RML.OHMM :
RXO.OHMM :
DEN.GM/CC :
~A
# ...
  180.1250   164.7820   -57.6540     3.5700   -18.8390    53.1510    22.5720    25.4990    23.9410     2.5740 
  180.2500   164.8770   -57.7360     3.5740   -18.8920    52.4740    22.5120    25.4370    25.3660     2.5690 
  180.3750   164.9710   -57.8170     3.5790   -18.9470    51.8360    22.6460    25.5930    25.1790     2.5610 
  180.5000   165.0660   -57.8990     3.5850   -18.9900    50.9480    23.0700    26.1440    23.2460     2.5580 
  180.6250   165.1600   -57.9810     3.5900   -19.0180    50.2980    23.8280    27.1740    21.6550     2.5650 
  180.7500   165.2540   -58.0630     3.5950   -19.0300    51.0090    24.8370    28.5580    21.9500     2.5850 
  180.8750   165.3490   -58.1440     3.5990   -19.0290    53.1280    25.7400    29.8100    24.6240     2.6090 
  181.0000   165.4430   -58.2260     3.6050   -19.0190    55.2190    26.0290    30.2920    29.5810     2.6270 
  181.1250   165.5380   -58.3080     3.6100   -19.0100    55.5320    25.4250    29.6980    33.8420     2.6340 
  181.2500   165.6320   -58.3900     3.6150   -19.0100    54.6330    23.8760    27.9990    33.8820     2.6290 
  181.3750   165.7260   -58.4720     3.6200   -19.0090    53.0990    21.8350    25.7120    30.6770     2.6190 
  181.5000   165.8210   -58.5530     3.6250   -18.9780    53.4000    19.8890    23.5000    27.2330     2.6100 
  181.6250   165.9150   -58.6350     3.6310   -18.8900    54.8020    18.5500    21.9730    24.5160     2.6060 
  181.7500   166.0090   -58.7170     3.6360   -18.7190    57.0560    18.1640    21.5880    21.5980     2.6070 
  181.8750   166.1040   -58.7990     3.6420   -18.4830    56.8720    18.6620    22.3130    18.8840     2.6120 
  182.0000   166.1980   -58.8810     3.6470   -18.2240    54.7980    19.9130    23.9510    18.7540     2.6200 
  182.1250   166.2920   -58.9620     3.6530   -18.0010    52.9260    21.5460    25.9670    22.3530     2.6280 
  182.2500   166.3870   -59.0440     3.6590   -17.8690    53.2020    23.1320    27.7990    28.3200     2.6300 
  182.3750   166.4810   -59.1260     3.6640   -17.8390    54.9900    24.2630    28.9900    32.8300     2.6250 
  182.5000   166.5760   -59.2080     3.6700   -17.9150    55.6970    24.6480    29.2510    33.3760     2.6150 
  182.6250   166.6700   -59.2900     3.6760   -18.0670    55.3080    24.3300    28.6760    31.4440     2.6060 
  182.7500   166.7640   -59.3710     3.6810   -18.2650    55.0500    23.3730    27.3300    29.1100     2.6000 
  182.8750   166.8590   -59.4530     3.6870   -18.4620    55.7060    21.9460    25.4770    27.3360     2.5910 
  183.0000   166.9530   -59.5350     3.6930   -18.6170    56.4200    20.1800    23.4290    25.8580     2.5740 
  183.1250   167.0470   -59.6170     3.6990   -18.7060    55.6730    18.3520    21.4470    24.0210     2.5530 
  183.2500   167.1420   -59.6990     3.7040   -18.7220    56.1950    16.7790    19.7220    22.0580     2.5300 
  183.3750   167.2360   -59.7800     3.7100   -18.6930    57.5690    15.6700    18.4680    20.2190     2.5130 
  183.5000   167.3300   -59.8620     3.7160   -18.6240    59.2580    15.1220    17.8420    18.2710     2.5050 
  183.6250   167.4250   -59.9440     3.7220   -18.5130    57.3920    15.0290    17.7370    16.8750     2.5050 
  183.7500   167.5190   -60.0260     3.7280   -18.3320    54.3180    15.3200    18.0690    17.0250     2.5130 
  183.8750   167.6130   -60.1070     3.7340   -18.0810    52.7340    15.8190    18.6370    17.7810     2.5260 
  184.0000   167.7080   -60.1890     3.7400   -17.7780    53.7840    16.3620    19.2550    17.9940     2.5430 
  184.1250   167.8020   -60.2710     3.7460   -17.4660    55.2340    16.8110    19.7670    18.2060     2.5620 
  184.2500   167.8960   -60.3530     3.7520   -17.1820    56.0470    17.0850    20.0790    18.8850     2.5830 
  184.3750   167.9910   -60.4350     3.7580   -16.9310    56.4360    17.1930    20.2020    19.4320     2.6000 
  184.5000   168.0850   -60.5160     3.7640   -16.6910    56.8260    17.1630    20.1670    19.6710     2.6070 
  184.6250   168.1790   -60.5980     3.7700   -16.4260    56.6110    17.0430    20.0310    20.6730     2.6010 
  184.7500   168.2740   -60.6800     3.7770   -16.1240    57.4130    16.8640    19.8270    21.5980     2.5790 
  184.8750   168.3680   -60.7620     3.7830   -15.8020    58.2700    16.6670    19.6020    21.0350     2.5470 
  185.0000   168.4630   -60.8430     3.7890   -15.4940    58.4120    16.4950    19.4070    20.3810     2.5210 
  185.1250   168.5570   -60.9250     3.7960   -15.2300    57.7990    16.3850    19.2820    20.5370     2.5130 
  185.2500   168.6510   -61.0070     3.8020   -15.0230    57.5780    16.3600    19.2530    20.4730     2.5200 
  185.3750   168.7460   -61.0880     3.8090   -14.8680    57.2480    16.3980    19.2960    20.0910     2.5310 
  185.5000   168.8400   -61.1700     3.8150   -14.7610    56.6140    16.4580    19.3650    19.7410     2.5430 
  185.6250   168.9350   -61.2520     3.8220   -14.6900    56.9980    16.4880    19.3990    19.3190     2.5570 
  185.7500   169.0290   -61.3330     3.8290   -14.6660    58.0100    16.4140    19.3140    18.7360     2.5700 
  185.8750   169.1230   -61.4150     3.8360   -14.6920    57.7250    16.1780    19.0460    18.1890     2.5730 
  186.0000   169.2180   -61.4970     3.8430   -14.7810    55.6120    15.7360    18.5420    18.0500     2.5620 
  186.1250   169.3120   -61.5780     3.8490   -14.9210    54.0180    15.1270    17.8480    18.0330     2.5430 
  186.2500   169.4070   -61.6600     3.8560   -15.0900    54.5470    14.4170    17.0400    17.3240     2.5190 
  186.3750   169.5010   -61.7410     3.8630   -15.2650    56.0450    13.7060    16.2290    16.0310     2.4940 
  186.5000   169.5960   -61.8230     3.8700   -15.4300    56.8220    13.0590    15.4930    15.1580     2.4710 
  186.6250   169.6900   -61.9040     3.8770   -15.5900    56.6410    12.5020    14.8580    14.8320     2.4510 
  186.7500   169.7850   -61.9860     3.8840   -15.7480    56.1760    12.0510    14.3440    14.0800     2.4390 
  186.8750   169.8790   -62.0670     3.8900   -15.8920    56.0300    11.6930    13.9360    12.9690     2.4340 
  187.0000   169.9740   -62.1490     3.8970   -16.0010    56.4520    11.4300    13.6370    12.2830     2.4330 
  187.1250   170.0680   -62.2300     3.9040   -16.0650    56.6470    11.2490    13.4310    11.8930     2.4320 
  187.2500   170.1630   -62.3120     3.9110   -16.0860    57.0420    11.1590    13.3270    11.6510     2.4290 
  187.3750   170.2580   -62.3930     3.9170   -16.0920    56.4590    11.1870    13.3600    11.6340     2.4280 
  187.5000   170.3520   -62.4750     3.9240   -16.1080    56.4000    11.4100    13.6140    11.7720     2.4360 
  187.6250   170.4470   -62.5560     3.9300   -16.1490    56.7420    11.8510    14.1160    12.0520     2.4520 
  187.7500   170.5410   -62.6370     3.9370   -16.2220    58.1230    12.4750    14.8270    12.5040     2.4710 
  187.8750   170.6360   -62.7190     3.9430   -16.3130    58.6680    13.1050    15.5450    13.3930     2.4840 
  188.0000   170.7310   -62.8000     3.9500   -16.4110    58.6460    13.4890    15.9820    14.9850     2.4870 
  188.1250   170.8260   -62.8810     3.9570   -16.5090    57.5540    13.4770    15.9680    16.3710     2.4820 
  188.2500   170.9200   -62.9620     3.9640   -16.6210    57.0760    13.0440    15.4750    16.5570     2.4710 
  188.3750   171.0150   -63.0440     3.9710   -16.7720    56.4970    12.3910    14.7310    15.8800     2.4590 
  188.5000   171.1100   -63.1250     3.9770   -16.9810    56.3070    11.7590    14.0110    14.8250     2.4500 
  188.6250   171.2050   -63.2060     3.9840   -17.2340    57.9220    11.3540    13.5500    13.6260     2.4430 
  188.7500   171.3000   -63.2870     3.9910   -17.4960    59.2490    11.3200    13.5110    13.1230     2.4380 
  188.8750   171.3950   -63.3680     3.9970   -17.7290    60.2590    11.6460    13.8830    14.1020     2.4380 
  189.0000   171.4890   -63.4490     4.0040   -17.9200    58.2620    12.2800    14.6050    15.3750     2.4430 
  189.1250   171.5840   -63.5300     4.0100   -18.0850    55.8780    13.0340    15.4640    15.4920     2.4490 
