~V
VERS. 2.00: Ver 2.00
~W
STRT.M 63.0000:
STOP.M 256.0000:
STEP.M 0.1250:
NULL. -999.2500:
UWI. FD10901:
~C
DEPT.M :
TVD. :
DX. :
DY. :
SP.MV :
GR.API :
RI. :
RML.OHMM :
RXO.OHMM :
DEN.GM/CC :
~A
# ...
   99.5000    99.4960    -0.4140     0.2430    -8.3950    92.2430     4.2520     5.0750     4.2280     2.2260 
   99.6250    99.6210    -0.4160     0.2430    -8.3570    90.4580     4.3980     5.3320     5.2870     2.2270 
   99.7500    99.7460    -0.4170     0.2420    -8.3730    88.4030     4.4270     5.4250     5.9900     2.2490 
   99.8750    99.8710    -0.4190     0.2420    -8.4100    89.9030     4.2390     5.2040     4.9630     2.2860 
  100.0000    99.9960    -0.4200     0.2410    -8.0670    93.2200     3.8950     4.7650     3.7490     2.3200 
  100.1250   100.1210    -0.4220     0.2410    -6.9920    98.7710     3.5080     4.2570     3.3680     2.3380 
  100.2500   100.2460    -0.4230     0.2400    -5.5810   102.8680     3.2110     3.8840     3.3330     2.3460 
  100.3750   100.3710    -0.4250     0.2390    -4.5270   103.0000     3.0910     3.7580     3.4490     2.3490 
  100.5000   100.4960    -0.4260     0.2390    -4.1900    99.6960     3.2050     3.9240     3.5560     2.3440 
  100.6250   100.6210    -0.4280     0.2380    -4.3840    94.8090     3.5360     4.3720     3.6640     2.3390 
  100.7500   100.7460    -0.4290     0.2370    -4.9210    89.5240     4.0720     5.0720     3.8570     2.3550 
  100.8750   100.8710    -0.4310     0.2360    -5.7170    84.8050     4.6610     5.8270     4.6320     2.3970 
  101.0000   100.9960    -0.4320     0.2360    -6.6780    81.6310     5.2080     6.5040     6.4390     2.4250 
  101.1250   101.1210    -0.4340     0.2350    -7.6800    79.9550     5.4260     6.6960     7.3440     2.3970 
  101.2500   101.2460    -0.4350     0.2340    -8.5450    78.4580     5.2620     6.3970     6.2430     2.3270 
  101.3750   101.3710    -0.4370     0.2330    -9.2190    78.2180     4.8280     5.7790     5.0850     2.2650 
  101.5000   101.4960    -0.4380     0.2320    -9.7720    79.0230     4.3050     5.1000     4.4660     2.2430 
  101.6250   101.6210    -0.4400     0.2310    -9.8290    80.5790     3.8900     4.6030     4.1050     2.2470 
  101.7500   101.7460    -0.4410     0.2310    -9.1020    80.9590     3.6670     4.3550     3.8940     2.2620 
  101.8750   101.8710    -0.4430     0.2300    -8.0540    79.5050     3.5610     4.2290     3.5750     2.2780 
  102.0000   101.9960    -0.4440     0.2290    -7.3660    76.7230     3.5280     4.1840     3.5360     2.2910 
  102.1250   102.1210    -0.4460     0.2280    -7.1450    74.7670     3.5790     4.2470     3.7740     2.2900 
  102.2500   102.2460    -0.4470     0.2270    -7.2230    74.8810     3.6850     4.3800     3.7610     2.2850 
  102.3750   102.3710    -0.4480     0.2260    -7.6350    77.0790     3.8530     4.5940     3.6440     2.2880 
  102.5000   102.4960    -0.4500     0.2250    -8.0060    79.3420     4.0640     4.8760     3.7610     2.2990 
  102.6250   102.6210    -0.4510     0.2240    -8.2400    80.2810     4.2730     5.1530     3.9540     2.3080 
  102.7500   102.7460    -0.4530     0.2230    -8.6580    80.4990     4.3650     5.2690     4.2460     2.3110 
  102.8750   102.8710    -0.4540     0.2210    -9.3350    80.5250     4.2920     5.1700     4.4250     2.3070 
  103.0000   102.9960    -0.4560     0.2200    -9.9570    81.9970     4.0500     4.8500     4.1490     2.3040 
  103.1250   103.1210    -0.4570     0.2190   -10.2160    84.9130     3.7160     4.4220     3.6780     2.3010 
  103.2500   103.2460    -0.4590     0.2180    -9.8880    86.8400     3.4380     4.0900     3.4650     2.2950 
  103.3750   103.3710    -0.4600     0.2170    -9.2340    86.9240     3.3300     3.9890     3.5200     2.2860 
  103.5000   103.4960    -0.4620     0.2150    -9.1720    84.9090     3.5180     4.2910     3.6960     2.2740 
  103.6250   103.6210    -0.4630     0.2140   -10.2150    82.6680     4.0720     5.0850     4.3840     2.2590 
  103.7500   103.7460    -0.4650     0.2130   -11.9980    79.9310     4.8950     6.2430     8.2210     2.2430 
  103.8750   103.8710    -0.4660     0.2120   -14.1130    78.7540     5.8190     7.4890    14.4900     2.2340 
  104.0000   103.9960    -0.4680     0.2100   -16.1830    77.9970     6.5840     8.4560    15.5710     2.2360 
  104.1250   104.1210    -0.4690     0.2090   -17.8210    77.5490     6.8710     8.7180    10.8010     2.2400 
  104.2500   104.2460    -0.4700     0.2070   -18.8710    75.8750     6.7850     8.4650     7.0750     2.2370 
  104.3750   104.3710    -0.4720     0.2060   -19.2120    74.5990     6.4170     7.8960     6.1910     2.2330 
  104.5000   104.4960    -0.4730     0.2040   -18.8050    72.5570     6.0820     7.4250     6.2190     2.2300 
  104.6250   104.6210    -0.4750     0.2030   -18.0050    70.5560     5.9450     7.2630     6.3410     2.2290 
  104.7500   104.7460    -0.4760     0.2010   -17.7780    69.2600     5.9310     7.2680     6.4160     2.2230 
  104.8750   104.8710    -0.4780     0.1990   -18.2480    69.1530     5.9660     7.3330     6.4380     2.2160 
  105.0000   104.9960    -0.4790     0.1980   -18.9450    69.0850     5.9760     7.3570     6.4300     2.2130 
  105.1250   105.1210    -0.4810     0.1960   -19.5740    69.3200     5.9650     7.3270     6.2160     2.2140 
  105.2500   105.2460    -0.4820     0.1940   -19.8670    70.1100     5.9390     7.2740     5.9590     2.2130 
  105.3750   105.3710    -0.4840     0.1920   -19.6990    71.1020     5.9430     7.2690     5.9500     2.2060 
  105.5000   105.4960    -0.4850     0.1900   -19.2860    71.1420     5.9890     7.3310     6.1370     2.1930 
  105.6250   105.6210    -0.4870     0.1880   -19.1300    69.4420     6.0540     7.4320     6.3570     2.1860 
  105.7500   105.7460    -0.4880     0.1860   -19.2020    67.5210     6.0030     7.3530     6.4340     2.1880 
  105.8750   105.8710    -0.4900     0.1840   -19.2140    68.0320     5.6980     6.9420     6.3000     2.2020 
  106.0000   105.9960    -0.4910     0.1820   -18.8510    71.1140     5.2340     6.3160     5.5900     2.2240 
  106.1250   106.1210    -0.4930     0.1800   -17.8960    74.7060     4.7440     5.6810     4.2750     2.2520 
  106.2500   106.2460    -0.4940     0.1780   -16.2110    76.9360     4.4330     5.3090     3.6950     2.2730 
  106.3750   106.3710    -0.4960     0.1760   -14.2410    78.1450     4.3750     5.3040     4.5150     2.2700 
  106.5000   106.4960    -0.4970     0.1740   -13.1150    79.4570     4.5450     5.6130     5.4960     2.2460 
  106.6250   106.6210    -0.4990     0.1720   -13.7860    79.2520     4.8630     6.0890     5.7270     2.2240 
  106.7500   106.7460    -0.5000     0.1690   -15.7430    77.7610     5.1660     6.5010     5.5670     2.2140 
  106.8750   106.8700    -0.5020     0.1670   -17.5990    75.2330     5.3330     6.6770     5.4510     2.2100 
  107.0000   106.9950    -0.5030     0.1650   -18.7390    73.7580     5.3260     6.6140     5.5220     2.2030 
  107.1250   107.1200    -0.5050     0.1620   -19.4570    73.3790     5.3030     6.5600     5.7120     2.1990 
  107.2500   107.2450    -0.5060     0.1600   -20.2170    73.9440     5.3600     6.6300     5.9470     2.1960 
  107.3750   107.3700    -0.5080     0.1570   -21.0580    73.6850     5.4950     6.8170     6.2970     2.1900 
  107.5000   107.4950    -0.5090     0.1550   -21.9870    72.8310     5.6550     7.0400     6.6310     2.1770 
  107.6250   107.6200    -0.5110     0.1520   -23.0720    71.1610     5.8130     7.2470     6.8500     2.1650 
  107.7500   107.7450    -0.5120     0.1490   -24.3620    69.4580     5.9350     7.4060     6.9770     2.1600 
  107.8750   107.8700    -0.5140     0.1470   -25.3250    67.1450     6.0070     7.5010     7.0570     2.1620 
  108.0000   107.9950    -0.5160     0.1440   -25.5790    65.6580     6.0160     7.5350     7.0950     2.1650 
  108.1250   108.1200    -0.5170     0.1410   -25.3260    65.6220     5.9790     7.4990     7.0140     2.1640 
  108.2500   108.2450    -0.5190     0.1390   -25.1870    65.8420     5.9390     7.4610     6.8990     2.1630 
  108.3750   108.3700    -0.5200     0.1360   -25.2400    64.6410     5.9060     7.4010     6.8360     2.1630 
  108.5000   108.4950    -0.5220     0.1330   -25.2520    63.3120     5.8910     7.3500     6.8390     2.1630 
