~V
VERS. 2.00: Ver 2.00
~W
STRT.M 20.0000:
STOP.M 242.0000:
STEP.M 0.1250:
NULL. -999.2500:
UWI. FD10624:
~C
DEPT.M :
TVD. :
DX. :
DY. :
GR.API :
RML.OHMM :
RI. :
RXO.OHMM :
CALI.CM :
DEN.GM/CC :
SP.MV :
~A
# ...
  209.7500   198.9500    36.2550    36.8190    69.5200    61.6590    57.2900    23.5750    20.3180     2.6450   -17.0090 
  209.8750   199.0590    36.2970    36.8640    67.8560    62.4190    57.7100    33.2880    20.4400     2.6590   -16.8030 
  210.0000   199.1680    36.3390    36.9080    66.3000    63.7310    58.6540    47.1700    20.7430     2.6430   -16.5960 
  210.1250   199.2790    36.3780    36.9520    66.8010    65.1140    59.6470    49.8420    21.1560     2.6010   -16.4110 
  210.2500   199.3890    36.4160    36.9950    70.6440    66.2080    60.3650    43.9300    21.3400     2.5600   -16.3250 
  210.3750   199.5000    36.4550    37.0390    74.9720    66.9370    60.7030    44.9180    21.0870     2.5410   -16.2720 
  210.5000   199.6100    36.4940    37.0830    76.2010    67.4160    60.7330    46.3130    20.5690     2.5540   -16.1340 
  210.6250   199.7210    36.5330    37.1270    73.8010    67.8030    60.6310    43.1760    20.3000     2.5950   -15.9440 
  210.7500   199.8310    36.5720    37.1710    69.9860    68.1090    60.4730    42.2680    20.3050     2.6380   -15.8270 
  210.8750   199.9420    36.6100    37.2140    65.6010    68.1590    60.1530    42.0400    20.4210     2.6650   -15.7860 
  211.0000   200.0520    36.6490    37.2580    61.6630    67.7260    59.6390    41.2190    20.5470     2.6650   -15.7750 
  211.1250   200.1630    36.6880    37.3020    61.3120    66.5310    58.9520    43.2430    20.6510     2.6390   -15.6580 
  211.2500   200.2730    36.7270    37.3460    64.0950    64.7120    57.9650    43.6920    20.6370     2.6050   -15.4710 
  211.3750   200.3830    36.7650    37.3890    67.3420    62.4730    56.4040    40.8280    20.4840     2.5800   -15.3070 
  211.5000   200.4940    36.8040    37.4330    69.7880    60.0690    54.1650    34.0390    20.2310     2.5730   -15.2110 
  211.6250   200.6040    36.8430    37.4770    71.4200    57.7470    51.6400    30.9620    20.0620     2.5830   -15.1580 
  211.7500   200.7150    36.8820    37.5210    72.2430    55.8140    49.8040    31.9220    20.1030     2.5940   -15.0390 
  211.8750   200.8250    36.9210    37.5640    71.3040    54.5960    49.4300    30.5830    20.2820     2.5940   -14.8210 
  212.0000   200.9360    36.9590    37.6080    68.3090    53.3840    50.4830    30.3440    20.5080     2.5850   -14.5890 
  212.1250   201.0460    36.9980    37.6520    63.5560    48.9460    50.8590    35.4140    20.6330     2.5780   -14.4700 
  212.2500   201.1570    37.0370    37.6960    57.4260    40.0920    47.2490    47.3230    20.6610     2.5840   -14.3650 
  212.3750   201.2670    37.0760    37.7390    50.7510    28.9680    38.4670    53.2200    20.5130     2.6010   -14.1900 
  212.5000   201.3770    37.1150    37.7830    47.3310    19.3060    27.1700    43.9440    20.2000     2.6130   -13.9960 
  212.6250   201.4880    37.1530    37.8270    49.5270    13.5470    17.8340    25.0240    19.9340     2.5960   -13.8220 
  212.7500   201.5980    37.1920    37.8710    52.6160    10.2040    11.6480    12.6930    19.8240     2.5470   -13.6550 
  212.8750   201.7090    37.2310    37.9150    53.3460     8.2250     8.0430     6.9750    19.7830     2.4730   -13.5100 
  213.0000   201.8190    37.2700    37.9580    51.3110     7.1910     6.1940     5.5540    19.6960     2.3900   -13.3580 
  213.1250   201.9300    37.3090    38.0020    45.7700     7.2700     5.7400     5.4720    19.5760     2.3280   -13.1790 
  213.2500   202.0400    37.3470    38.0460    37.4350     8.2650     6.3130     4.9890    19.5430     2.3160   -13.0320 
  213.3750   202.1510    37.3860    38.0900    28.5490     9.8730     7.8990     4.7850    19.6460     2.3750   -12.9130 
  213.5000   202.2610    37.4250    38.1330    20.7220    11.6690    10.3240     6.1440    19.7530     2.4990   -12.7500 
  213.6250   202.3720    37.4640    38.1770    16.1190    12.9070    12.5860    11.4560    19.7910     2.6490   -12.5660 
  213.7500   202.4820    37.5020    38.2210    15.7410    12.8920    13.0730    19.1510    19.8050     2.7560   -12.4460 
  213.8750   202.5920    37.5410    38.2650    18.0490    11.3960    11.3750    18.6040    19.8480     2.7810   -12.4260 
  214.0000   202.7030    37.5800    38.3080    21.3720     8.9280     8.6890    10.7800    19.9380     2.7210   -12.4360 
  214.1250   202.8130    37.6190    38.3520    24.8460     6.5560     6.4560     6.1220    19.9730     2.6050   -12.3640 
  214.2500   202.9240    37.6580    38.3960    26.9560     4.9150     4.9930     4.8180    19.9050     2.4890   -12.2230 
  214.3750   203.0340    37.6960    38.4400    26.2040     4.0910     4.1730     4.4430    19.7260     2.4000   -12.1040 
  214.5000   203.1450    37.7350    38.4840    24.7380     3.8660     3.8140     4.2250    19.5750     2.3480   -12.0470 
  214.6250   203.2550    37.7740    38.5270    25.5820     3.9310     3.7690     4.0550    19.5360     2.3250   -12.0220 
  214.7500   203.3660    37.8130    38.5710    25.9840     4.0390     3.8300     4.0270    19.6270     2.3150   -11.9370 
  214.8750   203.4760    37.8520    38.6150    24.6350     4.1360     3.9150     4.0850    19.8480     2.3120   -11.7820 
  215.0000   203.5870    37.8900    38.6590    23.2670     4.2080     4.0010     4.1560    20.0750     2.3160   -11.6370 
  215.1250   203.6970    37.9290    38.7020    24.9010     4.2760     4.0920     4.1150    20.1180     2.3310   -11.6100 
  215.2500   203.8070    37.9680    38.7460    27.6660     4.3520     4.1920     4.1060    19.9880     2.3530   -11.6150 
  215.3750   203.9180    38.0070    38.7900    28.9390     4.4340     4.2940     4.2760    19.7640     2.3760   -11.6260 
  215.5000   204.0280    38.0460    38.8340    28.0980     4.5160     4.3850     4.4920    19.6150     2.3930   -11.6520 
  215.6250   204.1390    38.0840    38.8770    27.4530     4.5830     4.4360     4.6710    19.6060     2.3960   -11.6390 
  215.7500   204.2490    38.1230    38.9210    28.5870     4.6210     4.4300     4.7330    19.6850     2.3920   -11.6120 
  215.8750   204.3600    38.1620    38.9650    29.0000     4.6090     4.3570     4.7650    19.8570     2.3840   -11.5790 
  216.0000   204.4700    38.2010    39.0090    27.4470     4.5350     4.2210     4.7950    19.9900     2.3760   -11.5130 
  216.1250   204.5810    38.2390    39.0520    26.1300     4.4020     4.0400     4.7620    19.9910     2.3690   -11.3840 
  216.2500   204.6910    38.2780    39.0960    26.1570     4.2520     3.8530     4.5460    19.8830     2.3620   -11.2600 
  216.3750   204.8010    38.3170    39.1400    26.7130     4.1180     3.6830     4.3190    19.6760     2.3580   -11.1300 
  216.5000   204.9120    38.3560    39.1840    26.2140     4.0280     3.5510     4.1550    19.5130     2.3610   -10.9930 
  216.6250   205.0220    38.3950    39.2280    25.2130     4.0220     3.4960     4.1100    19.5080     2.3750   -10.9270 
  216.7500   205.1330    38.4330    39.2710    25.2940     4.1080     3.5300     4.1480    19.5650     2.3950   -10.9560 
  216.8750   205.2430    38.4720    39.3150    26.1740     4.2930     3.6610     4.2160    19.6440     2.4170   -11.0400 
  217.0000   205.3540    38.5110    39.3590    25.4430     4.5540     3.8700     4.3830    19.7290     2.4380   -11.1020 
  217.1250   205.4640    38.5500    39.4030    22.3680     4.8220     4.1000     4.8620    19.7640     2.4570   -11.1810 
  217.2500   205.5750    38.5890    39.4460    20.1070     5.0010     4.2610     5.9260    19.7330     2.4710   -11.3520 
  217.3750   205.6850    38.6270    39.4900    20.2780     5.0250     4.2910     6.7060    19.6670     2.4740   -11.5930 
  217.5000   205.7960    38.6660    39.5340    21.3110     4.8840     4.1750     6.0730    19.6260     2.4630   -11.8130 
  217.6250   205.9060    38.7050    39.5780    22.1540     4.6230     3.9530     4.7180    19.5860     2.4400   -11.9170 
  217.7500   206.0160    38.7440    39.6210    23.1310     4.3560     3.7200     4.0680    19.5700     2.4140   -11.9410 
  217.8750   206.1270    38.7830    39.6650    23.8240     4.1530     3.5350     3.9120    19.5830     2.3940   -11.9370 
