~V
VERS. 2.00: Ver 2.00
~W
STRT.M 32.0000:
STOP.M 269.0000:
STEP.M 0.1250:
NULL. -999.2500:
UWI. FD10881:
~C
DEPT.M :
TVD. :
DX. :
DY. :
SP.MV :
GR.API :
RI. :
RML.OHMM :
RXO.OHMM :
~A
# ...
   62.0000    61.9800    -0.8750    -0.3130    -1.5170    65.6320     4.0720     4.9880     6.2260 
   62.1250    62.1050    -0.8830    -0.3170    -1.3530    65.8190     4.2580     5.2270    10.3910 
   62.2500    62.2300    -0.8910    -0.3210    -1.1040    65.8670     4.4000     5.4000    18.4970 
   62.3750    62.3540    -0.8990    -0.3260    -0.6430    64.5390     4.4620     5.4710    18.6330 
   62.5000    62.4790    -0.9080    -0.3300     0.0970    62.3660     4.3910     5.3590    10.2890 
   62.6250    62.6040    -0.9160    -0.3350     0.6300    60.0740     4.2620     5.1790     6.0950 
   62.7500    62.7280    -0.9240    -0.3390     0.6280    60.2830     4.1070     4.9840     6.3020 
   62.8750    62.8530    -0.9320    -0.3440     0.4820    62.5170     4.0000     4.8650     6.2760 
   63.0000    62.9780    -0.9410    -0.3480     0.3190    64.4680     3.9540     4.8230     6.1220 
   63.1250    63.1020    -0.9490    -0.3530     0.1640    64.4560     3.9230     4.7920     6.0110 
   63.2500    63.2270    -0.9570    -0.3580     0.0060    64.8780     3.8820     4.7340     5.9920 
   63.3750    63.3520    -0.9660    -0.3620    -0.0430    68.2340     3.8430     4.6860     6.0040 
   63.5000    63.4760    -0.9740    -0.3670     0.1530    71.6780     3.8120     4.6480     5.9730 
   63.6250    63.6010    -0.9830    -0.3720     0.5270    71.0140     3.8100     4.6380     5.9600 
   63.7500    63.7250    -0.9920    -0.3760     0.9410    69.6780     3.8530     4.6820     5.9990 
   63.8750    63.8500    -1.0000    -0.3810     1.2070    70.9980     3.9420     4.7710     6.1020 
   64.0000    63.9750    -1.0090    -0.3860     1.1450    72.0350     4.0740     4.9220     6.2780 
   64.1250    64.0990    -1.0180    -0.3910     0.8430    68.4470     4.2180     5.0880     6.5370 
   64.2500    64.2240    -1.0270    -0.3960     0.4640    63.5590     4.2750     5.1210     6.8960 
   64.3750    64.3480    -1.0360    -0.4000     0.1310    61.3380     4.1930     4.9800     7.2090 
   64.5000    64.4730    -1.0440    -0.4050     0.0460    64.0140     4.0180     4.7400     7.2080 
   64.6250    64.5980    -1.0530    -0.4100     0.2950    69.6890     3.8590     4.5420     6.5230 
   64.7500    64.7220    -1.0620    -0.4150     0.7210    73.9780     3.7970     4.4930     6.1720 
   64.8750    64.8470    -1.0720    -0.4200     1.1260    74.1600     3.8220     4.5590     7.1710 
   65.0000    64.9710    -1.0810    -0.4250     1.4710    71.5030     3.8270     4.6100     7.8500 
   65.1250    65.0960    -1.0900    -0.4300     1.6310    69.6880     3.7540     4.5180     7.4050 
   65.2500    65.2200    -1.0990    -0.4350     1.6440    68.9420     3.5670     4.2640     6.3930 
   65.3750    65.3450    -1.1090    -0.4400     1.6870    72.1320     3.2860     3.8680     5.1570 
   65.5000    65.4690    -1.1180    -0.4450     1.8210    78.8980     3.0040     3.4850     4.5420 
   65.6250    65.5940    -1.1280    -0.4510     1.9620    83.5140     2.8060     3.2440     4.4650 
   65.7500    65.7190    -1.1370    -0.4560     2.0010    82.9120     2.7720     3.2160     4.4480 
   65.8750    65.8430    -1.1470    -0.4610     1.9670    81.1760     2.8770     3.3790     4.5480 
   66.0000    65.9680    -1.1570    -0.4660     1.8780    81.0800     3.0600     3.6300     4.7130 
   66.1250    66.0920    -1.1670    -0.4720     1.7490    80.9040     3.2780     3.9150     4.8670 
   66.2500    66.2170    -1.1770    -0.4770     1.6230    81.0030     3.4900     4.1470     5.1220 
   66.3750    66.3410    -1.1870    -0.4830     1.4670    82.8750     3.6350     4.2920     5.4090 
   66.5000    66.4650    -1.1970    -0.4880     1.3600    83.9470     3.6640     4.3030     5.6310 
   66.6250    66.5900    -1.2070    -0.4940     1.4410    81.6450     3.5730     4.1730     5.8570 
   66.7500    66.7140    -1.2180    -0.4990     1.7950    79.4100     3.3780     3.9130     5.6290 
   66.8750    66.8390    -1.2280    -0.5050     2.2430    82.8750     3.1710     3.6230     4.8970 
   67.0000    66.9630    -1.2390    -0.5100     2.6220    91.7550     3.0520     3.4630     4.3470 
   67.1250    67.0880    -1.2500    -0.5160     2.7560    98.3040     3.0600     3.4560     4.0860 
   67.2500    67.2120    -1.2600    -0.5210     2.6040    95.7500     3.1880     3.6340     4.4270 
   67.3750    67.3360    -1.2710    -0.5270     2.3380    89.0330     3.3990     3.9280     5.6430 
   67.5000    67.4610    -1.2820    -0.5330     2.0950    84.4190     3.6210     4.2050     6.2340 
   67.6250    67.5850    -1.2930    -0.5390     1.9970    82.6570     3.8050     4.4150     5.7430 
   67.7500    67.7100    -1.3040    -0.5440     2.1760    81.1810     3.9070     4.5170     5.5420 
   67.8750    67.8340    -1.3150    -0.5500     2.5050    80.8890     3.9070     4.4980     5.6130 
   68.0000    67.9580    -1.3260    -0.5560     2.7880    81.8600     3.8270     4.3870     5.9310 
   68.1250    68.0830    -1.3380    -0.5620     3.0050    82.3480     3.7370     4.2800     6.5840 
   68.2500    68.2070    -1.3490    -0.5680     3.2140    82.8580     3.6330     4.1550     6.3850 
   68.3750    68.3310    -1.3610    -0.5740     3.3420    85.3840     3.5290     4.0300     5.7160 
   68.5000    68.4560    -1.3720    -0.5800     3.3340    85.4660     3.4880     3.9850     6.4440 
   68.6250    68.5800    -1.3840    -0.5860     3.2920    80.4980     3.6130     4.1360     7.5380 
   68.7500    68.7040    -1.3950    -0.5920     3.2830    74.5900     3.9780     4.5810     7.3860 
   68.8750    68.8290    -1.4070    -0.5980     3.3170    72.2960     4.5770     5.3050     7.4310 
   69.0000    68.9530    -1.4190    -0.6040     3.3810    72.7750     5.4210     6.3300     8.6310 
   69.1250    69.0770    -1.4300    -0.6110     3.4230    73.0160     6.2790     7.3480    11.3540 
   69.2500    69.2010    -1.4420    -0.6170     3.4340    71.1920     7.0100     8.1730    14.5110 
   69.3750    69.3260    -1.4540    -0.6230     3.3770    68.8240     7.4340     8.5390    14.3220 
   69.5000    69.4500    -1.4660    -0.6290     3.2480    66.7890     7.4420     8.4020    11.7360 
   69.6250    69.5740    -1.4780    -0.6350     3.1340    65.8670     7.2770     8.1300    10.5160 
   69.7500    69.6980    -1.4900    -0.6420     3.1500    65.8160     7.1440     7.9980    10.2640 
   69.8750    69.8230    -1.5030    -0.6480     3.3350    65.0450     7.1070     8.0540     9.9880 
   70.0000    69.9470    -1.5150    -0.6540     3.6230    63.4880     7.1470     8.2010    10.1380 
   70.1250    70.0710    -1.5270    -0.6610     3.8700    63.1770     7.0420     8.1170    11.9280 
   70.2500    70.1950    -1.5400    -0.6670     3.8640    66.5150     6.6210     7.5870    13.9030 
   70.3750    70.3200    -1.5520    -0.6730     3.5460    72.2730     5.9640     6.7540    13.3920 
   70.5000    70.4440    -1.5640    -0.6800     3.0440    77.3070     5.1490     5.7590    11.0290 
   70.6250    70.5680    -1.5770    -0.6860     2.5700    82.4130     4.4700     4.9600     8.2870 
   70.7500    70.6920    -1.5890    -0.6930     2.2830    89.2850     4.0350     4.4950     6.5000 
   70.8750    70.8160    -1.6020    -0.6990     2.2560    95.8750     3.8710     4.3270     5.7400 
   71.0000    70.9410    -1.6140    -0.7060     2.4490    97.7810     3.8680     4.3580     5.6860 
   71.1250    71.0650    -1.6270    -0.7120     2.6510    94.3590     3.9320     4.4550     6.0440 
   71.2500    71.1890    -1.6390    -0.7190     2.7830    89.8590     3.9630     4.4740     6.1860 
   71.3750    71.3130    -1.6520    -0.7260     2.8910    88.0060     3.9280     4.3880     6.0750 
   71.5000    71.4370    -1.6650    -0.7320     2.9290    89.6780     3.8590     4.2520     5.5960 
   71.6250    71.5620    -1.6780    -0.7390     2.8900    92.6320     3.8310     4.1710     5.0310 
   71.7500    71.6860    -1.6900    -0.7460     2.7940    94.5870     3.9180     4.2660     4.9250 
   71.8750    71.8100    -1.7030    -0.7530     2.6760    94.2320     4.0940     4.4890     5.3880 
