~V
VERS. 2.00: Ver 2.00
~W
STRT.M 20.0000:
STOP.M 206.0000:
STEP.M 0.1250:
NULL. -999.2500:
UWI. FD10809:
~C
DEPT.M :
TVD. :
DX. :
DY. :
SP.MV :
GR.API :
RI. :
RML.OHMM :
DEN.GM/CC :
RXO.OHMM :
~A
# ...
  156.8750   141.8890     3.3890    52.9710   -12.2760    47.1100    13.7210    17.0270     2.4440    13.9590 
  157.0000   141.9890     3.3860    53.0470   -12.7690    44.8350    13.4380    16.6580     2.4460    13.2240 
  157.1250   142.0890     3.3840    53.1220   -13.2180    44.6580    13.0670    16.1820     2.4540    12.9640 
  157.2500   142.1890     3.3810    53.1970   -13.6200    44.3200    12.6180    15.6090     2.4690    13.0170 
  157.3750   142.2880     3.3780    53.2720   -13.9980    44.8000    12.0940    14.9380     2.4780    12.7250 
  157.5000   142.3880     3.3750    53.3470   -14.3440    44.4410    11.5030    14.1790     2.4760    11.8630 
  157.6250   142.4880     3.3730    53.4220   -14.7070    45.3170    10.9110    13.4420     2.4640    10.4150 
  157.7500   142.5880     3.3700    53.4970   -15.0090    45.1860    10.5370    12.9070     2.4530     9.0610 
  157.8750   142.6880     3.3670    53.5720   -15.3510    45.8970    10.4380    12.6630     2.4550     8.5020 
  158.0000   142.7880     3.3640    53.6470   -15.6460    46.2370    10.6210    12.7480     2.4710     8.9950 
  158.1250   142.8880     3.3610    53.7220   -15.9510    48.4210    11.0420    13.0560     2.4870    10.6720 
  158.2500   142.9880     3.3590    53.7970   -16.1720    50.2760    11.5010    13.3900     2.4930    12.1420 
  158.3750   143.0880     3.3560    53.8720   -16.3040    50.2800    11.8250    13.5420     2.4860    11.7210 
  158.5000   143.1880     3.3530    53.9470   -16.3630    48.0640    11.8860    13.4350     2.4750    10.5250 
  158.6250   143.2880     3.3500    54.0220   -16.3750    45.8360    11.7220    13.1700     2.4680    10.0170 
  158.7500   143.3880     3.3480    54.0980   -16.3750    45.6320    11.4460    12.8500     2.4760     9.6490 
  158.8750   143.4870     3.3450    54.1730   -16.3890    46.6740    11.2240    12.5490     2.4890     9.2830 
  159.0000   143.5870     3.3420    54.2480   -16.4670    47.7060    10.9940    12.2480     2.4840     9.1300 
  159.1250   143.6870     3.3390    54.3230   -16.5040    48.1700    10.7010    11.8730     2.4560     8.7570 
  159.2500   143.7870     3.3360    54.3980   -16.5410    48.3390    10.2200    11.4090     2.4140     8.6210 
  159.3750   143.8870     3.3330    54.4730   -16.5010    48.9250     9.7340    10.9910     2.3870     8.6580 
  159.5000   143.9860     3.3300    54.5490   -16.4110    49.9400     9.5440    10.8850     2.3750     8.1020 
  159.6250   144.0860     3.3270    54.6240   -16.3140    53.1340     9.8200    11.3310     2.3720     7.4430 
  159.7500   144.1860     3.3240    54.6990   -16.1700    57.7070    10.8640    12.6450     2.3520     7.1810 
  159.8750   144.2860     3.3220    54.7750   -15.9210    61.9040    12.8710    14.9090     2.3180     7.3360 
  160.0000   144.3850     3.3190    54.8500   -15.6170    64.4180    15.8980    17.9880     2.2710     7.7550 
  160.1250   144.4850     3.3160    54.9260   -15.3610    65.9240    19.0370    21.3740     2.2370     8.5530 
  160.2500   144.5840     3.3130    55.0010   -15.0940    66.5620    22.3380    24.9580     2.2220     9.0850 
  160.3750   144.6840     3.3110    55.0770   -14.8460    65.8350    25.9120    29.1600     2.2190    10.0490 
  160.5000   144.7840     3.3080    55.1520   -14.5730    63.0290    30.3620    34.9840     2.2120    21.0820 
  160.6250   144.8830     3.3050    55.2280   -14.3780    60.8110    37.1850    43.2750     2.1930    46.0570 
  160.7500   144.9830     3.3030    55.3030   -14.1200    60.2940    47.6150    54.6850     2.1690    70.0680 
  160.8750   145.0820     3.3000    55.3790   -13.8250    60.6790    61.1870    68.2940     2.1500    80.2870 
  161.0000   145.1820     3.2970    55.4540   -13.5780    60.2650    76.2460    82.3410     2.1420    85.6840 
  161.1250   145.2810     3.2940    55.5300   -13.3270    58.2690    89.4360    94.8810     2.1420    88.9310 
  161.2500   145.3810     3.2910    55.6060   -13.0180    56.2450    99.2980   105.0990     2.1430    91.9870 
  161.3750   145.4800     3.2880    55.6810   -12.6450    54.4040   107.0360   114.3050     2.1430   110.8690 
  161.5000   145.5800     3.2860    55.7570   -12.2230    54.3040   115.8170   124.2620     2.1390   130.6180 
  161.6250   145.6790     3.2830    55.8320   -11.6620    55.5790   125.3660   134.8460     2.1400   134.0440 
  161.7500   145.7790     3.2800    55.9080   -11.1140    58.1020   134.4990   144.1760     2.1480   144.7370 
  161.8750   145.8780     3.2770    55.9840   -10.5700    60.0710   142.2240   151.2710     2.1620   170.4930 
  162.0000   145.9780     3.2740    56.0590   -10.0530    61.2830   147.6940   155.9230     2.1730   161.6510 
  162.1250   146.0770     3.2710    56.1350    -9.5530    61.3980   151.5350   158.1990     2.1790   124.7680 
  162.2500   146.1770     3.2680    56.2110    -9.0210    61.0240   152.1880   157.3940     2.1800   126.2190 
  162.3750   146.2760     3.2650    56.2860    -8.4140    60.5680   149.3700   153.3900     2.1790   159.0030 
  162.5000   146.3750     3.2620    56.3620    -7.7490    60.9150   143.2960   145.8400     2.1790   173.4040 
  162.6250   146.4750     3.2590    56.4380    -7.0300    61.4130   134.7420   134.9710     2.1810   153.3380 
  162.7500   146.5740     3.2560    56.5130    -6.4270    62.2120   120.7440   121.0660     2.1810   130.0590 
  162.8750   146.6740     3.2530    56.5890    -6.0710    63.0290   105.1970   106.2550     2.1850   121.0570 
  163.0000   146.7730     3.2510    56.6650    -5.7040    63.5570    91.1850    93.6750     2.1930   102.2900 
  163.1250   146.8720     3.2480    56.7410    -5.3790    62.7120    82.0320    85.9320     2.2030    72.5360 
  163.2500   146.9720     3.2450    56.8170    -5.0690    61.0040    81.2020    84.8260     2.2000    65.6520 
  163.3750   147.0710     3.2420    56.8930    -4.6770    60.0310    86.2070    88.7680     2.1850    92.2850 
  163.5000   147.1700     3.2390    56.9680    -4.2110    60.6310    95.0840    94.2630     2.1670   129.2150 
  163.6250   147.2700     3.2370    57.0440    -3.8390    62.5680    97.7660    97.0880     2.1570   143.2720 
  163.7500   147.3690     3.2340    57.1200    -3.5750    64.0740    95.2800    94.9050     2.1680   122.7080 
  163.8750   147.4680     3.2310    57.1960    -3.3310    67.0140    86.9140    89.0590     2.1890   101.1330 
  164.0000   147.5680     3.2280    57.2720    -3.2870    69.7300    77.7270    82.8860     2.2050    93.0760 
  164.1250   147.6670     3.2260    57.3480    -3.4900    71.2170    73.7130    79.8860     2.2030    84.8410 
  164.2500   147.7660     3.2230    57.4240    -3.8380    69.3360    75.2450    81.6410     2.1900    80.2320 
  164.3750   147.8650     3.2200    57.4990    -4.1890    66.5200    80.7240    86.5270     2.1830    80.5180 
  164.5000   147.9650     3.2170    57.5750    -4.7430    65.5250    87.7670    92.3020     2.1830    77.8460 
  164.6250   148.0640     3.2140    57.6510    -5.2910    66.2630    94.2050    97.5700     2.1840    75.0710 
  164.7500   148.1630     3.2100    57.7270    -5.8010    66.2410    97.5580   102.5590     2.1790    75.4800 
  164.8750   148.2630     3.2070    57.8030    -6.1860    64.2980   101.8190   108.3050     2.1750    75.8780 
  165.0000   148.3620     3.2040    57.8790    -6.4250    62.7900   108.2890   115.7270     2.1710    79.2420 
  165.1250   148.4610     3.2010    57.9540    -6.4440    62.3110   116.6220   124.5240     2.1710    87.5920 
  165.2500   148.5610     3.1980    58.0300    -6.1890    63.4590   124.7800   133.7620     2.1720    96.5130 
  165.3750   148.6600     3.1950    58.1060    -5.7420    64.0390   132.3370   141.9570     2.1710   106.1430 
  165.5000   148.7590     3.1920    58.1820    -5.0820    64.5360   138.4010   146.2690     2.1690   110.5980 
  165.6250   148.8590     3.1890    58.2580    -4.3280    64.8280   137.0690   143.9980     2.1660   106.1520 
  165.7500   148.9580     3.1870    58.3330    -3.4390    66.3410   125.1810   133.0750     2.1670   109.4710 
  165.8750   149.0580     3.1840    58.4090    -2.6420    68.0210   105.6150   115.3830     2.1730   115.7420 
