~V
VERS. 2.00: Ver 2.00
~W
STRT.M 33.0000:
STOP.M 273.0000:
STEP.M 0.1250:
NULL. -999.2500:
UWI. FD10880:
~C
DEPT.M :
TVD. :
DX. :
DY. :
SP.MV :
GR.API :
RI. :
RML.OHMM :
RXO.OHMM :
DEN.GM/CC :
~A
# ...
  242.8750   224.7400    76.6380    15.5460    -8.9080    28.8330     2.4030     4.0990     4.1880     2.3200 
  243.0000   224.8490    76.6990    15.5590    -8.5640    29.4600     2.3680     4.0140     4.0300     2.2940 
  243.1250   224.9580    76.7590    15.5720    -8.4100    30.3550     2.3220     3.9120     4.0340     2.2830 
  243.2500   225.0660    76.8190    15.5850    -8.4770    29.7760     2.2700     3.8250     4.0080     2.2900 
  243.3750   225.1750    76.8800    15.5980    -8.5930    29.0820     2.2330     3.7710     3.8350     2.2980 
  243.5000   225.2840    76.9400    15.6110    -8.7620    29.0700     2.2020     3.7240     3.6900     2.2940 
  243.6250   225.3920    77.0000    15.6240    -8.9010    28.1070     2.1820     3.6890     3.6660     2.2780 
  243.7500   225.5010    77.0610    15.6370    -9.0960    26.7090     2.1670     3.6450     3.6540     2.2560 
  243.8750   225.6100    77.1210    15.6500    -9.4270    28.3490     2.1570     3.6200     3.6720     2.2400 
  244.0000   225.7190    77.1820    15.6630    -9.7520    31.8820     2.1580     3.6180     3.7010     2.2400 
  244.1250   225.8270    77.2420    15.6760    -9.9320    32.9040     2.1600     3.5960     3.6450     2.2580 
  244.2500   225.9360    77.3030    15.6880    -9.9560    29.8500     2.1660     3.5690     3.5830     2.2830 
  244.3750   226.0450    77.3630    15.7010    -9.7860    26.9350     2.1660     3.5230     3.5570     2.3000 
  244.5000   226.1530    77.4230    15.7130    -9.1830    25.9220     2.1600     3.4880     3.5110     2.3030 
  244.6250   226.2620    77.4840    15.7260    -8.3720    26.2660     2.1580     3.4780     3.4710     2.2930 
  244.7500   226.3710    77.5440    15.7380    -7.5970    28.6530     2.1630     3.4730     3.4800     2.2790 
  244.8750   226.4790    77.6050    15.7510    -7.0260    32.2980     2.1750     3.4730     3.5600     2.2690 
  245.0000   226.5880    77.6650    15.7640    -6.9770    33.7600     2.1900     3.4690     3.6960     2.2660 
  245.1250   226.6970    77.7260    15.7770    -7.5040    31.6890     2.2000     3.4410     3.7470     2.2690 
  245.2500   226.8050    77.7860    15.7900    -8.3810    28.8090     2.2050     3.4240     3.6930     2.2740 
  245.3750   226.9140    77.8460    15.8030    -9.1560    28.0690     2.2050     3.4030     3.7590     2.2750 
  245.5000   227.0230    77.9070    15.8160    -9.3560    28.5250     2.2140     3.4060     3.8620     2.2730 
  245.6250   227.1310    77.9670    15.8280    -8.9790    29.0060     2.2200     3.4210     3.7730     2.2720 
  245.7500   227.2400    78.0270    15.8410    -8.4430    29.1540     2.2210     3.4210     3.6200     2.2770 
  245.8750   227.3490    78.0880    15.8540    -8.0090    28.5870     2.2190     3.4050     3.5730     2.2870 
  246.0000   227.4580    78.1480    15.8660    -7.7570    27.4730     2.2100     3.3790     3.5890     2.2970 
  246.1250   227.5660    78.2090    15.8790    -7.7380    26.3690     2.2100     3.3600     3.5750     2.2990 
  246.2500   227.6750    78.2690    15.8910    -8.0060    25.7870     2.2240     3.3620     3.5250     2.2960 
  246.3750   227.7840    78.3300    15.9030    -8.3760    25.6770     2.2550     3.3970     3.5120     2.2930 
  246.5000   227.8920    78.3900    15.9160    -8.8690    26.0680     2.3090     3.4630     3.5570     2.2950 
  246.6250   228.0010    78.4500    15.9280    -9.4370    28.0000     2.3800     3.5410     3.6050     2.3010 
  246.7500   228.1100    78.5110    15.9400   -10.0440    29.2880     2.4600     3.6120     3.6770     2.3090 
  246.8750   228.2190    78.5710    15.9530   -10.5830    30.1370     2.5290     3.6760     3.8070     2.3160 
  247.0000   228.3270    78.6320    15.9650   -11.0510    31.5270     2.5870     3.7230     3.8950     2.3220 
  247.1250   228.4360    78.6920    15.9770   -11.4780    33.2350     2.6230     3.7430     3.9130     2.3310 
  247.2500   228.5450    78.7520    15.9900   -11.7090    33.3510     2.6480     3.7420     4.0640     2.3460 
  247.3750   228.6540    78.8130    16.0020   -12.0000    31.2490     2.6800     3.7420     6.4830     2.3640 
  247.5000   228.7620    78.8730    16.0140   -12.3240    29.8590     2.7120     3.7390     9.2510     2.3740 
  247.6250   228.8710    78.9330    16.0270   -12.2240    30.5250     2.7520     3.7660     7.6540     2.3700 
  247.7500   228.9800    78.9940    16.0390   -11.5260    32.8850     2.7920     3.7910     5.1580     2.3550 
  247.8750   229.0890    79.0540    16.0510   -10.7730    34.6940     2.8280     3.8300     4.6890     2.3400 
  248.0000   229.1970    79.1150    16.0640   -10.4530    34.5460     2.8600     3.8630     4.5690     2.3300 
  248.1250   229.3060    79.1750    16.0760   -10.6610    33.5050     2.8790     3.8810     4.4480     2.3240 
  248.2500   229.4150    79.2350    16.0890   -11.2150    32.7810     2.8780     3.8980     4.2690     2.3210 
  248.3750   229.5240    79.2950    16.1010   -11.9330    31.6540     2.8600     3.8570     4.1330     2.3190 
  248.5000   229.6330    79.3560    16.1140   -12.5290    30.2760     2.8380     3.8100     4.1170     2.3190 
  248.6250   229.7410    79.4160    16.1260   -12.7500    31.3170     2.8260     3.7610     4.1040     2.3210 
  248.7500   229.8500    79.4760    16.1390   -12.6260    34.3530     2.8460     3.7480     4.1010     2.3260 
  248.8750   229.9590    79.5360    16.1510   -12.5290    36.0710     2.8820     3.7750     4.2150     2.3300 
  249.0000   230.0680    79.5960    16.1630   -12.6070    36.5610     2.9450     3.8280     4.3600     2.3320 
  249.1250   230.1770    79.6560    16.1760   -12.7870    37.1660     3.0310     3.9130     4.4230     2.3280 
  249.2500   230.2860    79.7160    16.1880   -13.1380    38.6570     3.1470     4.0320     4.4230     2.3190 
  249.3750   230.3950    79.7760    16.2010   -13.7160    41.8330     3.3120     4.2060     4.3470     2.3050 
  249.5000   230.5040    79.8360    16.2130   -14.5400    48.8930     3.5310     4.4420     4.4090     2.2890 
  249.6250   230.6130    79.8960    16.2260   -15.5850    58.4460     3.8290     4.7860     5.1570     2.2730 
  249.7500   230.7220    79.9560    16.2380   -16.9140    66.6980     4.1240     5.1250     6.3570     2.2580 
  249.8750   230.8310    80.0160    16.2510   -18.3650    73.2870     4.3960     5.4260     7.0300     2.2430 
  250.0000   230.9400    80.0760    16.2630   -19.8150    81.4160     4.5670     5.6180     7.1320     2.2340 
  250.1250   231.0490    80.1360    16.2760   -21.2270    90.4600     4.6470     5.6880     7.2730     2.2320 
  250.2500   231.1580    80.1960    16.2880   -21.9310    95.1720     4.6800     5.6940     7.8320     2.2320 
  250.3750   231.2670    80.2560    16.3000   -22.1760    93.7710     4.6980     5.6890     8.3540     2.2240 
  250.5000   231.3760    80.3160    16.3120   -22.6580    89.3520     4.7320     5.7010     8.0650     2.2070 
  250.6250   231.4850    80.3760    16.3240   -23.3120    87.9580     4.8020     5.7620     7.3740     2.1880 
  250.7500   231.5940    80.4360    16.3370   -23.9900    91.4020     4.8950     5.8700     7.1180     2.1750 
  250.8750   231.7030    80.4960    16.3490   -24.4960    96.7890     4.9990     5.9790     7.4450     2.1710 
  251.0000   231.8120    80.5560    16.3610   -24.1530    99.2030     5.1060     6.0850     8.1490     2.1750 
  251.1250   231.9210    80.6160    16.3730   -23.4990    97.9700     5.1870     6.1650     8.7070     2.1830 
  251.2500   232.0300    80.6760    16.3860   -23.1650    96.6230     5.2380     6.1970     8.8530     2.1890 
  251.3750   232.1390    80.7360    16.3980   -23.2210    96.7030     5.2420     6.1780     8.9070     2.1870 
  251.5000   232.2480    80.7960    16.4100   -23.5630    95.5000     5.1960     6.0870     8.7260     2.1800 
  251.6250   232.3570    80.8560    16.4230   -24.0010    92.5720     5.1210     5.9630     8.6170     2.1770 
  251.7500   232.4650    80.9160    16.4350   -23.6630    91.5380     5.0370     5.8340     9.0830     2.1830 
  251.8750   232.5740    80.9760    16.4480   -22.4170    94.8650     4.9620     5.7190     8.9100     2.1920 
