~V
VERS. 2.00: Ver 2.00
~W
STRT.M 12.0000:
STOP.M 226.0000:
STEP.M 0.1250:
NULL. -999.2500:
UWI. FD10605:
~C
DEPT.M :
TVD. :
DX. :
DY. :
GR.API :
RML.OHMM :
RI. :
RXO.OHMM :
CALI.CM :
DEN.GM/CC :
SP.MV :
~A
# ...
  152.2500   145.6890    32.0740    15.3830    50.7840    18.7740    15.5810    11.3140    20.9000     2.5270    -1.8270 
  152.3750   145.7930    32.1380    15.4110    51.0660    19.2050    15.8850    12.0680    20.8950     2.5190    -1.9010 
  152.5000   145.8960    32.2020    15.4390    52.3910    19.6740    16.2860    13.1280    20.9090     2.5160    -1.9210 
  152.6250   146.0000    32.2670    15.4680    51.9690    19.8400    16.4870    14.5200    20.9200     2.5200    -1.9210 
  152.7500   146.1030    32.3310    15.4960    50.7190    19.5910    16.3450    15.1600    20.9560     2.5290    -1.8910 
  152.8750   146.2060    32.3950    15.5240    49.8180    18.9850    15.8900    14.7300    21.0090     2.5360    -1.8710 
  153.0000   146.3100    32.4590    15.5530    49.5420    18.2110    15.2830    13.9120    21.0100     2.5410    -1.8070 
  153.1250   146.4130    32.5240    15.5810    50.0360    17.5230    14.7450    13.4470    20.9070     2.5410    -1.7520 
  153.2500   146.5160    32.5880    15.6090    50.1720    17.0460    14.3880    13.3800    20.7850     2.5390    -1.7030 
  153.3750   146.6200    32.6520    15.6380    49.3890    16.7860    14.2210    13.0130    20.7350     2.5340    -1.6690 
  153.5000   146.7230    32.7160    15.6660    48.8760    16.6710    14.1970    12.6510    20.8020     2.5280    -1.6590 
  153.6250   146.8260    32.7810    15.6940    50.8060    16.5840    14.2240    12.7190    20.9430     2.5230    -1.7180 
  153.7500   146.9300    32.8450    15.7230    53.6200    16.3930    14.1820    12.5980    21.0640     2.5230    -1.7900 
  153.8750   147.0330    32.9090    15.7510    55.1090    16.0050    13.9750    12.1520    21.1180     2.5250    -1.8730 
  154.0000   147.1360    32.9730    15.7790    53.7940    15.3600    13.5270    11.5140    21.1800     2.5240    -2.0150 
  154.1250   147.2400    33.0380    15.8080    51.4580    14.4200    12.7820    11.4550    21.2920     2.5140    -2.1730 
  154.2500   147.3430    33.1020    15.8360    50.9620    13.3140    11.8490    11.0530    21.3060     2.4980    -2.4450 
  154.3750   147.4460    33.1660    15.8640    54.9040    12.1750    10.8480     9.7630    21.2760     2.4790    -2.7020 
  154.5000   147.5500    33.2300    15.8930    63.5720    11.1490     9.9150     8.2710    21.3450     2.4610    -2.9690 
  154.6250   147.6530    33.2950    15.9210    72.4720    10.4090     9.1990     7.5380    21.5570     2.4440    -3.2720 
  154.7500   147.7560    33.3590    15.9490    78.5380     9.9740     8.7310     7.5490    21.6910     2.4280    -3.6670 
  154.8750   147.8600    33.4230    15.9780    82.0420     9.8330     8.5110     7.7700    21.7070     2.4180    -4.0910 
  155.0000   147.9630    33.4870    16.0060    83.4910     9.9220     8.5030     8.3340    21.6310     2.4150    -4.4190 
  155.1250   148.0660    33.5520    16.0340    82.1870    10.1440     8.6440     8.9030    21.4840     2.4210    -4.7380 
  155.2500   148.1700    33.6160    16.0630    80.6030    10.3610     8.8130     9.3950    21.3010     2.4320    -4.9930 
  155.3750   148.2730    33.6800    16.0910    81.6130    10.5060     8.9410     9.5620    21.1880     2.4440    -5.2230 
  155.5000   148.3770    33.7440    16.1190    85.2180    10.5680     9.0030     9.5410    21.2340     2.4570    -5.4190 
  155.6250   148.4800    33.8080    16.1480    88.4080    10.6100     9.0310     9.4520    21.3730     2.4680    -5.5330 
  155.7500   148.5830    33.8730    16.1760    88.5330    10.7570     9.1130     9.4770    21.4780     2.4770    -5.5700 
  155.8750   148.6870    33.9370    16.2040    85.2580    11.1330     9.3460     9.6010    21.5160     2.4840    -5.4810 
  156.0000   148.7900    34.0010    16.2330    79.9840    11.8430     9.8280    10.3230    21.4450     2.4860    -5.4260 
  156.1250   148.8930    34.0650    16.2610    76.4450    12.9850    10.6780    11.4780    21.2450     2.4830    -5.3270 
  156.2500   148.9970    34.1300    16.2890    75.5380    14.3920    11.8190    13.2080    20.9830     2.4710    -5.2080 
  156.3750   149.1000    34.1940    16.3180    76.2430    15.8270    13.1000    16.7790    20.7970     2.4500    -5.0990 
  156.5000   149.2030    34.2580    16.3460    76.8670    16.9680    14.2480    22.7860    20.7330     2.4210    -5.0430 
  156.6250   149.3070    34.3220    16.3740    75.9940    17.4030    14.8410    24.9440    20.9520     2.3890    -4.9680 
  156.7500   149.4100    34.3870    16.4030    74.9550    17.1560    14.8050    21.0490    21.2500     2.3600    -4.8750 
  156.8750   149.5130    34.4510    16.4310    76.2660    16.4110    14.2780    15.7240    21.4130     2.3390    -4.8230 
  157.0000   149.6170    34.5150    16.4590    80.3340    15.4790    13.5420    12.7780    21.3350     2.3260    -4.7750 
  157.1250   149.7200    34.5790    16.4880    83.4380    14.7180    12.9030    11.9100    21.1920     2.3190    -4.6760 
  157.2500   149.8230    34.6440    16.5160    84.0580    14.2850    12.5100    11.7740    21.1380     2.3140    -4.5130 
  157.3750   149.9270    34.7080    16.5440    84.1770    14.1910    12.3930    11.7260    21.1550     2.3100    -4.3300 
  157.5000   150.0300    34.7720    16.5730    84.7570    14.3510    12.5030    11.8790    21.2340     2.3060    -4.0500 
  157.6250   150.1330    34.8360    16.6010    84.9580    14.6120    12.7390    12.4630    21.3690     2.3030    -3.7930 
  157.7500   150.2370    34.9010    16.6290    84.5900    14.7700    12.9290    12.9060    21.4350     2.3030    -3.5460 
  157.8750   150.3400    34.9650    16.6580    82.7670    14.6940    12.9370    12.7570    21.3180     2.3080    -3.3140 
  158.0000   150.4430    35.0290    16.6860    78.9960    14.3310    12.6890    12.4630    21.1550     2.3210    -3.0420 
  158.1250   150.5470    35.0930    16.7140    75.7990    13.7200    12.1910    12.2080    21.0840     2.3410    -2.7690 
  158.2500   150.6500    35.1580    16.7430    75.4210    13.0860    11.6380    11.8330    21.0620     2.3590    -2.5890 
  158.3750   150.7530    35.2220    16.7710    77.4260    12.6390    11.2080    11.3240    21.1220     2.3690    -2.4450 
  158.5000   150.8570    35.2860    16.7990    80.4480    12.5520    11.0640    11.5760    21.2930     2.3640    -2.3910 
  158.6250   150.9600    35.3500    16.8280    82.3460    12.9790    11.3720    11.9950    21.3760     2.3460    -2.3260 
  158.7500   151.0640    35.4140    16.8560    80.9520    13.7740    12.0410    12.4480    21.3210     2.3240    -2.2500 
  158.8750   151.1670    35.4790    16.8840    76.9260    14.7780    12.9480    13.4130    21.1710     2.3090    -2.1750 
  159.0000   151.2700    35.5430    16.9130    75.0050    15.8060    13.9310    14.8980    21.0640     2.3160    -2.0760 
  159.1250   151.3740    35.6070    16.9410    75.7390    16.6680    14.7920    15.7950    21.1430     2.3590    -2.0020 
  159.2500   151.4770    35.6710    16.9690    75.0900    17.3050    15.4330    16.4580    21.3210     2.4290    -1.8610 
  159.3750   151.5800    35.7360    16.9980    71.4560    17.6970    15.8340    18.8550    21.4630     2.5020    -1.7150 
  159.5000   151.6840    35.8000    17.0260    66.6660    17.8210    15.9880    23.5620    21.5220     2.5500    -1.5320 
  159.6250   151.7870    35.8640    17.0540    65.6330    17.6110    15.8000    24.4200    21.5360     2.5450    -1.4240 
  159.7500   151.8900    35.9280    17.0830    68.1840    17.1960    15.3730    18.9910    21.5400     2.5010    -1.3570 
  159.8750   151.9940    35.9930    17.1110    71.7430    16.7950    14.9170    14.1400    21.5220     2.4440    -1.3410 
  160.0000   152.0970    36.0570    17.1390    72.5040    16.7240    14.7050    13.1850    21.5080     2.3920    -1.4110 
  160.1250   152.2000    36.1210    17.1680    70.7410    17.4680    15.1290    14.1640    21.5330     2.3510    -1.4760 
  160.2500   152.3040    36.1850    17.1960    69.3520    19.1450    16.3510    16.7740    21.6030     2.3130    -1.5350 
  160.3750   152.4070    36.2500    17.2240    66.8370    21.7160    18.4650    23.8820    21.6900     2.2770    -1.6390 
