~V
VERS. 2.00: Ver 2.00
~W
STRT.M 40.0000:
STOP.M 276.0000:
STEP.M 0.1250:
NULL. -999.2500:
UWI. FD10882:
~C
DEPT.M :
TVD. :
DX. :
DY. :
SP.MV :
GR.API :
RI. :
RML.OHMM :
RXO.OHMM :
DEN.GM/CC :
~A
# ...
   58.2500    58.2480    -0.2230     0.0390    -9.5620    63.6040     6.9070     9.2520     6.6200     2.0780 
   58.3750    58.3730    -0.2260     0.0390    -9.5070    63.5570     6.8250     9.1350     6.4510     2.0710 
   58.5000    58.4980    -0.2290     0.0390    -9.4690    63.4840     6.7230     8.9710     6.2620     2.0880 
   58.6250    58.6230    -0.2320     0.0380    -9.3950    63.8080     6.6430     8.8440     6.1480     2.1130 
   58.7500    58.7480    -0.2350     0.0380    -9.3890    64.5480     6.5770     8.7670     6.0980     2.1340 
   58.8750    58.8730    -0.2380     0.0370    -9.3790    64.4550     6.5270     8.7470     6.0150     2.1350 
   59.0000    58.9980    -0.2410     0.0370    -9.3630    64.3930     6.4990     8.7460     5.8460     2.1200 
   59.1250    59.1230    -0.2440     0.0370    -9.3410    65.0180     6.5000     8.7870     5.6770     2.1010 
   59.2500    59.2480    -0.2470     0.0360    -9.3640    66.1360     6.5220     8.8560     5.6790     2.0990 
   59.3750    59.3730    -0.2500     0.0360    -9.4020    65.3840     6.5680     8.9400     5.9660     2.1210 
   59.5000    59.4980    -0.2530     0.0350    -9.3750    63.0070     6.6420     9.0040     6.4220     2.1480 
   59.6250    59.6230    -0.2570     0.0350    -9.3100    60.4840     6.7300     9.0290     6.8170     2.1590 
   59.7500    59.7480    -0.2600     0.0340    -9.2170    59.5300     6.8260     9.0710     7.0240     2.1510 
   59.8750    59.8730    -0.2630     0.0340    -9.2080    61.4510     6.9090     9.1500     7.1000     2.1400 
   60.0000    59.9980    -0.2670     0.0330    -9.2050    64.6300     6.9880     9.2720     7.1710     2.1350 
   60.1250    60.1230    -0.2700     0.0320    -9.1760    67.0370     7.0670     9.4220     7.2780     2.1440 
   60.2500    60.2480    -0.2740     0.0320    -9.1310    67.8680     7.1330     9.5800     7.4140     2.1560 
   60.3750    60.3730    -0.2770     0.0310    -9.1740    68.9410     7.1550     9.6810     7.5640     2.1690 
   60.5000    60.4980    -0.2810     0.0300    -9.2380    71.4080     7.1010     9.6670     7.6680     2.1780 
   60.6250    60.6230    -0.2850     0.0300    -9.2930    72.4900     6.9830     9.5230     7.6410     2.1820 
   60.7500    60.7480    -0.2880     0.0290    -9.3030    69.7170     6.8150     9.2790     7.5030     2.1760 
   60.8750    60.8720    -0.2920     0.0280    -9.2840    65.9870     6.6250     8.9740     7.3420     2.1580 
   61.0000    60.9970    -0.2960     0.0280    -9.2430    63.5870     6.4480     8.6820     7.2130     2.1350 
   61.1250    61.1220    -0.3000     0.0270    -9.2020    63.6560     6.3510     8.5130     7.1270     2.1160 
   61.2500    61.2470    -0.3040     0.0260    -9.1770    63.5150     6.4160     8.5800     7.1080     2.1130 
   61.3750    61.3720    -0.3080     0.0250    -9.1830    63.8960     6.7360     9.0420     7.1790     2.1320 
   61.5000    61.4970    -0.3120     0.0240    -9.1370    63.8040     7.3730     9.9470     7.3160     2.1570 
   61.6250    61.6220    -0.3160     0.0230    -9.1090    63.9350     8.4890    11.4850     7.6700     2.1620 
   61.7500    61.7470    -0.3200     0.0220    -9.1120    64.6650    10.0040    13.4950     8.7980     2.1560 
   61.8750    61.8720    -0.3240     0.0210    -9.1390    66.2000    11.4440    15.2230    11.1710     2.1520 
   62.0000    61.9970    -0.3280     0.0210    -9.2140    66.3050    11.9960    15.7150    13.5160     2.1580 
   62.1250    62.1220    -0.3330     0.0200    -9.2240    65.8330    11.4350    14.7320    13.7190     2.1700 
   62.2500    62.2470    -0.3370     0.0180    -9.2530    65.1100    10.0500    12.7560    11.7660     2.1840 
   62.3750    62.3720    -0.3410     0.0170    -9.2640    65.1610     8.5640    10.8250     9.4780     2.1860 
   62.5000    62.4970    -0.3460     0.0160    -9.3020    65.1550     7.5450     9.5480     8.2570     2.1730 
   62.6250    62.6210    -0.3500     0.0150    -9.2950    65.7760     6.9540     8.8650     7.9540     2.1490 
   62.7500    62.7460    -0.3540     0.0140    -9.2110    64.8530     6.7080     8.6670     7.9790     2.1320 
   62.8750    62.8710    -0.3590     0.0130    -9.1270    62.7560     6.7330     8.7960     8.1490     2.1220 
   63.0000    62.9960    -0.3630     0.0110    -9.0840    60.0420     6.8810     9.0240     8.2790     2.1160 
   63.1250    63.1210    -0.3680     0.0100    -9.0690    59.4040     7.0000     9.1430     8.2180     2.1130 
   63.2500    63.2460    -0.3730     0.0090    -9.1530    59.6480     7.0910     9.1530     8.0040     2.1120 
   63.3750    63.3710    -0.3770     0.0070    -9.2250    60.5170     7.1370     9.0810     7.8200     2.1060 
   63.5000    63.4960    -0.3820     0.0060    -9.2490    60.9350     7.1540     8.9470     7.8020     2.1000 
   63.6250    63.6210    -0.3870     0.0040    -9.2560    61.3420     7.1830     8.7750     7.8890     2.1000 
   63.7500    63.7460    -0.3910     0.0030    -9.2500    61.4430     7.2130     8.5900     7.9150     2.1120 
   63.8750    63.8710    -0.3960     0.0010    -9.2370    61.0100     7.2420     8.4570     7.8690     2.1230 
   64.0000    63.9950    -0.4010     0.0000    -9.2040    62.1650     7.2810     8.4510     7.8770     2.1280 
   64.1250    64.1200    -0.4060    -0.0020    -9.1960    63.3850     7.3500     8.5600     7.9800     2.1290 
   64.2500    64.2450    -0.4110    -0.0040    -9.1710    63.9950     7.4520     8.7240     8.1030     2.1330 
   64.3750    64.3700    -0.4160    -0.0060    -9.2090    63.5100     7.5770     8.8810     8.1850     2.1360 
   64.5000    64.4950    -0.4210    -0.0070    -9.1760    61.0790     7.6710     8.9530     8.2040     2.1360 
   64.6250    64.6200    -0.4260    -0.0090    -9.1100    60.6520     7.7160     8.9510     8.1650     2.1320 
   64.7500    64.7450    -0.4310    -0.0110    -9.0280    60.1830     7.7040     8.8890     8.1080     2.1270 
   64.8750    64.8700    -0.4360    -0.0130    -8.9200    60.6640     7.6660     8.8060     8.0620     2.1270 
   65.0000    64.9940    -0.4410    -0.0150    -8.8150    59.0080     7.6260     8.7580     8.0240     2.1280 
   65.1250    65.1190    -0.4470    -0.0170    -8.7530    57.8100     7.6250     8.7650     7.9760     2.1290 
   65.2500    65.2440    -0.4520    -0.0190    -8.6470    58.5430     7.6840     8.8600     7.9350     2.1270 
   65.3750    65.3690    -0.4580    -0.0210    -8.5600    60.8720     7.8000     9.0150     7.9340     2.1290 
   65.5000    65.4940    -0.4630    -0.0230    -8.5530    63.0020     7.9020     9.1420     7.9440     2.1350 
   65.6250    65.6190    -0.4690    -0.0250    -8.5420    64.2680     7.8890     9.1270     7.7270     2.1360 
   65.7500    65.7440    -0.4740    -0.0270    -8.5580    64.0970     7.6820     8.8640     7.2570     2.1350 
   65.8750    65.8690    -0.4800    -0.0300    -8.5520    64.3250     7.1810     8.2270     6.6960     2.1330 
   66.0000    65.9930    -0.4860    -0.0320    -8.6000    65.5410     6.4660     7.3410     6.2170     2.1420 
   66.1250    66.1180    -0.4910    -0.0340    -8.7430    69.0660     5.7270     6.4380     5.7150     2.1670 
   66.2500    66.2430    -0.4970    -0.0360    -8.9610    73.8630     5.1240     5.7180     5.1850     2.2070 
   66.3750    66.3680    -0.5030    -0.0390    -9.1750    79.4440     4.8430     5.4150     4.8950     2.2430 
   66.5000    66.4930    -0.5090    -0.0410    -9.2670    83.2940     4.8980     5.5190     4.9980     2.2580 
   66.6250    66.6180    -0.5150    -0.0440    -9.2290    80.9850     5.2160     5.9320     5.3950     2.2380 
   66.7500    66.7420    -0.5210    -0.0460    -9.1870    74.2460     5.7610     6.5950     5.7900     2.1980 
   66.8750    66.8670    -0.5270    -0.0490    -9.2140    67.6030     6.3300     7.2950     6.0290     2.1630 
   67.0000    66.9920    -0.5330    -0.0510    -9.2660    65.4740     6.7720     7.8380     6.1480     2.1540 
   67.1250    67.1170    -0.5390    -0.0540    -9.3290    66.6240     6.8490     7.9300     6.2060     2.1710 
   67.2500    67.2420    -0.5450    -0.0560    -9.4100    68.5370     6.4990     7.4740     6.2050     2.1900 
