~V
VERS. 2.00: Ver 2.00
~W
STRT.M 15.0000:
STOP.M 282.0000:
STEP.M 0.1250:
NULL. -999.2500:
UWI. FD10218:
~C
DEPT.M :
TVD. :
DX. :
DY. :
DEN.GM/CC :
GR.API :
RML.OHMM :
RI. :
RXO.OHMM :
CALI.CM :
SP.MV :
~A
   15.0000    15.0000     0.0000     0.0000  -999.2500  -999.2500  -999.2500  -999.2500  -999.2500  -999.2500  -999.2500 
   15.1250    15.1250     0.0000     0.0000  -999.2500  -999.2500  -999.2500  -999.2500  -999.2500  -999.2500  -999.2500 
   15.2500    15.2500     0.0000     0.0000  -999.2500  -999.2500  -999.2500  -999.2500  -999.2500  -999.2500  -999.2500 
   15.3750    15.3750     0.0000     0.0000  -999.2500  -999.2500  -999.2500  -999.2500  -999.2500  -999.2500  -999.2500 
   15.5000    15.5000     0.0000     0.0000  -999.2500  -999.2500  -999.2500  -999.2500  -999.2500  -999.2500  -999.2500 
   15.6250    15.6250     0.0000     0.0000  -999.2500  -999.2500  -999.2500  -999.2500  -999.2500  -999.2500  -999.2500 
   15.7500    15.7500     0.0000     0.0000  -999.2500  -999.2500  -999.2500  -999.2500  -999.2500  -999.2500  -999.2500 
   15.8750    15.8750     0.0000     0.0000  -999.2500  -999.2500  -999.2500  -999.2500  -999.2500  -999.2500  -999.2500 
   16.0000    16.0000     0.0000     0.0000  -999.2500  -999.2500  -999.2500  -999.2500  -999.2500  -999.2500  -999.2500 
   16.1250    16.1250     0.0000     0.0000  -999.2500  -999.2500  -999.2500  -999.2500  -999.2500  -999.2500  -999.2500 
   16.2500    16.2500     0.0000     0.0000  -999.2500  -999.2500  -999.2500  -999.2500  -999.2500  -999.2500  -999.2500 
   16.3750    16.3750     0.0000     0.0000  -999.2500  -999.2500  -999.2500  -999.2500  -999.2500  -999.2500  -999.2500 
   16.5000    16.5000     0.0000     0.0000  -999.2500  -999.2500  -999.2500  -999.2500  -999.2500  -999.2500  -999.2500 
   16.6250    16.6250     0.0000     0.0000  -999.2500  -999.2500  -999.2500  -999.2500  -999.2500  -999.2500  -999.2500 
   16.7500    16.7500     0.0000     0.0000  -999.2500  -999.2500  -999.2500  -999.2500  -999.2500  -999.2500  -999.2500 
   16.8750    16.8750     0.0000     0.0000  -999.2500  -999.2500  -999.2500  -999.2500  -999.2500  -999.2500  -999.2500 
   17.0000    17.0000     0.0000     0.0000  -999.2500  -999.2500  -999.2500  -999.2500  -999.2500  -999.2500     0.0000 
   17.1250    17.1250     0.0000     0.0000     1.8680  -999.2500  -999.2500  -999.2500  -999.2500  -999.2500     0.0000 
   17.2500    17.2500     0.0000     0.0000     1.8680  -999.2500  -999.2500  -999.2500  -999.2500  -999.2500     0.0000 
   17.3750    17.3750     0.0000     0.0000     1.8500  -999.2500  -999.2500  -999.2500  -999.2500  -999.2500     0.0000 
   17.5000    17.5000     0.0000     0.0000     1.8180  -999.2500  -999.2500  -999.2500  -999.2500  -999.2500     0.0000 
   17.6250    17.6250     0.0000     0.0000     1.7920  -999.2500  -999.2500  -999.2500  -999.2500  -999.2500    22.0930 
   17.7500    17.7500     0.0000     0.0000     1.7780  -999.2500  -999.2500  -999.2500  -999.2500  -999.2500    87.3150 
   17.8750    17.8750     0.0000     0.0000     1.7670  -999.2500  -999.2500  -999.2500  -999.2500  -999.2500    84.5830 
   18.0000    18.0000     0.0000     0.0000     1.7530  -999.2500  -999.2500  -999.2500  -999.2500  -999.2500    81.6490 
   18.1250    18.1250     0.0000     0.0000     1.7360  -999.2500  -999.2500  -999.2500  -999.2500  -999.2500    78.4640 
   18.2500    18.2500     0.0000     0.0000     1.7220  -999.2500  -999.2500  -999.2500  -999.2500  -999.2500    75.2320 
   18.3750    18.3750     0.0000     0.0000     1.7120  -999.2500  -999.2500  -999.2500  -999.2500  -999.2500    72.1160 
   18.5000    18.5000     0.0000     0.0000     1.7070    51.3920    91.1540     0.5450    -0.4500    25.7060    69.2130 
   18.6250    18.6250     0.0000     0.0000     1.7060    51.3920    91.1540     0.5450    -0.4500    25.7060    66.7350 
   18.7500    18.7500     0.0000     0.0000     1.7110    53.4910    89.3950     0.5510    -0.4350    25.6720    64.6850 
   18.8750    18.8750     0.0000     0.0000     1.7220    55.8050    89.6570     0.5480    -0.4210    25.6420    63.0560 
   19.0000    19.0000     0.0000     0.0000     1.7410    55.8070    95.4810     0.5360    -0.4130    25.6050    61.8720 
   19.1250    19.1250     0.0000     0.0000     1.7660    51.2700   115.9590     0.5410    -0.4510    25.7160    61.2580 
   19.2500    19.2500     0.0000     0.0000     1.7930    52.3760   169.1970     0.5260    -0.4430    25.7290    61.1050 
   19.3750    19.3750     0.0000     0.0000     1.8230    53.5520   317.6710     0.5040    -0.4490    25.7330    61.3310 
   19.5000    19.5000     0.0000     0.0000     1.8580    54.5210   583.9060     0.4750    -0.4460    25.7420    61.8750 
   19.6250    19.6250     0.0000     0.0000     1.8950    55.4530   767.0550     0.4280    -0.4180    25.7540    62.6580 
   19.7500    19.7500     0.0000     0.0000     1.9200    54.9600   679.1440     0.3670    -0.3640    25.7540    63.3960 
   19.8750    19.8750     0.0000     0.0000     1.9310    54.2300   397.8500     0.2990    -0.3280    25.7400    63.8130 
   20.0000    20.0000     0.0000     0.0000     1.9400    56.4210   151.5370     0.2370    -0.2830    25.7340    63.6170 
   20.1250    20.1250     0.0000     0.0000     1.9750    60.4280    70.7740     0.1980    -0.1680    25.7340    62.1070 
   20.2500    20.2500     0.0000     0.0000     2.0420    61.1610    53.0500     0.1890    -0.2270    25.6760    58.9820 
   20.3750    20.3750     0.0000     0.0000     2.1210    60.5000    52.6170     0.2240    -0.4330    25.5280    54.1050 
   20.5000    20.5000     0.0000     0.0000     2.1790    62.3130    64.9380     0.3240    -0.5550    25.5330    47.5670 
   20.6250    20.6250     0.0000     0.0000     2.1860    66.0250    92.1160     0.5480    -0.0520    26.2950    39.4990 
   20.7500    20.7500     0.0000     0.0000     2.1560    67.0200   128.8180     0.9260     1.4640    27.0400    30.7250 
   20.8750    20.8750     0.0000     0.0000     2.1080    65.6230   163.7280     1.4780     3.7440    26.9830    21.8100 
   21.0000    21.0000     0.0000     0.0000     2.0510    65.1460   183.0680     2.1570     5.0890    27.4730    13.1760 
   21.1250    21.1250     0.0000     0.0000     1.9790    67.2590   180.7160     2.8030     4.5240    29.7220     5.5400 
   21.2500    21.2500     0.0000     0.0000     1.8960    70.7590   172.2630     3.2750     3.6380    32.4410    -0.7300 
   21.3750    21.3750     0.0000     0.0000     1.8160    72.9690   170.2110     3.5550     3.1820    33.9170    -5.4610 
   21.5000    21.5000     0.0000     0.0000     1.7630    75.0990   178.9350     3.7020     3.2600    34.0530    -8.7520 
   21.6250    21.6250     0.0000     0.0000     1.7740    79.8030   195.3180     3.7840     3.3940    32.8040   -10.7420 
   21.7500    21.7500     0.0000     0.0000     1.8440    85.3680   210.9150     3.8410     3.4650    30.4260   -12.0580 
   21.8750    21.8750     0.0000     0.0000     1.9560    90.1330   221.2190     3.8730     3.2250    28.1620   -12.9900 
   22.0000    22.0000     0.0000     0.0000     2.0770    92.5410   225.2660     3.8750     2.9740    26.8820   -13.6260 
   22.1250    22.1250     0.0000     0.0000     2.1700    93.2620   223.6410     3.8480     3.0510    26.5040   -14.0430 
   22.2500    22.2500     0.0000     0.0000     2.2290    94.7160   218.7020     3.8140     3.0690    26.2440   -14.4180 
   22.3750    22.3750     0.0000     0.0000     2.2600    97.6300   212.1570     3.7900     2.6910    25.8510   -14.7880 
   22.5000    22.5000     0.0000     0.0000     2.2770   101.2590   206.5970     3.7870     2.4750    25.4920   -15.1310 
   22.6250    22.6250     0.0000     0.0000     2.2870   104.4990   205.6540     3.8070     2.5050    25.4720   -15.3670 
   22.7500    22.7500     0.0000     0.0000     2.2930   105.1960   210.5630     3.8510     2.6600    25.6180   -15.4720 
   22.8750    22.8750     0.0000     0.0000     2.2930   101.3080   221.8620     3.9260     2.8950    25.6020   -15.5210 
   23.0000    23.0000     0.0000     0.0000     2.2930    95.6510   238.7930     4.0350     2.9660    25.2500   -15.6110 
   23.1250    23.1250     0.0000     0.0000     2.3000    94.5110   257.8880     4.1590     3.1680    24.8500   -15.7700 
