~V
VERS. 2.00: Ver 2.00
~W
STRT.M 20.0000:
STOP.M 206.0000:
STEP.M 0.1250:
NULL. -999.2500:
UWI. FD10809:
~C
DEPT.M :
TVD. :
DX. :
DY. :
SP.MV :
GR.API :
RI. :
RML.OHMM :
DEN.GM/CC :
RXO.OHMM :
~A
# ...
  147.7500   134.6060     3.5740    47.4770   -10.9940    52.2670    19.1910    21.2490     2.4230    16.9050 
  147.8750   134.7060     3.5710    47.5530   -11.1980    52.8560    19.4200    21.4820     2.4160    17.3460 
  148.0000   134.8050     3.5690    47.6280   -11.3420    54.6180    19.6120    21.6570     2.4070    17.2700 
  148.1250   134.9050     3.5670    47.7030   -11.4240    56.0190    19.6120    21.6390     2.4030    17.6250 
  148.2500   135.0050     3.5640    47.7780   -11.4590    56.7420    19.3810    21.4160     2.4060    17.9450 
  148.3750   135.1050     3.5620    47.8530   -11.4130    56.3940    19.0880    21.1500     2.4130    17.1820 
  148.5000   135.2050     3.5590    47.9280   -11.3810    56.4720    18.9370    21.0520     2.4210    17.0320 
  148.6250   135.3050     3.5560    48.0030   -11.2820    55.0860    19.0590    21.2720     2.4220    17.4920 
  148.7500   135.4050     3.5540    48.0780   -11.0700    53.9070    19.5600    21.8920     2.4180    17.2940 
  148.8750   135.5040     3.5510    48.1540   -10.7320    52.2060    20.3080    22.7440     2.4130    17.8170 
  149.0000   135.6040     3.5480    48.2290   -10.3780    52.5430    20.9900    23.5460     2.4150    19.6900 
  149.1250   135.7040     3.5460    48.3040   -10.0730    52.9260    21.4160    24.0410     2.4200    22.2910 
  149.2500   135.8040     3.5430    48.3790   -10.0010    53.7540    21.3870    24.0420     2.4210    25.2410 
  149.3750   135.9040     3.5410    48.4540   -10.1220    54.1180    20.9410    23.6360     2.4180    25.3970 
  149.5000   136.0040     3.5380    48.5290   -10.3940    56.0120    20.3310    23.0550     2.4130    21.1580 
  149.6250   136.1030     3.5350    48.6050   -10.7410    58.2970    19.8060    22.5520     2.4120    18.2070 
  149.7500   136.2030     3.5330    48.6800   -10.9420    59.5290    19.4440    22.2500     2.4110    18.9420 
  149.8750   136.3030     3.5300    48.7550   -11.0720    58.9010    19.2930    22.1280     2.4090    19.1850 
  150.0000   136.4030     3.5280    48.8300   -11.0770    57.0350    19.2170    22.1060     2.4090    18.4230 
  150.1250   136.5030     3.5250    48.9060   -11.0270    56.7890    19.1800    22.1200     2.4130    18.2140 
  150.2500   136.6020     3.5230    48.9810   -10.9160    56.2140    19.1580    22.1630     2.4180    17.7290 
  150.3750   136.7020     3.5200    49.0560   -10.7710    56.7750    19.1650    22.2160     2.4210    17.4010 
  150.5000   136.8020     3.5170    49.1320   -10.5400    58.0130    19.1140    22.2160     2.4180    17.8300 
  150.6250   136.9010     3.5150    49.2070   -10.2880    60.8310    18.9840    22.0980     2.4120    18.9420 
  150.7500   137.0010     3.5120    49.2820   -10.1350    62.4780    18.6670    21.7820     2.4060    20.4900 
  150.8750   137.1010     3.5100    49.3580   -10.0530    61.5140    18.1800    21.3120     2.4070    21.3750 
  151.0000   137.2000     3.5070    49.4330   -10.0930    58.4910    17.7050    20.8110     2.4080    20.5980 
  151.1250   137.3000     3.5050    49.5090   -10.1500    55.9000    17.2770    20.3880     2.4110    18.0720 
  151.2500   137.4000     3.5020    49.5840   -10.2380    54.6020    17.0580    20.1370     2.4130    16.1910 
  151.3750   137.4990     3.5000    49.6600   -10.2270    54.7520    16.9590    20.0410     2.4150    15.2230 
  151.5000   137.5990     3.4970    49.7350   -10.1210    56.0240    16.9570    20.0630     2.4110    14.4760 
  151.6250   137.6990     3.4950    49.8110    -9.9290    57.7990    17.0120    20.1790     2.4110    14.9630 
  151.7500   137.7980     3.4920    49.8860    -9.7210    58.3380    17.2080    20.3140     2.4180    15.5460 
  151.8750   137.8980     3.4900    49.9610    -9.5160    56.8970    17.1840    20.2420     2.4270    15.4030 
  152.0000   137.9980     3.4880    50.0370    -9.3850    53.9240    16.8250    19.7600     2.4310    15.3930 
  152.1250   138.0970     3.4850    50.1120    -9.3330    51.8280    16.0240    18.7770     2.4310    16.2020 
  152.2500   138.1970     3.4830    50.1870    -9.4160    51.8620    14.6940    17.2570     2.4280    17.8700 
  152.3750   138.2970     3.4800    50.2630    -9.5900    52.5780    13.1130    15.4800     2.4250    17.2200 
  152.5000   138.3970     3.4780    50.3380    -9.7940    52.2920    11.6300    13.8230     2.4220    13.4640 
  152.6250   138.4960     3.4760    50.4130    -9.9840    50.8060    10.5370    12.6060     2.4210    10.6900 
  152.7500   138.5960     3.4730    50.4880   -10.1020    49.4270     9.9770    12.0470     2.4230     8.9730 
  152.8750   138.6960     3.4710    50.5640   -10.2180    49.1540     9.9320    12.0170     2.4310     7.8230 
  153.0000   138.7960     3.4690    50.6390   -10.1960    48.6960    10.0850    12.2680     2.4380     9.4380 
  153.1250   138.8960     3.4660    50.7140   -10.0950    47.7080    10.3150    12.5490     2.4390    11.8800 
  153.2500   138.9950     3.4640    50.7890   -10.0630    45.3100    10.4600    12.7330     2.4360    11.8250 
  153.3750   139.0950     3.4620    50.8640   -10.0790    43.7230    10.5600    12.8560     2.4340    10.3130 
  153.5000   139.1950     3.4590    50.9400    -9.9840    43.1100    10.7060    13.0750     2.4350     9.0780 
  153.6250   139.2950     3.4570    51.0150    -9.8680    44.3710    11.0550    13.5580     2.4380     8.6130 
  153.7500   139.3950     3.4540    51.0900    -9.9210    46.7020    11.7100    14.4120     2.4440     8.9770 
  153.8750   139.4940     3.4520    51.1650    -9.9060    49.2640    12.5930    15.5250     2.4510    10.5200 
  154.0000   139.5940     3.4500    51.2410    -9.8280    51.0860    13.5130    16.6670     2.4520    13.1920 
  154.1250   139.6940     3.4470    51.3160    -9.7560    50.6150    14.2050    17.5640     2.4450    14.7820 
  154.2500   139.7940     3.4450    51.3910    -9.7340    50.1610    14.5290    18.0270     2.4390    14.4770 
  154.3750   139.8930     3.4420    51.4670    -9.6210    49.7290    14.5260    18.1110     2.4380    13.9180 
  154.5000   139.9930     3.4400    51.5420    -9.4680    51.2380    14.3340    17.9630     2.4430    13.7720 
  154.6250   140.0930     3.4380    51.6170    -9.2440    51.8030    14.1320    17.7850     2.4440    13.6380 
  154.7500   140.1930     3.4350    51.6920    -8.9310    51.6440    14.0080    17.6800     2.4400    13.4550 
  154.8750   140.2920     3.4330    51.7680    -8.5420    50.4100    13.9520    17.6610     2.4310    13.5800 
  155.0000   140.3920     3.4300    51.8430    -8.0950    49.8080    13.9560    17.7020     2.4250    14.0070 
  155.1250   140.4920     3.4270    51.9180    -7.6880    49.4790    13.9780    17.7470     2.4240    13.8180 
  155.2500   140.5920     3.4240    51.9940    -7.2690    49.5960    13.9510    17.7390     2.4260    12.9140 
  155.3750   140.6910     3.4220    52.0690    -6.9490    50.5680    13.8780    17.6770     2.4240    12.4030 
  155.5000   140.7910     3.4190    52.1440    -6.7180    51.9710    13.7980    17.5470     2.4180    12.5130 
  155.6250   140.8910     3.4160    52.2190    -6.6670    52.9490    13.6130    17.3010     2.4130    12.4550 
  155.7500   140.9910     3.4140    52.2950    -6.7640    52.5910    13.3330    16.9130     2.4160    12.0610 
  155.8750   141.0900     3.4110    52.3700    -6.8610    52.2460    12.9660    16.4610     2.4150    11.9430 
  156.0000   141.1900     3.4080    52.4450    -7.0930    52.4270    12.7040    16.0990     2.4100    11.8260 
  156.1250   141.2900     3.4060    52.5200    -7.5690    53.1020    12.5830    15.9480     2.4100    11.7630 
  156.2500   141.3900     3.4030    52.5960    -8.3610    52.7530    12.7230    16.0750     2.4260    12.7640 
  156.3750   141.4900     3.4000    52.6710    -9.3390    52.4160    13.0010    16.3990     2.4480    13.9220 
  156.5000   141.5890     3.3970    52.7460   -10.2380    51.9720    13.3690    16.8010     2.4610    14.3200 
  156.6250   141.6890     3.3940    52.8210   -10.9640    51.4170    13.6840    17.1160     2.4590    14.4690 
  156.7500   141.7890     3.3920    52.8960   -11.6690    49.4300    13.8270    17.1980     2.4510    14.4390 
