~V
VERS. 2.00: Ver 2.00
~W
STRT.M 44.0000:
STOP.M 206.0000:
STEP.M 0.1250:
NULL. -999.2500:
UWI. FD10808:
~C
DEPT.M :
TVD. :
DX. :
DY. :
SP.MV :
GR.API :
RI. :
RML.OHMM :
RXO.OHMM :
DEN.GM/CC :
~A
# ...
   89.6250    89.0320    -1.5870     5.6330   -14.3530    60.0840     8.6880    10.0350    27.8110     2.1100 
   89.7500    89.1510    -1.6010     5.6680   -14.7640    61.4470     7.6850     8.9350    11.0780     2.1000 
   89.8750    89.2710    -1.6140     5.7020   -15.1540    62.0710     6.8580     8.0420     7.7690     2.0900 
   90.0000    89.3900    -1.6270     5.7370   -15.4700    62.2840     6.2850     7.4600     7.7640     2.0850 
   90.1250    89.5090    -1.6410     5.7720   -15.5890    61.0520     6.0260     7.2100     7.9970     2.0830 
   90.2500    89.6280    -1.6550     5.8070   -15.5040    61.0100     5.9380     7.1650     8.2200     2.0820 
   90.3750    89.7480    -1.6680     5.8420   -15.2130    61.0660     5.9590     7.2100     8.2600     2.0830 
   90.5000    89.8670    -1.6820     5.8770   -14.8710    62.9740     5.9920     7.2530     8.0250     2.0850 
   90.6250    89.9860    -1.6960     5.9120   -14.3510    64.6610     6.0030     7.2710     7.7430     2.0860 
   90.7500    90.1050    -1.7100     5.9470   -13.8100    67.8550     6.0120     7.2810     7.6480     2.0860 
   90.8750    90.2240    -1.7240     5.9820   -13.3270    69.5830     6.0260     7.2900     7.8180     2.0850 
   91.0000    90.3430    -1.7380     6.0180   -12.9490    70.9150     6.0310     7.2940     8.1710     2.0870 
   91.1250    90.4630    -1.7520     6.0530   -12.6700    69.7090     6.0370     7.2920     8.6230     2.0930 
   91.2500    90.5820    -1.7670     6.0880   -12.5430    68.8730     6.0290     7.2780     8.9420     2.0980 
   91.3750    90.7010    -1.7810     6.1230   -12.5090    68.0490     6.0030     7.2480     8.7960     2.1030 
   91.5000    90.8200    -1.7950     6.1590   -12.5540    67.8490     5.9610     7.2140     8.4890     2.1060 
   91.6250    90.9390    -1.8100     6.1940   -12.6100    68.2820     5.9260     7.1890     8.4600     2.1060 
   91.7500    91.0580    -1.8240     6.2290   -12.6150    68.7630     5.8900     7.1440     8.5050     2.1030 
   91.8750    91.1770    -1.8390     6.2650   -12.5950    68.0620     5.7780     7.0120     8.4820     2.1010 
   92.0000    91.2960    -1.8540     6.3000   -12.4800    66.3980     5.5780     6.7780     8.7290     2.1040 
   92.1250    91.4150    -1.8690     6.3350   -12.3960    66.8680     5.3460     6.4910     9.1030     2.1130 
   92.2500    91.5340    -1.8830     6.3710   -12.3180    70.0960     5.1340     6.2320     8.7390     2.1240 
   92.3750    91.6530    -1.8980     6.4060   -12.3420    72.1180     5.0180     6.0820     7.9780     2.1230 
   92.5000    91.7720    -1.9130     6.4420   -12.5010    71.3350     4.9970     6.0600     8.0900     2.1090 
   92.6250    91.8900    -1.9290     6.4770   -12.7630    67.1740     5.0780     6.1500     8.4790     2.0870 
   92.7500    92.0090    -1.9440     6.5130   -12.8110    64.7640     5.2030     6.2880     8.2810     2.0710 
   92.8750    92.1280    -1.9590     6.5480   -12.5430    63.4520     5.3190     6.4040     8.0180     2.0630 
   93.0000    92.2470    -1.9740     6.5840   -12.0480    64.3630     5.3810     6.4400     7.9730     2.0630 
   93.1250    92.3660    -1.9890     6.6200   -11.2130    66.2490     5.3150     6.3550     7.9230     2.0720 
   93.2500    92.4850    -2.0050     6.6560   -10.1260    69.0270     5.1670     6.1650     7.5990     2.0890 
   93.3750    92.6030    -2.0200     6.6910    -8.7140    70.5330     4.9070     5.8490     7.1940     2.1120 
   93.5000    92.7220    -2.0360     6.7270    -7.0850    71.6620     4.5420     5.4250     6.8140     2.1360 
   93.6250    92.8410    -2.0510     6.7630    -5.4120    74.9910     4.1570     4.9650     5.8390     2.1520 
   93.7500    92.9600    -2.0670     6.7990    -4.0780    79.6610     3.8290     4.5850     4.8150     2.1670 
   93.8750    93.0780    -2.0820     6.8350    -3.4000    84.8120     3.6800     4.4050     4.6560     2.1820 
   94.0000    93.1970    -2.0980     6.8700    -3.1290    87.1920     3.7100     4.4700     4.7160     2.1920 
   94.1250    93.3160    -2.1140     6.9060    -3.1290    87.2250     3.9750     4.8040     4.7610     2.1860 
   94.2500    93.4340    -2.1300     6.9420    -3.4110    85.1990     4.3910     5.2870     5.0680     2.1690 
   94.3750    93.5530    -2.1460     6.9780    -3.8010    84.1210     4.7550     5.7000     5.5930     2.1530 
   94.5000    93.6720    -2.1620     7.0140    -3.8420    83.8610     4.8990     5.8390     6.2930     2.1490 
   94.6250    93.7900    -2.1780     7.0500    -3.5520    84.7340     4.7090     5.5860     6.6780     2.1630 
   94.7500    93.9090    -2.1940     7.0860    -2.9610    85.6140     4.2450     5.0540     5.8880     2.1950 
   94.8750    94.0270    -2.2100     7.1230    -2.3250    88.2780     3.7510     4.4660     4.2970     2.2260 
   95.0000    94.1460    -2.2260     7.1590    -2.0700    90.2800     3.3650     4.0250     3.4330     2.2380 
   95.1250    94.2650    -2.2420     7.1950    -2.4920    91.3930     3.1980     3.8470     3.3720     2.2220 
   95.2500    94.3830    -2.2590     7.2310    -3.3930    89.8110     3.2410     3.9180     3.5730     2.1990 
   95.3750    94.5020    -2.2750     7.2670    -4.5730    87.5540     3.4690     4.1940     3.9700     2.1760 
   95.5000    94.6200    -2.2910     7.3040    -5.8180    83.4520     3.7840     4.5780     4.6340     2.1630 
   95.6250    94.7390    -2.3080     7.3400    -7.1220    80.8180     4.1550     5.0110     5.5700     2.1570 
   95.7500    94.8570    -2.3250     7.3760    -8.4900    77.1430     4.5200     5.4220     6.1420     2.1570 
   95.8750    94.9750    -2.3410     7.4130    -9.4980    74.9490     4.8210     5.7530     6.2380     2.1530 
   96.0000    95.0940    -2.3580     7.4490   -10.0540    72.0030     5.0440     5.9790     6.2840     2.1450 
   96.1250    95.2120    -2.3750     7.4850   -10.2440    71.2220     5.1320     6.0550     6.3790     2.1340 
   96.2500    95.3310    -2.3920     7.5220   -10.1260    72.4890     5.0770     5.9630     6.4360     2.1290 
   96.3750    95.4490    -2.4090     7.5580    -9.5950    75.2980     4.8700     5.6960     6.5330     2.1420 
   96.5000    95.5670    -2.4260     7.5950    -8.7330    79.4240     4.5690     5.3370     6.5390     2.1680 
   96.6250    95.6860    -2.4430     7.6310    -7.7490    82.9150     4.3050     5.0180     5.8660     2.1950 
   96.7500    95.8040    -2.4600     7.6680    -7.0610    85.8860     4.1530     4.8640     5.0320     2.2020 
   96.8750    95.9220    -2.4770     7.7040    -6.8290    86.1610     4.2180     4.9490     5.7740     2.1930 
   97.0000    96.0410    -2.4940     7.7410    -6.9840    85.2140     4.4330     5.1930     7.7650     2.1760 
   97.1250    96.1590    -2.5120     7.7770    -7.4000    83.1650     4.6890     5.4570     8.2860     2.1620 
   97.2500    96.2770    -2.5290     7.8140    -7.7440    82.5810     4.8560     5.5960     7.2550     2.1560 
   97.3750    96.3950    -2.5460     7.8500    -7.8320    83.1730     4.8170     5.5210     6.6900     2.1590 
   97.5000    96.5140    -2.5640     7.8870    -7.4730    85.5910     4.6290     5.2970     6.3040     2.1630 
   97.6250    96.6320    -2.5810     7.9230    -6.8940    87.6000     4.3780     5.0170     5.3940     2.1560 
   97.7500    96.7500    -2.5990     7.9600    -6.3960    89.1820     4.1410     4.7420     4.5440     2.1510 
   97.8750    96.8680    -2.6170     7.9970    -5.9140    89.2720     3.9140     4.5210     4.3430     2.1550 
   98.0000    96.9870    -2.6340     8.0330    -5.5310    90.0440     3.8270     4.4350     4.5790     2.1760 
   98.1250    97.1050    -2.6520     8.0700    -5.2860    91.9300     3.9320     4.5300     4.4990     2.2030 
   98.2500    97.2230    -2.6700     8.1060    -5.1450    93.9440     4.1290     4.7620     5.5820     2.2280 
   98.3750    97.3410    -2.6880     8.1430    -5.2270    94.1500     4.4460     5.1060    10.1390     2.2350 
   98.5000    97.4590    -2.7060     8.1800    -5.5940    91.6370     4.8250     5.4930    15.2050     2.2300 
   98.6250    97.5770    -2.7240     8.2160    -5.9210    87.5860     5.2020     5.8650    14.1430     2.2100 
