~V
VERS. 2.00: Ver 2.00
~W
STRT.M 15.0000:
STOP.M 282.0000:
STEP.M 0.1250:
NULL. -999.2500:
UWI. FD10218:
~C
DEPT.M :
TVD. :
DX. :
DY. :
DEN.GM/CC :
GR.API :
RML.OHMM :
RI. :
RXO.OHMM :
CALI.CM :
SP.MV :
~A
# ...
  114.0000   113.8850     1.4370     1.6580     2.1680    80.1390     6.8820     5.2060     5.4570    24.9220   -10.8880 
  114.1250   114.0080     1.4490     1.6690     2.2020    80.6460     6.8670     5.1490     5.3540    24.8450   -10.6660 
  114.2500   114.1320     1.4620     1.6800     2.2260    79.6380     6.9010     5.1280     5.2930    24.7610   -10.4530 
  114.3750   114.2560     1.4740     1.6910     2.2330    82.8520     6.9820     5.1510     5.3150    24.7300   -10.3140 
  114.5000   114.3800     1.4860     1.7020     2.2210    86.6530     7.0900     5.2090     5.4450    24.7260   -10.3120 
  114.6250   114.5040     1.4980     1.7120     2.2010    84.0300     7.1810     5.2730     5.7220    24.6320   -10.4060 
  114.7500   114.6280     1.5110     1.7230     2.1840    79.9750     7.2250     5.3080     5.8900    24.4170   -10.4850 
  114.8750   114.7520     1.5230     1.7340     2.1730    79.0370     7.2300     5.2990     5.7740    24.2520   -10.6090 
  115.0000   114.8760     1.5350     1.7450     2.1680    78.5630     7.2550     5.2700     5.8630    24.4030   -10.7490 
  115.1250   115.0000     1.5480     1.7560     2.1670    74.1260     7.4570     5.3110     6.5760    24.8930   -10.8670 
  115.2500   115.1230     1.5630     1.7690     2.1740    70.3650     7.9470     5.5250     6.9500    25.4630   -10.9550 
  115.3750   115.2460     1.5790     1.7830     2.1950    71.6400     8.7850     5.9980     7.1200    25.8120   -10.9790 
  115.5000   115.3700     1.5950     1.7960     2.2370    74.7830     9.9110     6.7690     7.4210    25.6680   -10.9110 
  115.6250   115.4930     1.6110     1.8090     2.3010    74.6510    11.0660     7.7760     8.2320    24.9160   -10.9470 
  115.7500   115.6160     1.6260     1.8230     2.3640    71.9920    11.8560     8.6960     9.7210    23.9540   -11.1510 
  115.8750   115.7390     1.6420     1.8360     2.4030    71.5200    12.0020     9.1750    10.5250    23.1200   -11.4240 
  116.0000   115.8630     1.6580     1.8500     2.4010    75.0180    11.4580     9.0040     9.7140    22.5860   -11.7570 
  116.1250   115.9860     1.6730     1.8630     2.3540    78.8290    10.4370     8.2610     8.1360    22.3780   -12.0390 
  116.2500   116.1090     1.6890     1.8760     2.2890    81.2790     9.4240     7.4060     7.3690    22.3460   -12.2540 
  116.3750   116.2330     1.7050     1.8900     2.2290    83.0580     8.6840     6.6980     6.6710    22.4290   -12.5230 
  116.5000   116.3560     1.7210     1.9030     2.1890    85.5970     8.3000     6.2480     6.3330    22.5940   -12.8600 
  116.6250   116.4790     1.7360     1.9160     2.1740    88.4240     8.2460     6.0890     6.3590    22.7580   -13.0440 
  116.7500   116.6020     1.7520     1.9300     2.1720    88.9900     8.3350     6.1010     6.4850    22.7680   -13.0870 
  116.8750   116.7260     1.7680     1.9430     2.1770    86.3550     8.4630     6.2020     6.6120    22.5860   -13.0530 
  117.0000   116.8490     1.7830     1.9560     2.1840    83.0900     8.5670     6.3280     6.6410    22.3470   -12.8820 
  117.1250   116.9720     1.7990     1.9700     2.1880    82.8960     8.6200     6.4390     6.5370    22.1490   -12.6770 
  117.2500   117.0960     1.8150     1.9830     2.1900    82.3500     8.6380     6.5260     6.4550    22.1150   -12.5450 
  117.3750   117.2190     1.8310     1.9970     2.1910    79.4230     8.6280     6.5840     6.4880    22.2740   -12.4080 
  117.5000   117.3420     1.8460     2.0100     2.1950    77.4770     8.5970     6.6110     6.5200    22.5210   -12.2750 
  117.6250   117.4650     1.8620     2.0230     2.2020    79.1990     8.5550     6.6050     6.4350    22.7460   -12.2620 
  117.7500   117.5890     1.8780     2.0370     2.2110    81.2670     8.5290     6.5860     6.2000    22.8180   -12.2950 
  117.8750   117.7120     1.8930     2.0500     2.2160    82.4140     8.5450     6.5820     6.0080    22.7160   -12.4290 
  118.0000   117.8350     1.9090     2.0630     2.2150    84.1310     8.6230     6.6190     5.9720    22.4900   -12.7550 
  118.1250   117.9580     1.9250     2.0770     2.2050    84.3580     8.7730     6.7250     6.2540    22.2950   -13.1920 
  118.2500   118.0820     1.9410     2.0900     2.1910    83.4990     8.9650     6.8830     6.8740    22.1970   -13.6880 
  118.3750   118.2050     1.9560     2.1030     2.1800    82.7710     9.1690     7.0670     7.3920    22.2070   -14.2190 
  118.5000   118.3280     1.9720     2.1170     2.1730    82.0970     9.3510     7.2430     7.4460    22.3330   -14.7240 
  118.6250   118.4520     1.9880     2.1300     2.1730    83.5340     9.4680     7.3710     7.3460    22.4960   -15.1900 
  118.7500   118.5750     2.0030     2.1440     2.1740    87.3310     9.5040     7.4400     7.6120    22.5790   -15.6440 
  118.8750   118.6980     2.0190     2.1570     2.1770    90.9170     9.4490     7.4470     8.3020    22.4700   -16.0340 
  119.0000   118.8210     2.0350     2.1700     2.1790    90.7320     9.3120     7.4010     8.5130    22.1900   -16.3630 
  119.1250   118.9450     2.0510     2.1840     2.1790    87.7850     9.1220     7.3220     8.1640    21.9300   -16.6410 
  119.2500   119.0680     2.0660     2.1970     2.1750    84.1300     8.9290     7.2430     7.8260    21.7280   -16.7990 
  119.3750   119.1910     2.0820     2.2100     2.1670    79.7490     8.7600     7.1760     7.6740    21.6650   -16.8930 
  119.5000   119.3150     2.0980     2.2240     2.1570    77.8110     8.6200     7.1200     7.6270    21.8190   -16.9040 
  119.6250   119.4380     2.1130     2.2370     2.1510    79.5280     8.5030     7.0640     7.8790    22.0590   -16.7540 
  119.7500   119.5610     2.1290     2.2500     2.1500    80.7360     8.3960     7.0040     8.3060    22.2140   -16.5400 
  119.8750   119.6840     2.1450     2.2640     2.1540    79.4860     8.3030     6.9480     8.5010    22.2020   -16.2890 
  120.0000   119.8080     2.1610     2.2770     2.1590    78.9620     8.2310     6.9160     8.0080    22.0030   -15.9500 
  120.1250   119.9310     2.1760     2.2910     2.1640    79.8710     8.1740     6.9180     7.5670    21.6020   -15.5390 
  120.2500   120.0540     2.1920     2.3040     2.1700    80.1680     8.1050     6.9220     7.3820    21.3050   -15.1610 
  120.3750   120.1780     2.2080     2.3170     2.1770    81.3320     7.9980     6.8880     7.4460    21.1970   -14.7650 
  120.5000   120.3010     2.2240     2.3310     2.1830    82.4040     7.8450     6.7880     7.4080    21.2380   -14.3970 
  120.6250   120.4240     2.2390     2.3440     2.1860    80.6830     7.6660     6.6180     6.7870    21.3850   -14.1340 
  120.7500   120.5470     2.2550     2.3570     2.1850    79.6870     7.5110     6.4360     6.1710    21.4920   -13.8650 
  120.8750   120.6710     2.2710     2.3710     2.1820    81.9230     7.4200     6.2990     5.8120    21.4810   -13.5500 
  121.0000   120.7940     2.2860     2.3840     2.1790    84.6470     7.4000     6.2440     5.7200    21.3200   -13.2590 
  121.1250   120.9170     2.3020     2.3970     2.1760    82.6980     7.4290     6.2720     5.8810    21.1140   -13.0040 
  121.2500   121.0400     2.3180     2.4110     2.1720    81.3400     7.4530     6.3260     6.0710    21.0150   -12.7390 
  121.3750   121.1640     2.3340     2.4240     2.1700    82.1040     7.4550     6.3680     6.2370    20.9810   -12.5340 
  121.5000   121.2870     2.3490     2.4380     2.1720    83.3880     7.4540     6.3910     6.3240    20.9620   -12.4390 
  121.6250   121.4100     2.3650     2.4510     2.1780    86.7340     7.5130     6.4410     6.0500    20.9570   -12.5000 
  121.7500   121.5340     2.3810     2.4640     2.1830    91.4890     7.6710     6.5780     5.7030    20.9520   -12.8040 
  121.8750   121.6570     2.3960     2.4780     2.1840    92.8600     7.9260     6.8330     5.8600    20.9050   -13.3380 
  122.0000   121.7800     2.4120     2.4910     2.1820    87.1520     8.2260     7.1860     6.4800    20.8120   -13.9750 
  122.1250   121.9030     2.4280     2.5040     2.1810    76.9210     8.4760     7.5560     6.5910    20.7630   -14.7160 
