~V
VERS. 2.00: Ver 2.00
~W
STRT.M 43.0000:
STOP.M 257.0000:
STEP.M 0.1250:
NULL. -999.2500:
UWI. FD10872:
~C
DEPT.M :
TVD. :
DX. :
DY. :
SP.MV :
GR.API :
RI. :
RML.OHMM :
RXO.OHMM :
DEN.GM/CC :
~A
# ...
   97.7500    97.2130     5.0070    -4.2420    12.1110    53.6430    23.1340    28.7460    22.1250     2.0910 
   97.8750    97.3340     5.0310    -4.2600    12.2310    55.4740    22.7700    28.3630    19.9350     2.0880 
   98.0000    97.4550     5.0560    -4.2790    12.5070    59.1930    22.6690    28.3130    18.5820     2.0870 
   98.1250    97.5760     5.0800    -4.2970    12.9810    61.4110    22.7270    28.4530    20.3830     2.0870 
   98.2500    97.6980     5.1050    -4.3150    13.5510    61.6550    22.8300    28.6540    23.4410     2.0890 
   98.3750    97.8190     5.1300    -4.3330    14.0740    60.4140    22.9270    28.8120    24.4670     2.0920 
   98.5000    97.9400     5.1540    -4.3520    14.4360    58.5470    22.9770    28.8870    22.5570     2.0960 
   98.6250    98.0610     5.1790    -4.3700    14.5450    57.2870    22.9910    28.9050    19.3320     2.0990 
   98.7500    98.1820     5.2040    -4.3880    14.4010    56.5310    23.0760    29.0130    17.5300     2.0980 
   98.8750    98.3030     5.2290    -4.4070    14.0040    56.1910    23.3580    29.3650    17.6650     2.0950 
   99.0000    98.4240     5.2540    -4.4250    13.3990    56.2830    23.7320    29.7970    19.5980     2.0900 
   99.1250    98.5450     5.2790    -4.4440    12.5640    57.4610    24.0260    30.0950    23.0410     2.0850 
   99.2500    98.6660     5.3040    -4.4620    11.5280    58.0670    24.1750    30.2100    25.7090     2.0800 
   99.3750    98.7870     5.3290    -4.4810    10.2860    57.9600    23.8520    29.6830    26.0330     2.0770 
   99.5000    98.9090     5.3540    -4.5000     8.8880    58.1220    22.8530    28.2530    23.8140     2.0750 
   99.6250    99.0300     5.3790    -4.5180     7.3830    60.3200    21.1030    25.8360    22.1680     2.0750 
   99.7500    99.1510     5.4050    -4.5370     5.8000    62.7770    18.9690    22.9850    23.6500     2.0750 
   99.8750    99.2720     5.4300    -4.5560     4.1710    64.5150    17.2470    20.8000    22.4900     2.0760 
  100.0000    99.3920     5.4550    -4.5750     2.5520    64.6570    16.4640    19.9040    17.3410     2.0800 
  100.1250    99.5130     5.4800    -4.5930     1.0270    63.5250    16.3320    19.8980    14.5000     2.0870 
  100.2500    99.6340     5.5050    -4.6120    -0.3750    62.1060    16.0830    19.6490    17.6290     2.0970 
  100.3750    99.7550     5.5310    -4.6310    -1.7360    61.5230    14.7730    17.9390    27.1560     2.1120 
  100.5000    99.8760     5.5560    -4.6500    -3.2020    63.5380    12.4270    14.8840    31.4780     2.1330 
  100.6250    99.9970     5.5810    -4.6690    -4.9190    68.9320     9.7430    11.3830    21.3100     2.1600 
  100.7500   100.1180     5.6070    -4.6880    -6.8540    76.7900     7.3530     8.3920     9.9330     2.1900 
  100.8750   100.2390     5.6320    -4.7070    -8.7990    83.8490     5.9430     6.7290     6.2840     2.2160 
  101.0000   100.3600     5.6580    -4.7260   -10.4710    86.7680     5.2260     5.9600     5.5330     2.2350 
  101.1250   100.4810     5.6830    -4.7440   -11.6010    87.1650     5.0390     5.8660     5.6150     2.2430 
  101.2500   100.6020     5.7090    -4.7630   -12.1550    86.5230     5.0820     5.9960     5.9820     2.2440 
  101.3750   100.7230     5.7340    -4.7820   -12.2020    85.8140     5.1010     6.0270     6.0350     2.2430 
  101.5000   100.8430     5.7600    -4.8020   -12.0000    86.6110     4.9500     5.8030     5.7190     2.2450 
  101.6250   100.9640     5.7860    -4.8210   -11.7480    90.7020     4.6880     5.4220     5.1690     2.2530 
  101.7500   101.0850     5.8120    -4.8400   -11.5770    95.2960     4.4680     5.1240     4.9750     2.2640 
  101.8750   101.2060     5.8370    -4.8590   -11.5310    96.1100     4.4420     5.0750     4.9150     2.2730 
  102.0000   101.3270     5.8630    -4.8790   -11.5510    95.3490     4.7340     5.4290     4.7480     2.2770 
  102.1250   101.4470     5.8890    -4.8990   -11.6040    93.4770     5.2930     6.1060     5.3410     2.2770 
  102.2500   101.5680     5.9150    -4.9180   -11.6930    89.8860     5.9640     6.9030     6.8070     2.2790 
  102.3750   101.6890     5.9400    -4.9380   -11.8460    85.3600     6.5360     7.5990     8.8910     2.2860 
  102.5000   101.8090     5.9660    -4.9580   -12.0880    82.3080     6.8950     8.0430     9.9340     2.2930 
  102.6250   101.9300     5.9920    -4.9780   -12.4190    80.4250     6.9370     8.1100     8.3800     2.2920 
  102.7500   102.0510     6.0180    -4.9980   -12.7980    79.9930     6.6890     7.8440     7.0540     2.2790 
  102.8750   102.1710     6.0450    -5.0180   -13.1810    82.4800     6.2920     7.3790     7.5210     2.2570 
  103.0000   102.2920     6.0710    -5.0380   -13.5260    86.1300     5.8550     6.8810     7.9830     2.2370 
  103.1250   102.4120     6.0970    -5.0580   -13.7610    88.5760     5.5720     6.5630     7.2380     2.2280 
  103.2500   102.5330     6.1230    -5.0780   -13.8100    89.8710     5.4540     6.4630     5.9720     2.2280 
  103.3750   102.6530     6.1500    -5.0980   -13.6060    90.1830     5.5040     6.5990     5.6330     2.2340 
  103.5000   102.7740     6.1760    -5.1180   -13.1930    89.7700     5.7060     6.9030     6.2600     2.2390 
  103.6250   102.8940     6.2030    -5.1390   -12.6860    90.2910     5.9360     7.2130     7.0350     2.2420 
  103.7500   103.0150     6.2290    -5.1590   -12.2550    90.8400     6.1300     7.4090     6.8540     2.2470 
  103.8750   103.1350     6.2550    -5.1800   -12.0190    90.9800     6.2710     7.5090     7.8120     2.2570 
  104.0000   103.2560     6.2820    -5.2010   -11.9490    89.7800     6.4440     7.6550    10.1460     2.2690 
  104.1250   103.3760     6.3080    -5.2210   -11.9260    86.5730     6.6550     7.8330     9.4090     2.2760 
  104.2500   103.4960     6.3350    -5.2420   -11.8150    81.4350     6.8310     8.0080     7.8320     2.2710 
  104.3750   103.6170     6.3620    -5.2630   -11.5320    79.0360     7.0110     8.1930     8.2390     2.2540 
  104.5000   103.7370     6.3880    -5.2840   -11.1010    80.3880     7.1830     8.3990     8.1150     2.2310 
  104.6250   103.8570     6.4150    -5.3040   -10.5740    82.0330     7.4980     8.8160     7.1350     2.2100 
  104.7500   103.9780     6.4420    -5.3250    -9.9970    81.4300     7.9320     9.3810     6.8290     2.1950 
  104.8750   104.0980     6.4690    -5.3460    -9.3780    79.2710     8.3850    10.0030     8.7560     2.1840 
  105.0000   104.2180     6.4960    -5.3670    -8.7430    76.6320     8.8140    10.5610    10.8160     2.1750 
  105.1250   104.3380     6.5230    -5.3880    -8.1410    76.0360     9.0700    10.8540    10.2030     2.1680 
  105.2500   104.4590     6.5500    -5.4090    -7.6210    76.1870     9.4890    11.3420     8.9130     2.1690 
  105.3750   104.5790     6.5770    -5.4300    -7.2060    75.2110    10.5400    12.6950     8.2140     2.1870 
  105.5000   104.6990     6.6040    -5.4500    -6.8450    73.8520    12.3020    15.0220    10.3530     2.2270 
  105.6250   104.8190     6.6310    -5.4710    -6.4400    73.7000    15.3990    19.1380    50.2610     2.2850 
  105.7500   104.9400     6.6590    -5.4920    -5.9130    71.7870    19.4360    24.4270   103.4800     2.3410 
  105.8750   105.0600     6.6860    -5.5130    -5.2220    65.8300    22.3800    27.9030    86.9140     2.3670 
  106.0000   105.1800     6.7130    -5.5340    -4.4160    61.5790    23.2290    28.6500    39.9890     2.3510 
  106.1250   105.3000     6.7410    -5.5550    -3.5860    61.8330    21.8780    26.5400    23.1550     2.2930 
  106.2500   105.4200     6.7680    -5.5760    -2.8030    62.2510    19.4490    23.2900    19.7290     2.2200 
  106.3750   105.5400     6.7950    -5.5970    -2.0740    60.7680    18.0180    21.5950    18.2280     2.1560 
  106.5000   105.6600     6.8230    -5.6170    -1.3400    60.0260    17.6160    21.1770    17.8340     2.1150 
  106.6250   105.7810     6.8510    -5.6390    -0.5590    60.9860    17.6600    21.2590    17.9360     2.0960 
  106.7500   105.9010     6.8780    -5.6600     0.2180    61.8890    17.9920    21.5910    18.0860     2.0930 
