~V
VERS. 2.00: Ver 2.00
~W
STRT.M 27.0000:
STOP.M 267.0000:
STEP.M 0.1250:
NULL. -999.2500:
UWI. FD10204:
~C
DEPT.M :
TVD. :
DX. :
DY. :
GR.API :
RML.OHMM :
RI. :
RXO.OHMM :
CALI.CM :
SP.MV :
DEN.GM/CC :
~A
# ...
   76.5000    76.4720    -0.6890    -0.7420    76.2170     7.5290     6.1150     6.3060    25.9940   -38.5330     2.2550 
   76.6250    76.5960    -0.6940    -0.7530    78.6610     7.3500     6.0750     7.3950    26.0990   -38.6000     2.2800 
   76.7500    76.7210    -0.6990    -0.7630    82.0240     6.9630     5.8390     8.2870    26.3690   -38.7190     2.2910 
   76.8750    76.8450    -0.7040    -0.7740    85.8940     6.4620     5.4500     6.8770    26.6990   -38.8600     2.2880 
   77.0000    76.9700    -0.7090    -0.7840    89.3690     5.9310     4.9900     5.1550    26.9160   -39.0140     2.2760 
   77.1250    77.0940    -0.7140    -0.7950    92.4080     5.4510     4.5670     4.2990    26.9290   -39.1860     2.2610 
   77.2500    77.2190    -0.7190    -0.8050    96.5630     5.1330     4.2740     4.2000    26.8350   -39.3280     2.2450 
   77.3750    77.3430    -0.7240    -0.8160   100.1560     5.1390     4.2080     4.1750    26.6920   -39.3320     2.2290 
   77.5000    77.4680    -0.7280    -0.8260   100.1360     5.6370     4.4620     4.2310    26.5360   -39.2200     2.2220 
   77.6250    77.5920    -0.7330    -0.8370    93.9980     6.8060     5.1640     4.7840    26.2920   -39.0260     2.2430 
   77.7500    77.7160    -0.7380    -0.8470    85.1330     8.4120     6.2100     6.7610    25.8860   -38.6830     2.2960 
   77.8750    77.8410    -0.7430    -0.8580    77.1080    10.0480     7.3970    11.8090    25.4220   -38.1380     2.3590 
   78.0000    77.9650    -0.7480    -0.8680    70.8750    11.0780     8.3440    16.6950    25.1130   -37.4190     2.3960 
   78.1250    78.0900    -0.7530    -0.8790    67.8540    10.8550     8.5500    13.3460    25.0510   -36.5810     2.3740 
   78.2500    78.2140    -0.7580    -0.8890    68.8420     9.9010     8.1740     8.6530    25.0630   -35.6510     2.3120 
   78.3750    78.3390    -0.7630    -0.9000    71.7390     8.9280     7.6060     7.0490    25.0600   -34.6760     2.2440 
   78.5000    78.4630    -0.7680    -0.9100    72.0410     8.4330     7.2060     6.8670    25.0370   -33.6940     2.2050 
   78.6250    78.5880    -0.7730    -0.9210    68.6130     8.5940     7.1900     7.3870    25.0100   -32.7160     2.2340 
   78.7500    78.7120    -0.7770    -0.9310    65.0840     9.0470     7.4160     7.5690    24.9880   -31.7620     2.3290 
   78.8750    78.8370    -0.7820    -0.9420    61.2760     9.4160     7.6690     7.5690    24.9620   -30.8720     2.4560 
   79.0000    78.9610    -0.7870    -0.9520    56.5490     9.4540     7.7620     7.4500    24.9330   -30.1350     2.5440 
   79.1250    79.0850    -0.7920    -0.9630    53.9610     9.2570     7.7030     7.4360    24.9130   -29.5650     2.5160 
   79.2500    79.2100    -0.7970    -0.9730    55.1820     9.2420     7.7180     7.5480    24.9110   -29.0390     2.4260 
   79.3750    79.3340    -0.8020    -0.9840    57.6700     9.6460     7.9650     8.0520    24.9240   -28.5710     2.3370 
   79.5000    79.4590    -0.8070    -0.9940    59.2170    10.4760     8.4820    10.2960    24.8930   -28.1810     2.2900 
   79.6250    79.5830    -0.8120    -1.0050    60.1710    11.4370     9.1410    17.1710    24.7050   -27.8110     2.2930 
   79.7500    79.7080    -0.8170    -1.0150    60.4690    11.9860     9.6050    22.5420    24.4020   -27.4200     2.3110 
   79.8750    79.8320    -0.8220    -1.0260    59.4780    11.7930     9.6140    16.0610    24.1270   -27.0750     2.3100 
   80.0000    79.9570    -0.8260    -1.0360    58.2830    10.9360     9.1420    10.5290    23.9840   -26.7630     2.2800 
   80.1250    80.0810    -0.8310    -1.0470    57.6910     9.8590     8.4030     9.1450    23.9620   -26.4150     2.2370 
   80.2500    80.2050    -0.8360    -1.0570    56.9290     9.0310     7.7390     9.1190    23.9730   -26.1370     2.2040 
   80.3750    80.3300    -0.8410    -1.0680    56.8480     8.6190     7.3140     9.2770    23.9870   -25.9640     2.1850 
   80.5000    80.4540    -0.8460    -1.0780    58.4540     8.6160     7.1850     9.4230    23.9730   -25.8410     2.1750 
   80.6250    80.5790    -0.8510    -1.0890    59.8600     8.9530     7.3550     9.6030    23.8530   -25.7140     2.1660 
   80.7500    80.7030    -0.8560    -1.0990    58.4300     9.4230     7.6760     9.8360    23.6210   -25.6540     2.1650 
   80.8750    80.8280    -0.8610    -1.1100    56.9650     9.8830     8.0380    10.3910    23.3650   -25.6760     2.1780 
   81.0000    80.9520    -0.8660    -1.1200    57.1360    10.1900     8.3210    11.2750    23.2040   -25.7290     2.2070 
   81.1250    81.0770    -0.8710    -1.1310    57.4630    10.1800     8.3910    11.6860    23.1750   -25.8070     2.2330 
   81.2500    81.2010    -0.8750    -1.1410    59.2970     9.9150     8.2640    10.3380    23.1650   -25.8750     2.2380 
   81.3750    81.3260    -0.8800    -1.1520    62.9610     9.5370     8.0200     9.4110    23.1140   -25.9210     2.2180 
   81.5000    81.4500    -0.8850    -1.1620    65.5390     9.2170     7.7730     9.4380    23.0410   -25.8990     2.1860 
   81.6250    81.5740    -0.8900    -1.1730    63.0200     9.0950     7.6260     9.9270    22.9890   -25.8620     2.1680 
   81.7500    81.6990    -0.8950    -1.1830    59.0530     9.1300     7.5860    10.0510    22.9690   -25.8500     2.1760 
   81.8750    81.8230    -0.9000    -1.1940    58.2840     9.2320     7.6160     9.8150    22.9660   -25.8190     2.2040 
   82.0000    81.9480    -0.9050    -1.2040    59.9900     9.2930     7.6490     9.5990    22.9680   -25.7270     2.2370 
   82.1250    82.0720    -0.9110    -1.2180    59.4500     9.2410     7.6220     9.4220    22.9680   -25.5910     2.2510 
   82.2500    82.1960    -0.9180    -1.2350    56.5330     9.1400     7.5470     9.3260    22.9680   -25.4820     2.2450 
   82.3750    82.3190    -0.9250    -1.2510    54.8390     9.0600     7.4640     9.2920    22.9700   -25.3600     2.2240 
   82.5000    82.4430    -0.9310    -1.2670    56.2030     9.0320     7.4030     9.3950    22.9690   -25.2440     2.2020 
   82.6250    82.5670    -0.9380    -1.2840    59.0330     9.0370     7.3720     9.6260    22.9660   -25.1840     2.1930 
   82.7500    82.6900    -0.9450    -1.3000    59.7850     9.0260     7.3490     9.8660    22.9670   -25.1580     2.1940 
   82.8750    82.8140    -0.9520    -1.3170    57.9060     8.9740     7.3170     9.7950    22.9700   -25.1450     2.2000 
   83.0000    82.9380    -0.9580    -1.3330    55.7590     8.8900     7.2700     9.4760    22.9690   -25.1510     2.2030 
   83.1250    83.0620    -0.9650    -1.3490    57.2440     8.8260     7.2250     9.3310    22.9660   -25.2470     2.2010 
   83.2500    83.1850    -0.9720    -1.3660    60.5930     8.8270     7.2130     9.4480    22.9700   -25.3760     2.1970 
   83.3750    83.3090    -0.9790    -1.3820    61.8150     8.9040     7.2490     9.5730    22.9730   -25.5240     2.1950 
   83.5000    83.4330    -0.9860    -1.3980    61.0220     9.0370     7.3340     9.5170    22.9700   -25.7660     2.1950 
   83.6250    83.5560    -0.9920    -1.4150    60.1890     9.1560     7.4360     9.6900    22.9660   -26.0770     2.1960 
   83.7500    83.6800    -0.9990    -1.4310    59.7970     9.1750     7.4970     9.9460    22.9680   -26.3490     2.1980 
   83.8750    83.8040    -1.0060    -1.4480    59.9270     9.0540     7.4770    10.0840    22.9710   -26.5790     2.2040 
   84.0000    83.9280    -1.0130    -1.4640    60.2490     8.8170     7.3760     9.8060    22.9690   -26.8270     2.2130 
   84.1250    84.0510    -1.0200    -1.4800    59.2640     8.5470     7.2340     9.3350    22.9650   -27.0690     2.2200 
   84.2500    84.1750    -1.0260    -1.4970    57.4330     8.3370     7.1160     9.0400    22.9640   -27.3000     2.2210 
   84.3750    84.2990    -1.0330    -1.5130    56.8560     8.2290     7.0590     9.0990    22.9640   -27.5340     2.2160 
   84.5000    84.4220    -1.0400    -1.5300    57.9380     8.2110     7.0700     9.1970    22.9660   -27.7170     2.2080 
   84.6250    84.5460    -1.0470    -1.5460    58.0580     8.2240     7.1220     8.7060    22.9690   -27.8880     2.2030 
