~V
VERS. 2.00: Ver 2.00
~W
STRT.M 30.0000:
STOP.M 210.0000:
STEP.M 0.1250:
NULL. -999.2500:
UWI. FD10800:
~C
DEPT.M :
TVD. :
DX. :
DY. :
SP.MV :
GR.API :
RI. :
RML.OHMM :
RXO.OHMM :
DEN.GM/CC :
~A
# ...
  176.0000   166.7330   -39.1510     7.5540   -20.4470    61.8090     4.3610     5.0720     4.2210     2.2800 
  176.1250   166.8400   -39.2160     7.5560   -19.9760    63.5900     4.5500     5.3160     4.3500     2.2920 
  176.2500   166.9470   -39.2810     7.5580   -19.7150    63.1230     4.8640     5.6610     4.4520     2.3110 
  176.3750   167.0540   -39.3460     7.5600   -19.7130    62.1590     5.1870     5.9960     4.7030     2.3330 
  176.5000   167.1610   -39.4110     7.5620   -19.9080    59.7650     5.4530     6.2650     4.9910     2.3470 
  176.6250   167.2680   -39.4750     7.5640   -20.0860    58.5990     5.5780     6.3710     5.0900     2.3570 
  176.7500   167.3740   -39.5400     7.5660   -20.1730    57.7550     5.5700     6.3420     4.9950     2.3610 
  176.8750   167.4810   -39.6050     7.5680   -20.1190    59.8490     5.4520     6.1940     4.8130     2.3630 
  177.0000   167.5880   -39.6700     7.5710   -20.1900    61.7070     5.2850     6.0370     4.6850     2.3640 
  177.1250   167.6950   -39.7350     7.5730   -20.5810    62.8650     5.1410     5.9380     4.6310     2.3680 
  177.2500   167.8020   -39.8000     7.5750   -21.0880    62.6380     5.0320     5.9150     4.5190     2.3750 
  177.3750   167.9090   -39.8650     7.5770   -21.7110    64.6560     4.9670     5.9590     4.4380     2.3780 
  177.5000   168.0150   -39.9300     7.5790   -22.3560    68.6730     4.9720     6.0810     4.4770     2.3870 
  177.6250   168.1220   -39.9950     7.5820   -23.0700    74.2400     5.0580     6.3070     4.5280     2.3900 
  177.7500   168.2290   -40.0600     7.5840   -23.7400    79.0820     5.2330     6.6390     4.6220     2.3920 
  177.8750   168.3360   -40.1250     7.5860   -24.3100    82.6730     5.4900     7.0560     4.9180     2.3840 
  178.0000   168.4420   -40.1900     7.5880   -24.5810    85.6450     5.7430     7.4410     5.3490     2.3810 
  178.1250   168.5490   -40.2550     7.5900   -24.6790    87.6720     5.9240     7.6950     5.3880     2.3810 
  178.2500   168.6560   -40.3200     7.5920   -24.5670    88.4230     5.9640     7.7350     5.1220     2.3850 
  178.3750   168.7620   -40.3850     7.5950   -24.4440    88.9660     5.8250     7.5250     5.0230     2.3800 
  178.5000   168.8690   -40.4500     7.5970   -24.4250    91.0570     5.6050     7.2170     4.9090     2.3730 
  178.6250   168.9750   -40.5160     7.6000   -24.4810    95.1790     5.3870     6.9410     4.7380     2.3700 
  178.7500   169.0820   -40.5810     7.6020   -24.6690    99.2540     5.2520     6.7850     4.5200     2.3690 
  178.8750   169.1890   -40.6460     7.6050   -24.9760   100.8700     5.2190     6.7700     4.3410     2.3670 
  179.0000   169.2950   -40.7120     7.6070   -25.5680    99.9920     5.2470     6.8400     4.3050     2.3580 
  179.1250   169.4020   -40.7770     7.6100   -26.1980    98.3170     5.2960     6.9220     4.5110     2.3500 
  179.2500   169.5080   -40.8420     7.6120   -26.4830    97.6030     5.3360     6.9840     4.9440     2.3490 
  179.3750   169.6150   -40.9080     7.6150   -26.4460    97.1410     5.3780     7.0400     5.1840     2.3510 
  179.5000   169.7210   -40.9730     7.6170   -26.4220    96.8810     5.4510     7.1410     5.1800     2.3630 
  179.6250   169.8280   -41.0380     7.6200   -26.3830    95.4960     5.5870     7.3460     5.2740     2.3790 
  179.7500   169.9340   -41.1040     7.6230   -26.3640    96.0540     5.7660     7.6420     5.6350     2.4020 
  179.8750   170.0410   -41.1690     7.6250   -26.2810    96.5370     5.8910     7.8570     5.7390     2.4070 
  180.0000   170.1470   -41.2350     7.6280   -26.1680    99.6310     5.8840     7.8820     5.2510     2.3920 
  180.1250   170.2540   -41.3000     7.6300   -25.9240   102.2240     5.6690     7.5730     4.8990     2.3600 
  180.2500   170.3600   -41.3650     7.6330   -25.5170   104.2440     5.3440     7.0920     4.8240     2.3130 
  180.3750   170.4670   -41.4300     7.6350   -25.1080   100.9630     4.9970     6.5970     4.6170     2.2660 
  180.5000   170.5730   -41.4960     7.6370   -24.6930    94.9480     4.7240     6.2220     4.5210     2.2340 
  180.6250   170.6800   -41.5610     7.6390   -24.3660    85.5870     4.5580     6.0090     4.3930     2.2300 
  180.7500   170.7870   -41.6260     7.6420   -24.2110    77.9430     4.4750     5.9090     4.2620     2.2400 
  180.8750   170.8930   -41.6920     7.6440   -24.3440    71.2920     4.4650     5.9120     4.3690     2.2490 
  181.0000   171.0000   -41.7570     7.6470   -24.5640    66.9560     4.5020     5.9920     4.4820     2.2530 
  181.1250   171.1060   -41.8220     7.6490   -24.8830    63.4250     4.5900     6.1370     4.5790     2.2520 
  181.2500   171.2130   -41.8870     7.6520   -25.1810    60.9730     4.7090     6.3240     4.6770     2.2490 
  181.3750   171.3200   -41.9530     7.6540   -25.5070    60.2070     4.8720     6.5450     4.8450     2.2430 
  181.5000   171.4260   -42.0180     7.6570   -25.8660    60.9160     5.0200     6.7300     5.0980     2.2400 
  181.6250   171.5330   -42.0830     7.6600   -26.4120    63.1050     5.1300     6.9000     5.3980     2.2350 
  181.7500   171.6390   -42.1480     7.6620   -27.0020    64.6910     5.1620     6.9440     5.5590     2.2360 
  181.8750   171.7460   -42.2130     7.6640   -27.3460    65.2280     5.1110     6.8830     5.2310     2.2410 
  182.0000   171.8530   -42.2780     7.6670   -27.4600    65.2400     4.9860     6.6930     4.7010     2.2540 
  182.1250   171.9590   -42.3440     7.6690   -27.5500    65.0030     4.8150     6.4290     4.5760     2.2630 
  182.2500   172.0660   -42.4090     7.6720   -27.6500    64.8620     4.6500     6.1940     4.7920     2.2670 
  182.3750   172.1730   -42.4740     7.6740   -27.7110    64.4080     4.5140     6.0090     4.7250     2.2690 
  182.5000   172.2790   -42.5390     7.6760   -27.7750    64.7870     4.4370     5.9010     4.5960     2.2720 
  182.6250   172.3860   -42.6040     7.6780   -27.6410    65.7940     4.3920     5.8320     4.6780     2.2760 
  182.7500   172.4930   -42.6690     7.6810   -27.5410    66.3430     4.3870     5.7960     4.3780     2.2770 
  182.8750   172.6000   -42.7340     7.6830   -27.5360    66.8020     4.4100     5.8100     4.0760     2.2840 
  183.0000   172.7060   -42.7990     7.6850   -27.6120    67.2270     4.4500     5.8280     4.2400     2.2920 
  183.1250   172.8130   -42.8640     7.6880   -27.4970    67.5690     4.4810     5.8260     4.3610     2.2990 
  183.2500   172.9200   -42.9290     7.6900   -27.2020    67.9470     4.4910     5.8000     4.4150     2.3120 
  183.3750   173.0270   -42.9940     7.6920   -26.8070    69.6330     4.4730     5.7380     4.4790     2.3330 
  183.5000   173.1330   -43.0590     7.6940   -26.3270    72.7070     4.4220     5.6340     4.3370     2.3530 
  183.6250   173.2400   -43.1240     7.6970   -25.9640    76.1310     4.3690     5.5300     4.2110     2.3540 
  183.7500   173.3470   -43.1890     7.6990   -25.7640    78.7460     4.3200     5.4330     4.1970     2.3450 
  183.8750   173.4540   -43.2540     7.7010   -25.6710    80.3680     4.3080     5.3920     4.0510     2.3430 
  184.0000   173.5600   -43.3190     7.7030   -25.4490    81.4980     4.3060     5.3720     3.9850     2.3470 
  184.1250   173.6670   -43.3840     7.7050   -25.1930    81.6270     4.3100     5.3640     4.1740     2.3420 
  184.2500   173.7740   -43.4490     7.7070   -25.0320    82.0100     4.3140     5.3620     4.2190     2.3280 
  184.3750   173.8810   -43.5140     7.7090   -24.8860    82.6380     4.3250     5.3680     4.1370     2.3190 
  184.5000   173.9870   -43.5790     7.7120   -24.6960    84.0240     4.3420     5.3910     4.2240     2.3170 
  184.6250   174.0940   -43.6440     7.7140   -24.5050    85.6320     4.3790     5.4480     4.4420     2.3240 
  184.7500   174.2010   -43.7090     7.7170   -24.2760    86.7120     4.4300     5.5220     4.5520     2.3300 
  184.8750   174.3070   -43.7740     7.7190   -24.0490    88.2490     4.4470     5.5390     4.4560     2.3400 
  185.0000   174.4140   -43.8390     7.7220   -23.8890    89.1910     4.4590     5.5380     4.2480     2.3400 
