~V
VERS. 2.00: Ver 2.00
~W
STRT.M 53.0000:
STOP.M 258.0000:
STEP.M 0.1250:
NULL. -999.2500:
UWI. FD10870:
~C
DEPT.M :
TVD. :
DX. :
DY. :
SP.MV :
GR.API :
RI. :
RML.OHMM :
RXO.OHMM :
DEN.GM/CC :
~A
# ...
  217.2500   206.7790   -42.1980    10.9530     1.5130    81.3320    23.6420    22.1070    22.8330     2.3310 
  217.3750   206.8820   -42.2520    11.0000     1.1400    80.9460    26.1470    24.5290    24.9160     2.3130 
  217.5000   206.9840   -42.3070    11.0460     0.8580    78.6240    28.9540    27.3220    27.6980     2.2980 
  217.6250   207.0870   -42.3610    11.0930     0.8190    74.4540    31.9980    30.5090    31.8640     2.2790 
  217.7500   207.1890   -42.4150    11.1390     0.7700    69.6560    35.3820    34.1330    31.9910     2.2620 
  217.8750   207.2920   -42.4700    11.1860     0.6950    68.5240    39.4630    38.5390    30.2640     2.2540 
  218.0000   207.3940   -42.5240    11.2330     0.6610    68.5850    43.6830    43.0500    29.9010     2.2620 
  218.1250   207.4970   -42.5780    11.2800     0.5780    69.9660    47.4020    46.9710    30.2110     2.2790 
  218.2500   207.5990   -42.6320    11.3270     0.1020    70.0570    50.4380    50.1400    31.0350     2.2890 
  218.3750   207.7010   -42.6870    11.3730    -0.5610    70.2120    52.6750    52.4160    31.1710     2.2900 
  218.5000   207.8040   -42.7410    11.4200    -1.1250    69.4790    54.2630    53.9360    30.8670     2.2900 
  218.6250   207.9060   -42.7950    11.4670    -1.6070    67.5080    54.8770    54.4310    32.2770     2.2940 
  218.7500   208.0080   -42.8500    11.5140    -2.1830    64.7810    54.5070    54.0120    32.8700     2.3030 
  218.8750   208.1110   -42.9040    11.5610    -3.0110    63.1820    54.0940    53.7250    29.8700     2.3110 
  219.0000   208.2130   -42.9580    11.6080    -3.7400    64.9900    54.4870    54.4470    29.6330     2.3110 
  219.1250   208.3150   -43.0120    11.6550    -4.4860    67.6400    56.2070    56.6170    33.8100     2.3010 
  219.2500   208.4180   -43.0670    11.7020    -5.4420    71.1480    60.2170    61.1710    36.3670     2.2850 
  219.3750   208.5200   -43.1210    11.7490    -6.2250    73.4450    67.1660    68.8020    36.5230     2.2750 
  219.5000   208.6220   -43.1750    11.7960    -6.6220    74.0410    76.2390    78.5910    36.0450     2.2810 
  219.6250   208.7240   -43.2300    11.8430    -7.0090    71.6820    85.9410    88.8690    35.3780     2.3020 
  219.7500   208.8270   -43.2840    11.8910    -7.3990    68.9130    94.0130    97.2450    32.9890     2.3340 
  219.8750   208.9290   -43.3380    11.9380    -7.9830    67.6270    99.4610   102.6240    46.1540     2.3440 
  220.0000   209.0310   -43.3920    11.9850    -8.6840    66.0490   103.4240   106.3350    95.1230     2.3420 
  220.1250   209.1330   -43.4470    12.0330    -9.5190    63.6820   106.3970   109.2210   116.9110     2.3400 
  220.2500   209.2350   -43.5010    12.0800   -10.4100    62.1300   110.0370   113.0390    72.2590     2.3900 
  220.3750   209.3380   -43.5550    12.1270   -11.1030    61.9400   113.3360   116.5790    37.2130     2.4810 
  220.5000   209.4400   -43.6090    12.1750   -11.4570    62.2240   115.1060   118.2710    64.7220     2.5820 
  220.6250   209.5420   -43.6640    12.2220   -11.5250    62.5930   113.6640   116.1900   105.9870     2.6190 
  220.7500   209.6440   -43.7180    12.2700   -11.5150    64.9510   107.8930   109.3690    87.7530     2.5720 
  220.8750   209.7460   -43.7720    12.3170   -11.3960    66.7880    99.4180    99.9740    44.5120     2.4540 
  221.0000   209.8480   -43.8260    12.3650   -11.1690    67.4180    90.6110    90.7910    31.5480     2.3410 
  221.1250   209.9510   -43.8800    12.4120   -10.5890    66.3810    84.1110    84.4020    34.8260     2.2770 
  221.2500   210.0530   -43.9340    12.4600    -9.8200    65.8940    80.5590    81.1410    37.8100     2.2550 
  221.3750   210.1550   -43.9890    12.5070    -9.0230    66.2790    79.3420    80.1730    36.9960     2.2530 
  221.5000   210.2570   -44.0430    12.5550    -8.1480    66.6850    79.3270    80.2880    35.4870     2.2530 
  221.6250   210.3590   -44.0970    12.6020    -7.3770    67.0410    79.8270    80.9300    34.9980     2.2500 
  221.7500   210.4610   -44.1510    12.6500    -6.6590    67.8600    80.5630    81.8220    35.6680     2.2500 
  221.8750   210.5630   -44.2050    12.6980    -5.8900    69.1090    81.1500    82.5070    37.2510     2.2560 
  222.0000   210.6650   -44.2590    12.7450    -5.2150    69.8620    81.2520    82.6320    35.9150     2.2610 
  222.1250   210.7680   -44.3130    12.7930    -4.4180    70.6360    80.4100    81.7720    30.6150     2.2550 
  222.2500   210.8700   -44.3670    12.8410    -3.5260    69.8760    78.9920    80.3060    26.1340     2.2450 
  222.3750   210.9720   -44.4210    12.8880    -2.8890    68.2820    77.3080    78.6540    25.9830     2.2410 
  222.5000   211.0740   -44.4750    12.9360    -2.6410    64.4730    75.8630    77.3500    29.3720     2.2480 
  222.6250   211.1760   -44.5290    12.9840    -2.5610    62.3090    74.9630    76.6740    32.4900     2.2560 
  222.7500   211.2780   -44.5830    13.0310    -2.5090    62.2040    74.7010    76.7000    33.5130     2.2660 
  222.8750   211.3810   -44.6370    13.0790    -2.2920    64.9640    74.9120    77.2380    34.2960     2.2680 
  223.0000   211.4830   -44.6910    13.1270    -1.9900    68.0010    75.1440    77.7800    35.7630     2.2670 
  223.1250   211.5850   -44.7450    13.1740    -1.6730    69.5560    75.0980    78.1240    37.0440     2.2720 
  223.2500   211.6870   -44.7990    13.2220    -1.4200    68.3680    74.5940    77.9840    37.2860     2.2810 
  223.3750   211.7900   -44.8520    13.2700    -1.0360    66.0530    73.5680    77.3070    37.1730     2.2850 
  223.5000   211.8920   -44.9060    13.3180    -0.7250    65.1030    72.1730    76.2590    37.8860     2.2780 
  223.6250   211.9940   -44.9600    13.3650    -0.7050    65.9610    70.6170    74.9840    37.8640     2.2730 
  223.7500   212.0960   -45.0130    13.4130    -0.6750    67.2570    69.0660    73.6550    35.0620     2.2740 
  223.8750   212.1990   -45.0670    13.4610    -0.7460    67.5580    67.3110    71.9710    31.1430     2.2760 
  224.0000   212.3010   -45.1200    13.5090    -1.1220    68.4070    64.8160    69.1600    29.7570     2.2740 
  224.1250   212.4030   -45.1740    13.5570    -1.7040    69.2520    61.4620    65.3380    29.9820     2.2750 
  224.2500   212.5060   -45.2280    13.6050    -2.2340    69.3470    58.5730    62.0510    28.2030     2.2780 
  224.3750   212.6080   -45.2810    13.6530    -2.6940    68.1500    58.0540    61.4470    25.9620     2.2970 
  224.5000   212.7100   -45.3350    13.7000    -2.9290    66.8810    61.9200    66.3430    25.7840     2.3480 
  224.6250   212.8130   -45.3880    13.7480    -3.0010    66.1210    70.7150    76.8060    30.5810     2.4450 
  224.7500   212.9150   -45.4420    13.7960    -3.0280    65.1020    77.5570    82.3130    55.6750     2.5600 
  224.8750   213.0170   -45.4960    13.8440    -3.2160    62.3940    69.9380    73.3970    98.9570     2.6510 
  225.0000   213.1200   -45.5490    13.8920    -3.4410    58.9930    52.9830    54.2320   115.3370     2.6940 
  225.1250   213.2220   -45.6020    13.9390    -3.6160    55.6640    30.4150    30.0750    97.9140     2.6830 
  225.2500   213.3240   -45.6560    13.9870    -3.8140    53.3320    13.3570    13.8700    72.8880     2.6290 
  225.3750   213.4270   -45.7090    14.0350    -4.1080    51.7570     7.4310     7.7580    38.4390     2.5420 
  225.5000   213.5290   -45.7630    14.0830    -4.3300    51.7840     4.5270     4.8500    11.5670     2.4490 
  225.6250   213.6310   -45.8160    14.1310    -4.6620    54.1060     3.5220     3.9010     4.7030     2.3850 
  225.7500   213.7340   -45.8700    14.1790    -4.7100    60.0200     3.1520     3.5800     3.8640     2.3550 
  225.8750   213.8360   -45.9230    14.2260    -4.6740    69.2350     3.0850     3.5470     3.4430     2.3490 
  226.0000   213.9380   -45.9770    14.2740    -4.5810    79.2700     3.2970     3.8100     2.9660     2.3460 
  226.1250   214.0410   -46.0300    14.3220    -4.4400    87.0420     3.8180     4.4220     2.8550     2.3470 
  226.2500   214.1430   -46.0840    14.3700    -4.3640    93.0930     4.7020     5.4670     3.6090     2.3610 
