~V
VERS. 2.00: Ver 2.00
~W
STRT.M 20.0000:
STOP.M 206.0000:
STEP.M 0.1250:
NULL. -999.2500:
UWI. FD10809:
~C
DEPT.M :
TVD. :
DX. :
DY. :
SP.MV :
GR.API :
RI. :
RML.OHMM :
DEN.GM/CC :
RXO.OHMM :
~A
   20.0000    20.0000     0.0000     0.0000   152.6890    29.8990     0.1350     0.3670     2.4630     0.0390 
   20.1250    20.1250     0.0020     0.0000   152.9120    31.4710     0.1340     0.3870     2.4820     0.0380 
   20.2500    20.2500     0.0040     0.0000   153.1010    31.1920     0.1350     0.3970     2.5130     0.0380 
   20.3750    20.3750     0.0060    -0.0010   152.8250    29.8260     0.1360     0.3920     2.5490     0.0500 
   20.5000    20.5000     0.0070    -0.0010   152.0140    28.9230     0.1360     0.3730     2.5730     0.0620 
   20.6250    20.6250     0.0090    -0.0010   151.2700    28.3080     0.1370     0.3480     2.5890     0.0600 
   20.7500    20.7500     0.0110    -0.0010   150.4960    27.5500     0.1370     0.3230     2.5850     0.0480 
   20.8750    20.8750     0.0130    -0.0010   148.8060    27.3080     0.1380     0.3000     2.5580     0.0330 
   21.0000    21.0000     0.0150    -0.0010   146.2130    27.5600     0.1380     0.2840     2.5020     0.0210 
   21.1250    21.1250     0.0170    -0.0010   143.4670    28.4640     0.1390     0.2700     2.4390     0.0240 
   21.2500    21.2500     0.0190    -0.0010   140.8990    29.3780     0.1390     0.2560     2.3880     0.0350 
   21.3750    21.3750     0.0200    -0.0010   139.2400    29.6040     0.1390     0.2420     2.3520     0.0360 
   21.5000    21.5000     0.0220    -0.0010   138.4300    29.4320     0.1340     0.2330     2.3210     0.0280 
   21.6250    21.6250     0.0240    -0.0010   137.7420    28.8820     0.1330     0.2360     2.2800     0.0230 
   21.7500    21.7500     0.0260    -0.0010   137.4260    28.7980     0.1280     0.2500     2.2300     0.0250 
   21.8750    21.8750     0.0280    -0.0010   137.9540    28.2680     0.1190     0.2630     2.1880     0.0260 
   22.0000    22.0000     0.0300    -0.0010   139.0410    28.4590     0.1270     0.2610     2.1730     0.0230 
   22.1250    22.1250     0.0320    -0.0010   140.1730    29.1640     0.1280     0.2460     2.1880     0.0210 
   22.2500    22.2500     0.0330    -0.0010   141.1740    30.5200     0.1380     0.2310     2.2240     0.0210 
   22.3750    22.3750     0.0350    -0.0010   141.8430    31.2900     0.1430     0.2240     2.2550     0.0200 
   22.5000    22.5000     0.0370    -0.0010   142.3380    31.3600     0.1430     0.2250     2.2780     0.0100 
   22.6250    22.6250     0.0390     0.0000   142.8780    31.9850     0.1430     0.2300     2.2880     0.0000 
   22.7500    22.7500     0.0410     0.0000   143.5140    33.7300     0.1430     0.2280     2.2940     0.0090 
   22.8750    22.8750     0.0430     0.0000   144.0660    36.5960     0.1430     0.2190     2.2980     0.0150 
   23.0000    23.0000     0.0450     0.0000   144.5670    37.5820     0.1430     0.2110     2.3060     0.0130 
   23.1250    23.1250     0.0460     0.0010   145.0850    37.6750     0.1430     0.2000     2.3190     0.0180 
   23.2500    23.2500     0.0480     0.0010   145.5010    36.4980     0.1430     0.1910     2.3360     0.0210 
   23.3750    23.3750     0.0500     0.0010   145.4350    35.4870     0.1430     0.1890     2.3460     0.0220 
   23.5000    23.5000     0.0520     0.0020   144.5580    34.8070     0.1430     0.1940     2.3430     0.0240 
   23.6250    23.6250     0.0540     0.0020   142.8360    35.8360     0.1400     0.2030     2.3330     0.0210 
   23.7500    23.7500     0.0560     0.0020   140.1560    38.4800     0.1320     0.2050     2.3290     0.0130 
   23.8750    23.8750     0.0580     0.0030   136.3370    39.4490     0.1110     0.1830     2.3340     0.0070 
   24.0000    24.0000     0.0590     0.0030   130.8510    38.5670     0.0780     0.1350     2.3470     0.0110 
   24.1250    24.1250     0.0610     0.0040   123.3280    37.6660     0.0460     0.0810     2.3580     0.0170 
   24.2500    24.2500     0.0630     0.0040   112.5540    39.0040     0.0290     0.0480     2.3780     0.0210 
   24.3750    24.3750     0.0650     0.0040    97.9490    41.8360     0.0570     0.0620     2.4140     0.0380 
   24.5000    24.4990     0.0670     0.0050    78.9640    46.0840     0.1770     0.1910     2.4180     2.4200 
   24.6250    24.6240     0.0680     0.0060    57.1240    50.5940     0.5200     0.8210     2.3220     7.5880 
   24.7500    24.7490     0.0700     0.0060    35.9370    55.1520     3.5040     2.6740     2.1160    10.3200 
   24.8750    24.8740     0.0720     0.0070    19.3070    56.2940     9.0830     5.6750     1.9090     8.6710 
   25.0000    24.9990     0.0740     0.0070     8.7960    54.6500    15.4970     8.4620     1.7850     5.7160 
   25.1250    25.1240     0.0760     0.0080     2.3310    51.3490    16.5310     9.1800     1.7650     3.9620 
   25.2500    25.2490     0.0770     0.0080    -1.6620    49.9300    12.4920     7.6190     1.8460     3.3200 
   25.3750    25.3740     0.0790     0.0090    -4.3820    51.1970     6.0160     5.0180     1.9710     2.6590 
   25.5000    25.4990     0.0810     0.0100    -6.2500    56.6860     4.2830     3.1350     2.0720     2.1500 
   25.6250    25.6240     0.0830     0.0100    -7.6260    64.8710     3.7740     2.4630     2.1140     2.0900 
   25.7500    25.7490     0.0840     0.0110    -8.5740    73.3680     3.4620     2.2730     2.1160     2.1940 
   25.8750    25.8740     0.0860     0.0120    -9.3100    79.1030     3.3140     2.2100     2.1090     2.6150 
   26.0000    25.9990     0.0880     0.0130   -10.0690    80.7440     3.3210     2.2730     2.1050     3.5490 
   26.1250    26.1240     0.0900     0.0130   -11.0140    79.0230     3.5110     2.4680     2.1040     4.0320 
   26.2500    26.2490     0.0910     0.0140   -12.1810    74.3600     3.9030     2.8120     2.0860     3.6660 
   26.3750    26.3740     0.0930     0.0150   -13.4710    70.4260     4.4200     3.2750     2.0510     3.8510 
   26.5000    26.4990     0.0950     0.0160   -14.9610    69.5540     5.0470     3.8770     2.0130     5.0760 
   26.6250    26.6240     0.0960     0.0170   -16.4670    71.1680     5.8520     4.6140     1.9940     6.0590 
   26.7500    26.7490     0.0980     0.0180   -17.7740    72.1110     6.7110     5.3840     1.9910     6.2250 
   26.8750    26.8740     0.1000     0.0190   -18.8160    70.0670     7.3550     6.0120     1.9880     6.2110 
   27.0000    26.9990     0.1010     0.0200   -19.5980    66.4350     7.6140     6.3540     1.9800     6.3000 
   27.1250    27.1240     0.1030     0.0210   -20.1000    63.4780     7.4780     6.4360     1.9750     6.1840 
   27.2500    27.2490     0.1040     0.0220   -20.3740    63.4700     7.2200     6.4130     1.9780     5.8580 
   27.3750    27.3740     0.1060     0.0230   -20.6070    65.2450     7.0270     6.4430     1.9820     5.8320 
   27.5000    27.4990     0.1080     0.0240   -20.8640    67.5400     6.9390     6.6200     1.9870     6.1040 
   27.6250    27.6240     0.1090     0.0250   -21.2530    69.0080     6.9670     6.9450     1.9910     6.0800 
   27.7500    27.7490     0.1110     0.0260   -21.6360    69.3520     7.1130     7.3390     1.9970     5.9030 
   27.8750    27.8740     0.1120     0.0280   -21.9400    68.8830     7.2360     7.7270     2.0020     6.0410 
   28.0000    27.9990     0.1140     0.0290   -22.1410    68.4140     7.2450     8.0810     2.0100     6.3600 
   28.1250    28.1240     0.1150     0.0300   -22.3320    68.2530     7.1060     8.3800     2.0180     6.6360 
   28.2500    28.2490     0.1170     0.0310   -22.4980    68.0560     6.8740     8.6110     2.0210     6.7330 
   28.3750    28.3740     0.1190     0.0330   -22.6800    67.4120     6.6270     8.7250     2.0100     6.5410 
   28.5000    28.4990     0.1200     0.0340   -22.8120    67.2640     6.3950     8.7280     1.9880     6.2990 
   28.6250    28.6240     0.1220     0.0350   -22.9470    67.1220     6.2310     8.7750     1.9670     6.4790 
   28.7500    28.7490     0.1230     0.0370   -23.1090    67.0830     6.1560     8.9250     1.9640     6.7970 
   28.8750    28.8740     0.1250     0.0380   -23.3150    66.6080     6.1580     9.1600     1.9760     6.8300 
   29.0000    28.9990     0.1260     0.0400   -23.6350    65.6560     6.1830     9.4020     1.9890     6.8560 
