~V
VERS. 2.00: Ver 2.00
~W
STRT.M 20.0000:
STOP.M 242.0000:
STEP.M 0.1250:
NULL. -999.2500:
UWI. FD10624:
~C
DEPT.M :
TVD. :
DX. :
DY. :
GR.API :
RML.OHMM :
RI. :
RXO.OHMM :
CALI.CM :
DEN.GM/CC :
SP.MV :
~A
# ...
  218.0000   206.2370    38.8210    39.7090    23.9280     4.0450     3.4240     3.9000    19.5990     2.3800   -11.9810 
  218.1250   206.3480    38.8600    39.7530    24.3480     4.0320     3.3910     3.9410    19.6210     2.3680   -12.0020 
  218.2500   206.4580    38.8990    39.7960    25.9640     4.0610     3.3930     3.9920    19.6300     2.3550   -11.9300 
  218.3750   206.5690    38.9380    39.8400    27.6650     4.0980     3.4080     3.9840    19.6520     2.3430   -11.8090 
  218.5000   206.6790    38.9760    39.8840    27.9730     4.1280     3.4220     3.9130    19.6650     2.3380   -11.7180 
  218.6250   206.7900    39.0150    39.9280    27.4520     4.1460     3.4340     3.8750    19.6480     2.3410   -11.6790 
  218.7500   206.9000    39.0540    39.9720    27.3240     4.1640     3.4460     3.8780    19.5990     2.3460   -11.6340 
  218.8750   207.0110    39.0930    40.0150    27.0950     4.1890     3.4640     3.9150    19.5230     2.3470   -11.5930 
  219.0000   207.1210    39.1320    40.0590    26.4930     4.2280     3.4900     3.9560    19.4820     2.3390   -11.5570 
  219.1250   207.2310    39.1700    40.1030    27.2030     4.2900     3.5330     4.0270    19.5050     2.3240   -11.5330 
  219.2500   207.3420    39.2090    40.1470    29.5450     4.3720     3.5920     4.1180    19.5340     2.3090   -11.5240 
  219.3750   207.4520    39.2480    40.1900    32.1170     4.4670     3.6640     4.2050    19.4660     2.3000   -11.5140 
  219.5000   207.5630    39.2870    40.2340    32.9290     4.5610     3.7380     4.2840    19.3130     2.3000   -11.5200 
  219.6250   207.6730    39.3260    40.2780    31.1060     4.6250     3.7910     4.3590    19.3020     2.3090   -11.5600 
  219.7500   207.7840    39.3640    40.3220    28.2950     4.6460     3.8130     4.3450    19.4690     2.3240   -11.6080 
  219.8750   207.8940    39.4030    40.3650    26.3210     4.6250     3.8020     4.3080    19.6530     2.3400   -11.6060 
  220.0000   208.0050    39.4420    40.4090    25.7210     4.5780     3.7670     4.2800    19.7600     2.3540   -11.5350 
  220.1250   208.1150    39.4810    40.4530    25.5300     4.5300     3.7230     4.2450    19.7780     2.3650   -11.4560 
  220.2500   208.2260    39.5200    40.4970    24.7710     4.4990     3.6850     4.2000    19.7650     2.3760   -11.3950 
  220.3750   208.3360    39.5580    40.5410    23.6800     4.4890     3.6600     4.1720    19.7750     2.3880   -11.3130 
  220.5000   208.4460    39.5970    40.5840    22.7530     4.4920     3.6460     4.1530    19.8290     2.4000   -11.1320 
  220.6250   208.5570    39.6360    40.6280    22.9790     4.5000     3.6410     4.1440    19.8970     2.4020   -10.8900 
  220.7500   208.6670    39.6750    40.6720    23.8660     4.5040     3.6400     4.1380    19.9860     2.3920   -10.6850 
  220.8750   208.7780    39.7130    40.7160    24.2850     4.5050     3.6390     4.1460    20.1290     2.3720   -10.5290 
  221.0000   208.8880    39.7520    40.7590    23.4410     4.5040     3.6400     4.1620    20.2590     2.3490   -10.3770 
  221.1250   208.9990    39.7910    40.8030    21.7730     4.5150     3.6520     4.1830    20.2450     2.3320   -10.1690 
  221.2500   209.1090    39.8300    40.8470    21.9430     4.5470     3.6820     4.2170    20.0380     2.3290    -9.9820 
  221.3750   209.2200    39.8690    40.8910    25.0010     4.6040     3.7360     4.2890    19.8890     2.3370    -9.8450 
  221.5000   209.3300    39.9070    40.9340    28.5360     4.6820     3.8080     4.4140    20.0450     2.3550    -9.7480 
  221.6250   209.4410    39.9460    40.9780    29.1600     4.7610     3.8840     4.6320    20.3850     2.3750    -9.6580 
  221.7500   209.5510    39.9850    41.0220    27.9670     4.8190     3.9400     4.8190    20.5780     2.3910    -9.5790 
  221.8750   209.6610    40.0240    41.0660    26.4370     4.8420     3.9650     4.8780    20.7320     2.3990    -9.4950 
  222.0000   209.7720    40.0630    41.1090    24.8200     4.8300     3.9580     4.8160    21.0750     2.3980    -9.3890 
  222.1250   209.8820    40.1010    41.1530    23.6950     4.7970     3.9310     4.7830    21.5120     2.3940    -9.2810 
  222.2500   209.9930    40.1400    41.1970    24.0690     4.7650     3.9040     4.7550    21.7870     2.3940    -9.1690 
  222.3750   210.1030    40.1790    41.2410    25.0900     4.7440     3.8860     4.7490    21.8870     2.4000    -9.0080 
  222.5000   210.2140    40.2180    41.2850    25.5700     4.7280     3.8790     4.7790    21.8860     2.4120    -8.8170 
  222.6250   210.3240    40.2570    41.3280    25.5850     4.7050     3.8720     4.8350    21.6840     2.4200    -8.6320 
  222.7500   210.4350    40.2950    41.3720    25.4090     4.6620     3.8550     4.8460    21.4120     2.4190    -8.4470 
  222.8750   210.5450    40.3340    41.4160    25.3610     4.6010     3.8250     4.7580    21.3710     2.4050    -8.3010 
  223.0000   210.6550    40.3730    41.4600    25.1190     4.5300     3.7840     4.6020    21.5030     2.3840    -8.2310 
  223.1250   210.7660    40.4120    41.5030    24.4560     4.4690     3.7440     4.4430    21.5260     2.3650    -8.2020 
  223.2500   210.8760    40.4500    41.5470    23.5780     4.4300     3.7150     4.3550    21.4250     2.3600    -8.1220 
  223.3750   210.9870    40.4890    41.5910    22.4960     4.4150     3.7010     4.3100    21.4560     2.3680    -8.0740 
  223.5000   211.0970    40.5280    41.6350    21.8610     4.4180     3.7040     4.2960    21.8500     2.3790    -8.1220 
  223.6250   211.2080    40.5670    41.6780    22.3500     4.4340     3.7200     4.3190    22.2760     2.3770    -8.2110 
  223.7500   211.3180    40.6060    41.7220    23.3820     4.4530     3.7400     4.3590    22.6020     2.3570    -8.2720 
  223.8750   211.4290    40.6440    41.7660    23.8690     4.4660     3.7570     4.3650    22.7630     2.3290    -8.2770 
  224.0000   211.5390    40.6830    41.8100    23.6220     4.4660     3.7670     4.3380    22.5730     2.3040    -8.2680 
  224.1250   211.6500    40.7220    41.8540    24.0300     4.4510     3.7660     4.3590    22.0560     2.2970    -8.3190 
  224.2500   211.7600    40.7610    41.8970    24.8050     4.4340     3.7620     4.3630    21.6840     2.3050    -8.4290 
  224.3750   211.8700    40.8000    41.9410    25.2410     4.4330     3.7680     4.3030    21.3910     2.3190    -8.5060 
  224.5000   211.9810    40.8380    41.9850    26.5620     4.4640     3.7990     4.2570    20.9530     2.3300    -8.5390 
  224.6250   212.0910    40.8770    42.0290    29.5770     4.5410     3.8670     4.2620    20.6350     2.3330    -8.5990 
  224.7500   212.2020    40.9160    42.0720    31.7000     4.6510     3.9630     4.3190    20.5190     2.3330    -8.6820 
  224.8750   212.3120    40.9550    42.1160    31.1540     4.7730     4.0720     4.4200    20.5460     2.3320    -8.7480 
  225.0000   212.4230    40.9930    42.1600    28.5340     4.8840     4.1720     4.5450    20.6770     2.3330    -8.8030 
  225.1250   212.5330    41.0320    42.2040    26.6630     4.9510     4.2350     4.6620    20.8280     2.3370    -8.8390 
  225.2500   212.6440    41.0710    42.2470    27.0110     4.9670     4.2490     4.7760    20.9160     2.3450    -8.8210 
  225.3750   212.7540    41.1100    42.2910    28.9800     4.9380     4.2200     4.8050    20.9640     2.3570    -8.7530 
  225.5000   212.8650    41.1490    42.3350    30.2310     4.8830     4.1650     4.7830    20.9870     2.3710    -8.6710 
  225.6250   212.9750    41.1870    42.3790    29.1850     4.8340     4.1160     4.7000    20.9300     2.3830    -8.5760 
  225.7500   213.0850    41.2260    42.4220    28.5370     4.8310     4.1020     4.5970    20.7860     2.3890    -8.4800 
  225.8750   213.1960    41.2650    42.4660    30.0350     4.9190     4.1560     4.5430    20.6750     2.3870    -8.4240 
  226.0000   213.3060    41.3040    42.5100    32.5070     5.1460     4.3220     4.5950    20.6330     2.3780    -8.3490 
  226.1250   213.4170    41.3430    42.5540    33.5460     5.5620     4.6580     4.6970    20.6300     2.3790    -8.2750 
