~V
VERS. 2.00: Ver 2.00
~W
STRT.M 50.0000:
STOP.M 219.0000:
STEP.M 0.1250:
NULL. -999.2500:
UWI. FD10804:
~C
DEPT.M :
TVD. :
DX. :
DY. :
SP.MV :
GR.API :
RI. :
RML.OHMM :
RXO.OHMM :
DEN.GM/CC :
~A
# ...
  141.2500   139.9680   -10.1230    -7.8040  -121.7190    68.6070    10.0860    10.7440    11.7490     2.2220 
  141.3750   140.0880   -10.1490    -7.8290  -121.6900    70.8600     9.8580    10.5950    11.4730     2.1990 
  141.5000   140.2080   -10.1760    -7.8530  -121.6620    71.7720     9.8140    10.6020    11.3770     2.1680 
  141.6250   140.3270   -10.2030    -7.8770  -121.6330    72.1240     9.8690    10.7040    11.7350     2.1540 
  141.7500   140.4470   -10.2300    -7.9010  -121.6070    71.1570     9.9590    10.8830    12.8240     2.1540 
  141.8750   140.5660   -10.2570    -7.9260  -121.5880    70.7190    10.2600    11.3230    13.1850     2.1620 
  142.0000   140.6860   -10.2840    -7.9500  -121.5670    70.4950    11.0000    12.2230    12.2580     2.1700 
  142.1250   140.8060   -10.3110    -7.9740  -121.5330    69.7820    12.2830    13.8740    12.5810     2.1770 
  142.2500   140.9250   -10.3380    -7.9990  -121.4740    67.5430    14.4070    16.5010    19.0690     2.1730 
  142.3750   141.0450   -10.3650    -8.0230  -121.3720    64.2990    17.7080    20.0520    30.7830     2.1420 
  142.5000   141.1640   -10.3930    -8.0470  -121.2260    61.5110    21.1150    23.4210    38.1120     2.0880 
  142.6250   141.2840   -10.4200    -8.0720  -121.0450    60.5350    23.3260    25.3630    39.4190     2.0360 
  142.7500   141.4030   -10.4470    -8.0960  -120.8590    61.5370    23.7580    25.5730    38.9580     2.0300 
  142.8750   141.5230   -10.4750    -8.1210  -120.7010    64.5360    22.4530    24.1760    34.5570     2.0670 
  143.0000   141.6420   -10.5020    -8.1450  -120.5780    68.6420    20.5900    22.2750    27.0590     2.1200 
  143.1250   141.7620   -10.5300    -8.1700  -120.4900    71.2460    19.0590    20.5910    21.7940     2.1520 
  143.2500   141.8810   -10.5570    -8.1940  -120.4210    71.3960    17.9710    19.3360    19.7610     2.1650 
  143.3750   142.0010   -10.5850    -8.2190  -120.3530    70.1100    17.4840    18.7240    19.6260     2.1610 
  143.5000   142.1200   -10.6120    -8.2430  -120.2890    68.3740    17.5800    18.6760    20.2740     2.1450 
  143.6250   142.2390   -10.6400    -8.2680  -120.2390    68.5720    18.0290    19.0530    20.6970     2.1280 
  143.7500   142.3590   -10.6670    -8.2930  -120.2090    68.5470    18.6990    19.7720    21.4010     2.1270 
  143.8750   142.4780   -10.6950    -8.3170  -120.1990    69.3090    19.3200    20.5210    21.7410     2.1470 
  144.0000   142.5980   -10.7230    -8.3420  -120.1990    69.4550    19.2390    20.4350    20.8610     2.1770 
  144.1250   142.7170   -10.7500    -8.3670  -120.1870    70.0160    18.1460    19.0840    20.8590     2.2020 
  144.2500   142.8360   -10.7780    -8.3920  -120.1550    72.0180    16.1060    16.9170    22.0260     2.2220 
  144.3750   142.9560   -10.8060    -8.4160  -120.1060    75.3190    13.8930    14.5670    19.5560     2.2320 
  144.5000   143.0750   -10.8330    -8.4410  -120.0480    79.4380    12.0710    12.6560    13.2480     2.2290 
  144.6250   143.1940   -10.8610    -8.4660  -119.9970    83.0590    11.0180    11.6070    10.2300     2.2120 
  144.7500   143.3140   -10.8890    -8.4910  -119.9510    86.5800    10.8450    11.5520    13.7020     2.2020 
  144.8750   143.4330   -10.9170    -8.5160  -119.8900    90.4520    11.7820    12.7170    18.1830     2.2040 
  145.0000   143.5520   -10.9450    -8.5400  -119.7940    91.6380    13.9160    14.9890    19.0170     2.2090 
  145.1250   143.6710   -10.9730    -8.5650  -119.6410    89.2550    16.8570    18.2460    21.8320     2.2060 
  145.2500   143.7910   -11.0010    -8.5900  -119.4370    83.2700    20.7390    22.1170    26.8590     2.1930 
  145.3750   143.9100   -11.0290    -8.6150  -119.2150    77.5630    24.5760    26.0180    34.6970     2.1800 
  145.5000   144.0290   -11.0570    -8.6400  -119.0160    73.4030    28.0150    29.4640    42.8850     2.1750 
  145.6250   144.1480   -11.0850    -8.6650  -118.8740    73.3260    30.7940    31.8600    39.3600     2.1800 
  145.7500   144.2680   -11.1130    -8.6900  -118.7900    74.0350    31.7020    32.9950    34.8540     2.1860 
  145.8750   144.3870   -11.1410    -8.7150  -118.7190    75.3270    32.1580    33.4760    38.9770     2.1860 
  146.0000   144.5060   -11.1700    -8.7400  -118.5700    74.8590    32.6620    34.3220    39.2640     2.1810 
  146.1250   144.6250   -11.1980    -8.7650  -118.2390    73.2110    34.5890    36.4950    33.2050     2.1780 
  146.2500   144.7440   -11.2260    -8.7900  -117.7010    69.8660    37.9000    40.4060    34.5000     2.1730 
  146.3750   144.8630   -11.2550    -8.8150  -116.9750    65.2520    43.2970    46.4240    52.5080     2.1660 
  146.5000   144.9820   -11.2830    -8.8410  -116.1620    61.8650    50.5060    53.3400    72.3860     2.1570 
  146.6250   145.1010   -11.3110    -8.8660  -115.3830    61.3720    56.0780    58.8230    73.9900     2.1520 
  146.7500   145.2200   -11.3400    -8.8910  -114.7070    63.6730    59.2260    61.5090    63.7340     2.1580 
  146.8750   145.3400   -11.3680    -8.9160  -114.1420    65.0290    58.7930    61.3070    52.2460     2.1690 
  147.0000   145.4590   -11.3970    -8.9410  -113.6510    65.3820    57.0680    61.0350    44.8800     2.1770 
  147.1250   145.5780   -11.4260    -8.9670  -113.1940    65.3540    58.3660    64.1060    49.3840     2.1700 
  147.2500   145.6970   -11.4540    -8.9920  -112.7120    65.7960    64.8120    70.9180    62.9570     2.1550 
  147.3750   145.8160   -11.4830    -9.0170  -112.1570    65.6460    74.0240    79.1800    76.4510     2.1440 
  147.5000   145.9350   -11.5120    -9.0430  -111.5330    63.7740    80.1380    84.9890    86.8330     2.1530 
  147.6250   146.0530   -11.5410    -9.0680  -110.8450    63.5920    81.7670    85.6780    89.5870     2.1750 
  147.7500   146.1720   -11.5700    -9.0930  -110.1120    64.2710    77.9920    81.7000    74.2190     2.1990 
  147.8750   146.2910   -11.5990    -9.1180  -109.3760    66.4650    71.9280    76.0060    55.2650     2.2070 
  148.0000   146.4100   -11.6280    -9.1440  -108.6690    68.3850    68.4240    72.3560    52.6140     2.2000 
  148.1250   146.5290   -11.6570    -9.1690  -107.9850    69.5960    68.5580    72.7040    56.5720     2.1840 
  148.2500   146.6480   -11.6860    -9.1940  -107.2990    70.1930    72.7630    76.8530    60.1070     2.1720 
  148.3750   146.7670   -11.7160    -9.2200  -106.6200    70.2950    79.9270    83.1580    68.1560     2.1680 
  148.5000   146.8860   -11.7450    -9.2450  -105.9440    71.2970    85.4540    86.6590    76.7250     2.1680 
  148.6250   147.0050   -11.7740    -9.2710  -105.2590    72.1420    79.9930    82.2660    77.6250     2.1710 
  148.7500   147.1230   -11.8040    -9.2960  -104.5930    73.7190    69.9920    72.0570    73.5800     2.1790 
  148.8750   147.2420   -11.8330    -9.3210  -103.9820    75.2110    57.6170    60.5730    65.0730     2.1980 
  149.0000   147.3610   -11.8630    -9.3470  -103.4320    77.2470    48.9900    52.5240    46.6270     2.2180 
  149.1250   147.4800   -11.8920    -9.3720  -102.9760    76.5600    46.9600    50.9860    36.4220     2.2200 
  149.2500   147.5990   -11.9220    -9.3970  -102.6130    73.7520    50.6540    56.5130    48.2460     2.2010 
  149.3750   147.7170   -11.9510    -9.4230  -102.2950    70.3680    63.0270    69.7270    64.5080     2.1820 
  149.5000   147.8360   -11.9810    -9.4480  -101.9780    69.2610    80.1350    87.1470    70.5600     2.1690 
  149.6250   147.9550   -12.0110    -9.4740  -101.6300    70.1290    98.7920   105.1200    75.5170     2.1620 
  149.7500   148.0730   -12.0410    -9.4990  -101.2680    70.2100   115.1850   121.9410    87.3800     2.1530 
  149.8750   148.1920   -12.0700    -9.5250  -100.9670    67.5240   128.6190   136.6230    96.0470     2.1430 
  150.0000   148.3110   -12.1000    -9.5500  -100.7750    65.0790   140.7400   148.5770   104.6750     2.1370 
  150.1250   148.4290   -12.1300    -9.5760  -100.7730    63.8900   152.2040   160.0030   103.2530     2.1300 
  150.2500   148.5480   -12.1600    -9.6010  -101.0060    64.2760   161.3710   172.3880    93.4880     2.1230 
