~V
VERS. 2.00: Ver 2.00
~W
STRT.M 27.0000:
STOP.M 267.0000:
STEP.M 0.1250:
NULL. -999.2500:
UWI. FD10204:
~C
DEPT.M :
TVD. :
DX. :
DY. :
GR.API :
RML.OHMM :
RI. :
RXO.OHMM :
CALI.CM :
SP.MV :
DEN.GM/CC :
~A
# ...
  200.2500   194.0300   -13.2960   -35.6350    54.2350   171.9600   135.3330    24.8380    22.8760   -20.9580     2.2550 
  200.3750   194.1470   -13.3130   -35.6760    51.6480   177.1740   138.6050    23.5960    22.8760   -21.2200     2.2530 
  200.5000   194.2640   -13.3300   -35.7160    49.8230   175.6370   138.2280    22.7880    22.8800   -21.4640     2.2520 
  200.6250   194.3810   -13.3480   -35.7570    53.2470   169.1840   134.8960    24.0450    22.8510   -21.7010     2.2490 
  200.7500   194.4980   -13.3650   -35.7970    57.5460   162.1410   130.8280    25.0900    22.7590   -21.9790     2.2420 
  200.8750   194.6150   -13.3820   -35.8370    57.5060   157.2220   127.6480    24.3870    22.6320   -22.3020     2.2350 
  201.0000   194.7320   -13.4000   -35.8780    53.2480   156.1830   126.6620    23.0320    22.5410   -22.6770     2.2310 
  201.1250   194.8490   -13.4170   -35.9180    49.7650   160.5900   129.1900    22.1750    22.5220   -23.0990     2.2310 
  201.2500   194.9660   -13.4340   -35.9590    49.8890   169.1070   134.5590    22.5770    22.5270   -23.5220     2.2350 
  201.3750   195.0830   -13.4510   -35.9990    51.0980   179.7120   141.5360    23.7800    22.5270   -23.9580     2.2400 
  201.5000   195.2000   -13.4690   -36.0390    51.1170   189.2300   148.2640    25.3840    22.5250   -24.4030     2.2440 
  201.6250   195.3170   -13.4860   -36.0800    51.0550   193.8250   152.6280    27.6910    22.5270   -24.8210     2.2430 
  201.7500   195.4340   -13.5030   -36.1200    51.9270   193.7930   154.5450    31.0350    22.5230   -25.2230     2.2380 
  201.8750   195.5510   -13.5210   -36.1610    54.6700   189.4330   153.9580    34.6410    22.4600   -25.6440     2.2350 
  202.0000   195.6690   -13.5380   -36.2010    57.5460   178.3500   149.3660    36.2300    22.2450   -26.0740     2.2360 
  202.1250   195.7860   -13.5550   -36.2420    55.1500   154.5090   136.4050    35.3320    21.8810   -26.5000     2.2390 
  202.2500   195.9030   -13.5730   -36.2820    49.3510   120.9460   114.7180    34.4560    21.5730   -26.9340     2.2390 
  202.3750   196.0200   -13.5900   -36.3220    47.1010    85.1220    86.9950    35.6370    21.4390   -27.3370     2.2440 
  202.5000   196.1370   -13.6070   -36.3630    51.3940    59.4030    59.2420    34.7260    21.4300   -27.6970     2.2730 
  202.6250   196.2540   -13.6250   -36.4030    59.2740    37.2720    38.3920    29.8140    21.4530   -28.0460     2.3570 
  202.7500   196.3710   -13.6420   -36.4440    64.3740    23.3430    24.7680    23.7550    21.5430   -28.4100     2.4860 
  202.8750   196.4880   -13.6590   -36.4840    64.0770    15.2850    16.7170    18.1760    21.7190   -28.7610     2.6250 
  203.0000   196.6050   -13.6760   -36.5240    58.9590    11.1500    12.3910    13.5400    21.9180   -29.0570     2.7240 
  203.1250   196.7220   -13.6940   -36.5650    52.7840     9.8750    10.7740    11.1080    22.1660   -29.2900     2.7470 
  203.2500   196.8390   -13.7110   -36.6050    48.5700    10.1150    10.6450    11.0620    22.5710   -29.4920     2.7190 
  203.3750   196.9560   -13.7280   -36.6460    44.8270    11.2800    11.5230    12.8100    23.1010   -29.7000     2.6600 
  203.5000   197.0730   -13.7460   -36.6860    40.9610    12.7640    12.9010    16.3380    23.5300   -29.9340     2.5930 
  203.6250   197.1900   -13.7630   -36.7260    39.4860    13.6500    13.9330    19.0460    23.6340   -30.1690     2.5430 
  203.7500   197.3070   -13.7800   -36.7670    41.4530    13.3760    13.9280    21.4200    23.5620   -30.3670     2.5250 
  203.8750   197.4240   -13.7980   -36.8070    46.4320    12.0360    12.8390    19.9840    23.4800   -30.5190     2.5360 
  204.0000   197.5410   -13.8150   -36.8480    52.2280    10.2720    11.2070    14.5370    23.4470   -30.6590     2.5610 
  204.1250   197.6580   -13.8320   -36.8880    55.4830     8.8150     9.7060    11.1020    23.4630   -30.8040     2.5700 
  204.2500   197.7750   -13.8500   -36.9280    56.6560     7.8800     8.6270     9.3430    23.5420   -30.9210     2.5530 
  204.3750   197.8920   -13.8670   -36.9690    56.4250     7.4270     7.9840     8.5360    23.7200   -30.9790     2.5190 
  204.5000   198.0090   -13.8840   -37.0090    54.2540     7.3270     7.6870     8.8520    24.1080   -30.9760     2.4870 
  204.6250   198.1260   -13.9010   -37.0500    49.5550     7.4330     7.6160     9.2200    24.7820   -30.9450     2.4760 
  204.7500   198.2430   -13.9190   -37.0900    45.7300     7.5590     7.6000     9.1700    25.4560   -30.8960     2.4910 
  204.8750   198.3600   -13.9360   -37.1300    44.0940     7.6290     7.5710     8.8070    25.8790   -30.8240     2.5190 
  205.0000   198.4770   -13.9530   -37.1710    44.6320     7.6350     7.5180     8.6560    25.9840   -30.7120     2.5350 
  205.1250   198.5940   -13.9710   -37.2120    46.2260     7.6410     7.4790     8.7350    25.6700   -30.5390     2.5170 
  205.2500   198.7100   -13.9890   -37.2530    48.0930     7.7300     7.5090     9.2000    25.0730   -30.3360     2.4720 
  205.3750   198.8270   -14.0070   -37.2940    50.0910     7.9260     7.6290     9.8820    24.4750   -30.1470     2.4150 
  205.5000   198.9440   -14.0260   -37.3350    51.3690     8.1780     7.8040    10.9810    24.0740   -29.9720     2.3650 
  205.6250   199.0600   -14.0440   -37.3760    50.5960     8.3590     7.9370    12.4080    23.6170   -29.7890     2.3420 
  205.7500   199.1770   -14.0620   -37.4170    48.5610     8.3700     7.9280    13.6450    22.9290   -29.5900     2.3410 
  205.8750   199.2940   -14.0800   -37.4580    46.3780     8.1830     7.7290    12.6320    22.2890   -29.3870     2.3530 
  206.0000   199.4110   -14.0980   -37.4990    45.5510     7.8700     7.3850    10.7270    21.9360   -29.1960     2.3660 
  206.1250   199.5270   -14.1160   -37.5400    47.6340     7.5960     7.0390     9.0740    21.8440   -29.0250     2.3790 
  206.2500   199.6440   -14.1340   -37.5810    50.0230     7.4990     6.8370     8.7140    21.8070   -28.8630     2.3950 
  206.3750   199.7610   -14.1520   -37.6210    49.3050     7.6230     6.8350     8.9580    21.7800   -28.7100     2.4140 
  206.5000   199.8770   -14.1700   -37.6620    46.3710     7.9240     7.0180     9.3220    21.8160   -28.5720     2.4280 
  206.6250   199.9940   -14.1880   -37.7030    47.5860     8.2650     7.2930    10.0030    21.9870   -28.4590     2.4240 
  206.7500   200.1110   -14.2060   -37.7440    52.2140     8.4690     7.4960    10.6590    22.2230   -28.3860     2.4050 
  206.8750   200.2270   -14.2240   -37.7850    55.4160     8.4460     7.5250    10.2290    22.3970   -28.3490     2.3890 
  207.0000   200.3440   -14.2430   -37.8260    56.6730     8.2050     7.3570     9.2550    22.4500   -28.3390     2.3900 
  207.1250   200.4610   -14.2610   -37.8670    57.0000     7.8140     7.0190     8.6390    22.4440   -28.3920     2.4130 
  207.2500   200.5770   -14.2790   -37.9080    55.9050     7.3950     6.6200     8.1650    22.4430   -28.5090     2.4410 
  207.3750   200.6940   -14.2970   -37.9490    53.1270     7.0150     6.2430     7.4330    22.4420   -28.6540     2.4610 
  207.5000   200.8110   -14.3150   -37.9900    51.1850     6.7170     5.9470     6.6500    22.4380   -28.8140     2.4630 
  207.6250   200.9280   -14.3330   -38.0310    53.0940     6.5590     5.7890     6.7960    22.4350   -28.9860     2.4490 
  207.7500   201.0440   -14.3510   -38.0720    54.7150     6.5540     5.7640     7.2540    22.4320   -29.1160     2.4320 
  207.8750   201.1610   -14.3690   -38.1130    52.8070     6.7130     5.8680     7.5580    22.4300   -29.2040     2.4220 
  208.0000   201.2780   -14.3870   -38.1540    48.5740     7.0010     6.0700     7.7250    22.4310   -29.2650     2.4200 
  208.1250   201.3940   -14.4050   -38.1950    46.3540     7.3160     6.3030     7.9050    22.4350   -29.2920     2.4280 
  208.2500   201.5110   -14.4230   -38.2360    47.1250     7.5330     6.4740     8.0390    22.4410   -29.2820     2.4360 
  208.3750   201.6280   -14.4420   -38.2770    47.7880     7.5790     6.5270     7.9630    22.4450   -29.2550     2.4410 
