~V
VERS. 2.00: Ver 2.00
~W
STRT.M 30.0000:
STOP.M 210.0000:
STEP.M 0.1250:
NULL. -999.2500:
UWI. FD10800:
~C
DEPT.M :
TVD. :
DX. :
DY. :
SP.MV :
GR.API :
RI. :
RML.OHMM :
RXO.OHMM :
DEN.GM/CC :
~A
# ...
   84.7500    84.6720    -1.7580     0.6570   -32.5540    80.5860     4.3590     5.1010     4.8840     2.3140 
   84.8750    84.7960    -1.7740     0.6680   -33.2590    78.4090     4.6200     5.3880     5.1670     2.2390 
   85.0000    84.9190    -1.7900     0.6800   -33.7470    74.9160     4.8420     5.6160     5.5010     2.1600 
   85.1250    85.0430    -1.8060     0.6910   -33.9980    70.9840     5.0160     5.7790     5.8030     2.1140 
   85.2500    85.1660    -1.8230     0.7020   -34.1780    67.9710     5.0900     5.8340     5.9280     2.0910 
   85.3750    85.2900    -1.8390     0.7130   -34.1070    65.6050     5.0870     5.8230     5.9160     2.0730 
   85.5000    85.4130    -1.8560     0.7240   -33.9410    65.6020     5.0420     5.7800     5.9580     2.0630 
   85.6250    85.5360    -1.8730     0.7360   -33.7170    67.5480     4.9770     5.7280     5.9600     2.0560 
   85.7500    85.6600    -1.8890     0.7470   -33.4520    69.3000     4.8870     5.6290     5.8500     2.0550 
   85.8750    85.7830    -1.9070     0.7590   -33.0250    70.4870     4.7440     5.4810     5.7340     2.0680 
   86.0000    85.9060    -1.9240     0.7700   -32.5060    70.9300     4.5690     5.2780     5.4910     2.0970 
   86.1250    86.0300    -1.9410     0.7820   -31.9880    72.7210     4.3590     5.0250     4.8510     2.1230 
   86.2500    86.1530    -1.9580     0.7930   -31.5540    74.5750     4.1700     4.8010     4.2940     2.1460 
   86.3750    86.2760    -1.9760     0.8050   -31.2790    77.2850     4.0130     4.6170     4.3520     2.1750 
   86.5000    86.3990    -1.9930     0.8170   -31.0110    79.8520     3.8740     4.4450     4.7260     2.2120 
   86.6250    86.5220    -2.0110     0.8290   -30.7600    81.7440     3.7970     4.3490     4.8970     2.2360 
   86.7500    86.6450    -2.0290     0.8410   -30.5400    81.4710     3.8210     4.3600     4.4870     2.2320 
   86.8750    86.7690    -2.0470     0.8520   -30.5670    79.8180     3.9340     4.4850     4.0860     2.2010 
   87.0000    86.8920    -2.0650     0.8640   -30.8890    78.4160     4.1270     4.7110     4.5560     2.1660 
   87.1250    87.0150    -2.0840     0.8770   -31.4820    77.8940     4.3860     5.0300     5.3540     2.1390 
   87.2500    87.1380    -2.1020     0.8890   -31.9980    77.2510     4.6290     5.3210     5.6890     2.1160 
   87.3750    87.2610    -2.1210     0.9010   -32.2180    76.7340     4.7340     5.4310     5.6820     2.1020 
   87.5000    87.3840    -2.1400     0.9130   -32.2380    76.7120     4.6850     5.3500     5.5020     2.1060 
   87.6250    87.5070    -2.1590     0.9250   -32.1060    78.4420     4.4390     5.0470     5.1750     2.1320 
   87.7500    87.6300    -2.1780     0.9370   -31.9300    80.5890     4.1770     4.7390     4.7370     2.1590 
   87.8750    87.7520    -2.1970     0.9500   -31.8200    81.9720     4.0100     4.5840     4.3570     2.1610 
   88.0000    87.8750    -2.2170     0.9620   -31.9570    81.6490     3.9730     4.5770     4.4210     2.1450 
   88.1250    87.9980    -2.2360     0.9750   -32.4670    80.2940     4.0810     4.7450     4.9840     2.1390 
   88.2500    88.1210    -2.2560     0.9870   -33.1400    78.6060     4.2850     5.0060     5.7030     2.1740 
   88.3750    88.2440    -2.2760     1.0000   -33.6730    75.6430     4.5280     5.2530     6.1930     2.2360 
   88.5000    88.3660    -2.2960     1.0120   -34.0930    72.8540     4.8420     5.5560     6.3840     2.2760 
   88.6250    88.4890    -2.3160     1.0250   -34.3580    72.5790     5.4020     6.1400     6.5610     2.2720 
   88.7500    88.6120    -2.3360     1.0380   -34.4700    73.4280     6.3930     7.2640     7.3090     2.2940 
   88.8750    88.7350    -2.3560     1.0510   -34.4270    73.2610     7.7600     8.8800    13.3720     2.3720 
   89.0000    88.8570    -2.3770     1.0640   -34.2700    69.8600     9.3560    10.7820    24.7780     2.4520 
   89.1250    88.9800    -2.3970     1.0770   -34.2710    66.4000    10.5670    12.1170    30.4330     2.4190 
   89.2500    89.1020    -2.4180     1.0900   -34.4460    64.4160    10.6210    12.0210    26.9750     2.2880 
   89.3750    89.2250    -2.4390     1.1030   -34.7820    64.0250     9.4390    10.4990    22.1470     2.1410 
   89.5000    89.3470    -2.4600     1.1160   -35.1680    64.7660     7.6070     8.2970    17.1530     2.0620 
   89.6250    89.4700    -2.4810     1.1290   -35.5780    66.2390     5.8500     6.3250    10.0550     2.0440 
   89.7500    89.5920    -2.5020     1.1420   -35.8330    68.5890     4.8310     5.2510     5.8890     2.0470 
   89.8750    89.7150    -2.5230     1.1550   -35.8870    69.7740     4.3440     4.7910     5.3790     2.0440 
   90.0000    89.8370    -2.5450     1.1690   -35.8060    70.4040     4.0900     4.5790     5.2500     2.0430 
   90.1250    89.9600    -2.5660     1.1820   -35.6120    69.8150     4.0210     4.5570     5.2750     2.0520 
   90.2500    90.0820    -2.5880     1.1950   -35.3950    69.6760     4.0610     4.6290     5.3320     2.0750 
   90.3750    90.2050    -2.6100     1.2080   -35.1160    68.9390     4.0940     4.6530     5.4030     2.1020 
   90.5000    90.3270    -2.6320     1.2210   -34.9440    68.3640     4.1130     4.6560     5.4660     2.1130 
   90.6250    90.4490    -2.6540     1.2350   -34.9040    68.5760     4.0940     4.6120     5.3810     2.1060 
   90.7500    90.5710    -2.6760     1.2480   -35.0190    71.6060     4.0670     4.5450     5.1790     2.0980 
   90.8750    90.6940    -2.6990     1.2610   -35.2000    75.3630     4.0420     4.4860     5.0980     2.0940 
   91.0000    90.8160    -2.7210     1.2750   -35.3680    77.0910     4.0620     4.4900     5.1970     2.0920 
   91.1250    90.9380    -2.7440     1.2880   -35.3920    74.7960     4.1580     4.6080     5.4010     2.0890 
   91.2500    91.0600    -2.7670     1.3010   -35.3750    71.3430     4.3330     4.8430     5.6650     2.0930 
   91.3750    91.1820    -2.7900     1.3150   -35.2820    70.0320     4.5810     5.1650     5.9800     2.0980 
   91.5000    91.3050    -2.8130     1.3280   -35.1650    70.9080     4.8090     5.4570     6.2050     2.0940 
   91.6250    91.4270    -2.8360     1.3420   -35.1310    71.8400     4.9190     5.5950     6.2120     2.0910 
   91.7500    91.5490    -2.8600     1.3550   -35.0730    71.9840     4.8900     5.5560     6.1540     2.0920 
   91.8750    91.6710    -2.8830     1.3690   -35.0390    70.9300     4.7530     5.3880     5.9150     2.0990 
   92.0000    91.7930    -2.9070     1.3820   -35.0090    70.4550     4.5740     5.1720     5.5520     2.0980 
   92.1250    91.9150    -2.9310     1.3960   -35.0210    70.7100     4.4320     5.0050     5.5980     2.0880 
   92.2500    92.0360    -2.9550     1.4100   -35.0600    71.6340     4.3940     4.9680     5.9040     2.0710 
   92.3750    92.1580    -2.9790     1.4230   -35.1170    72.6610     4.5190     5.1270     5.9820     2.0600 
   92.5000    92.2800    -3.0030     1.4370   -35.1750    73.6500     4.7370     5.3920     5.9530     2.0570 
   92.6250    92.4020    -3.0280     1.4510   -35.2020    72.8840     4.9380     5.6180     6.8560     2.0590 
   92.7500    92.5240    -3.0520     1.4650   -35.0940    70.7330     5.0050     5.6670     8.2760     2.0580 
   92.8750    92.6450    -3.0770     1.4790   -34.8440    68.5380     4.8910     5.4800     7.9810     2.0610 
   93.0000    92.7670    -3.1020     1.4930   -34.5680    68.7080     4.6840     5.1870     6.5140     2.0640 
   93.1250    92.8890    -3.1270     1.5070   -34.0780    71.1320     4.4440     4.8900     5.8200     2.0670 
   93.2500    93.0100    -3.1520     1.5210   -33.4350    72.5330     4.2390     4.6640     5.8230     2.0710 
   93.3750    93.1320    -3.1770     1.5360   -32.6300    73.6300     4.0890     4.5410     5.8700     2.0850 
   93.5000    93.2540    -3.2030     1.5500   -31.7100    73.3660     4.0130     4.4990     5.6890     2.1120 
   93.6250    93.3750    -3.2290     1.5640   -30.6520    73.6350     3.9200     4.4140     5.1510     2.1450 
   93.7500    93.4960    -3.2540     1.5790   -29.6210    74.8830     3.7780     4.2540     4.8010     2.1850 
