~V
VERS. 2.00: Ver 2.00
~W
STRT.M 15.0000:
STOP.M 236.0000:
STEP.M 0.1250:
NULL. -999.2500:
UWI. FD10614:
~C
DEPT.M :
TVD. :
DX. :
DY. :
DEN.GM/CC :
GR.API :
RML.OHMM :
RI. :
RXO.OHMM :
CALI.CM :
SP.MV :
~A
# ...
   72.7500    72.4870     2.3050    -0.3120     2.1670    62.6350    14.7110    12.3040    11.9690    23.3120   -17.5480 
   72.8750    72.6100     2.3250    -0.3030     2.1510    62.7100    14.7960    12.3760    12.4480    23.3630   -17.4180 
   73.0000    72.7330     2.3450    -0.2940     2.1440    61.8380    14.8390    12.4370    12.4740    23.3880   -17.2560 
   73.1250    72.8560     2.3650    -0.2850     2.1460    60.1970    14.8280    12.4760    12.1800    23.4290   -17.0670 
   73.2500    72.9790     2.3850    -0.2760     2.1500    59.0590    14.8040    12.5120    12.0390    23.4780   -16.8610 
   73.3750    73.1020     2.4040    -0.2670     2.1500    57.3420    14.7960    12.5660    12.4880    23.5330   -16.6440 
   73.5000    73.2250     2.4240    -0.2580     2.1460    54.8330    14.8060    12.6370    12.9730    23.5940   -16.4380 
   73.6250    73.3480     2.4440    -0.2490     2.1380    56.3980    14.7820    12.6920    12.9460    23.6790   -16.3110 
   73.7500    73.4700     2.4640    -0.2400     2.1310    60.9710    14.6680    12.6780    12.5440    23.6960   -16.2650 
   73.8750    73.5930     2.4840    -0.2320     2.1280    63.7770    14.4270    12.5510    12.2120    23.5250   -16.2770 
   74.0000    73.7160     2.5030    -0.2230     2.1330    62.7830    14.0610    12.3020    11.7040    23.2180   -16.2970 
   74.1250    73.8390     2.5230    -0.2140     2.1430    62.9380    13.5890    11.9470    11.3490    23.0100   -16.3090 
   74.2500    73.9620     2.5430    -0.2050     2.1490    64.9220    13.0600    11.5360    10.9840    22.8680   -16.3600 
   74.3750    74.0850     2.5630    -0.1960     2.1470    67.4340    12.4850    11.0730    10.7220    22.8260   -16.3640 
   74.5000    74.2080     2.5820    -0.1870     2.1420    70.7650    11.8680    10.5580    10.4860    22.9290   -16.3810 
   74.6250    74.3310     2.6020    -0.1780     2.1440    74.7030    11.2300    10.0050    10.3700    23.1350   -16.3060 
   74.7500    74.4540     2.6220    -0.1690     2.1560    77.3870    10.6380     9.4740     9.3690    23.2380   -16.2120 
   74.8750    74.5770     2.6420    -0.1600     2.1740    78.1940    10.1670     9.0360     7.9060    23.2120   -16.0920 
   75.0000    74.7000     2.6620    -0.1510     2.1910    77.1590     9.8910     8.7600     7.0210    23.1420   -16.0290 
   75.1250    74.8230     2.6810    -0.1420     2.1990    74.7330     9.8760     8.7170     7.6400    23.0070   -16.0390 
   75.2500    74.9450     2.7010    -0.1330     2.1990    73.7690    10.0420     8.8550     8.7380    22.8080   -16.0610 
   75.3750    75.0680     2.7210    -0.1240     2.1920    74.7070    10.3030     9.1120     9.4990    22.6830   -16.1880 
   75.5000    75.1910     2.7410    -0.1150     2.1820    74.3400    10.5630     9.4060     9.6190    22.6540   -16.3530 
   75.6250    75.3140     2.7600    -0.1060     2.1710    71.6730    10.7390     9.6510     9.4340    22.6620   -16.5470 
   75.7500    75.4370     2.7800    -0.0970     2.1650    69.6510    10.8300     9.8140     9.3150    22.6550   -16.7090 
   75.8750    75.5600     2.8000    -0.0880     2.1660    68.3930    10.8580     9.9020     9.4770    22.6190   -16.8710 
   76.0000    75.6830     2.8200    -0.0790     2.1760    66.2250    10.8550     9.9360    10.2130    22.5920   -16.9590 
   76.1250    75.8060     2.8400    -0.0700     2.1900    64.1050    10.8310     9.9270    11.4180    22.6050   -17.0250 
   76.2500    75.9290     2.8590    -0.0610     2.2030    63.7880    10.7590     9.8700    11.2950    22.6520   -17.0900 
   76.3750    76.0520     2.8790    -0.0520     2.2110    65.2640    10.5870     9.7270     9.9940    22.6970   -17.0920 
   76.5000    76.1750     2.8990    -0.0430     2.2200    67.9290    10.2620     9.4440     9.4720    22.7210   -16.9880 
   76.6250    76.2980     2.9190    -0.0340     2.2330    70.7720     9.7650     8.9800     9.4650    22.7270   -16.7870 
   76.7500    76.4210     2.9390    -0.0250     2.2510    72.7090     9.2270     8.4460     9.1900    22.7170   -16.5650 
   76.8750    76.5430     2.9580    -0.0160     2.2670    73.2580     8.8210     7.9920     8.4050    22.6800   -16.4170 
   77.0000    76.6660     2.9780    -0.0070     2.2770    73.3920     8.7300     7.7780     7.3740    22.6530   -16.3670 
   77.1250    76.7890     2.9980     0.0020     2.2750    74.1640     9.1660     7.9950     8.0640    22.6470   -16.3920 
   77.2500    76.9120     3.0180     0.0110     2.2630    73.9120    10.0370     8.6150     9.6430    22.6500   -16.4270 
   77.3750    77.0350     3.0370     0.0200     2.2460    72.4790    11.1640     9.5550    11.8250    22.6640   -16.4780 
   77.5000    77.1580     3.0570     0.0290     2.2290    71.7770    12.2420    10.5950    13.5490    22.6940   -16.6070 
   77.6250    77.2810     3.0770     0.0380     2.2180    72.1350    12.8420    11.3070    13.6940    22.6980   -16.8060 
   77.7500    77.4040     3.0970     0.0470     2.2160    72.5820    12.8720    11.4720    11.8960    22.6780   -17.0900 
   77.8750    77.5270     3.1170     0.0560     2.2270    73.0370    12.4650    11.1600    10.6670    22.6550   -17.3050 
   78.0000    77.6500     3.1360     0.0650     2.2440    73.0000    11.9240    10.6590    10.1780    22.6430   -17.5020 
   78.1250    77.7730     3.1560     0.0740     2.2550    70.3180    11.6230    10.3190     9.9110    22.6480   -17.6930 
   78.2500    77.8960     3.1760     0.0830     2.2510    67.9890    11.7050    10.2900     9.6470    22.6630   -17.9010 
   78.3750    78.0190     3.1960     0.0920     2.2310    67.7120    12.1510    10.5840    10.0520    22.6880   -18.1460 
   78.5000    78.1410     3.2160     0.1010     2.2010    67.5930    12.8270    11.1200    11.5670    22.6960   -18.3900 
   78.6250    78.2640     3.2350     0.1100     2.1760    64.1490    13.5100    11.7370    13.3670    22.6770   -18.6950 
   78.7500    78.3870     3.2550     0.1190     2.1650    62.3430    14.0000    12.2320    13.1690    22.6540   -18.9330 
   78.8750    78.5100     3.2750     0.1280     2.1680    65.1230    14.2330    12.5130    12.3490    22.6470   -19.1500 
   79.0000    78.6330     3.2950     0.1370     2.1790    69.6240    14.2550    12.6000    12.2920    22.6470   -19.3280 
   79.1250    78.7560     3.3140     0.1460     2.1880    71.4510    14.1770    12.5760    13.1740    22.6610   -19.4550 
   79.2500    78.8790     3.3340     0.1550     2.1890    70.3900    14.1020    12.5400    13.4660    22.7110   -19.5010 
   79.3750    79.0020     3.3540     0.1640     2.1810    68.7250    14.0290    12.5000    13.1270    22.7940   -19.4940 
   79.5000    79.1250     3.3740     0.1730     2.1700    68.1330    13.9050    12.4070    12.7370    22.8430   -19.4340 
   79.6250    79.2480     3.3940     0.1820     2.1670    68.7200    13.6750    12.1890    11.8050    22.8060   -19.3120 
   79.7500    79.3710     3.4130     0.1910     2.1760    71.0680    13.4000    11.9010    11.0100    22.7130   -19.1660 
   79.8750    79.4940     3.4330     0.2000     2.1960    74.5150    13.1850    11.6500    10.9700    22.6580   -19.0570 
   80.0000    79.6160     3.4530     0.2090     2.2180    75.9750    13.1320    11.5320    11.0850    22.6450   -18.9540 
   80.1250    79.7390     3.4730     0.2180     2.2300    72.7730    13.3100    11.6160    11.5370    22.6440   -18.8190 
   80.2500    79.8620     3.4920     0.2270     2.2230    68.9020    13.6220    11.8400    13.5560    22.6870   -18.7110 
   80.3750    79.9850     3.5120     0.2360     2.1990    67.0270    13.9370    12.1130    17.1580    22.8250   -18.6670 
   80.5000    80.1080     3.5320     0.2450     2.1680    65.5660    14.1200    12.3190    19.0840    22.9640   -18.6870 
   80.6250    80.2310     3.5520     0.2540     2.1490    63.3020    14.0450    12.3280    14.8600    22.9170   -18.7180 
   80.7500    80.3540     3.5720     0.2630     2.1490    63.8750    13.7790    12.1640    12.4310    22.7760   -18.7820 
   80.8750    80.4770     3.5910     0.2720     2.1690    66.5910    13.4240    11.9020    11.9550    22.6770   -18.7660 
