~V
VERS. 2.00: Ver 2.00
~W
STRT.M 32.0000:
STOP.M 269.0000:
STEP.M 0.1250:
NULL. -999.2500:
UWI. FD10881:
~C
DEPT.M :
TVD. :
DX. :
DY. :
SP.MV :
GR.API :
RI. :
RML.OHMM :
RXO.OHMM :
~A
# ...
  232.0000   213.8880   -62.2550   -32.6450   -16.9060    75.1000    24.7910    24.0360    22.5190 
  232.1250   213.9870   -62.3210   -32.6830   -16.4970    76.4630    27.3860    26.6440    27.3720 
  232.2500   214.0860   -62.3870   -32.7200   -16.2970    78.0480    30.9590    30.2050    34.1410 
  232.3750   214.1850   -62.4530   -32.7580   -16.3320    80.3580    34.3210    33.6140    41.3490 
  232.5000   214.2850   -62.5190   -32.7960   -16.4920    81.2520    36.8830    36.1980    44.9850 
  232.6250   214.3840   -62.5850   -32.8330   -16.7600    78.5310    38.0160    37.3460    45.8450 
  232.7500   214.4830   -62.6510   -32.8710   -16.9930    75.3500    37.9230    37.2940    47.7190 
  232.8750   214.5820   -62.7170   -32.9090   -16.8840    75.7470    36.8580    36.3450    41.5950 
  233.0000   214.6820   -62.7820   -32.9480   -16.3090    76.0670    35.5030    35.1860    30.1230 
  233.1250   214.7810   -62.8480   -32.9860   -15.5010    74.1770    34.4840    34.4090    32.5630 
  233.2500   214.8800   -62.9130   -33.0250   -14.7860    74.5530    34.0330    34.2250    40.9440 
  233.3750   214.9790   -62.9790   -33.0630   -14.5570    77.8620    34.2730    34.7670    35.8850 
  233.5000   215.0780   -63.0440   -33.1020   -14.9660    78.8100    35.4050    36.2080    30.2520 
  233.6250   215.1780   -63.1100   -33.1410   -15.6160    75.3900    37.2570    38.3390    38.1510 
  233.7500   215.2770   -63.1750   -33.1800   -16.2690    70.9990    39.4730    40.7280    49.2370 
  233.8750   215.3760   -63.2410   -33.2180   -16.6710    68.2020    41.3850    42.7180    51.2810 
  234.0000   215.4750   -63.3070   -33.2570   -16.5300    67.8880    42.4600    43.7200    51.9530 
  234.1250   215.5740   -63.3720   -33.2950   -16.0590    68.5370    42.3990    43.5370    55.1450 
  234.2500   215.6730   -63.4380   -33.3340   -15.6850    67.1840    41.4160    42.4670    52.1200 
  234.3750   215.7720   -63.5040   -33.3730   -15.3850    63.9820    39.9390    40.8980    45.6700 
  234.5000   215.8710   -63.5700   -33.4110   -15.0250    59.9890    38.0570    38.9930    39.7890 
  234.6250   215.9700   -63.6360   -33.4490   -14.6610    58.6400    36.2810    37.2370    35.9730 
  234.7500   216.0690   -63.7020   -33.4880   -14.2210    61.6060    35.2530    36.3020    37.9890 
  234.8750   216.1680   -63.7680   -33.5260   -13.6960    67.9830    35.2760    36.4820    45.0390 
  235.0000   216.2670   -63.8340   -33.5640   -13.1050    72.5140    36.4570    37.8430    48.3100 
  235.1250   216.3660   -63.9000   -33.6030   -12.4290    71.1930    38.9130    40.5740    43.7350 
  235.2500   216.4650   -63.9660   -33.6410   -11.8500    65.5580    42.4240    44.3930    47.5230 
  235.3750   216.5640   -64.0320   -33.6790   -11.5110    62.0180    46.0020    48.2510    60.9470 
  235.5000   216.6630   -64.0980   -33.7170   -11.3460    64.1700    49.3180    51.7870    62.6050 
  235.6250   216.7620   -64.1650   -33.7550   -11.3390    67.5970    51.0710    53.6530    57.4210 
  235.7500   216.8610   -64.2310   -33.7930   -11.5450    68.4540    51.6500    54.3910    65.1610 
  235.8750   216.9600   -64.2970   -33.8300   -11.6800    67.3680    51.6530    54.6620    74.0220 
  236.0000   217.0590   -64.3640   -33.8680   -11.3700    67.9880    51.4900    54.8610    85.8110 
  236.1250   217.1580   -64.4300   -33.9060   -10.6160    70.3080    51.3030    55.0080   102.3150 
  236.2500   217.2570   -64.4970   -33.9430    -9.7060    72.6790    51.0420    55.1510    87.7180 
  236.3750   217.3560   -64.5630   -33.9810    -8.9660    73.0520    50.5850    55.0800    75.1940 
  236.5000   217.4550   -64.6300   -34.0180    -8.7510    69.5150    49.7600    54.6040    86.2270 
  236.6250   217.5540   -64.6960   -34.0560    -9.0550    66.2080    48.8270    53.9700    82.2500 
  236.7500   217.6530   -64.7630   -34.0930    -9.6040    65.6980    47.6820    52.9570    83.0170 
  236.8750   217.7520   -64.8290   -34.1300   -10.2230    66.6740    46.5370    51.8070    99.4510 
  237.0000   217.8510   -64.8960   -34.1670   -10.5660    65.8790    45.5200    50.6720   103.6730 
  237.1250   217.9500   -64.9630   -34.2050   -10.4010    64.1710    44.6580    49.6120    92.5680 
  237.2500   218.0490   -65.0290   -34.2420    -9.9960    63.3840    43.8350    48.6190    78.6920 
  237.3750   218.1480   -65.0950   -34.2790    -9.7470    63.8140    43.0830    47.7750    81.5320 
  237.5000   218.2470   -65.1620   -34.3170    -9.6480    65.2630    42.4610    47.3080   102.6540 
  237.6250   218.3460   -65.2280   -34.3540    -9.6980    67.6850    42.2960    47.8190   113.2400 
  237.7500   218.4450   -65.2950   -34.3920   -10.0580    69.1580    42.1190    48.0790    98.6010 
  237.8750   218.5440   -65.3610   -34.4290   -10.6690    68.8190    38.6190    43.8810    72.5410 
  238.0000   218.6430   -65.4270   -34.4670   -11.4290    68.0880    30.9100    34.9430    58.5640 
  238.1250   218.7420   -65.4940   -34.5040   -12.2570    68.9950    21.3720    23.6430    60.8870 
  238.2500   218.8420   -65.5600   -34.5420   -13.1120    71.2350    12.4270    13.6860    84.4940 
  238.3750   218.9410   -65.6260   -34.5800   -13.9130    74.2930     7.6990     8.7030    97.0770 
  238.5000   219.0400   -65.6920   -34.6170   -14.8220    79.4000     5.7910     6.7180    55.5150 
  238.6250   219.1390   -65.7580   -34.6550   -15.8060    84.9110     5.1290     6.1430    13.9190 
  238.7500   219.2380   -65.8240   -34.6940   -16.3220    85.9860     5.0770     6.2710     6.4770 
  238.8750   219.3370   -65.8910   -34.7320   -16.7910    83.3520     5.2500     6.6040     6.8560 
  239.0000   219.4360   -65.9570   -34.7700   -17.4000    83.5430     5.5130     6.9560     7.2510 
  239.1250   219.5350   -66.0230   -34.8070   -17.5850    87.2880     5.7080     7.1720     7.9220 
  239.2500   219.6340   -66.0890   -34.8450   -17.1980    88.8070     5.7430     7.1680     8.5370 
  239.3750   219.7330   -66.1560   -34.8830   -16.4130    85.7200     5.5790     6.9340     8.8260 
  239.5000   219.8320   -66.2220   -34.9200   -15.5700    81.4890     5.2820     6.5600     8.7760 
  239.6250   219.9310   -66.2880   -34.9580   -15.0790    79.7870     4.9280     6.1230     8.4720 
  239.7500   220.0300   -66.3550   -34.9960   -14.9100    82.2760     4.5840     5.7050     8.7460 
  239.8750   220.1290   -66.4210   -35.0340   -14.7810    87.2680     4.2960     5.3730     8.6410 
  240.0000   220.2280   -66.4870   -35.0710   -14.5230    90.5870     4.1000     5.2080     7.3290 
  240.1250   220.3270   -66.5540   -35.1090   -14.1720    90.3190     4.0090     5.2160     6.2350 
  240.2500   220.4260   -66.6200   -35.1470   -13.7170    86.7470     4.0310     5.3650     6.3110 
  240.3750   220.5250   -66.6860   -35.1840   -13.2380    83.2000     4.0930     5.5350     6.8110 
  240.5000   220.6240   -66.7520   -35.2220   -12.8980    82.0020     4.1440     5.6410     6.8930 
  240.6250   220.7230   -66.8180   -35.2600   -12.6390    81.5370     4.1590     5.6800     6.7860 
  240.7500   220.8220   -66.8840   -35.2980   -12.4780    80.8420     4.1400     5.6700     6.8560 
  240.8750   220.9220   -66.9510   -35.3360   -12.4030    80.9090     4.0910     5.6130     6.8760 
  241.0000   221.0210   -67.0170   -35.3740   -12.4120    82.4240     4.0250     5.5360     6.6040 
  241.1250   221.1200   -67.0830   -35.4120   -12.4780    82.8770     3.9650     5.4570     6.3660 
  241.2500   221.2190   -67.1490   -35.4490   -12.6060    82.2590     3.9150     5.3840     6.6990 
  241.3750   221.3180   -67.2140   -35.4870   -12.7310    81.3220     3.9220     5.3950     7.1270 
  241.5000   221.4170   -67.2800   -35.5250   -12.8330    80.5010     3.9970     5.5190     6.7900 
  241.6250   221.5170   -67.3460   -35.5630   -13.0400    77.9830     4.1170     5.7280     6.2940 
  241.7500   221.6160   -67.4120   -35.6010   -13.2940    74.4510     4.2320     5.9400     6.8340 
  241.8750   221.7150   -67.4780   -35.6400   -13.4280    73.0850     4.2640     6.0180     8.8920 
