~V
VERS. 2.00: Ver 2.00
~W
STRT.M 15.0000:
STOP.M 282.0000:
STEP.M 0.1250:
NULL. -999.2500:
UWI. FD10218:
~C
DEPT.M :
TVD. :
DX. :
DY. :
DEN.GM/CC :
GR.API :
RML.OHMM :
RI. :
RXO.OHMM :
CALI.CM :
SP.MV :
~A
# ...
  254.2500   247.6930    31.1750    30.0230     2.4080    73.3700    11.3070    10.7670     9.5200    22.5380    -7.6360 
  254.3750   247.8100    31.2070    30.0530     2.4180    77.8700    11.3150    10.8170     9.7290    21.6270    -7.7040 
  254.5000   247.9260    31.2380    30.0840     2.4260    81.7870    11.3060    10.7970     9.9950    20.9880    -7.7570 
  254.6250   248.0430    31.2700    30.1150     2.4280    80.0350    11.2790    10.7050    10.0200    20.8080    -7.8520 
  254.7500   248.1600    31.3010    30.1460     2.4250    76.7300    11.2410    10.5670     9.8390    20.7990    -7.9480 
  254.8750   248.2770    31.3330    30.1770     2.4180    72.9920    11.1990    10.4020     9.7400    20.8310    -8.0750 
  255.0000   248.3940    31.3650    30.2080     2.4120    69.1880    11.1670    10.2410     9.5210    20.8970    -8.2300 
  255.1250   248.5110    31.3960    30.2390     2.4090    70.6860    11.1580    10.1160     9.4730    20.9740    -8.3590 
  255.2500   248.6280    31.4280    30.2700     2.4110    77.2010    11.1680    10.0330     9.6060    21.0530    -8.5220 
  255.3750   248.7450    31.4590    30.3010     2.4170    82.8130    11.1910     9.9900     9.7690    21.0690    -8.6210 
  255.5000   248.8620    31.4910    30.3320     2.4250    82.8370    11.2260     9.9810     9.9360    20.9920    -8.6980 
  255.6250   248.9790    31.5230    30.3630     2.4310    79.6690    11.2830    10.0070     9.6780    20.8690    -8.7000 
  255.7500   249.0960    31.5540    30.3940     2.4360    77.5320    11.3720    10.0650     9.1460    20.8040    -8.7060 
  255.8750   249.2120    31.5860    30.4250     2.4380    74.8840    11.5010    10.1550     8.5870    20.7870    -8.6750 
  256.0000   249.3290    31.6170    30.4560     2.4390    72.5000    11.6620    10.2760     8.5540    20.7950    -8.6220 
  256.1250   249.4460    31.6490    30.4870     2.4390    71.5340    11.8330    10.4150     8.9320    20.8320    -8.5350 
  256.2500   249.5630    31.6810    30.5180     2.4380    72.4440    11.9820    10.5460     9.3760    20.8960    -8.4040 
  256.3750   249.6800    31.7120    30.5500     2.4390    73.9020    12.0860    10.6470     9.6970    20.9510    -8.3060 
  256.5000   249.7970    31.7440    30.5810     2.4420    71.8360    12.1330    10.7020     9.9750    20.9660    -8.1800 
  256.6250   249.9130    31.7760    30.6130     2.4460    69.1080    12.1230    10.7000    10.1310    20.9310    -8.0150 
  256.7500   250.0300    31.8070    30.6440     2.4470    71.3500    12.0910    10.6590    10.0480    20.8780    -7.8340 
  256.8750   250.1470    31.8390    30.6760     2.4450    75.8430    12.0750    10.6050     9.7190    20.8560    -7.6630 
  257.0000   250.2640    31.8710    30.7070     2.4440    76.9920    12.1210    10.5800     9.4500    20.8530    -7.4030 
  257.1250   250.3800    31.9030    30.7390     2.4500    74.4840    12.2980    10.6590     9.3510    20.8470    -7.0240 
  257.2500   250.4970    31.9340    30.7700     2.4640    72.7290    12.6160    10.8820     9.6190    20.8460    -6.5320 
  257.3750   250.6140    31.9660    30.8010     2.4810    70.4600    13.0520    11.2640    10.0990    20.8420    -6.0170 
  257.5000   250.7310    31.9980    30.8330     2.4980    67.5940    13.5350    11.7610    10.4670    20.8300    -5.6120 
  257.6250   250.8470    32.0290    30.8640     2.5100    68.9210    13.9310    12.2500    10.4280    20.8660    -5.3540 
  257.7500   250.9640    32.0610    30.8960     2.5180    71.9570    14.1430    12.5880    10.4620    20.9430    -5.1290 
  257.8750   251.0810    32.0930    30.9270     2.5200    73.5400    14.1420    12.6980    10.6520    21.0100    -4.9130 
  258.0000   251.1980    32.1250    30.9590     2.5140    73.4910    13.9730    12.5940    10.5550    21.0810    -4.7250 
  258.1250   251.3140    32.1560    30.9900     2.4970    72.9610    13.7420    12.3650    10.4620    21.2010    -4.5990 
  258.2500   251.4310    32.1880    31.0220     2.4740    75.0140    13.5700    12.1530    10.9290    21.3860    -4.5310 
  258.3750   251.5480    32.2200    31.0530     2.4510    78.0280    13.5060    12.0270    11.7620    21.6290    -4.4410 
  258.5000   251.6650    32.2510    31.0850     2.4360    78.0500    13.5480    12.0050    12.4520    21.9350    -4.2160 
  258.6250   251.7810    32.2830    31.1160     2.4360    73.9610    13.6670    12.0750    12.0460    22.1400    -3.8900 
  258.7500   251.8980    32.3150    31.1480     2.4470    71.5890    13.8060    12.1810    11.9320    22.2900    -3.5460 
  258.8750   252.0150    32.3460    31.1790     2.4650    72.5350    13.9550    12.2940    11.9290    22.3360    -3.2390 
  259.0000   252.1310    32.3780    31.2110     2.4820    73.2800    14.1320    12.4160    11.3220    22.2230    -3.0360 
  259.1250   252.2480    32.4100    31.2420     2.4940    72.8130    14.3940    12.5980    10.7270    21.9210    -2.9140 
  259.2500   252.3650    32.4420    31.2740     2.4990    73.1230    14.7700    12.8900    10.8580    21.6020    -2.8020 
  259.3750   252.4820    32.4730    31.3050     2.5020    73.3680    15.2680    13.3220    11.9350    21.4150    -2.7180 
  259.5000   252.5980    32.5050    31.3370     2.5050    72.9610    15.8590    13.8890    12.7760    21.3770    -2.6970 
  259.6250   252.7150    32.5370    31.3680     2.5100    73.8530    16.4640    14.5420    13.2600    21.4120    -2.7530 
  259.7500   252.8320    32.5680    31.4000     2.5150    74.8380    16.9850    15.1590    12.4980    21.4790    -2.8890 
  259.8750   252.9490    32.6000    31.4310     2.5190    75.2570    17.3600    15.6430    11.9000    21.5570    -3.0330 
  260.0000   253.0650    32.6320    31.4630     2.5230    76.2020    17.5720    15.9420    11.4350    21.5820    -3.1350 
  260.1250   253.1820    32.6640    31.4940     2.5280    78.6730    17.6360    16.0400    11.1280    21.5850    -3.1810 
  260.2500   253.2990    32.6950    31.5260     2.5330    80.4620    17.6390    16.0320    11.3300    21.6270    -3.2430 
  260.3750   253.4160    32.7270    31.5570     2.5360    78.9140    17.6350    15.9900    11.9500    21.7010    -3.2820 
  260.5000   253.5320    32.7590    31.5890     2.5360    74.4960    17.6600    15.9750    12.6500    21.7790    -3.3210 
  260.6250   253.6490    32.7900    31.6200     2.5350    71.6590    17.7380    16.0310    12.3710    21.7910    -3.3150 
  260.7500   253.7660    32.8220    31.6520     2.5380    71.9540    17.8530    16.1550    11.8430    21.7090    -3.2620 
  260.8750   253.8830    32.8540    31.6830     2.5480    74.0810    17.9850    16.3350    11.3920    21.5670    -3.1910 
  261.0000   253.9990    32.8860    31.7140     2.5600    74.7030    18.0990    16.5370    11.0940    21.4450    -3.1360 
  261.1250   254.1160    32.9170    31.7460     2.5710    73.2960    18.1510    16.7030    11.1840    21.3290    -3.1460 
  261.2500   254.2330    32.9490    31.7770     2.5770    72.3710    18.1220    16.7900    11.1010    21.2360    -3.2200 
  261.3750   254.3500    32.9810    31.8090     2.5770    71.9320    18.0070    16.7740    11.1810    21.2690    -3.3810 
  261.5000   254.4660    33.0120    31.8400     2.5720    72.4640    17.8130    16.6570    11.5830    21.4840    -3.5850 
  261.6250   254.5830    33.0440    31.8720     2.5530    71.6140    17.5440    16.4430    11.8350    21.8710    -3.8440 
  261.7500   254.7000    33.0760    31.9030     2.5200    69.6550    17.2350    16.1700    11.1200    22.2080    -4.1330 
  261.8750   254.8160    33.1070    31.9350     2.4800    68.4460    16.9170    15.8670     9.9970    22.4120    -4.4410 
  262.0000   254.9330    33.1390    31.9660     2.4440    70.2220    16.6330    15.5740     9.5800    22.4340    -4.7490 
  262.1250   255.0500    33.1710    31.9980     2.4310    71.5570    16.4460    15.3630     9.8920    22.2660    -5.0680 
  262.2500   255.1670    33.2030    32.0290     2.4420    69.2450    16.3710    15.2770    10.1400    21.9910    -5.3970 
  262.3750   255.2830    33.2340    32.0610     2.4680    67.0840    16.4000    15.3230    10.1690    21.8130    -5.7580 
