~V
VERS. 2.00: Ver 2.00
~W
STRT.M 50.0000:
STOP.M 287.0000:
STEP.M 0.1250:
NULL. -999.2500:
UWI. FD10894:
~C
DEPT.M :
TVD. :
DX. :
DY. :
SP.MV :
GR.API :
RI. :
RML.OHMM :
RXO.OHMM :
DEN.GM/CC :
~A
# ...
  141.2500   139.5740    12.7830     3.5120    15.2510    52.9630    20.4800    22.7640    24.5890     2.0640 
  141.3750   139.6900    12.8270     3.5230    14.8480    53.1900    19.7300    21.8550    23.6740     2.0630 
  141.5000   139.8060    12.8720     3.5340    14.2800    52.2280    18.9030    20.8430    23.4340     2.0620 
  141.6250   139.9220    12.9180     3.5450    13.5660    52.4930    18.0480    19.8340    23.1910     2.0620 
  141.7500   140.0380    12.9630     3.5560    12.7340    53.6260    17.3960    19.0740    21.8570     2.0640 
  141.8750   140.1540    13.0080     3.5680    11.7900    53.3110    17.0800    18.7210    20.3930     2.0680 
  142.0000   140.2700    13.0530     3.5790    10.7600    52.0390    17.0610    18.7430    20.5280     2.0740 
  142.1250   140.3860    13.0980     3.5900     9.6580    52.4550    17.3860    19.1590    21.7060     2.0790 
  142.2500   140.5020    13.1440     3.6020     8.5130    53.8750    17.8090    19.6700    22.4750     2.0810 
  142.3750   140.6180    13.1900     3.6130     7.3510    54.4130    18.1880    20.0850    23.5180     2.0810 
  142.5000   140.7330    13.2350     3.6250     6.1990    54.1180    18.4700    20.3530    24.7780     2.0780 
  142.6250   140.8490    13.2810     3.6360     5.0820    53.4660    18.4410    20.2150    24.7780     2.0710 
  142.7500   140.9650    13.3270     3.6480     4.0170    53.5170    18.1940    19.8340    23.7630     2.0610 
  142.8750   141.0810    13.3720     3.6600     3.0270    54.3870    17.8860    19.4350    21.7180     2.0470 
  143.0000   141.1960    13.4180     3.6710     2.1230    55.2420    17.7530    19.2570    20.6720     2.0280 
  143.1250   141.3120    13.4640     3.6830     1.3280    56.0440    18.0810    19.6840    21.1130     2.0100 
  143.2500   141.4270    13.5100     3.6950     0.6460    57.3930    18.8240    20.6000    23.4340     2.0000 
  143.3750   141.5430    13.5570     3.7070     0.0930    59.7500    20.2520    22.3320    25.4230     2.0050 
  143.5000   141.6590    13.6030     3.7180    -0.3520    61.2240    22.0090    24.4410    27.5720     2.0260 
  143.6250   141.7740    13.6490     3.7300    -0.7130    61.2740    23.3890    26.0530    29.3000     2.0550 
  143.7500   141.8900    13.6950     3.7420    -1.0460    60.9380    23.8550    26.5360    30.9680     2.0760 
  143.8750   142.0050    13.7420     3.7530    -1.4050    61.3000    22.5400    24.8890    30.1200     2.0810 
  144.0000   142.1210    13.7880     3.7650    -1.8200    62.4510    20.1880    22.0240    27.8950     2.0790 
  144.1250   142.2360    13.8340     3.7770    -2.2840    65.3360    17.5550    18.8900    24.6210     2.0850 
  144.2500   142.3520    13.8810     3.7880    -2.7310    69.1510    15.5430    16.5830    21.8570     2.1040 
  144.3750   142.4670    13.9270     3.8000    -3.0440    71.0310    14.9140    15.9780    18.8850     2.1320 
  144.5000   142.5820    13.9740     3.8110    -3.1220    71.1630    15.2980    16.5810    17.7330     2.1570 
  144.6250   142.6980    14.0200     3.8230    -2.8580    70.4010    16.5250    18.1630    16.3110     2.1640 
  144.7500   142.8130    14.0670     3.8340    -2.2600    69.3570    18.3200    20.3170    17.2460     2.1520 
  144.8750   142.9290    14.1140     3.8460    -1.3620    66.3160    19.5240    21.6140    18.3660     2.1250 
  145.0000   143.0440    14.1600     3.8570    -0.2910    62.5760    19.7970    21.7960    20.6720     2.0920 
  145.1250   143.1590    14.2070     3.8690     0.8360    61.0990    19.0800    20.8090    21.5540     2.0660 
  145.2500   143.2750    14.2540     3.8800     1.9230    62.6230    17.7560    19.1800    20.2440     2.0510 
  145.3750   143.3900    14.3010     3.8920     2.9210    65.4910    16.7020    17.9910    19.6880     2.0510 
  145.5000   143.5050    14.3480     3.9030     3.8480    67.4710    16.3320    17.6700    19.0130     2.0590 
  145.6250   143.6210    14.3950     3.9150     4.7400    67.9120    16.9340    18.5700    19.2820     2.0680 
  145.7500   143.7360    14.4420     3.9260     5.6390    67.2900    18.5600    20.5980    21.1080     2.0740 
  145.8750   143.8510    14.4890     3.9370     6.5590    65.1640    21.4010    24.0060    23.6820     2.0750 
  146.0000   143.9660    14.5360     3.9490     7.4810    63.0600    24.4290    27.5860    26.1990     2.0710 
  146.1250   144.0820    14.5830     3.9600     8.3610    62.6250    26.5320    29.9520    30.1290     2.0630 
  146.2500   144.1970    14.6300     3.9720     9.1660    63.6750    27.4300    30.8970    30.5400     2.0560 
  146.3750   144.3120    14.6780     3.9830     9.8740    63.8880    26.8590    30.0430    28.7850     2.0530 
  146.5000   144.4270    14.7250     3.9940    10.5090    62.7260    25.9080    28.7670    27.7010     2.0530 
  146.6250   144.5420    14.7720     4.0050    11.1090    64.0930    25.3910    28.2100    27.3170     2.0570 
  146.7500   144.6570    14.8200     4.0170    11.7110    66.9320    25.4810    28.5000    27.3170     2.0640 
  146.8750   144.7720    14.8670     4.0280    12.3300    68.4490    26.2800    29.6440    28.3030     2.0730 
  147.0000   144.8870    14.9150     4.0390    12.9410    66.5970    27.2450    30.8220    31.4030     2.0830 
  147.1250   145.0030    14.9620     4.0500    13.4860    62.3630    27.9430    31.4850    33.4370     2.0890 
  147.2500   145.1180    15.0100     4.0610    13.9130    57.6370    28.1490    31.4640    33.6700     2.0900 
  147.3750   145.2330    15.0580     4.0720    14.1730    54.9980    27.9690    31.0450    31.2960     2.0840 
  147.5000   145.3480    15.1050     4.0820    14.2750    54.1540    27.9490    30.8390    29.7000     2.0750 
  147.6250   145.4630    15.1530     4.0930    14.2310    53.7970    28.2500    31.0060    28.4870     2.0670 
  147.7500   145.5780    15.2010     4.1040    14.0850    53.4560    29.0730    31.6390    30.1170     2.0600 
  147.8750   145.6930    15.2490     4.1150    13.8480    52.7950    30.2960    32.5500    32.9800     2.0550 
  148.0000   145.8080    15.2970     4.1250    13.5160    50.9410    31.5000    33.3360    37.6410     2.0510 
  148.1250   145.9220    15.3450     4.1360    13.0370    48.8260    32.2920    33.5360    36.1030     2.0460 
  148.2500   146.0370    15.3930     4.1460    12.3610    49.2720    31.8940    32.4980    34.6220     2.0410 
  148.3750   146.1520    15.4410     4.1570    11.4020    52.8590    30.3260    30.4270    31.1920     2.0370 
  148.5000   146.2670    15.4900     4.1680    10.1350    56.9130    28.4930    28.3210    30.7530     2.0360 
  148.6250   146.3820    15.5380     4.1780     8.5140    58.4760    27.9150    27.9880    32.1800     2.0410 
  148.7500   146.4960    15.5870     4.1890     6.5890    57.1890    29.5710    30.5680    34.1420     2.0610 
  148.8750   146.6110    15.6350     4.2000     4.3990    54.9160    31.4290    33.0550    35.1070     2.1120 
  149.0000   146.7260    15.6840     4.2100     2.0590    54.3620    29.3290    30.8980    32.2910     2.1970 
  149.1250   146.8400    15.7320     4.2210    -0.3170    55.5780    23.4510    24.3740    28.4170     2.3040 
  149.2500   146.9550    15.7810     4.2310    -2.6000    59.3620    15.3130    15.1810    22.9960     2.3990 
  149.3750   147.0700    15.8300     4.2420    -4.6420    66.2440     8.9420     8.5660     8.7580     2.4440 
  149.5000   147.1840    15.8790     4.2520    -6.3460    75.9160     6.0670     5.7780     6.5960     2.4340 
  149.6250   147.2990    15.9280     4.2620    -7.5730    84.8440     4.8090     4.6490     6.7170     2.3870 
  149.7500   147.4130    15.9770     4.2720    -8.2850    88.7680     4.5680     4.5180     5.3250     2.3350 
  149.8750   147.5280    16.0260     4.2830    -8.3930    86.8800     5.1810     5.2370     5.2310     2.3020 
  150.0000   147.6420    16.0750     4.2930    -7.9430    82.2090     6.9240     7.1540     6.3580     2.2980 
  150.1250   147.7570    16.1240     4.3030    -6.9390    77.5230     9.8770    10.3450     9.8120     2.3230 
  150.2500   147.8710    16.1730     4.3130    -5.5150    72.8580    14.0010    14.7300    18.0590     2.3680 
