~V
VERS. 2.00: Ver 2.00
~W
STRT.M 24.0000:
STOP.M 269.0000:
STEP.M 0.1250:
NULL. -999.2500:
UWI. FD10666:
~C
DEPT.M :
TVD. :
DX. :
DY. :
GR.API :
RML.OHMM :
RI. :
RXO.OHMM :
CALI.CM :
DEN.GM/CC :
SP.MV :
~A
# ...
   90.0000    89.3270     6.6800     4.0300    53.1860    15.4770    14.7300    12.4390    22.2390     2.4520    -8.1090 
   90.1250    89.4450     6.7160     4.0490    53.5080    15.0310    14.3540    12.1550    22.1430     2.3860    -8.0620 
   90.2500    89.5630     6.7520     4.0680    56.0570    14.5330    13.9270    11.0220    21.9050     2.3060    -8.0170 
   90.3750    89.6810     6.7880     4.0870    58.7720    13.9940    13.4670    10.3690    21.5910     2.2340    -7.9880 
   90.5000    89.7990     6.8240     4.1060    57.8400    13.3800    12.9520     9.8550    21.3020     2.1870    -7.9860 
   90.6250    89.9170     6.8590     4.1240    54.1020    12.6600    12.3500     9.7050    21.1260     2.1740    -8.0190 
   90.7500    90.0350     6.8950     4.1430    51.5710    11.9180    11.7140     9.7850    21.0330     2.1850    -8.0790 
   90.8750    90.1540     6.9310     4.1620    52.3910    11.2750    11.1380     9.6560    21.0050     2.2070    -8.1620 
   91.0000    90.2720     6.9670     4.1810    55.1640    10.8440    10.7140     9.2120    21.0260     2.2280    -8.2560 
   91.1250    90.3900     7.0030     4.2000    57.2320    10.6920    10.5110     8.8470    21.0960     2.2360    -8.3590 
   91.2500    90.5080     7.0390     4.2190    56.8740    10.6800    10.4350     8.9930    21.1980     2.2290    -8.4790 
   91.3750    90.6260     7.0750     4.2380    55.2950    10.6530    10.3730     9.5870    21.3090     2.2120    -8.6100 
   91.5000    90.7440     7.1110     4.2570    55.4330    10.4840    10.2170     9.9470    21.3970     2.1910    -8.7460 
   91.6250    90.8620     7.1470     4.2760    59.3430    10.1290     9.9090     9.3750    21.4380     2.1760    -8.8700 
   91.7500    90.9800     7.1830     4.2950    64.1050     9.7210     9.5430     8.4490    21.4170     2.1710    -8.9700 
   91.8750    91.0990     7.2190     4.3140    66.4230     9.4010     9.2380     7.7950    21.3140     2.1720    -9.0380 
   92.0000    91.2170     7.2550     4.3330    65.1760     9.2820     9.0960     7.4870    21.1730     2.1760    -9.0850 
   92.1250    91.3350     7.2910     4.3520    64.1830     9.4510     9.2150     7.5370    21.0890     2.1780    -9.1230 
   92.2500    91.4530     7.3270     4.3710    64.8670     9.8410     9.5540     7.8930    21.0670     2.1760    -9.1510 
   92.3750    91.5710     7.3630     4.3900    65.3860    10.3920    10.0730     8.3460    21.0730     2.1730    -9.1600 
   92.5000    91.6890     7.3990     4.4090    64.7170    11.0320    10.7090     8.5610    21.0890     2.1730    -9.1540 
   92.6250    91.8070     7.4350     4.4280    62.5680    11.6690    11.3770     8.6420    21.1060     2.1800    -9.1360 
   92.7500    91.9250     7.4710     4.4470    59.5090    12.2090    11.9690     8.7660    21.1170     2.1940    -9.1160 
   92.8750    92.0440     7.5070     4.4660    58.1390    12.5870    12.4070     8.8630    21.1180     2.2120    -9.0990 
   93.0000    92.1620     7.5430     4.4850    59.2840    12.7730    12.6430     8.8790    21.1150     2.2250    -9.0880 
   93.1250    92.2800     7.5790     4.5040    57.7080    12.7590    12.6450     8.9240    21.1140     2.2280    -9.0740 
   93.2500    92.3980     7.6150     4.5230    53.3910    12.6420    12.5020     9.0500    21.1270     2.2230    -9.0550 
   93.3750    92.5160     7.6510     4.5420    52.3590    12.5030    12.2980     9.2680    21.1640     2.2160    -9.0290 
   93.5000    92.6340     7.6870     4.5610    56.3250    12.4320    12.1220     9.6100    21.2400     2.2110    -9.0000 
   93.6250    92.7520     7.7230     4.5800    58.0730    12.5560    12.0960     9.9950    21.3490     2.2090    -8.9700 
   93.7500    92.8700     7.7590     4.5990    54.7160    12.9480    12.3060    10.1780    21.4510     2.2020    -8.9440 
   93.8750    92.9890     7.7950     4.6180    50.9800    13.6760    12.8360    10.0040    21.5310     2.1870    -8.9150 
   94.0000    93.1070     7.8310     4.6370    50.3980    14.7460    13.7300     9.7770    21.5600     2.1710    -8.8860 
   94.1250    93.2250     7.8670     4.6560    50.9830    16.0630    14.9660    10.7090    21.4870     2.1730    -8.8630 
   94.2500    93.3430     7.9030     4.6750    50.9010    17.3190    16.2640    13.9320    21.3690     2.2040    -8.8470 
   94.3750    93.4610     7.9390     4.6930    49.9350    18.2060    17.3150    19.8980    21.2490     2.2610    -8.8380 
   94.5000    93.5790     7.9750     4.7120    49.5780    18.4640    17.8180    27.5030    21.1630     2.3230    -8.8340 
   94.6250    93.6970     8.0110     4.7310    51.0920    17.9050    17.5060    30.9500    21.1510     2.3510    -8.8310 
   94.7500    93.8150     8.0470     4.7500    53.8750    16.8670    16.6570    26.7780    21.1810     2.3360    -8.8180 
   94.8750    93.9340     8.0830     4.7690    55.0400    15.7080    15.6060    17.9670    21.2370     2.2940    -8.8010 
   95.0000    94.0520     8.1190     4.7880    52.6710    14.7480    14.6730    12.7190    21.2580     2.2500    -8.7780 
   95.1250    94.1700     8.1540     4.8070    50.4540    14.2120    14.0980    11.2890    21.2630     2.2230    -8.7380 
   95.2500    94.2880     8.1900     4.8260    51.1300    14.0020    13.8390    10.9390    21.2730     2.2110    -8.6910 
   95.3750    94.4060     8.2260     4.8450    52.9730    13.9940    13.8110    10.7860    21.2890     2.2060    -8.6480 
   95.5000    94.5240     8.2620     4.8640    53.3830    14.0630    13.9110    10.8560    21.3090     2.2020    -8.6090 
   95.6250    94.6420     8.2980     4.8830    52.6580    14.1270    14.0540    10.8640    21.3260     2.1950    -8.5740 
   95.7500    94.7600     8.3340     4.9020    53.4510    14.1560    14.1810    10.9150    21.3320     2.1860    -8.5540 
   95.8750    94.8780     8.3700     4.9210    54.3500    14.1480    14.2700    10.9180    21.3310     2.1780    -8.5560 
   96.0000    94.9970     8.4060     4.9400    51.7290    14.1040    14.3100    10.6890    21.3270     2.1720    -8.5800 
   96.1250    95.1150     8.4420     4.9590    46.5750    14.0270    14.2900    10.2810    21.3260     2.1710    -8.6300 
   96.2500    95.2330     8.4780     4.9780    44.3520    13.9300    14.2190     9.8590    21.3420     2.1730    -8.6940 
   96.3750    95.3510     8.5140     4.9970    46.1290    13.8240    14.0970     9.6490    21.3810     2.1770    -8.7620 
   96.5000    95.4690     8.5500     5.0160    50.5800    13.7060    13.9230     9.7450    21.4440     2.1810    -8.8290 
   96.6250    95.5870     8.5860     5.0350    54.5810    13.5380    13.6670     9.9020    21.5100     2.1830    -8.8760 
   96.7500    95.7050     8.6220     5.0540    54.7840    13.2760    13.3160     9.9190    21.5280     2.1810    -8.9000 
   96.8750    95.8230     8.6580     5.0730    53.0680    12.8980    12.8630     9.8130    21.4610     2.1780    -8.8890 
   97.0000    95.9420     8.6940     5.0920    53.9690    12.4480    12.3480     9.6570    21.3270     2.1750    -8.8410 
   97.1250    96.0600     8.7300     5.1110    57.1780    12.1310    11.9330     9.4700    21.1910     2.1770    -8.7700 
   97.2500    96.1780     8.7660     5.1300    57.1540    12.2460    11.8650     9.2140    21.0620     2.1840    -8.6840 
   97.3750    96.2960     8.8020     5.1490    55.9590    13.1500    12.4440     8.9850    20.9870     2.2000    -8.5730 
   97.5000    96.4140     8.8380     5.1680    57.0010    15.1780    13.9940     9.2380    21.0400     2.2280    -8.4470 
   97.6250    96.5320     8.8740     5.1870    58.7070    18.6750    16.9760    11.2250    21.2920     2.2800    -8.3290 
   97.7500    96.6500     8.9100     5.2060    58.3520    22.9930    21.0110    15.7490    21.7110     2.3550    -8.2290 
   97.8750    96.7680     8.9460     5.2250    55.6510    27.1090    25.3140    23.8340    22.2220     2.4420    -8.1520 
   98.0000    96.8870     8.9820     5.2430    52.1220    29.6530    28.6070    34.8990    22.6430     2.5170    -8.1040 
   98.1250    97.0050     9.0180     5.2620    50.6320    28.8770    28.9310    41.9540    22.6670     2.5470    -8.0710 
