~V
VERS. 2.00: Ver 2.00
~W
STRT.M 15.0000:
STOP.M 236.0000:
STEP.M 0.1250:
NULL. -999.2500:
UWI. FD10614:
~C
DEPT.M :
TVD. :
DX. :
DY. :
DEN.GM/CC :
GR.API :
RML.OHMM :
RI. :
RXO.OHMM :
CALI.CM :
SP.MV :
~A
# ...
   56.2500    56.2050     0.2150    -1.1080     2.0460    79.6720    12.4660    10.6090    20.9590    26.3590   -21.6930 
   56.3750    56.3300     0.2180    -1.1120     2.0610    83.0280    12.2070    10.3870    22.1980    26.1280   -21.8990 
   56.5000    56.4550     0.2200    -1.1160     2.0830    87.3450    11.7290     9.9440    13.6060    25.6610   -22.0560 
   56.6250    56.5800     0.2220    -1.1200     2.0940    90.2100    11.1820     9.4130     9.6400    25.3410   -22.1570 
   56.7500    56.7040     0.2250    -1.1240     2.0950    89.1440    10.7560     8.9720     8.7970    25.3870   -22.2400 
   56.8750    56.8290     0.2270    -1.1280     2.0900    84.6020    10.5600     8.7160     9.0450    25.8070   -22.3170 
   57.0000    56.9540     0.2300    -1.1320     2.0790    77.7270    10.6350     8.6950     9.3670    26.3680   -22.3810 
   57.1250    57.0790     0.2320    -1.1360     2.0520    72.2750    11.0070     8.9450     9.7560    26.6440   -22.4120 
   57.2500    57.2040     0.2340    -1.1400     2.0200    69.2490    11.5630     9.3840    10.2760    26.6170   -22.4260 
   57.3750    57.3280     0.2370    -1.1440     2.0080    66.7050    12.2000     9.9370    10.6650    26.3000   -22.4400 
   57.5000    57.4530     0.2390    -1.1480     2.0420    64.5390    12.7890    10.5070    10.4740    25.8490   -22.4860 
   57.6250    57.5780     0.2420    -1.1530     2.1270    64.3360    13.1330    10.9300    10.1990    25.4920   -22.5480 
   57.7500    57.7030     0.2440    -1.1570     2.2110    65.0250    13.1580    11.1020    10.0480    25.1540   -22.6310 
   57.8750    57.8280     0.2470    -1.1610     2.2510    66.0770    12.8670    10.9850    10.0260    24.9260   -22.7350 
   58.0000    57.9520     0.2490    -1.1650     2.2300    67.2630    12.3630    10.6400    10.0410    25.0100   -22.8040 
   58.1250    58.0770     0.2510    -1.1690     2.1630    66.9820    11.8110    10.1910    10.6140    25.3410   -22.9270 
   58.2500    58.2020     0.2540    -1.1730     2.0980    65.0810    11.3580     9.7780    11.4640    25.4540   -23.0080 
   58.3750    58.3270     0.2560    -1.1770     2.0560    63.8820    11.0580     9.4610    11.5430    25.3200   -23.1100 
   58.5000    58.4520     0.2590    -1.1810     2.0420    64.3720    10.9030     9.2620    10.6290    25.0680   -23.1840 
   58.6250    58.5760     0.2610    -1.1850     2.0510    65.3830    10.8640     9.1800     9.8660    24.8280   -23.2930 
   58.7500    58.7010     0.2630    -1.1890     2.0740    66.6480    10.8850     9.1620     9.5770    24.7290   -23.3780 
   58.8750    58.8260     0.2660    -1.1930     2.0990    68.2840    10.9560     9.1940     9.5190    24.8210   -23.4150 
   59.0000    58.9510     0.2680    -1.1970     2.1150    67.6640    11.0840     9.2750     9.7040    25.0310   -23.4520 
   59.1250    59.0760     0.2710    -1.2010     2.1140    64.7430    11.2630     9.4110    10.0680    25.1540   -23.3730 
   59.2500    59.2000     0.2730    -1.2060     2.0990    63.6940    11.4380     9.5640    10.3160    25.1040   -23.2790 
   59.3750    59.3250     0.2750    -1.2100     2.0800    64.8000    11.5470     9.6840    10.3010    24.9530   -23.1230 
   59.5000    59.4500     0.2780    -1.2140     2.0690    65.4650    11.5390     9.7200    10.3400    24.8490   -22.9730 
   59.6250    59.5750     0.2800    -1.2180     2.0780    66.4780    11.3900     9.6290    10.2060    24.9360   -22.7750 
   59.7500    59.7000     0.2830    -1.2220     2.1010    68.6110    11.1800     9.4630    10.0010    25.0960   -22.5780 
   59.8750    59.8240     0.2850    -1.2260     2.1220    69.8070    10.9890     9.2880     9.6670    25.1690   -22.3750 
   60.0000    59.9490     0.2880    -1.2300     2.1290    68.6740    10.8840     9.1660     9.5460    25.1260   -22.1550 
   60.1250    60.0720     0.3070    -1.2210     2.1140    67.7220    10.8880     9.1360     9.7580    25.0700   -21.9420 
   60.2500    60.1950     0.3270    -1.2120     2.0950    70.2780    10.9270     9.1530     9.9470    25.0270   -21.7210 
   60.3750    60.3180     0.3470    -1.2030     2.0920    73.7610    10.9270     9.1610     9.8270    24.9980   -21.4850 
   60.5000    60.4410     0.3670    -1.1940     2.1150    75.0180    10.8380     9.1160     9.5760    24.9670   -21.1960 
   60.6250    60.5640     0.3860    -1.1850     2.1580    75.8170    10.6620     9.0060     9.1750    24.9270   -20.8400 
   60.7500    60.6870     0.4060    -1.1760     2.1930    78.7440    10.4830     8.8790     8.9350    24.9130   -20.4740 
   60.8750    60.8100     0.4260    -1.1670     2.1960    81.5410    10.3790     8.7900     8.9900    24.9240   -20.1230 
   61.0000    60.9320     0.4460    -1.1580     2.1640    79.8560    10.4090     8.7880     9.3900    24.9530   -19.8000 
   61.1250    61.0550     0.4660    -1.1490     2.1220    73.3930    10.5880     8.9170     9.9730    25.0020   -19.4940 
   61.2500    61.1780     0.4850    -1.1400     2.1150    68.4960    10.8060     9.1110     9.9950    25.0250   -19.1620 
   61.3750    61.3010     0.5050    -1.1310     2.1630    67.3770    10.9280     9.2600    10.4260    24.9900   -18.8150 
   61.5000    61.4240     0.5250    -1.1220     2.2490    69.3650    10.8240     9.2390    12.8880    24.9170   -18.4330 
   61.6250    61.5470     0.5450    -1.1130     2.3230    73.6550    10.3700     8.9190    16.9580    24.8310   -18.0860 
   61.7500    61.6700     0.5640    -1.1040     2.3480    78.5430     9.6540     8.3580    14.8840    24.7400   -17.6290 
   61.8750    61.7930     0.5840    -1.0950     2.3200    84.0490     8.7920     7.6490     9.6410    24.6510   -17.1830 
   62.0000    61.9160     0.6040    -1.0860     2.2650    88.7940     7.9340     6.9220     7.3480    24.6130   -16.7410 
   62.1250    62.0390     0.6240    -1.0770     2.2180    90.9430     7.2640     6.3220     7.1460    24.6430   -16.3660 
   62.2500    62.1620     0.6440    -1.0680     2.1930    91.1320     6.8540     5.9150     6.8660    24.7030   -16.0890 
   62.3750    62.2850     0.6630    -1.0590     2.1900    93.1310     6.7350     5.7420     6.3800    24.7350   -15.9280 
   62.5000    62.4080     0.6830    -1.0500     2.2050    97.6870     6.8770     5.7950     6.1040    24.7170   -15.8810 
   62.6250    62.5300     0.7030    -1.0410     2.2360    97.6550     7.1990     6.0400     6.5560    24.6540   -15.8420 
   62.7500    62.6530     0.7230    -1.0320     2.2680    91.2040     7.5220     6.3420     7.4540    24.5930   -15.9090 
   62.8750    62.7760     0.7430    -1.0230     2.2820    85.6050     7.7130     6.5890     8.0180    24.6080   -15.9710 
   63.0000    62.8990     0.7620    -1.0140     2.2680    85.3070     7.6920     6.6800     7.8990    24.6800   -16.0290 
   63.1250    63.0220     0.7820    -1.0050     2.2290    86.9810     7.4490     6.5590     6.9750    24.7570   -16.1080 
   63.2500    63.1450     0.8020    -0.9960     2.1920    87.5110     7.1240     6.3300     6.4590    24.7860   -16.1560 
   63.3750    63.2680     0.8220    -0.9870     2.1760    88.7240     6.8240     6.0860     6.2470    24.7760   -16.1030 
   63.5000    63.3910     0.8410    -0.9780     2.1870    91.0430     6.5990     5.8820     6.2940    24.7260   -16.0010 
   63.6250    63.5140     0.8610    -0.9690     2.2150    93.7650     6.4390     5.7250     6.5480    24.6440   -15.8740 
   63.7500    63.6370     0.8810    -0.9600     2.2420    95.1670     6.2790     5.5670     6.5660    24.6220   -15.7260 
   63.8750    63.7600     0.9010    -0.9510     2.2580    95.2130     6.0830     5.3800     6.2060    24.6500   -15.5620 
   64.0000    63.8830     0.9210    -0.9420     2.2650    96.6380     5.8550     5.1630     5.7020    24.6990   -15.4010 
   64.1250    64.0060     0.9400    -0.9330     2.2700   100.3010     5.6390     4.9520     5.3930    24.7050   -15.1880 
   64.2500    64.1280     0.9600    -0.9240     2.2810   102.5080     5.4810     4.7900     5.4220    24.6860   -14.9930 
   64.3750    64.2510     0.9800    -0.9150     2.2990   101.6780     5.4090     4.7000     5.3980    24.6620   -14.8020 
