~V
VERS. 2.00: Ver 2.00
~W
STRT.M 24.0000:
STOP.M 309.0000:
STEP.M 0.1250:
NULL. -999.2500:
UWI. FD10911:
~C
DEPT.M :
TVD. :
DX. :
DY. :
SP.MV :
GR.API :
RI. :
RML.OHMM :
RXO.OHMM :
DEN.GM/CC :
~A
# ...
   42.2500    42.2300    -0.6940    -0.4000   -11.1860   107.1250     3.6580     5.4440     4.0960     2.2420 
   42.3750    42.3550    -0.7010    -0.4060   -11.3420   107.6900     3.6140     5.3450     4.0280     2.2360 
   42.5000    42.4790    -0.7080    -0.4110   -11.6200   109.2220     3.5670     5.2370     4.0280     2.2340 
   42.6250    42.6040    -0.7140    -0.4170   -11.9850   111.1250     3.5880     5.2490     4.1060     2.2320 
   42.7500    42.7290    -0.7210    -0.4230   -12.4170   110.4620     3.7330     5.4690     4.2320     2.2250 
   42.8750    42.8530    -0.7280    -0.4280   -12.9100   106.0320     3.9960     5.8820     4.6250     2.2140 
   43.0000    42.9780    -0.7340    -0.4340   -13.4770    98.0620     4.3350     6.4110     5.2510     2.1980 
   43.1250    43.1030    -0.7410    -0.4400   -14.1150    90.8410     4.6660     6.9200     5.5780     2.1780 
   43.2500    43.2280    -0.7470    -0.4460   -14.7900    86.4500     4.8890     7.2520     5.4880     2.1550 
   43.3750    43.3520    -0.7540    -0.4520   -15.4250    85.7870     4.9360     7.3050     5.3570     2.1310 
   43.5000    43.4770    -0.7610    -0.4580   -15.9090    85.4800     4.7750     7.0370     5.3060     2.1110 
   43.6250    43.6020    -0.7670    -0.4640   -16.1740    87.6280     4.4910     6.5870     5.1940     2.0970 
   43.7500    43.7260    -0.7740    -0.4700   -16.1640    91.7250     4.2050     6.1470     4.8030     2.0980 
   43.8750    43.8510    -0.7810    -0.4760   -15.9210    97.6310     4.0140     5.8630     4.2280     2.1170 
   44.0000    43.9760    -0.7870    -0.4820   -15.4930   100.4860     3.9590     5.8080     3.9720     2.1520 
   44.1250    44.1000    -0.7940    -0.4880   -14.9950    99.6940     4.0020     5.9180     4.2410     2.1820 
   44.2500    44.2250    -0.8000    -0.4950   -14.5330    95.8800     4.0730     6.0540     4.6950     2.1850 
   44.3750    44.3500    -0.8070    -0.5010   -14.1670    93.6830     4.0870     6.0710     4.8530     2.1680 
   44.5000    44.4740    -0.8130    -0.5070   -13.8880    94.3310     3.9950     5.9000     4.5340     2.1540 
   44.6250    44.5990    -0.8200    -0.5140   -13.5940    97.7550     3.8200     5.6040     4.0780     2.1580 
   44.7500    44.7240    -0.8260    -0.5200   -13.1870   100.8080     3.6230     5.3060     3.9260     2.1780 
   44.8750    44.8480    -0.8330    -0.5270   -12.6680   103.2320     3.4770     5.1190     4.0750     2.1960 
   45.0000    44.9730    -0.8390    -0.5330   -12.1200   103.3380     3.4120     5.0600     4.1530     2.1990 
   45.1250    45.0980    -0.8460    -0.5400   -11.6660   103.0770     3.3790     5.0290     3.9800     2.1920 
   45.2500    45.2220    -0.8520    -0.5470   -11.3750   102.8300     3.3250     4.9320     3.8710     2.1870 
   45.3750    45.3470    -0.8590    -0.5530   -11.2110   102.9110     3.2280     4.7500     3.9150     2.1890 
   45.5000    45.4720    -0.8650    -0.5600   -11.1150   103.0600     3.1150     4.5360     3.7120     2.1980 
   45.6250    45.5960    -0.8720    -0.5670   -11.0270   103.8940     3.0420     4.3800     3.2830     2.2120 
   45.7500    45.7210    -0.8780    -0.5740   -10.9330   107.1350     3.0590     4.3430     3.1120     2.2300 
   45.8750    45.8450    -0.8840    -0.5810   -10.8490   110.8640     3.1710     4.4320     3.4650     2.2450 
   46.0000    45.9700    -0.8910    -0.5870   -10.8210   111.2130     3.3730     4.6470     4.1730     2.2460 
   46.1250    46.0950    -0.8970    -0.5940   -10.8920   107.0280     3.6160     4.9090     4.6260     2.2330 
   46.2500    46.2190    -0.9030    -0.6020   -11.1000   101.5830     3.8040     5.0710     4.5530     2.2140 
   46.3750    46.3440    -0.9100    -0.6090   -11.4240    98.8350     3.8530     5.0250     4.4260     2.2000 
   46.5000    46.4690    -0.9160    -0.6160   -11.8170   100.2110     3.7550     4.7850     4.4660     2.1950 
   46.6250    46.5930    -0.9220    -0.6230   -12.2130   102.6840     3.5990     4.4980     4.2640     2.1990 
   46.7500    46.7180    -0.9280    -0.6300   -12.5530   105.4630     3.4890     4.3100     3.7940     2.2100 
   46.8750    46.8430    -0.9350    -0.6370   -12.8180   107.3320     3.4910     4.2920     3.7090     2.2240 
   47.0000    46.9670    -0.9410    -0.6450   -13.0250   105.4050     3.6230     4.4630     4.2370     2.2260 
   47.1250    47.0920    -0.9470    -0.6520   -13.2340   100.2330     3.8680     4.7960     4.8460     2.2120 
   47.2500    47.2160    -0.9530    -0.6600   -13.5070    92.2620     4.2000     5.2400     5.2290     2.1890 
   47.3750    47.3410    -0.9590    -0.6670   -13.8260    85.5910     4.5050     5.6290     5.8720     2.1770 
   47.5000    47.4660    -0.9650    -0.6750   -14.0990    81.0730     4.6690     5.8200     7.2610     2.1900 
   47.6250    47.5900    -0.9720    -0.6820   -14.2350    78.4720     4.6670     5.7910     8.2100     2.2210 
   47.7500    47.7150    -0.9780    -0.6900   -14.1970    79.3130     4.5210     5.5800     7.3320     2.2440 
   47.8750    47.8400    -0.9840    -0.6970   -14.0620    81.6660     4.3200     5.3040     5.7180     2.2460 
   48.0000    47.9640    -0.9900    -0.7050   -13.9250    83.4740     4.1500     5.0740     4.9920     2.2270 
   48.1250    48.0890    -0.9960    -0.7130   -13.8620    81.8350     4.0930     5.0060     5.1130     2.2080 
   48.2500    48.2130    -1.0020    -0.7200   -13.9050    78.4980     4.2420     5.2130     5.4260     2.1970 
   48.3750    48.3380    -1.0080    -0.7280   -14.0390    76.2430     4.6220     5.7180     5.9330     2.1960 
   48.5000    48.4630    -1.0140    -0.7360   -14.2340    76.9850     5.2420     6.5360     6.9960     2.2070 
   48.6250    48.5870    -1.0200    -0.7440   -14.4520    76.3800     6.0140     7.5370     8.1460     2.2340 
   48.7500    48.7120    -1.0260    -0.7520   -14.6970    73.1520     6.7520     8.4390     8.8560     2.2700 
   48.8750    48.8360    -1.0310    -0.7600   -14.9940    68.8900     7.1850     8.8920     9.2400     2.2970 
   49.0000    48.9610    -1.0370    -0.7680   -15.3780    66.4580     7.0920     8.6370     8.9960     2.3020 
   49.1250    49.0860    -1.0430    -0.7760   -15.8250    67.2480     6.5320     7.8150     7.9710     2.2860 
   49.2500    49.2100    -1.0490    -0.7840   -16.2740    69.8410     5.7380     6.7730     6.7690     2.2590 
   49.3750    49.3350    -1.0550    -0.7930   -16.6550    74.3010     5.0150     5.8810     5.9220     2.2280 
   49.5000    49.4590    -1.0610    -0.8010   -16.9090    77.9140     4.5330     5.3270     5.4320     2.2030 
   49.6250    49.5840    -1.0660    -0.8090   -17.0470    80.1840     4.3110     5.1080     5.1930     2.1860 
   49.7500    49.7090    -1.0720    -0.8170   -17.1160    80.3890     4.3140     5.1640     5.2470     2.1760 
   49.8750    49.8330    -1.0780    -0.8260   -17.2140    79.7010     4.4460     5.3630     5.5130     2.1680 
   50.0000    49.9580    -1.0840    -0.8340   -17.4360    78.8300     4.6500     5.6220     5.7620     2.1570 
   50.1250    50.0820    -1.0890    -0.8430   -17.8050    77.0420     4.8610     5.8580     5.8330     2.1440 
   50.2500    50.2070    -1.0950    -0.8510   -18.2950    75.3230     5.0300     6.0170     5.8100     2.1300 
   50.3750    50.3320    -1.1010    -0.8600   -18.8240    72.1300     5.1320     6.0860     5.8050     2.1180 
   50.5000    50.4560    -1.1060    -0.8680   -19.3220    69.7920     5.1540     6.0660     5.7800     2.1110 
   50.6250    50.5810    -1.1120    -0.8770   -19.7550    68.0750     5.1170     5.9900     5.7360     2.1050 
   50.7500    50.7050    -1.1180    -0.8860   -20.1180    68.3870     5.0410     5.8840     5.7530     2.0980 
   50.8750    50.8300    -1.1230    -0.8950   -20.4330    68.0660     4.9480     5.7690     5.8060     2.0920 
   51.0000    50.9540    -1.1290    -0.9040   -20.7210    66.0460     4.8610     5.6720     5.8160     2.0900 
   51.1250    51.0790    -1.1340    -0.9130   -21.0080    63.7530     4.8150     5.6380     5.7970     2.0920 
   51.2500    51.2030    -1.1400    -0.9220   -21.3200    63.8110     4.8480     5.7080     5.7600     2.0930 
