~V
VERS. 2.00: Ver 2.00
~W
STRT.M 20.0000:
STOP.M 282.0000:
STEP.M 0.1250:
NULL. -999.2500:
UWI. FD10228:
~C
DEPT.M :
TVD. :
DX. :
DY. :
GR.API :
RML.OHMM :
RI. :
RXO.OHMM :
CALI.CM :
SP.MV :
DEN.GM/CC :
~A
# ...
  193.2500   192.0480    10.4810     3.0200    70.3490    98.0630    80.8340    28.2190    18.5670   -22.4790     2.2000 
  193.3750   192.1680    10.5170     3.0250    71.2690    94.0460    78.9120    27.8920    18.5770   -22.5190     2.1960 
  193.5000   192.2880    10.5520     3.0300    74.5800    85.1690    73.2040    27.2040    18.5870   -22.5890     2.1960 
  193.6250   192.4070    10.5880     3.0350    77.9470    72.2730    63.4940    26.6170    18.6280   -22.6950     2.2020 
  193.7500   192.5270    10.6240     3.0400    79.0620    59.7910    53.1290    25.1050    18.6510   -22.7640     2.2140 
  193.8750   192.6470    10.6600     3.0450    79.7760    50.5670    44.6800    21.8480    18.6540   -22.8230     2.2310 
  194.0000   192.7660    10.6950     3.0500    81.3730    45.7990    39.5350    18.4480    18.6530   -22.9200     2.2480 
  194.1250   192.8860    10.7310     3.0550    79.7960    45.9560    38.4690    18.0660    18.6430   -23.0280     2.2630 
  194.2500   193.0060    10.7670     3.0600    75.1370    49.4290    40.4760    19.8180    18.6500   -23.1280     2.2740 
  194.3750   193.1250    10.8030     3.0650    71.1370    55.2270    45.0120    21.7030    18.6290   -23.2500     2.2810 
  194.5000   193.2450    10.8380     3.0700    69.0380    62.1760    51.2520    22.8310    18.6000   -23.3970     2.2820 
  194.6250   193.3650    10.8740     3.0750    65.9190    69.1290    58.0770    22.9670    18.5730   -23.5240     2.2790 
  194.7500   193.4840    10.9100     3.0790    62.0010    75.9080    64.7250    23.3480    18.5690   -23.6690     2.2720 
  194.8750   193.6040    10.9460     3.0840    61.6690    83.3500    71.6150    24.1190    18.5680   -23.8550     2.2630 
  195.0000   193.7240    10.9810     3.0890    65.1580    92.4790    79.6700    24.6820    18.5680   -24.0260     2.2530 
  195.1250   193.8430    11.0170     3.0940    66.7100   103.8390    89.6750    24.7060    18.5680   -24.1640     2.2430 
  195.2500   193.9630    11.0530     3.0990    64.7750   115.9920   100.7500    24.5850    18.5670   -24.3350     2.2340 
  195.3750   194.0830    11.0890     3.1040    62.7920   126.6810   111.1430    24.3690    18.5660   -24.5290     2.2280 
  195.5000   194.2020    11.1240     3.1090    63.8190   132.8360   118.0830    24.1400    18.5570   -24.6680     2.2250 
  195.6250   194.3220    11.1600     3.1140    65.7890   131.0010   117.8600    24.2050    18.5480   -24.8270     2.2250 
  195.7500   194.4420    11.1960     3.1190    66.1280   123.6750   111.8120    24.5290    18.5460   -25.0130     2.2280 
  195.8750   194.5610    11.2320     3.1240    63.4530   114.7420   103.0770    24.9500    18.5460   -25.1630     2.2330 
  196.0000   194.6810    11.2670     3.1290    59.8310   107.9320    95.2590    25.0970    18.5480   -25.3160     2.2380 
  196.1250   194.8010    11.3030     3.1340    62.2610   106.4050    91.6710    25.5550    18.5550   -25.5120     2.2410 
  196.2500   194.9200    11.3390     3.1390    67.8880   110.3090    92.9120    26.9710    18.5560   -25.6890     2.2390 
  196.3750   195.0400    11.3750     3.1440    69.8930   119.8750    99.2650    29.2330    18.5520   -25.8200     2.2330 
  196.5000   195.1600    11.4100     3.1490    67.1210   135.4320   110.9030    30.3950    18.5650   -25.9520     2.2220 
  196.6250   195.2790    11.4460     3.1540    64.9230   163.4770   129.6760    29.9120    18.5670   -26.0950     2.2100 
  196.7500   195.3990    11.4820     3.1590    63.8810   210.1900   156.3250    29.8310    18.5680   -26.2390     2.1960 
  196.8750   195.5190    11.5180     3.1640    61.6540   255.9950   192.6470    31.2330    18.5680   -26.3600     2.1830 
  197.0000   195.6380    11.5530     3.1690    59.4180   312.5080   239.4370    33.0260    18.5680   -26.4470     2.1700 
  197.1250   195.7580    11.5890     3.1740    56.5410   374.8940   294.2770    33.7880    18.5680   -26.4980     2.1580 
  197.2500   195.8780    11.6250     3.1790    53.0160   425.2670   343.9530    33.5000    18.5680   -26.5480     2.1500 
  197.3750   195.9970    11.6610     3.1840    50.1500   444.1360   372.7960    32.9860    18.5680   -26.6080     2.1460 
  197.5000   196.1170    11.6960     3.1890    49.9190   425.3720   371.6310    32.4180    18.5670   -26.6980     2.1480 
  197.6250   196.2370    11.7320     3.1940    51.2990   379.3510   342.3270    31.8590    18.5650   -26.7300     2.1550 
  197.7500   196.3570    11.7680     3.1990    52.0890   327.0920   301.8250    30.9570    18.5630   -26.6930     2.1630 
  197.8750   196.4760    11.8040     3.2040    52.2080   276.9900   258.8260    30.2480    18.5670   -26.6960     2.1680 
  198.0000   196.5960    11.8390     3.2090    52.8820   232.5110   218.4160    30.1390    18.5680   -26.7300     2.1700 
  198.1250   196.7160    11.8750     3.2140    55.6130   195.6940   183.9760    30.6350    18.5680   -26.7020     2.1710 
  198.2500   196.8350    11.9110     3.2190    57.6540   165.8550   155.6770    31.3310    18.5680   -26.6510     2.1740 
  198.3750   196.9550    11.9470     3.2240    59.5570   143.4120   133.9730    31.4150    18.5680   -26.6270     2.1820 
  198.5000   197.0750    11.9820     3.2290    62.5930   128.4790   118.9440    30.5160    18.5660   -26.5600     2.1930 
  198.6250   197.1940    12.0180     3.2340    63.8160   121.8990   111.4360    29.9740    18.5540   -26.4930     2.2040 
  198.7500   197.3140    12.0540     3.2390    61.5710   121.8380   110.0200    29.8510    18.5310   -26.4780     2.2140 
  198.8750   197.4340    12.0900     3.2440    61.2700   127.5390   114.2560    30.1920    18.5380   -26.4350     2.2220 
  199.0000   197.5530    12.1250     3.2490    65.0530   137.8580   123.2780    30.9470    18.5420   -26.3470     2.2270 
  199.1250   197.6730    12.1610     3.2540    65.7130   151.0070   135.6050    31.8910    18.5290   -26.3140     2.2290 
  199.2500   197.7930    12.1970     3.2590    64.0810   163.3870   147.6810    32.8900    18.5380   -26.2960     2.2260 
  199.3750   197.9120    12.2330     3.2640    63.5560   172.1360   156.5790    33.7080    18.5330   -26.2320     2.2160 
  199.5000   198.0320    12.2680     3.2690    61.0830   175.9950   160.7560    33.3090    18.4990   -26.1460     2.2010 
  199.6250   198.1520    12.3040     3.2740    54.1920   176.1360   160.8860    30.9530    18.4930   -26.0770     2.1820 
  199.7500   198.2710    12.3400     3.2790    51.1250   176.3870   160.6280    28.4890    18.4910   -25.9940     2.1600 
  199.8750   198.3910    12.3760     3.2840    55.1650   178.7750   162.2530    27.7660    18.4910   -25.8570     2.1420 
  200.0000   198.5110    12.4110     3.2890    58.8080   183.2990   166.3400    29.0630    18.4890   -25.7200     2.1330 
  200.1250   198.6300    12.4470     3.2940    57.8150   186.9600   170.8200    30.7110    18.4820   -25.5660     2.1360 
  200.2500   198.7500    12.4830     3.2990    56.0780   185.5450   171.6230    31.2860    18.4810   -25.3450     2.1550 
  200.3750   198.8700    12.5190     3.3040    55.0840   177.0240   166.1390    31.1210    18.4880   -25.1200     2.1840 
  200.5000   198.9890    12.5540     3.3090    55.7470   163.0100   154.8020    31.8340    18.4950   -24.9340     2.2150 
  200.6250   199.1090    12.5900     3.3140    58.2390   148.0810   141.0560    31.9830    18.5110   -24.6840     2.2390 
  200.7500   199.2290    12.6260     3.3190    59.7980   136.2580   129.2220    30.6870    18.5060   -24.3700     2.2500 
  200.8750   199.3480    12.6620     3.3240    60.6820   128.7640   121.0550    29.3020    18.4920   -24.0970     2.2520 
  201.0000   199.4680    12.6970     3.3290    63.1970   125.1650   116.5900    28.8090    18.4820   -23.7990     2.2480 
  201.1250   199.5870    12.7340     3.3340    66.3010   124.1480   114.8980    27.7990    18.4800   -23.4400     2.2430 
  201.2500   199.7070    12.7710     3.3400    66.3610   123.2960   113.7110    27.1770    18.4800   -23.1010     2.2360 
  201.3750   199.8260    12.8080     3.3450    63.5900   121.4420   111.7110    27.7220    18.4800   -22.7850     2.2280 
