~V
VERS. 2.00: Ver 2.00
~W
STRT.M 1.0000:
STOP.M 198.0000:
STEP.M 0.1250:
NULL. -999.2500:
UWI. FD10802:
~C
DEPT.M :
TVD. :
DX. :
DY. :
SP.MV :
GR.API :
RI. :
RML.OHMM :
RXO.OHMM :
DEN.GM/CC :
~A
# ...
   55.7500    55.7500     0.0880    -0.1130    -9.2590    68.1070     5.6220     4.3810     6.6360     2.0430 
   55.8750    55.8740     0.0880    -0.1110   -10.0350    67.6490     5.3910     4.2010     6.5430     2.0430 
   56.0000    55.9990     0.0880    -0.1100   -10.2830    67.4000     5.2810     4.1490     6.4620     2.0510 
   56.1250    56.1240     0.0880    -0.1080   -10.2110    67.5320     5.1500     4.0880     6.4490     2.0610 
   56.2500    56.2490     0.0880    -0.1070    -9.9410    70.1370     4.9690     3.9690     6.4170     2.0730 
   56.3750    56.3740     0.0880    -0.1060    -9.6610    73.8680     4.7670     3.8060     5.9390     2.0880 
   56.5000    56.4990     0.0880    -0.1040    -9.6050    78.0840     4.6000     3.6730     5.2750     2.1070 
   56.6250    56.6240     0.0880    -0.1030    -9.6980    79.7450     4.5200     3.6340     5.3480     2.1160 
   56.7500    56.7490     0.0880    -0.1010    -9.9350    78.5270     4.5900     3.7520     5.8360     2.1070 
   56.8750    56.8740     0.0880    -0.1000   -10.2660    75.0650     4.7970     3.9820     5.9800     2.0870 
   57.0000    56.9990     0.0870    -0.0980   -10.6120    72.6200     5.1070     4.3050     5.8640     2.0780 
   57.1250    57.1240     0.0870    -0.0960   -10.7130    73.0320     5.4520     4.6420     5.7590     2.0880 
   57.2500    57.2490     0.0860    -0.0950   -10.5840    74.8750     5.7340     4.9190     5.6540     2.1030 
   57.3750    57.3740     0.0860    -0.0930   -10.2680    76.0670     5.9570     5.1730     5.5540     2.1110 
   57.5000    57.4990     0.0850    -0.0920    -9.8630    74.7270     6.1000     5.3480     5.4840     2.1150 
   57.6250    57.6240     0.0850    -0.0900    -9.3250    74.3860     6.0500     5.3400     5.5530     2.1260 
   57.7500    57.7490     0.0840    -0.0880    -8.6890    76.0090     5.7400     5.1020     5.7300     2.1540 
   57.8750    57.8740     0.0840    -0.0860    -7.9610    82.7330     5.2870     4.7160     5.3780     2.1800 
   58.0000    57.9990     0.0830    -0.0850    -7.1540    91.4520     4.8800     4.4110     4.5520     2.2060 
   58.1250    58.1240     0.0820    -0.0830    -6.5020    98.0790     4.7050     4.3760     4.2460     2.2250 
   58.2500    58.2490     0.0820    -0.0810    -6.4000    96.8280     4.8670     4.7420     4.8750     2.2450 
   58.3750    58.3740     0.0810    -0.0790    -6.9420    89.7480     5.2850     5.3730     5.6740     2.2680 
   58.5000    58.4990     0.0810    -0.0770    -7.8120    82.3160     5.7410     5.9410     5.8610     2.2720 
   58.6250    58.6240     0.0800    -0.0750    -8.5490    78.1740     5.9860     6.1910     5.8090     2.2440 
   58.7500    58.7490     0.0790    -0.0730    -8.9540    76.9640     5.8540     5.9680     5.6990     2.1970 
   58.8750    58.8740     0.0790    -0.0710    -9.2130    76.9380     5.4990     5.4950     5.5830     2.1620 
   59.0000    58.9990     0.0780    -0.0690    -9.5190    77.8790     5.3390     5.2990     5.6840     2.1510 
   59.1250    59.1240     0.0770    -0.0670    -9.9890    78.3400     5.7560     5.8160     7.2980     2.1630 
   59.2500    59.2490     0.0760    -0.0650   -10.4820    77.3750     7.0100     7.3820    22.0930     2.2070 
   59.3750    59.3740     0.0760    -0.0630   -11.0190    74.0210     8.8780     9.8210    46.3260     2.2850 
   59.5000    59.4990     0.0750    -0.0610   -11.9300    69.7950    10.7270    12.2710    56.0730     2.3650 
   59.6250    59.6240     0.0740    -0.0580   -13.1300    67.1990    11.5180    13.3110    46.4570     2.3840 
   59.7500    59.7490     0.0730    -0.0560   -14.3900    67.4680    10.8520    12.4800    26.3350     2.3150 
   59.8750    59.8740     0.0720    -0.0540   -15.4520    68.3620     9.1860    10.3920    10.3100     2.2130 
   60.0000    59.9990     0.0720    -0.0510   -16.2570    66.9260     7.3310     8.1860     5.6150     2.1380 
   60.1250    60.1240     0.0710    -0.0490   -16.7710    62.8950     6.1600     6.9480     5.0260     2.0870 
   60.2500    60.2490     0.0700    -0.0460   -17.1030    58.1220     5.6120     6.5010     4.7480     2.0600 
   60.3750    60.3740     0.0690    -0.0440   -17.3530    55.9210     5.5200     6.5660     4.6440     2.0450 
   60.5000    60.4990     0.0680    -0.0410   -17.5220    57.2310     5.5730     6.7590     4.7030     2.0370 
   60.6250    60.6240     0.0670    -0.0390   -17.6270    61.5420     5.6370     6.9400     4.8070     2.0380 
   60.7500    60.7490     0.0660    -0.0360   -17.6230    65.1030     5.7000     7.0910     4.8370     2.0420 
   60.8750    60.8740     0.0650    -0.0330   -17.5960    68.2140     5.7500     7.2140     4.8550     2.0470 
   61.0000    60.9990     0.0640    -0.0300   -17.5120    69.7450     5.7860     7.2900     5.1340     2.0510 
   61.1250    61.1240     0.0630    -0.0280   -17.5310    70.3870     5.8060     7.3190     5.8160     2.0560 
   61.2500    61.2490     0.0620    -0.0250   -17.4880    68.8370     5.7750     7.2870     5.9280     2.0640 
   61.3750    61.3740     0.0610    -0.0220   -17.3810    67.6140     5.7120     7.2340     5.7280     2.0780 
   61.5000    61.4990     0.0600    -0.0190   -17.3160    67.0910     5.5820     7.1400     5.4520     2.0900 
   61.6250    61.6240     0.0590    -0.0160   -17.2990    67.6860     5.3980     7.0070     5.1850     2.0930 
   61.7500    61.7490     0.0580    -0.0130   -17.2310    68.8050     5.1880     6.8360     4.9950     2.0820 
   61.8750    61.8730     0.0560    -0.0100   -17.2780    70.3940     4.9690     6.6520     4.8460     2.0670 
   62.0000    61.9980     0.0550    -0.0070   -17.4560    72.7840     4.7880     6.4960     4.7550     2.0590 
   62.1250    62.1230     0.0540    -0.0040   -17.7450    74.8780     4.6680     6.3780     4.7680     2.0600 
   62.2500    62.2480     0.0530     0.0000   -18.0910    76.2740     4.6380     6.3210     4.8800     2.0600 
   62.3750    62.3730     0.0510     0.0030   -18.4630    76.7420     4.6720     6.3130     5.0540     2.0540 
   62.5000    62.4980     0.0500     0.0060   -18.7660    77.0430     4.7390     6.3150     5.2570     2.0450 
   62.6250    62.6230     0.0490     0.0100   -18.9510    76.3770     4.8170     6.3420     5.4350     2.0380 
   62.7500    62.7480     0.0480     0.0130   -19.0000    74.0090     4.9580     6.4920     5.5870     2.0360 
   62.8750    62.8730     0.0460     0.0170   -18.9430    71.3980     5.2240     6.8430     5.7880     2.0580 
   63.0000    62.9980     0.0450     0.0200   -18.6530    69.2760     5.6100     7.3920     5.8510     2.1380 
   63.1250    63.1230     0.0430     0.0240   -18.1290    68.3640     6.0090     7.9380     5.7020     2.2700 
   63.2500    63.2480     0.0420     0.0270   -17.6490    68.4780     6.2570     8.2340     5.6990     2.3920 
   63.3750    63.3730     0.0400     0.0310   -17.2400    70.3120     6.2680     8.1630     5.8030     2.4270 
   63.5000    63.4980     0.0390     0.0350   -16.9750    72.6850     6.0080     7.7290     5.7900     2.3520 
   63.6250    63.6230     0.0370     0.0390   -16.8660    73.7840     5.6130     7.1820     5.7200     2.2280 
   63.7500    63.7480     0.0360     0.0420   -16.8790    73.1220     5.2420     6.7370     5.5410     2.1200 
   63.8750    63.8730     0.0340     0.0460   -17.0520    72.3990     5.0200     6.5430     5.2570     2.0520 
   64.0000    63.9970     0.0330     0.0500   -17.2920    70.7010     4.9740     6.5800     4.9940     2.0210 
   64.1250    64.1220     0.0310     0.0540   -17.6070    69.1180     5.0060     6.6460     4.8440     2.0140 
   64.2500    64.2470     0.0290     0.0580   -18.0290    67.0960     5.0280     6.6140     4.7770     2.0180 
   64.3750    64.3720     0.0280     0.0630   -18.4640    65.3310     5.0170     6.5180     4.7340     2.0190 
   64.5000    64.4970     0.0260     0.0670   -19.0400    64.5180     4.9960     6.4490     4.7270     2.0120 
   64.6250    64.6220     0.0240     0.0710   -19.7320    63.3880     5.0000     6.4940     4.7300     2.0040 
   64.7500    64.7470     0.0230     0.0750   -20.2300    64.2760     5.0500     6.6560     4.7290     1.9990 
