~V
VERS. 2.00: Ver 2.00
~W
STRT.M 24.0000:
STOP.M 309.0000:
STEP.M 0.1250:
NULL. -999.2500:
UWI. FD10911:
~C
DEPT.M :
TVD. :
DX. :
DY. :
SP.MV :
GR.API :
RI. :
RML.OHMM :
RXO.OHMM :
DEN.GM/CC :
~A
# ...
  243.0000   223.3750    34.1630   -68.9770   -20.2550    68.3360    10.9040    11.9460    14.5130     2.1940 
  243.1250   223.4780    34.2000   -69.0360   -20.3060    71.4380    10.9810    11.9690    14.3740     2.1980 
  243.2500   223.5820    34.2370   -69.0960   -20.3310    72.6950    11.0070    11.9500    14.2220     2.2010 
  243.3750   223.6850    34.2740   -69.1560   -20.3130    71.2410    10.9920    11.9040    14.2300     2.2060 
  243.5000   223.7880    34.3110   -69.2160   -20.2190    69.9850    10.9500    11.8550    14.2240     2.2140 
  243.6250   223.8910    34.3490   -69.2760   -20.0420    70.5610    10.8960    11.8190    14.7220     2.2260 
  243.7500   223.9940    34.3850   -69.3360   -19.8120    73.1560    10.8340    11.7820    15.4350     2.2330 
  243.8750   224.0980    34.4220   -69.3960   -19.5970    75.4760    10.7550    11.7120    15.0180     2.2310 
  244.0000   224.2010    34.4590   -69.4570   -19.4570    75.7420    10.6510    11.5880    13.7340     2.2230 
  244.1250   224.3040    34.4960   -69.5170   -19.3970    74.5160    10.5420    11.4410    12.9830     2.2190 
  244.2500   224.4070    34.5330   -69.5770   -19.3980    73.4750    10.4760    11.3420    12.9020     2.2230 
  244.3750   224.5100    34.5690   -69.6370   -19.4110    72.7660    10.5060    11.3690    12.8470     2.2280 
  244.5000   224.6130    34.6060   -69.6980   -19.3940    73.5930    10.6810    11.5780    12.6580     2.2280 
  244.6250   224.7170    34.6420   -69.7580   -19.3440    73.6410    10.9800    11.9390    12.7280     2.2240 
  244.7500   224.8200    34.6790   -69.8190   -19.2830    74.5430    11.3590    12.3960    13.3960     2.2190 
  244.8750   224.9230    34.7160   -69.8790   -19.2480    73.4260    11.7220    12.8230    14.1330     2.2160 
  245.0000   225.0260    34.7520   -69.9390   -19.2620    73.0810    11.9470    13.0670    14.2260     2.2140 
  245.1250   225.1290    34.7890   -70.0000   -19.3190    72.2790    11.9520    13.0530    13.5870     2.2090 
  245.2500   225.2320    34.8250   -70.0600   -19.4070    71.4960    11.7710    12.8390    12.6270     2.2050 
  245.3750   225.3360    34.8620   -70.1200   -19.5140    69.6460    11.5890    12.6540    12.2370     2.2040 
  245.5000   225.4390    34.8990   -70.1810   -19.6350    67.7000    11.6280    12.7500    12.8360     2.2110 
  245.6250   225.5420    34.9360   -70.2410   -19.7640    66.8470    12.0460    13.2950    13.6350     2.2220 
  245.7500   225.6450    34.9730   -70.3010   -19.8890    67.6880    12.9350    14.3740    13.9940     2.2310 
  245.8750   225.7480    35.0090   -70.3610   -20.0010    67.7540    14.1940    15.8570    14.6190     2.2360 
  246.0000   225.8510    35.0460   -70.4220   -20.0930    66.4480    15.6640    17.5380    16.4000     2.2430 
  246.1250   225.9540    35.0830   -70.4820   -20.1660    64.0890    17.1020    19.1350    18.6620     2.2550 
  246.2500   226.0580    35.1200   -70.5420   -20.2180    62.9590    18.3480    20.4800    20.8100     2.2640 
  246.3750   226.1610    35.1570   -70.6020   -20.2470    62.8950    19.3610    21.5610    23.0230     2.2580 
  246.5000   226.2640    35.1940   -70.6620   -20.2520    63.0100    20.1420    22.4100    24.4220     2.2340 
  246.6250   226.3670    35.2320   -70.7220   -20.2400    63.3280    20.7080    23.0570    24.1610     2.2080 
  246.7500   226.4700    35.2690   -70.7820   -20.2120    64.3350    20.9570    23.3850    23.2370     2.1930 
  246.8750   226.5730    35.3070   -70.8420   -20.1600    65.3720    20.8030    23.2740    23.1500     2.1900 
  247.0000   226.6760    35.3440   -70.9020   -20.0730    66.2860    20.1640    22.6160    23.5680     2.1950 
  247.1250   226.7790    35.3820   -70.9620   -19.9550    66.9780    19.1650    21.5510    23.4110     2.2030 
  247.2500   226.8820    35.4190   -71.0220   -19.8250    68.5730    18.0100    20.3140    23.3620     2.2130 
  247.3750   226.9860    35.4570   -71.0820   -19.7020    68.3700    17.0250    19.2920    24.0610     2.2220 
  247.5000   227.0890    35.4940   -71.1410   -19.5920    65.7380    16.5090    18.8140    24.0140     2.2330 
  247.6250   227.1920    35.5320   -71.2010   -19.4920    63.7210    16.5660    18.9760    22.3680     2.2420 
  247.7500   227.2950    35.5690   -71.2610   -19.4080    64.6650    17.3620    19.9420    20.2450     2.2470 
  247.8750   227.3980    35.6060   -71.3210   -19.3580    67.8430    18.7740    21.5570    19.9040     2.2480 
  248.0000   227.5010    35.6440   -71.3810   -19.3700    69.1370    20.4780    23.4420    24.8630     2.2540 
  248.1250   227.6040    35.6810   -71.4410   -19.4420    70.1500    22.0910    25.2020    36.2040     2.2810 
  248.2500   227.7070    35.7180   -71.5010   -19.5570    71.1780    23.3650    26.5990    51.4800     2.3420 
  248.3750   227.8100    35.7550   -71.5610   -19.6750    72.4970    24.2030    27.5320    65.9210     2.4350 
  248.5000   227.9140    35.7930   -71.6220   -19.7640    70.0350    24.2720    27.6060    73.3500     2.5420 
  248.6250   228.0170    35.8300   -71.6820   -19.8120    66.4540    23.2540    26.4470    72.7650     2.6340 
  248.7500   228.1200    35.8670   -71.7420   -19.8230    62.5250    21.0040    23.8910    68.3230     2.6940 
  248.8750   228.2230    35.9040   -71.8020   -19.8210    61.9170    17.9980    20.4540    57.5190     2.7270 
  249.0000   228.3260    35.9410   -71.8620   -19.8300    61.5920    14.7880    16.7530    39.2630     2.7460 
  249.1250   228.4290    35.9790   -71.9220   -19.8640    64.2840    11.7150    13.1840    25.7940     2.7600 
  249.2500   228.5320    36.0160   -71.9820   -19.9160    67.8360     8.9110     9.9360    24.8920     2.7600 
  249.3750   228.6350    36.0530   -72.0420   -19.9510    70.8290     6.5260     7.2050    32.3690     2.7320 
  249.5000   228.7380    36.0900   -72.1020   -19.9260    69.5610     4.7890     5.2370    35.8480     2.6620 
  249.6250   228.8420    36.1280   -72.1620   -19.8240    66.5870     3.6780     3.9970    26.4240     2.5620 
  249.7500   228.9450    36.1650   -72.2220   -19.6590    63.8990     3.0410     3.3350    12.3880     2.4620 
  249.8750   229.0480    36.2020   -72.2820   -19.4800    63.1450     2.6550     2.9920     4.7680     2.3870 
  250.0000   229.1510    36.2390   -72.3430   -19.3370    62.2940     2.4380     2.8370     3.0770     2.3440 
  250.1250   229.2540    36.2760   -72.4030   -19.2440    61.6490     2.3340     2.7620     2.8570     2.3170 
  250.2500   229.3570    36.3130   -72.4630   -19.1820    62.0510     2.3340     2.7540     2.7950     2.2990 
  250.3750   229.4600    36.3500   -72.5230   -19.1080    64.8340     2.4350     2.8460     2.7720     2.2850 
  250.5000   229.5630    36.3880   -72.5840   -18.9830    70.6830     2.6800     3.1100     2.8010     2.2820 
  250.6250   229.6660    36.4250   -72.6440   -18.7940    77.1580     3.0700     3.5480     3.1450     2.2990 
  250.7500   229.7690    36.4620   -72.7040   -18.5420    84.7350     3.5510     4.0910     4.2480     2.3370 
  250.8750   229.8720    36.4990   -72.7640   -18.2540    90.8290     4.0010     4.5800     5.6280     2.3780 
  251.0000   229.9750    36.5360   -72.8250   -17.9720    97.4000     4.2790     4.8530     6.1850     2.4020 
  251.1250   230.0780    36.5730   -72.8850   -17.7300   101.6730     4.3390     4.8750     5.8400     2.4070 
  251.2500   230.1810    36.6100   -72.9450   -17.5430   104.3440     4.2170     4.7130     5.3170     2.4000 
  251.3750   230.2840    36.6480   -73.0050   -17.3980   104.8960     4.0400     4.5250     5.1120     2.3900 
  251.5000   230.3870    36.6850   -73.0660   -17.2850   106.8460     3.9100     4.4230     5.1640     2.3780 
  251.6250   230.4900    36.7220   -73.1260   -17.1920   110.4190     3.8580     4.4240     5.1580     2.3660 
  251.7500   230.5930    36.7590   -73.1860   -17.1240   114.3300     3.8650     4.4920     5.0040     2.3560 
  251.8750   230.6960    36.7970   -73.2470   -17.0840   115.7160     3.8940     4.5800     4.8330     2.3460 
  252.0000   230.7990    36.8340   -73.3070   -17.0800   113.9290     3.9300     4.6600     4.7030     2.3410 
