~V
VERS. 2.00: Ver 2.00
~W
STRT.M 55.0000:
STOP.M 289.0000:
STEP.M 0.1250:
NULL. -999.2500:
UWI. FD10909:
~C
DEPT.M :
TVD. :
DX. :
DY. :
SP.MV :
GR.API :
RI. :
RML.OHMM :
RXO.OHMM :
DEN.GM/CC :
~A
# ...
  173.6250   170.6670    21.4620     3.9780    -2.0760    51.4720    10.3820    11.9520    14.1590     2.5290 
  173.7500   170.7840    21.5050     3.9860    -2.0830    51.4100    10.9000    12.5800    14.2830     2.5440 
  173.8750   170.9010    21.5480     3.9930    -2.0470    51.4260    11.3710    13.1510    14.5690     2.5600 
  174.0000   171.0180    21.5920     4.0010    -1.9770    51.4490    11.6030    13.4270    17.4590     2.5760 
  174.1250   171.1350    21.6350     4.0090    -1.9100    51.8740    11.4800    13.2850    21.1780     2.5860 
  174.2500   171.2520    21.6780     4.0170    -1.8850    53.0620    10.9890    12.7220    21.0270     2.5870 
  174.3750   171.3690    21.7210     4.0250    -1.9180    55.1030    10.2780    11.9210    16.9830     2.5770 
  174.5000   171.4860    21.7640     4.0320    -2.0130    57.2940     9.5270    11.0840    12.7350     2.5650 
  174.6250   171.6030    21.8080     4.0400    -2.1580    58.5630     8.9090    10.4040    10.3720     2.5570 
  174.7500   171.7200    21.8510     4.0480    -2.3480    58.4170     8.5550    10.0330     9.8910     2.5520 
  174.8750   171.8370    21.8940     4.0560    -2.5660    57.3750     8.4760     9.9800    10.3170     2.5420 
  175.0000   171.9540    21.9370     4.0640    -2.7920    58.0160     8.6630    10.2420    10.5670     2.5300 
  175.1250   172.0710    21.9800     4.0720    -2.9950    59.3320     9.0410    10.7370    10.3470     2.5250 
  175.2500   172.1880    22.0240     4.0790    -3.1470    60.9350     9.5370    11.3840    10.3470     2.5310 
  175.3750   172.3050    22.0670     4.0870    -3.2450    60.5240    10.0200    12.0170    11.1780     2.5390 
  175.5000   172.4220    22.1100     4.0950    -3.3040    59.0820    10.3280    12.4190    12.5760     2.5430 
  175.6250   172.5390    22.1530     4.1030    -3.3580    56.7920    10.3560    12.4460    13.6870     2.5450 
  175.7500   172.6560    22.1960     4.1110    -3.4210    57.4990    10.0410    12.0190    13.9500     2.5510 
  175.8750   172.7730    22.2400     4.1180    -3.4770    59.0580     9.4570    11.2510    13.2370     2.5590 
  176.0000   172.8900    22.2830     4.1260    -3.4890    59.8300     8.7570    10.3670    11.8320     2.5610 
  176.1250   173.0070    22.3260     4.1340    -3.4360    58.1930     8.1620     9.6600    10.4950     2.5530 
  176.2500   173.1240    22.3690     4.1420    -3.3270    56.5320     7.8390     9.3430     9.5890     2.5400 
  176.3750   173.2410    22.4130     4.1490    -3.1990    55.6510     7.8080     9.4090     9.7130     2.5300 
  176.5000   173.3580    22.4560     4.1570    -3.0830    54.7850     7.9830     9.7180    11.6440     2.5260 
  176.6250   173.4750    22.4990     4.1650    -2.9910    53.5440     8.2150    10.0600    14.0450     2.5240 
  176.7500   173.5920    22.5420     4.1730    -2.9260    53.3990     8.4300    10.3300    14.7830     2.5260 
  176.8750   173.7090    22.5860     4.1800    -2.8850    54.8130     8.5750    10.4740    13.5110     2.5370 
  177.0000   173.8260    22.6290     4.1880    -2.8710    56.9450     8.6250    10.4880    11.4090     2.5550 
  177.1250   173.9430    22.6720     4.1960    -2.8820    57.8190     8.6230    10.4730    10.2990     2.5690 
  177.2500   174.0600    22.7150     4.2030    -2.9090    57.8040     8.6250    10.5060    10.6470     2.5680 
  177.3750   174.1770    22.7590     4.2110    -2.9290    57.8500     8.6740    10.5950    10.9370     2.5520 
  177.5000   174.2940    22.8020     4.2190    -2.9190    60.6470     8.7710    10.7120    10.4840     2.5270 
  177.6250   174.4110    22.8450     4.2260    -2.8720    61.9940     8.8840    10.8230    10.3900     2.5050 
  177.7500   174.5280    22.8890     4.2340    -2.8050    60.8000     9.0200    10.9800    11.0250     2.4960 
  177.8750   174.6450    22.9320     4.2420    -2.7460    56.7350     9.1810    11.2140    11.3730     2.4990 
  178.0000   174.7620    22.9750     4.2500    -2.7260    55.8080     9.2730    11.3740    11.1890     2.5110 
  178.1250   174.8790    23.0190     4.2570    -2.7510    56.7760     9.1280    11.2180    11.2560     2.5210 
  178.2500   174.9960    23.0620     4.2650    -2.8040    58.7260     8.5910    10.5520    11.7790     2.5160 
  178.3750   175.1130    23.1050     4.2730    -2.8470    58.2710     7.7610     9.5140    12.0830     2.4920 
  178.5000   175.2300    23.1490     4.2810    -2.8310    58.6760     6.8630     8.3990    11.4800     2.4580 
  178.6250   175.3470    23.1920     4.2880    -2.7490    59.3740     6.1230     7.4920    10.0300     2.4320 
  178.7500   175.4640    23.2350     4.2960    -2.6420    60.4570     5.6610     6.9370     8.4890     2.4220 
  178.8750   175.5810    23.2780     4.3040    -2.5910    58.6280     5.4020     6.6430     7.6910     2.4240 
  179.0000   175.6980    23.3220     4.3120    -2.6830    56.5620     5.2890     6.5240     7.8210     2.4270 
  179.1250   175.8150    23.3650     4.3190    -2.9370    55.9200     5.2650     6.4980     8.2430     2.4250 
  179.2500   175.9320    23.4080     4.3270    -3.3350    56.8040     5.2830     6.4980     8.0910     2.4170 
  179.3750   176.0490    23.4520     4.3350    -3.8030    58.1070     5.3090     6.4990     7.3410     2.4110 
  179.5000   176.1660    23.4950     4.3420    -4.2740    59.6920     5.3390     6.5120     6.8170     2.4090 
  179.6250   176.2830    23.5380     4.3500    -4.6960    62.6310     5.3660     6.5230     6.8340     2.4070 
  179.7500   176.4000    23.5820     4.3580    -5.0220    65.2430     5.3660     6.4860     6.9300     2.4030 
  179.8750   176.5170    23.6250     4.3660    -5.2420    66.7220     5.3090     6.3690     6.7760     2.4030 
  180.0000   176.6340    23.6680     4.3730    -5.3530    67.2740     5.1880     6.1700     6.6870     2.4120 
  180.1250   176.7510    23.7120     4.3810    -5.3770    66.8150     5.0720     5.9440     6.8980     2.4260 
  180.2500   176.8680    23.7550     4.3890    -5.3350    65.8600     5.0060     5.7640     7.1170     2.4320 
  180.3750   176.9850    23.7980     4.3970    -5.2490    64.4370     4.9710     5.6630     7.1680     2.4240 
  180.5000   177.1020    23.8420     4.4050    -5.1460    63.6130     4.9530     5.6280     7.0890     2.4080 
  180.6250   177.2190    23.8850     4.4120    -5.0630    63.8090     4.9360     5.6070     6.8490     2.3940 
  180.7500   177.3360    23.9280     4.4200    -5.0420    64.1260     4.9270     5.6040     6.4740     2.3890 
  180.8750   177.4530    23.9720     4.4280    -5.1080    64.1370     4.9290     5.6470     6.1750     2.3910 
  181.0000   177.5700    24.0150     4.4350    -5.2740    62.7260     4.9430     5.7000     6.0580     2.3950 
  181.1250   177.6870    24.0580     4.4430    -5.5170    60.8330     4.9570     5.7390     5.9580     2.3980 
  181.2500   177.8040    24.1020     4.4510    -5.8110    59.9640     4.9720     5.7620     5.8950     2.3980 
  181.3750   177.9210    24.1450     4.4590    -6.1130    60.7280     5.0130     5.8150     6.1670     2.4000 
  181.5000   178.0380    24.1880     4.4670    -6.3890    60.3390     5.1020     6.0050     6.6970     2.4050 
  181.6250   178.1550    24.2320     4.4740    -6.6240    58.6990     5.2290     6.3030     7.1890     2.4140 
  181.7500   178.2720    24.2750     4.4820    -6.8230    55.0730     5.4800     6.6780     7.9520     2.4160 
  181.8750   178.3890    24.3180     4.4900    -7.0150    53.1520     5.9230     7.1800     8.8680     2.4020 
  182.0000   178.5060    24.3620     4.4980    -7.2410    54.1220     6.5540     7.8830     9.1770     2.3660 
  182.1250   178.6230    24.4050     4.5060    -7.5280    57.5550     7.3650     8.7740     9.2280     2.3180 
  182.2500   178.7400    24.4480     4.5140    -7.8960    60.8590     8.3900     9.8300    11.1590     2.2720 
  182.3750   178.8570    24.4920     4.5220    -8.3380    63.5240     9.5890    10.9800    16.1570     2.2410 
  182.5000   178.9740    24.5350     4.5300    -8.8390    66.4900    10.7740    12.1710    19.6430     2.2290 
  182.6250   179.0910    24.5780     4.5380    -9.3580    70.5140    11.6600    13.1150    19.2630     2.2250 
