~V
VERS. 2.00: Ver 2.00
~W
STRT.M 53.0000:
STOP.M 258.0000:
STEP.M 0.1250:
NULL. -999.2500:
UWI. FD10870:
~C
DEPT.M :
TVD. :
DX. :
DY. :
SP.MV :
GR.API :
RI. :
RML.OHMM :
RXO.OHMM :
DEN.GM/CC :
~A
# ...
  107.7500   107.1910    -3.6620    -5.2020   -18.3580   104.9960     6.9260     7.0930     7.1930     2.3500 
  107.8750   107.3120    -3.6870    -5.2160   -18.5830   105.3770     6.6180     6.6970     6.1640     2.3750 
  108.0000   107.4340    -3.7130    -5.2310   -18.8430   105.2840     6.5230     6.5700     5.8790     2.3920 
  108.1250   107.5550    -3.7390    -5.2450   -18.8950   105.2060     6.6340     6.7340     6.5810     2.3780 
  108.2500   107.6770    -3.7640    -5.2600   -18.9480   104.4990     6.8290     7.0180     6.9010     2.3490 
  108.3750   107.7980    -3.7900    -5.2740   -19.0120   102.1380     7.0640     7.3170     6.9000     2.3170 
  108.5000   107.9190    -3.8160    -5.2890   -18.9950   101.4870     7.2170     7.5270     7.3490     2.2990 
  108.6250   108.0410    -3.8430    -5.3030   -18.8210   101.5710     7.2060     7.6040     7.2040     2.3000 
  108.7500   108.1620    -3.8690    -5.3170   -18.4970   104.0530     7.1070     7.5980     6.6730     2.3110 
  108.8750   108.2840    -3.8950    -5.3320   -18.1020   105.2630     6.9290     7.4790     6.7570     2.3230 
  109.0000   108.4050    -3.9210    -5.3460   -17.6590   105.5460     6.5700     7.1060     6.7880     2.3270 
  109.1250   108.5260    -3.9480    -5.3600   -17.1640   103.7600     6.1670     6.6660     6.7680     2.3330 
  109.2500   108.6480    -3.9750    -5.3750   -16.4560   103.1400     5.8630     6.3440     6.6620     2.3400 
  109.3750   108.7690    -4.0010    -5.3890   -15.4310   103.9150     5.9330     6.4790     6.0240     2.3560 
  109.5000   108.8900    -4.0280    -5.4030   -14.2510   103.5560     6.7570     7.5660     5.5190     2.3860 
  109.6250   109.0110    -4.0550    -5.4170   -12.9240   100.3660     8.6660     9.9940     6.9010     2.4500 
  109.7500   109.1320    -4.0820    -5.4320   -11.3150    94.7880    11.5640    13.5580    14.5310     2.5240 
  109.8750   109.2540    -4.1090    -5.4460    -9.7910    87.8470    15.4530    18.1580    27.6760     2.5400 
  110.0000   109.3750    -4.1360    -5.4600    -8.5720    80.7340    19.7180    22.9420    32.3460     2.4630 
  110.1250   109.4960    -4.1640    -5.4740    -7.6260    76.0900    23.3230    26.7820    25.7160     2.3670 
  110.2500   109.6170    -4.1910    -5.4890    -6.7850    74.9810    26.0080    29.6030    21.1090     2.3620 
  110.3750   109.7380    -4.2190    -5.5030    -6.1730    76.0820    27.2570    30.9020    20.6750     2.4790 
  110.5000   109.8590    -4.2460    -5.5170    -5.7030    77.4350    27.6910    31.4100    20.4900     2.5950 
  110.6250   109.9800    -4.2740    -5.5310    -5.6120    77.2380    27.3010    30.9920    20.2440     2.5890 
  110.7500   110.1020    -4.3010    -5.5450    -5.6690    76.2120    26.0430    29.6690    19.7270     2.4620 
  110.8750   110.2230    -4.3290    -5.5600    -5.7400    74.4510    24.5410    28.1550    19.4620     2.3240 
  111.0000   110.3440    -4.3570    -5.5740    -5.7440    73.3300    23.2630    26.9980    19.2230     2.2540 
  111.1250   110.4650    -4.3850    -5.5880    -5.5610    74.5070    22.9170    26.8900    18.4360     2.2520 
  111.2500   110.5860    -4.4130    -5.6020    -5.2010    78.7860    23.3050    27.4860    19.3220     2.2730 
  111.3750   110.7070    -4.4410    -5.6160    -4.7500    84.1330    24.0060    28.3550    20.9810     2.2750 
  111.5000   110.8280    -4.4690    -5.6300    -4.4420    86.1930    24.8710    29.3230    21.6880     2.2570 
  111.6250   110.9490    -4.4970    -5.6440    -4.5860    82.2600    25.7800    30.2850    24.2270     2.2140 
  111.7500   111.0700    -4.5250    -5.6570    -4.7200    75.8630    26.5300    30.9520    26.4740     2.1800 
  111.8750   111.1910    -4.5530    -5.6710    -4.8610    70.2200    26.9020    31.2070    26.3870     2.1720 
  112.0000   111.3120    -4.5810    -5.6850    -4.9030    67.7110    26.9210    31.1010    25.6310     2.1820 
  112.1250   111.4330    -4.6090    -5.6990    -4.9180    66.2170    26.6360    30.7070    24.5940     2.1860 
  112.2500   111.5540    -4.6380    -5.7130    -4.8890    66.2430    26.2280    30.2430    24.1010     2.1730 
  112.3750   111.6750    -4.6660    -5.7270    -4.7150    64.5470    25.8940    29.9110    24.7230     2.1590 
  112.5000   111.7960    -4.6950    -5.7400    -4.4550    63.1390    25.6670    29.7300    25.1350     2.1510 
  112.6250   111.9170    -4.7230    -5.7540    -4.1250    62.1500    25.6110    29.7210    23.5470     2.1520 
  112.7500   112.0370    -4.7520    -5.7680    -3.7840    62.6590    25.7670    29.9480    21.5820     2.1590 
  112.8750   112.1580    -4.7800    -5.7810    -3.4520    63.3610    26.0490    30.2540    22.4430     2.1820 
  113.0000   112.2790    -4.8090    -5.7950    -3.0790    64.6040    26.4460    30.6760    24.0130     2.2080 
  113.1250   112.4000    -4.8370    -5.8080    -2.8900    66.0210    26.9090    31.1680    23.0350     2.2230 
  113.2500   112.5210    -4.8660    -5.8220    -2.8340    66.6710    27.3230    31.6140    21.3800     2.2280 
  113.3750   112.6420    -4.8950    -5.8350    -2.8140    65.8410    27.6780    32.0160    20.8770     2.2270 
  113.5000   112.7630    -4.9240    -5.8480    -2.9460    64.6560    27.9610    32.3210    21.6710     2.2230 
  113.6250   112.8840    -4.9530    -5.8620    -3.1720    64.7000    28.0280    32.3780    23.8080     2.2190 
  113.7500   113.0050    -4.9820    -5.8750    -3.3230    66.1760    27.7660    32.0890    25.6800     2.2200 
  113.8750   113.1250    -5.0110    -5.8880    -3.2770    66.6680    27.2370    31.4770    25.4310     2.2230 
  114.0000   113.2460    -5.0410    -5.9010    -3.3160    67.4320    26.5490    30.6570    23.6120     2.2220 
  114.1250   113.3670    -5.0700    -5.9140    -3.4670    66.8450    25.7380    29.5790    22.7280     2.2130 
  114.2500   113.4880    -5.0990    -5.9270    -3.4380    66.2500    24.9570    28.4400    23.9720     2.1990 
  114.3750   113.6090    -5.1290    -5.9390    -3.5960    64.0730    24.2960    27.3880    24.9180     2.1800 
  114.5000   113.7290    -5.1580    -5.9520    -3.9670    64.9750    23.8290    26.6190    24.0070     2.1630 
  114.6250   113.8500    -5.1880    -5.9650    -4.2420    68.2780    23.6430    26.2720    23.0180     2.1550 
  114.7500   113.9710    -5.2180    -5.9770    -4.6590    72.5940    23.6050    26.1830    22.9540     2.1580 
  114.8750   114.0920    -5.2470    -5.9900    -5.2760    72.7950    23.7650    26.4240    23.0630     2.1660 
  115.0000   114.2130    -5.2770    -6.0020    -5.9570    71.4110    24.1970    27.0420    22.7060     2.1770 
  115.1250   114.3330    -5.3070    -6.0140    -6.9510    69.1810    24.7350    27.8580    22.2050     2.1870 
  115.2500   114.4540    -5.3370    -6.0270    -8.1680    68.4790    24.1320    27.2740    21.8610     2.1930 
  115.3750   114.5750    -5.3670    -6.0390    -9.5140    69.1710    21.6710    24.4510    22.3760     2.1910 
  115.5000   114.6960    -5.3970    -6.0510   -10.9110    71.7390    17.6770    19.7620    22.6340     2.1940 
  115.6250   114.8160    -5.4270    -6.0630   -12.2810    75.7360    13.2480    14.5140    20.5250     2.2160 
  115.7500   114.9370    -5.4570    -6.0750   -13.4510    81.7150     9.8970    10.6430    16.8750     2.2550 
  115.8750   115.0580    -5.4870    -6.0870   -14.0290    89.2300     8.2350     8.8220    11.8200     2.2960 
  116.0000   115.1780    -5.5170    -6.0990   -14.0340    97.1140     7.9520     8.6880     7.4690     2.3430 
  116.1250   115.2990    -5.5480    -6.1110   -13.5970   100.2750     8.7520     9.8130     6.4820     2.4110 
  116.2500   115.4200    -5.5780    -6.1220   -13.0710    98.5860    10.6870    12.1770    10.2410     2.5050 
  116.3750   115.5410    -5.6080    -6.1340   -12.4750    92.7000    13.0390    14.8800    17.9510     2.5830 
  116.5000   115.6610    -5.6380    -6.1460   -11.8950    88.2130    14.9250    16.8650    22.9450     2.6000 
  116.6250   115.7820    -5.6690    -6.1570   -11.5900    86.1030    15.4380    17.1970    21.4650     2.5280 
  116.7500   115.9030    -5.6990    -6.1690   -11.3080    84.3090    14.4200    15.8610    16.0480     2.4110 
