~V
VERS. 2.00: Ver 2.00
~W
STRT.M 34.0000:
STOP.M 260.0000:
STEP.M 0.1250:
NULL. -999.2500:
UWI. FD10858:
~C
DEPT.M :
TVD. :
DX. :
DY. :
SP.MV :
GR.API :
RI. :
RML.OHMM :
RXO.OHMM :
DEN.GM/CC :
~A
# ...
  207.3750   193.3370   -41.3220   -44.7940   -27.2750    58.7960    21.2070    22.0180    12.7150     2.1570 
  207.5000   193.4460   -41.3620   -44.8390   -26.7690    55.9900    21.1710    21.9500    14.6650     2.1480 
  207.6250   193.5560   -41.4030   -44.8840   -26.2190    55.8350    21.2670    21.9670    13.2080     2.1320 
  207.7500   193.6650   -41.4430   -44.9290   -25.6710    56.9640    21.5450    22.1390    10.6420     2.1170 
  207.8750   193.7740   -41.4840   -44.9740   -25.1690    59.0170    22.1400    22.6210    10.2970     2.1090 
  208.0000   193.8840   -41.5250   -45.0190   -24.7400    62.5280    22.8120    23.1880    10.8080     2.1070 
  208.1250   193.9930   -41.5650   -45.0640   -24.4110    65.5070    23.4480    23.6920    10.7250     2.1080 
  208.2500   194.1020   -41.6060   -45.1090   -24.1740    65.6910    23.7960    23.9190     9.7170     2.1060 
  208.3750   194.2120   -41.6470   -45.1540   -24.0120    63.2240    23.8450    23.8950     7.8680     2.1030 
  208.5000   194.3210   -41.6880   -45.1990   -23.8810    61.5800    23.9070    23.9150     6.7240     2.1020 
  208.6250   194.4300   -41.7280   -45.2440   -23.7400    62.1880    24.0630    24.0480     7.4040     2.1100 
  208.7500   194.5390   -41.7690   -45.2890   -23.5620    63.6430    24.3100    24.2890     8.4680     2.1210 
  208.8750   194.6490   -41.8100   -45.3340   -23.3330    64.1580    24.5800    24.5810     9.2410     2.1300 
  209.0000   194.7580   -41.8510   -45.3790   -23.0630    64.3670    24.6380    24.6730    10.2080     2.1320 
  209.1250   194.8670   -41.8910   -45.4240   -22.7690    65.2660    24.1890    24.2290    10.8660     2.1290 
  209.2500   194.9760   -41.9320   -45.4690   -22.4760    66.3310    23.3470    23.3290    10.9190     2.1290 
  209.3750   195.0860   -41.9730   -45.5140   -22.2140    66.0400    22.2770    22.1670    10.5030     2.1340 
  209.5000   195.1950   -42.0140   -45.5590   -22.0050    65.8590    20.9730    20.7450     9.9700     2.1440 
  209.6250   195.3040   -42.0540   -45.6040   -21.8750    66.5170    19.5190    19.1940     9.6220     2.1570 
  209.7500   195.4130   -42.0950   -45.6500   -21.8190    66.0530    17.9880    17.6190     9.4700     2.1700 
  209.8750   195.5220   -42.1360   -45.6950   -21.8310    63.9300    16.6170    16.2170     9.6540     2.1790 
  210.0000   195.6320   -42.1760   -45.7400   -21.8820    62.1790    15.6540    15.2530     9.9240     2.1800 
  210.1250   195.7410   -42.2170   -45.7860   -21.9530    62.3280    15.2090    14.8120     9.4830     2.1700 
  210.2500   195.8500   -42.2580   -45.8310   -22.0240    63.5600    15.2710    14.9200     8.4790     2.1500 
  210.3750   195.9590   -42.2990   -45.8760   -22.0920    66.0870    15.8530    15.5860     8.5480     2.1310 
  210.5000   196.0680   -42.3390   -45.9210   -22.1640    67.4670    16.8670    16.6770     9.8210     2.1190 
  210.6250   196.1770   -42.3800   -45.9670   -22.2580    64.8920    18.0250    17.8590    10.6520     2.1170 
  210.7500   196.2860   -42.4210   -46.0120   -22.3840    60.0380    18.9770    18.8010    10.7040     2.1170 
  210.8750   196.3950   -42.4620   -46.0570   -22.5460    57.8610    19.5900    19.4200    10.7430     2.1190 
  211.0000   196.5050   -42.5030   -46.1020   -22.7230    58.8850    19.9790    19.8280    10.8650     2.1190 
  211.1250   196.6140   -42.5430   -46.1480   -22.8850    61.4620    20.1260    20.0360    10.6720     2.1180 
  211.2500   196.7230   -42.5840   -46.1930   -23.0060    64.5130    20.1250    20.0890    10.2240     2.1160 
  211.3750   196.8320   -42.6250   -46.2380   -23.0690    66.0520    19.9310    19.9890     9.8410     2.1140 
  211.5000   196.9410   -42.6660   -46.2830   -23.0850    63.9070    19.6240    19.7920     9.7040     2.1120 
  211.6250   197.0500   -42.7070   -46.3290   -23.0710    59.3370    19.3690    19.6570    10.0170     2.1130 
  211.7500   197.1590   -42.7470   -46.3740   -23.0550    57.4170    19.3500    19.8060    10.6250     2.1130 
  211.8750   197.2690   -42.7880   -46.4190   -23.0590    57.5890    19.7810    20.4410    10.8750     2.1110 
  212.0000   197.3780   -42.8290   -46.4640   -23.0950    57.5630    20.5960    21.4880    10.6570     2.1070 
  212.1250   197.4870   -42.8700   -46.5100   -23.1640    58.7030    21.7720    22.9130    10.5910     2.1030 
  212.2500   197.5960   -42.9110   -46.5550   -23.2540    62.8460    22.9190    24.2220    11.5500     2.1050 
  212.3750   197.7050   -42.9510   -46.6000   -23.3530    66.0330    23.6320    24.9570    13.1650     2.1140 
  212.5000   197.8150   -42.9920   -46.6450   -23.4570    65.8630    23.6480    24.9040    13.8800     2.1230 
  212.6250   197.9240   -43.0330   -46.6900   -23.5720    64.8080    22.7340    23.8120    13.4820     2.1240 
  212.7500   198.0330   -43.0730   -46.7350   -23.7150    63.7360    21.3580    22.2910    12.8720     2.1180 
  212.8750   198.1430   -43.1140   -46.7800   -23.9090    61.8740    19.6800    20.5170    12.5130     2.1110 
  213.0000   198.2520   -43.1550   -46.8250   -24.1650    61.0490    18.1400    18.9240    11.9250     2.1100 
  213.1250   198.3610   -43.1960   -46.8700   -24.4920    63.2760    16.7170    17.4610    10.8780     2.1160 
  213.2500   198.4710   -43.2360   -46.9140   -24.8820    65.8920    15.4010    16.0890    10.1470     2.1260 
  213.3750   198.5800   -43.2770   -46.9590   -25.3210    65.3580    14.3220    14.9260     9.9690     2.1340 
  213.5000   198.6890   -43.3170   -47.0040   -25.7830    63.3940    13.3660    13.8570    10.1360     2.1390 
  213.6250   198.7990   -43.3580   -47.0490   -26.2370    60.9690    12.5250    12.9050    10.7560     2.1400 
  213.7500   198.9080   -43.3980   -47.0940   -26.6540    57.0380    11.7590    12.0230    11.5880     2.1410 
  213.8750   199.0180   -43.4390   -47.1380   -27.0030    53.2090    11.1040    11.2720    11.8890     2.1470 
  214.0000   199.1270   -43.4800   -47.1830   -27.2630    51.2700    10.5330    10.6310    11.6160     2.1560 
  214.1250   199.2360   -43.5210   -47.2280   -27.4000    52.0380    10.1200    10.1480    11.5650     2.1660 
  214.2500   199.3460   -43.5610   -47.2730   -27.4090    54.1810     9.8320     9.7970    11.7710     2.1760 
  214.3750   199.4550   -43.6020   -47.3170   -27.2830    55.7060     9.6610     9.6120    12.0930     2.1860 
  214.5000   199.5640   -43.6430   -47.3620   -27.0610    55.5140     9.6220     9.6490    12.6520     2.1940 
  214.6250   199.6740   -43.6840   -47.4070   -26.7810    53.9240     9.7620     9.9830    13.5050     2.1990 
  214.7500   199.7830   -43.7250   -47.4520   -26.4830    51.7070     9.8680    10.2770    14.4090     2.2040 
  214.8750   199.8920   -43.7660   -47.4960   -26.1750    49.6010     9.5310    10.0430    14.1730     2.2100 
  215.0000   200.0020   -43.8070   -47.5410   -25.8360    48.9370     8.8000     9.3070    12.7950     2.2140 
  215.1250   200.1110   -43.8480   -47.5850   -25.4220    50.7980     7.7490     8.1700    13.6430     2.2110 
  215.2500   200.2200   -43.8890   -47.6300   -24.9100    53.2280     6.6990     7.0590    16.3300     2.2030 
  215.3750   200.3300   -43.9300   -47.6750   -24.2870    55.3450     5.9330     6.2780    14.1800     2.1930 
  215.5000   200.4390   -43.9710   -47.7190   -23.5910    57.4850     5.3920     5.7640     8.5980     2.1860 
  215.6250   200.5480   -44.0120   -47.7640   -22.8730    58.1020     5.0980     5.5250     6.2330     2.1880 
  215.7500   200.6580   -44.0530   -47.8090   -22.1960    57.0970     5.0380     5.5330     6.3350     2.1990 
  215.8750   200.7670   -44.0940   -47.8530   -21.6160    56.9660     5.1780     5.7200     6.2520     2.2200 
  216.0000   200.8760   -44.1350   -47.8980   -21.1500    58.0460     5.3860     5.9630     5.9070     2.2470 
  216.1250   200.9860   -44.1760   -47.9420   -20.8000    58.2020     5.6340     6.2360     6.1740     2.2760 
  216.2500   201.0950   -44.2170   -47.9870   -20.5320    57.1320     5.9230     6.5370     7.8310     2.3080 
  216.3750   201.2040   -44.2590   -48.0320   -20.3050    56.3860     6.2060     6.8340     8.9710     2.3400 
