~V
VERS. 2.00: Ver 2.00
~W
STRT.M 20.0000:
STOP.M 206.0000:
STEP.M 0.1250:
NULL. -999.2500:
UWI. FD10809:
~C
DEPT.M :
TVD. :
DX. :
DY. :
SP.MV :
GR.API :
RI. :
RML.OHMM :
DEN.GM/CC :
RXO.OHMM :
~A
# ...
   65.6250    65.1680     0.7770     4.8310   -17.0220    70.1980     4.1890     4.8990     2.0960     6.7820 
   65.7500    65.2880     0.7820     4.8660   -16.6740    70.9440     4.2080     4.9030     2.1070     6.6640 
   65.8750    65.4080     0.7870     4.9020   -16.2170    70.1980     4.2160     4.9010     2.1080     6.8020 
   66.0000    65.5280     0.7920     4.9370   -15.7480    68.4090     4.2140     4.8730     2.0930     7.0560 
   66.1250    65.6470     0.7970     4.9730   -15.2260    67.3910     4.1630     4.7970     2.0780     7.1810 
   66.2500    65.7670     0.8020     5.0080   -14.4840    67.9880     4.0640     4.7040     2.0860     7.0660 
   66.3750    65.8870     0.8080     5.0440   -13.3460    71.0910     4.0390     4.6760     2.1240     6.7380 
   66.5000    66.0060     0.8130     5.0800   -11.7890    76.7570     4.1100     4.7470     2.1930     5.8950 
   66.6250    66.1260     0.8180     5.1160   -10.1160    83.1890     4.2110     4.8630     2.2680     5.5310 
   66.7500    66.2450     0.8240     5.1520    -9.0810    86.6950     4.3080     4.9530     2.3220     6.7380 
   66.8750    66.3650     0.8290     5.1890    -9.0200    85.9840     4.3470     4.9560     2.3220     7.2200 
   67.0000    66.4840     0.8350     5.2250    -9.7630    84.1200     4.3050     4.8470     2.2630     6.3260 
   67.1250    66.6040     0.8410     5.2610   -10.7140    81.8930     4.2090     4.6630     2.1870     6.1850 
   67.2500    66.7230     0.8460     5.2980   -11.3900    81.6980     4.0740     4.4670     2.1380     6.2570 
   67.3750    66.8430     0.8520     5.3350   -11.4860    80.5970     3.9830     4.3790     2.1270     5.8310 
   67.5000    66.9620     0.8580     5.3720   -10.9260    79.8820     4.1190     4.4820     2.1510     5.7600 
   67.6250    67.0810     0.8640     5.4090    -9.7990    79.3490     4.3100     4.6640     2.2030     5.7100 
   67.7500    67.2000     0.8700     5.4460    -8.2270    81.1660     4.4240     4.7760     2.2670     5.6900 
   67.8750    67.3200     0.8750     5.4830    -6.6850    87.1550     4.4080     4.7340     2.3010     5.8340 
   68.0000    67.4390     0.8810     5.5200    -5.4500    95.1480     4.1980     4.5000     2.2950     5.2750 
   68.1250    67.5580     0.8870     5.5580    -4.4860   102.5700     3.8720     4.1540     2.2630     4.4530 
   68.2500    67.6770     0.8940     5.5950    -3.6670   104.6200     3.5430     3.8000     2.2340     3.8250 
   68.3750    67.7960     0.9000     5.6330    -3.1080   103.7360     3.2640     3.5150     2.2090     3.3920 
   68.5000    67.9150     0.9060     5.6710    -2.8990   102.5730     3.1030     3.3470     2.2040     3.4530 
   68.6250    68.0340     0.9120     5.7090    -2.9380   102.5500     3.0670     3.2940     2.2200     3.5360 
   68.7500    68.1530     0.9190     5.7470    -3.1230   103.4030     3.1330     3.3940     2.2440     3.4470 
   68.8750    68.2720     0.9250     5.7850    -3.4650   102.9400     3.4040     3.7030     2.2520     3.5800 
   69.0000    68.3900     0.9310     5.8230    -3.9950   101.0960     3.9190     4.2350     2.2400     4.4640 
   69.1250    68.5090     0.9380     5.8610    -4.7080    94.9440     4.5020     4.8410     2.2330     8.3290 
   69.2500    68.6280     0.9440     5.9000    -5.6570    86.8890     4.9800     5.3080     2.2320    12.9280 
   69.3750    68.7470     0.9510     5.9380    -6.5450    81.8450     5.1600     5.4500     2.2330    11.8500 
   69.5000    68.8660     0.9580     5.9770    -7.0220    83.8140     4.9150     5.1810     2.2310     7.5160 
   69.6250    68.9840     0.9640     6.0150    -6.9370    90.1410     4.4210     4.6660     2.2360     5.1410 
   69.7500    69.1030     0.9710     6.0540    -6.6630    95.9740     3.8710     4.1180     2.2430     4.4260 
   69.8750    69.2210     0.9780     6.0930    -6.6850    99.0440     3.4890     3.7490     2.2450     4.3860 
   70.0000    69.3400     0.9850     6.1320    -6.9720    99.2100     3.4150     3.7440     2.2390     4.4540 
   70.1250    69.4580     0.9910     6.1710    -7.3550    96.6520     3.7540     4.1910     2.2390     4.8370 
   70.2500    69.5770     0.9980     6.2110    -8.0170    92.4780     4.5540     5.1460     2.2710     5.7050 
   70.3750    69.6950     1.0050     6.2500    -9.0250    86.7550     5.6320     6.4130     2.3400     8.6610 
   70.5000    69.8140     1.0120     6.2900   -10.2010    80.1270     6.7200     7.6330     2.4060    18.1800 
   70.6250    69.9320     1.0190     6.3290   -11.6250    72.4730     7.4060     8.3360     2.4080    24.6440 
   70.7500    70.0500     1.0270     6.3690   -13.1820    66.1810     7.2630     8.1750     2.3270    17.3760 
   70.8750    70.1690     1.0340     6.4090   -14.6210    62.4710     6.5930     7.4110     2.2190     8.8750 
   71.0000    70.2870     1.0410     6.4490   -15.6190    61.6740     5.7790     6.5200     2.1490     7.1040 
   71.1250    70.4050     1.0480     6.4890   -16.2640    61.8380     5.2290     5.9790     2.1480     7.3560 
   71.2500    70.5230     1.0560     6.5290   -16.6210    62.1140     5.2450     5.9940     2.2190     7.8230 
   71.3750    70.6410     1.0630     6.5690   -16.8420    63.1060     5.5090     6.3020     2.3240     8.1270 
   71.5000    70.7590     1.0710     6.6100   -17.0640    64.4910     5.7510     6.5910     2.3860     8.2610 
   71.6250    70.8770     1.0780     6.6510   -17.3430    65.7050     5.8180     6.6850     2.3630     8.1330 
   71.7500    70.9950     1.0860     6.6910   -17.8480    64.6920     5.7020     6.5570     2.2620     7.6560 
   71.8750    71.1130     1.0930     6.7320   -18.4880    63.7860     5.4870     6.3120     2.1670     7.3470 
   72.0000    71.2310     1.1010     6.7730   -19.1110    63.3080     5.2680     6.0670     2.1210     7.5730 
   72.1250    71.3490     1.1080     6.8140   -19.6260    63.6220     5.1260     5.9110     2.1090     8.0750 
   72.2500    71.4660     1.1160     6.8560   -20.0520    63.2930     5.0950     5.8690     2.1040     8.3010 
   72.3750    71.5840     1.1230     6.8970   -20.4420    63.3180     5.1260     5.8950     2.1000     8.0660 
   72.5000    71.7020     1.1300     6.9380   -20.7560    63.3310     5.1670     5.9510     2.1020     7.8630 
   72.6250    71.8190     1.1380     6.9800   -21.0270    63.1710     5.2040     6.0100     2.1030     8.0860 
   72.7500    71.9370     1.1450     7.0220   -21.3740    61.7300     5.2240     6.0590     2.1010     8.4330 
   72.8750    72.0550     1.1530     7.0640   -21.6770    60.0130     5.2270     6.0930     2.0950     8.4990 
   73.0000    72.1720     1.1600     7.1060   -21.8440    58.7940     5.2220     6.1140     2.0920     8.1820 
   73.1250    72.2900     1.1680     7.1480   -22.0010    57.9430     5.2140     6.1250     2.0960     7.8150 
   73.2500    72.4070     1.1750     7.1900   -22.1090    56.8330     5.1990     6.1260     2.1100     7.7240 
   73.3750    72.5240     1.1820     7.2320   -22.2640    55.8220     5.1760     6.1140     2.1270     7.7880 
   73.5000    72.6420     1.1900     7.2740   -22.4080    56.2910     5.1290     6.0770     2.1350     8.1090 
   73.6250    72.7590     1.1970     7.3170   -22.4730    58.1150     5.0650     6.0080     2.1280     8.5820 
   73.7500    72.8760     1.2050     7.3590   -22.4770    58.7230     4.9800     5.9120     2.1140     8.7720 
   73.8750    72.9940     1.2120     7.4020   -22.4550    57.2390     4.9000     5.8170     2.1060     8.8160 
   74.0000    73.1110     1.2200     7.4450   -22.4170    54.9350     4.8430     5.7550     2.1020     9.0430 
   74.1250    73.2280     1.2270     7.4880   -22.4090    54.2920     4.8250     5.7350     2.0980     9.1050 
   74.2500    73.3450     1.2350     7.5310   -22.4270    55.3810     4.8320     5.7410     2.0930     8.7170 
   74.3750    73.4620     1.2420     7.5740   -22.4150    55.8320     4.8380     5.7450     2.0900     8.2680 
   74.5000    73.5790     1.2500     7.6170   -22.4550    54.5470     4.8300     5.7260     2.0910     8.0020 
   74.6250    73.6960     1.2570     7.6610   -22.4540    52.3000     4.8050     5.6820     2.1000     7.9900 
