~V
VERS. 2.00: Ver 2.00
~W
STRT.M 63.0000:
STOP.M 266.0000:
STEP.M 0.1250:
NULL. -999.2500:
UWI. FD10888:
~C
DEPT.M :
TVD. :
DX. :
DY. :
SP.MV :
GR.API :
RI. :
RML.OHMM :
RXO.OHMM :
DEN.GM/CC :
~A
# ...
  218.1250   216.3580   -11.4440   -13.9910   -29.9990    54.0890    13.1260    13.3420    12.5410     2.1640 
  218.2500   216.4790   -11.4620   -14.0150   -29.9030    54.9480    13.2500    13.5430    14.1240     2.1410 
  218.3750   216.6000   -11.4810   -14.0400   -29.8950    56.1270    13.4740    13.8550    15.4980     2.1210 
  218.5000   216.7210   -11.4990   -14.0640   -29.9420    56.4410    13.7230    14.1770    15.0560     2.1120 
  218.6250   216.8420   -11.5180   -14.0890   -29.9360    55.3510    13.8440    14.3130    14.5130     2.1160 
  218.7500   216.9630   -11.5360   -14.1130   -29.8180    54.5970    13.7410    14.1810    15.3050     2.1280 
  218.8750   217.0850   -11.5540   -14.1380   -29.6920    55.8680    13.4340    13.8290    15.5310     2.1420 
  219.0000   217.2060   -11.5720   -14.1630   -29.6030    59.3010    13.0550    13.4220    14.0060     2.1540 
  219.1250   217.3270   -11.5910   -14.1870   -29.5240    62.6760    12.7740    13.1520    12.1670     2.1630 
  219.2500   217.4480   -11.6090   -14.2120   -29.3940    65.1430    12.7230    13.1540    11.6570     2.1670 
  219.3750   217.5690   -11.6280   -14.2360   -29.3680    66.2780    12.9500    13.4640    12.4940     2.1700 
  219.5000   217.6910   -11.6460   -14.2610   -29.4670    65.5470    13.3740    13.9860    13.5220     2.1700 
  219.6250   217.8120   -11.6640   -14.2850   -29.6030    64.0040    13.9240    14.6350    14.1510     2.1660 
  219.7500   217.9330   -11.6830   -14.3100   -29.7700    63.1750    14.4580    15.2520    14.2180     2.1570 
  219.8750   218.0540   -11.7010   -14.3340   -29.8510    63.9210    14.9860    15.8590    13.5680     2.1460 
  220.0000   218.1750   -11.7190   -14.3590   -29.8530    63.6310    15.4830    16.4250    12.7770     2.1390 
  220.1250   218.2970   -11.7370   -14.3830   -29.8370    61.9320    15.9190    16.9090    12.6790     2.1380 
  220.2500   218.4180   -11.7550   -14.4070   -29.8950    60.5010    16.2220    17.2320    13.4030     2.1360 
  220.3750   218.5390   -11.7730   -14.4310   -29.9670    60.4300    16.3400    17.3410    14.4880     2.1320 
  220.5000   218.6610   -11.7910   -14.4560   -29.9680    59.4240    16.3440    17.3270    15.4510     2.1240 
  220.6250   218.7820   -11.8090   -14.4800   -29.9330    56.3440    16.2960    17.2620    16.0330     2.1140 
  220.7500   218.9030   -11.8270   -14.5040   -29.9560    54.1800    16.2430    17.2050    15.8420     2.1050 
  220.8750   219.0250   -11.8450   -14.5280   -29.9670    54.3040    16.2110    17.1870    14.9050     2.1060 
  221.0000   219.1460   -11.8630   -14.5520   -29.9710    54.2720    16.1960    17.1940    14.1730     2.1160 
  221.1250   219.2670   -11.8810   -14.5760   -29.8130    52.6220    16.1550    17.1590    14.2100     2.1320 
  221.2500   219.3890   -11.8980   -14.6000   -29.5730    52.1880    15.9710    16.9410    14.6900     2.1450 
  221.3750   219.5100   -11.9160   -14.6240   -29.3330    55.7210    15.5400    16.4350    15.0640     2.1520 
  221.5000   219.6310   -11.9330   -14.6490   -29.0630    59.2510    14.8740    15.6710    15.0350     2.1530 
  221.6250   219.7530   -11.9510   -14.6730   -28.8070    58.6110    14.1210    14.8350    14.5440     2.1530 
  221.7500   219.8740   -11.9680   -14.6970   -28.5960    56.2840    13.5140    14.1850    13.6340     2.1510 
  221.8750   219.9960   -11.9860   -14.7210   -28.5020    55.9760    13.2490    13.9360    12.6180     2.1480 
  222.0000   220.1170   -12.0030   -14.7450   -28.5470    58.4860    13.3580    14.1180    12.1020     2.1430 
  222.1250   220.2380   -12.0200   -14.7690   -28.5770    60.5820    13.7970    14.6650    12.6040     2.1400 
  222.2500   220.3600   -12.0380   -14.7930   -28.5830    61.1470    14.3850    15.3640    14.0790     2.1410 
  222.3750   220.4810   -12.0550   -14.8180   -28.4100    60.6280    14.9570    16.0100    15.8230     2.1440 
  222.5000   220.6030   -12.0720   -14.8420   -28.1090    61.7940    15.3500    16.4240    16.7410     2.1490 
  222.6250   220.7240   -12.0890   -14.8660   -27.7580    64.2690    15.5570    16.6260    16.5330     2.1590 
  222.7500   220.8460   -12.1070   -14.8900   -27.3380    63.9670    15.6930    16.7590    16.1120     2.1770 
  222.8750   220.9670   -12.1240   -14.9150   -26.8610    61.2780    15.8910    16.9790    16.0920     2.2020 
  223.0000   221.0880   -12.1420   -14.9390   -26.2580    60.1250    16.2900    17.4300    16.5690     2.2290 
  223.1250   221.2100   -12.1590   -14.9630   -25.5750    61.6490    16.9270    18.1340    17.3810     2.2560 
  223.2500   221.3310   -12.1760   -14.9870   -24.9100    62.4760    17.7030    18.9790    17.5980     2.2850 
  223.3750   221.4520   -12.1940   -15.0120   -24.1950    63.0630    18.4900    19.8090    17.3740     2.3150 
  223.5000   221.5740   -12.2120   -15.0360   -23.4400    65.2160    19.0560    20.3700    17.6580     2.3430 
  223.6250   221.6950   -12.2290   -15.0600   -22.7180    67.3110    19.2550    20.5090    18.5890     2.3660 
  223.7500   221.8160   -12.2470   -15.0850   -22.1220    70.2060    19.0540    20.2230    19.1720     2.3800 
  223.8750   221.9380   -12.2640   -15.1090   -21.6330    73.2530    18.6040    19.7260    18.2370     2.3830 
  224.0000   222.0590   -12.2820   -15.1340   -21.2390    73.1990    18.2240    19.3530    16.9670     2.3750 
  224.1250   222.1800   -12.2990   -15.1580   -20.8580    71.1380    17.9650    19.1290    16.6880     2.3670 
  224.2500   222.3020   -12.3170   -15.1830   -20.5120    71.4720    17.6620    18.8340    17.1810     2.3670 
  224.3750   222.4230   -12.3350   -15.2070   -20.1900    73.9870    17.0390    18.1560    17.1870     2.3760 
  224.5000   222.5440   -12.3520   -15.2320   -19.8490    73.3470    16.0990    17.0980    16.0540     2.3820 
  224.6250   222.6660   -12.3700   -15.2560   -19.5430    69.6360    14.9700    15.8340    15.1980     2.3820 
  224.7500   222.7870   -12.3880   -15.2810   -19.2570    65.8850    14.0430    14.8180    14.3800     2.3840 
  224.8750   222.9080   -12.4050   -15.3050   -19.0420    63.6960    13.5880    14.3510    13.5700     2.3990 
  225.0000   223.0290   -12.4230   -15.3300   -18.8450    64.0190    13.7970    14.6630    14.1740     2.4260 
  225.1250   223.1510   -12.4400   -15.3540   -18.6740    65.8940    14.9680    16.0490    15.3550     2.4550 
  225.2500   223.2720   -12.4580   -15.3790   -18.4260    67.3810    16.7580    18.0830    16.8900     2.4790 
  225.3750   223.3930   -12.4760   -15.4040   -18.1050    69.6930    18.6150    20.1520    19.3970     2.4930 
  225.5000   223.5150   -12.4930   -15.4280   -17.6780    73.0380    19.9880    21.6290    21.8800     2.4940 
  225.6250   223.6360   -12.5110   -15.4530   -17.1870    73.5380    20.3860    21.9790    21.6510     2.4760 
  225.7500   223.7570   -12.5290   -15.4770   -16.6050    69.6920    19.9000    21.3650    18.9820     2.4440 
  225.8750   223.8780   -12.5470   -15.5020   -16.2060    66.4010    18.9330    19.8120    17.0640     2.4130 
  226.0000   224.0000   -12.5650   -15.5260   -15.9550    67.7080    18.0210    18.4340    16.6810     2.3960 
  226.1250   224.1210   -12.5830   -15.5510   -15.6370    72.8780    17.4860    18.0010    17.2070     2.4000 
  226.2500   224.2420   -12.6010   -15.5760   -15.2650    75.6250    17.3400    17.9690    19.1600     2.4180 
  226.3750   224.3630   -12.6190   -15.6000   -14.8580    76.1570    17.2860    17.9810    21.9070     2.4380 
  226.5000   224.4840   -12.6370   -15.6250   -14.3950    77.8340    17.1410    17.8560    22.0100     2.4520 
  226.6250   224.6060   -12.6540   -15.6500   -13.9930    81.6590    17.0960    17.8170    17.8240     2.4620 
  226.7500   224.7270   -12.6720   -15.6750   -13.6780    83.9890    17.3080    18.0390    12.1370     2.4770 
  226.8750   224.8480   -12.6900   -15.7000   -13.4350    81.3530    17.8330    18.5910     9.9480     2.5060 
  227.0000   224.9690   -12.7080   -15.7240   -13.2250    77.9490    18.5410    19.3360    13.3530     2.5400 
  227.1250   225.0900   -12.7260   -15.7490   -13.0690    77.1470    19.0740    19.8850    19.6480     2.5630 
