~V
VERS. 2.00: Ver 2.00
~W
STRT.M 1.0000:
STOP.M 198.0000:
STEP.M 0.1250:
NULL. -999.2500:
UWI. FD10802:
~C
DEPT.M :
TVD. :
DX. :
DY. :
SP.MV :
GR.API :
RI. :
RML.OHMM :
RXO.OHMM :
DEN.GM/CC :
~A
    1.0000     1.0000     0.0010    -0.0020   -92.6560     7.8440 28354.9710 16564.9840     0.9670     2.2580 
    1.1250     1.1250     0.0010    -0.0020   -90.5330     7.9660  5263.1990 11456.0980     0.9670     2.2580 
    1.2500     1.2500     0.0010    -0.0020   -90.6180     8.2120 17013.8770  9504.2790     0.9670     2.2580 
    1.3750     1.3750     0.0010    -0.0020   -91.3370     7.8800 11688.8830 12458.7670     0.9670     2.2580 
    1.5000     1.5000     0.0020    -0.0030   -91.3160     8.0880 17819.5060  9641.7210     0.9670     2.2580 
    1.6250     1.6250     0.0020    -0.0030   -91.3370     7.8800 11688.8840 12458.7670     0.9670     2.2580 
    1.7500     1.7500     0.0020    -0.0030   -92.6560     7.8440 28354.9750 16564.9860     0.9670     2.2580 
    1.8750     1.8750     0.0020    -0.0030   -93.1950     7.9140 33910.2460 18938.1480     0.9670     2.2580 
    2.0000     2.0000     0.0020    -0.0030   -93.1950     7.9140 33910.2580 18938.1520     0.9670     2.2580 
    2.1250     2.1250     0.0020    -0.0040   -91.3370     7.8800 11688.8860 12458.7670     0.9670     2.2580 
    2.2500     2.2500     0.0020    -0.0040   -88.7390     8.3860   923.1500   207.8620     0.9670     2.2580 
    2.3750     2.3750     0.0030    -0.0040   -84.9350     8.5800    19.0970    22.8520     0.9670     2.2580 
    2.5000     2.5000     0.0030    -0.0040   -80.8440     8.6370     1.3710     4.5460     0.9670     2.2580 
    2.6250     2.6250     0.0030    -0.0050   -76.4580     8.6910     0.8160     4.0360     0.9670     2.2580 
    2.7500     2.7500     0.0030    -0.0050   -72.5580     8.9060     0.6980     4.3820     0.9670     2.2580 
    2.8750     2.8750     0.0030    -0.0050   -70.3780     8.8850     0.7750     4.5270     0.9670     2.2580 
    3.0000     3.0000     0.0030    -0.0050    -7.7720     9.2360     0.9340     4.1920     0.9670     2.2580 
    3.1250     3.1250     0.0040    -0.0060    -7.5530     9.6970     1.1810     4.0420     0.9670     2.2580 
    3.2500     3.2500     0.0040    -0.0060    -7.1930    10.0490     1.4910     5.0230     0.9670     2.2580 
    3.3750     3.3750     0.0040    -0.0060    -6.4260    10.2640     1.7850     5.5130     0.9670     2.2580 
    3.5000     3.5000     0.0040    -0.0060    -5.3290    10.3500     1.9480     5.4240     0.9670     2.2580 
    3.6250     3.6250     0.0040    -0.0070    -3.9230    10.2390     1.9550     4.5960     0.9670     2.2580 
    3.7500     3.7500     0.0050    -0.0070    -2.6310     9.9000     1.7540     3.3100     0.9670     2.2580 
    3.8750     3.8750     0.0050    -0.0070    -2.1010     9.7490     1.4490     2.6910     0.9670     2.2580 
    4.0000     4.0000     0.0050    -0.0070    -3.7220    10.8880     1.2210     2.3150     0.9670     2.2580 
    4.1250     4.1250     0.0050    -0.0080    -7.3670    13.1590     1.2020     2.3700     0.9670     2.2580 
    4.2500     4.2500     0.0060    -0.0080   -11.1130    16.3370     1.2070     2.7470     0.9670     2.2580 
    4.3750     4.3750     0.0060    -0.0080   -12.6790    19.3500     1.1680     3.0900     0.9670     2.2580 
    4.5000     4.5000     0.0060    -0.0080   -10.6170    22.9520     1.0080     3.0800     0.9670     2.2580 
    4.6250     4.6250     0.0060    -0.0090    -5.5410    27.3820     0.8790     2.7010     0.9670     2.2580 
    4.7500     4.7500     0.0070    -0.0090     0.7770    32.1750     0.9830     2.4410     0.9670     2.2580 
    4.8750     4.8750     0.0070    -0.0090     4.8050    35.8410     1.1810     2.2290     0.9670     2.2580 
    5.0000     5.0000     0.0070    -0.0090     5.4230    37.4650     1.3280     2.2090     0.9670     2.2580 
    5.1250     5.1250     0.0080    -0.0100     4.8230    37.5690     1.5090     2.2850     0.9670     2.2580 
    5.2500     5.2500     0.0080    -0.0100     4.7100    35.7030     1.5710     2.5920     0.9670     2.2580 
    5.3750     5.3750     0.0080    -0.0100     5.3530    32.6210     1.6590     3.6990     0.9670     2.2580 
    5.5000     5.5000     0.0090    -0.0100     5.9970    28.8690     1.7420     3.7000     0.9670     2.2580 
    5.6250     5.6250     0.0090    -0.0110     5.1570    26.1880     1.7980     3.5760     0.9670     2.2580 
    5.7500     5.7500     0.0090    -0.0110     2.6610    24.7630     1.9740     2.5000     0.9670     2.2580 
    5.8750     5.8750     0.0100    -0.0110     0.4170    24.9560     2.1330     1.9860     0.9670     2.2580 
    6.0000     6.0000     0.0100    -0.0120    -0.9540    26.1850     2.2360     1.8730     0.9670     2.2580 
    6.1250     6.1250     0.0100    -0.0120    -1.8130    28.1250     2.2020     1.7510     0.9670     2.2580 
    6.2500     6.2500     0.0100    -0.0120    -2.2130    30.0310     2.1180     1.7740     0.9670     2.2580 
    6.3750     6.3750     0.0110    -0.0130    -2.3820    32.1460     2.0190     1.8790     0.9670     2.2580 
    6.5000     6.5000     0.0110    -0.0130    -2.5870    34.6740     1.9750     1.9590     0.9670     2.2580 
    6.6250     6.6250     0.0110    -0.0140    -2.3650    37.6630     1.9340     1.9750     0.9670     2.2580 
    6.7500     6.7500     0.0120    -0.0140    -1.0740    40.2080     1.8140     2.1810     0.9670     2.2580 
    6.8750     6.8750     0.0120    -0.0140     0.7830    40.8220     1.7260     2.4580     0.9670     2.2580 
    7.0000     7.0000     0.0120    -0.0150     1.7260    39.4640     1.5900     3.1290     0.9670     2.2580 
    7.1250     7.1250     0.0130    -0.0150     1.2890    37.1710     1.5350     3.5380     0.9670     2.2580 
    7.2500     7.2500     0.0130    -0.0160     0.3020    35.6480     1.5020     3.6430     0.9670     2.2580 
    7.3750     7.3750     0.0130    -0.0160    -0.2700    34.8100     1.4710     3.4460     0.9670     2.2580 
    7.5000     7.5000     0.0140    -0.0160    -0.0880    34.5850     1.4750     3.2670     0.9640     2.2580 
    7.6250     7.6250     0.0140    -0.0170     0.1440    35.1510     1.4430     3.1350     0.9590     2.2580 
    7.7500     7.7500     0.0140    -0.0170    -0.3280    35.4700     1.4320     3.7750     0.9540     2.2580 
    7.8750     7.8750     0.0140    -0.0180    -1.1270    35.6140     1.4440     3.8520     0.9520     2.2580 
    8.0000     8.0000     0.0150    -0.0180    -1.1700    35.1780     1.4430     3.8100     0.9490     2.2580 
    8.1250     8.1250     0.0150    -0.0190    -0.9530    36.0670     1.4460     3.9570     0.9470     2.2580 
    8.2500     8.2500     0.0150    -0.0190    -1.0150    38.6780     1.4470     3.3530     0.9520     2.2580 
    8.3750     8.3750     0.0150    -0.0200    -0.9320    41.1130     1.4470     3.4990     0.9640     2.2580 
    8.5000     8.5000     0.0150    -0.0200    -0.3500    42.3460     1.4240     3.5200     0.9700     2.2580 
    8.6250     8.6250     0.0160    -0.0210     0.0250    42.0060     1.4010     3.5690     0.9690     2.2580 
    8.7500     8.7500     0.0160    -0.0210    -0.5260    41.3780     1.3810     3.5520     0.9680     2.2580 
    8.8750     8.8750     0.0160    -0.0220    -1.2560    40.7690     1.3840     3.4790     0.9700     2.2580 
    9.0000     9.0000     0.0160    -0.0220    -1.5270    40.9800     1.4200     3.5420     0.9740     2.2580 
    9.1250     9.1250     0.0160    -0.0230    -1.2720    41.8060     1.4440     3.5870     0.9790     2.2580 
    9.2500     9.2500     0.0170    -0.0230    -1.1260    42.9530     1.4660     3.7350     0.9900     2.2580 
    9.3750     9.3750     0.0170    -0.0240    -0.9760    43.3330     1.4690     3.7670     1.0060     2.2580 
    9.5000     9.5000     0.0170    -0.0240    -0.4200    43.5000     1.4910     3.5810     1.0180     2.2580 
    9.6250     9.6250     0.0170    -0.0250     0.7600    42.8970     1.5060     3.5720     1.0310     2.2580 
    9.7500     9.7500     0.0170    -0.0250     2.7950    41.9270     1.4750     3.6600     1.0500     2.2580 
    9.8750     9.8750     0.0170    -0.0250     4.9390    40.8930     1.4300     4.0910     1.0690     2.2580 
   10.0000    10.0000     0.0180    -0.0260     6.2190    41.2600     1.3920     4.1750     1.0890     2.2580 
