~V
VERS. 2.00: Ver 2.00
~W
STRT.M 40.0000:
STOP.M 276.0000:
STEP.M 0.1250:
NULL. -999.2500:
UWI. FD10882:
~C
DEPT.M :
TVD. :
DX. :
DY. :
SP.MV :
GR.API :
RI. :
RML.OHMM :
RXO.OHMM :
DEN.GM/CC :
~A
# ...
  113.0000   112.1500    -6.9370    -4.9550   -10.5960    68.0530    11.0640    13.5740    11.1670     2.1480 
  113.1250   112.2690    -6.9650    -4.9800    -9.8370    66.4540    10.7800    13.2030    11.2170     2.1360 
  113.2500   112.3890    -6.9930    -5.0040    -9.2740    65.6600    10.5660    12.9520    11.3640     2.1340 
  113.3750   112.5080    -7.0210    -5.0290    -8.9790    64.6730    10.4720    12.8610    11.4810     2.1360 
  113.5000   112.6270    -7.0500    -5.0540    -8.8710    63.7950    10.5310    12.9590    11.4960     2.1420 
  113.6250   112.7460    -7.0780    -5.0780    -8.9190    63.6170    10.7600    13.2800    11.4270     2.1450 
  113.7500   112.8650    -7.1060    -5.1030    -9.0510    64.3940    11.1000    13.7180    11.3410     2.1410 
  113.8750   112.9850    -7.1340    -5.1280    -9.1430    64.8430    11.4140    14.0870    11.3300     2.1270 
  114.0000   113.1040    -7.1630    -5.1530    -9.1330    65.0570    11.6220    14.2750    11.4490     2.1190 
  114.1250   113.2230    -7.1910    -5.1780    -9.1110    64.1720    11.6250    14.1370    11.6910     2.1250 
  114.2500   113.3420    -7.2200    -5.2030    -9.0320    62.9450    11.4420    13.7420    11.9080     2.1400 
  114.3750   113.4610    -7.2480    -5.2280    -8.8440    62.0230    11.1860    13.3070    12.0050     2.1480 
  114.5000   113.5800    -7.2770    -5.2530    -8.5880    60.8930    10.9820    13.0170    12.0210     2.1510 
  114.6250   113.6990    -7.3050    -5.2790    -8.3810    59.1680    11.0500    13.2130    12.0810     2.1520 
  114.7500   113.8180    -7.3340    -5.3040    -8.3170    56.5860    11.7780    14.3260    11.9840     2.1550 
  114.8750   113.9370    -7.3620    -5.3290    -8.5340    55.6750    12.6970    15.5950    12.4680     2.1700 
  115.0000   114.0560    -7.3910    -5.3550    -9.0230    56.7970    12.5870    15.2980    17.0210     2.2120 
  115.1250   114.1750    -7.4200    -5.3800    -9.6750    60.6520    11.1550    13.2460    25.6890     2.3030 
  115.2500   114.2940    -7.4480    -5.4060   -10.5280    65.7330     8.8490    10.0370    30.5310     2.4020 
  115.3750   114.4130    -7.4770    -5.4320   -11.5560    72.9200     6.6300     7.1280    24.7060     2.4510 
  115.5000   114.5320    -7.5060    -5.4570   -12.6480    82.4210     5.3570     5.5970    13.9360     2.4320 
  115.6250   114.6510    -7.5350    -5.4830   -13.5160    91.1310     4.7310     4.9370     7.1030     2.3800 
  115.7500   114.7700    -7.5640    -5.5090   -14.1030    99.0930     4.5350     4.8210     5.3460     2.3410 
  115.8750   114.8880    -7.5930    -5.5340   -14.4700   103.2900     4.6670     5.0750     5.3270     2.3270 
  116.0000   115.0070    -7.6220    -5.5600   -14.7140   105.9390     4.9080     5.3880     5.2060     2.3280 
  116.1250   115.1260    -7.6520    -5.5860   -14.7790   106.6560     4.9760     5.4440     5.0290     2.3370 
  116.2500   115.2450    -7.6810    -5.6120   -14.6600   108.1000     4.7830     5.2010     4.9520     2.3440 
  116.3750   115.3630    -7.7100    -5.6380   -14.4160   108.2330     4.4890     4.8680     4.9400     2.3460 
  116.5000   115.4820    -7.7400    -5.6640   -14.1180   106.4420     4.2180     4.5670     4.9080     2.3450 
  116.6250   115.6010    -7.7690    -5.6900   -13.8420   102.5280     4.0490     4.3750     4.8760     2.3410 
  116.7500   115.7190    -7.7990    -5.7160   -13.5860    99.7850     4.0550     4.3710     4.9630     2.3330 
  116.8750   115.8380    -7.8280    -5.7420   -13.3660    97.5960     4.3950     4.7610     5.6710     2.3330 
  117.0000   115.9560    -7.8580    -5.7680   -13.0570    96.0290     5.2090     5.7330     7.5670     2.3540 
  117.1250   116.0750    -7.8880    -5.7940   -12.5620    91.7730     6.6320     7.5040     9.9070     2.3830 
  117.2500   116.1940    -7.9180    -5.8210   -11.8510    86.7150     8.6920    10.1160    11.7530     2.3780 
  117.3750   116.3120    -7.9480    -5.8470   -10.8130    81.1850    11.1600    13.2260    12.6000     2.3110 
  117.5000   116.4310    -7.9780    -5.8730    -9.4880    75.7890    13.1230    15.6110    13.2570     2.2140 
  117.6250   116.5490    -8.0080    -5.8990    -8.0180    70.1760    14.0690    16.6500    13.7840     2.1420 
  117.7500   116.6680    -8.0380    -5.9250    -6.6130    64.9740    14.1100    16.5320    14.0570     2.1110 
  117.8750   116.7860    -8.0680    -5.9510    -5.5070    62.8400    13.7700    16.0080    14.0480     2.1140 
  118.0000   116.9040    -8.0980    -5.9780    -4.6360    62.4390    13.7710    16.0050    13.9360     2.1200 
  118.1250   117.0230    -8.1280    -6.0040    -3.9550    63.8830    14.0680    16.4140    13.9200     2.1240 
  118.2500   117.1410    -8.1590    -6.0310    -3.3990    63.2760    14.5150    17.0600    14.1020     2.1250 
  118.3750   117.2590    -8.1890    -6.0570    -3.0530    62.4770    14.9480    17.7210    14.4730     2.1270 
  118.5000   117.3780    -8.2190    -6.0840    -2.9210    61.7270    15.3570    18.3480    14.9150     2.1330 
  118.6250   117.4960    -8.2500    -6.1100    -3.0250    62.5890    15.7120    18.8860    15.3310     2.1410 
  118.7500   117.6140    -8.2810    -6.1370    -3.2500    63.6130    15.9630    19.2730    15.7520     2.1500 
  118.8750   117.7320    -8.3110    -6.1640    -3.5420    65.2290    16.1120    19.4970    16.2280     2.1580 
  119.0000   117.8510    -8.3420    -6.1900    -3.9220    65.9660    16.0970    19.4720    16.7610     2.1620 
  119.1250   117.9690    -8.3730    -6.2170    -4.3500    66.3220    15.9830    19.3770    17.2480     2.1570 
  119.2500   118.0870    -8.4040    -6.2440    -4.7770    65.1580    16.1260    19.6530    17.6600     2.1450 
  119.3750   118.2050    -8.4350    -6.2710    -5.3520    64.0490    17.4810    21.6810    19.5300     2.1490 
  119.5000   118.3230    -8.4660    -6.2970    -6.0220    62.7130    19.9210    25.2930    33.1340     2.1960 
  119.6250   118.4410    -8.4970    -6.3240    -6.8600    61.7910    22.4900    29.0130    70.0460     2.3070 
  119.7500   118.5590    -8.5280    -6.3510    -7.9790    60.7620    23.7290    30.6380   109.0550     2.4410 
  119.8750   118.6770    -8.5590    -6.3780    -9.2980    62.2030    21.9550    27.8700   111.1230     2.5340 
  120.0000   118.7950    -8.5900    -6.4050   -10.6990    67.0520    18.2900    22.5740    74.6890     2.5410 
  120.1250   118.9130    -8.6220    -6.4320   -11.9400    73.9410    14.0490    16.7560    33.9590     2.4640 
  120.2500   119.0310    -8.6530    -6.4590   -12.8050    79.3220    10.7280    12.5730    13.9310     2.3540 
  120.3750   119.1490    -8.6840    -6.4860   -13.1630    81.9680     8.7620    10.3530     9.5870     2.2640 
  120.5000   119.2670    -8.7160    -6.5140   -13.2870    83.8280     7.8040     9.3520     8.4390     2.2290 
  120.6250   119.3850    -8.7480    -6.5410   -13.2990    84.1980     7.3200     8.8430     7.5740     2.2470 
  120.7500   119.5020    -8.7790    -6.5680   -13.4430    83.7570     7.0970     8.5750     7.1460     2.2790 
  120.8750   119.6200    -8.8110    -6.5950   -13.7230    83.8260     7.0380     8.4710     7.5530     2.2860 
  121.0000   119.7380    -8.8430    -6.6230   -14.0500    85.8150     7.1180     8.5580     8.3740     2.2750 
  121.1250   119.8560    -8.8750    -6.6500   -14.2560    87.3790     7.3570     8.8610     8.9110     2.2610 
  121.2500   119.9730    -8.9070    -6.6780   -14.2910    88.0650     7.6650     9.2590     8.9230     2.2640 
  121.3750   120.0910    -8.9390    -6.7050   -14.2340    87.2530     7.9550     9.6580     8.6590     2.2740 
  121.5000   120.2090    -8.9710    -6.7330   -14.2100    85.8040     8.1910    10.0240     8.4470     2.2740 
  121.6250   120.3260    -9.0030    -6.7600   -14.2500    83.4180     8.2960    10.2430     8.3900     2.2550 
  121.7500   120.4440    -9.0350    -6.7870   -14.3570    81.2080     8.1100    10.0910     8.4480     2.2310 
  121.8750   120.5610    -9.0680    -6.8150   -14.4590    79.3890     7.6140     9.5350     8.3810     2.2110 
  122.0000   120.6790    -9.1000    -6.8420   -14.4830    80.3720     6.8950     8.6430     7.9150     2.2160 
