~V
VERS. 2.00: Ver 2.00
~W
STRT.M 33.0000:
STOP.M 273.0000:
STEP.M 0.1250:
NULL. -999.2500:
UWI. FD10880:
~C
DEPT.M :
TVD. :
DX. :
DY. :
SP.MV :
GR.API :
RI. :
RML.OHMM :
RXO.OHMM :
DEN.GM/CC :
~A
# ...
  142.5000   137.2550    28.4940     5.4510     2.9670    56.3600    20.1290    23.4580    22.7210     2.0920 
  142.6250   137.3650    28.5520     5.4630     2.8790    54.1390    20.3420    23.4940    21.8600     2.0870 
  142.7500   137.4750    28.6110     5.4740     3.2770    55.1880    20.9080    24.0010    22.9390     2.0800 
  142.8750   137.5850    28.6690     5.4850     3.4920    55.9230    21.6910    24.8270    24.8070     2.0740 
  143.0000   137.6950    28.7280     5.4960     3.2570    56.3410    22.2560    25.4400    25.9850     2.0730 
  143.1250   137.8050    28.7860     5.5070     2.7940    58.9460    21.8970    24.9130    26.1830     2.0740 
  143.2500   137.9150    28.8450     5.5180     1.9530    62.2760    19.7590    22.2640    26.8860     2.0730 
  143.3750   138.0250    28.9030     5.5290     0.6780    64.7850    16.2310    18.0570    25.7700     2.0710 
  143.5000   138.1350    28.9610     5.5400    -0.9890    67.4840    12.2360    13.4270    18.7370     2.0720 
  143.6250   138.2450    29.0200     5.5510    -2.9060    72.0380     8.9180     9.7510     9.7590     2.0810 
  143.7500   138.3550    29.0780     5.5620    -4.9310    78.0920     6.9140     7.6490     5.6520     2.1040 
  143.8750   138.4650    29.1370     5.5730    -6.7410    84.1420     6.0540     6.8110     5.7140     2.1340 
  144.0000   138.5750    29.1950     5.5840    -7.9090    90.6640     6.1350     7.0140     7.4570     2.1570 
  144.1250   138.6850    29.2540     5.5950    -8.3490    95.0370     6.8260     7.8770     8.5310     2.1600 
  144.2500   138.7950    29.3120     5.6060    -8.1480    93.6420     8.3290     9.7360     8.1360     2.1420 
  144.3750   138.9050    29.3700     5.6170    -7.4640    85.7160    10.9080    12.8940    11.3110     2.1120 
  144.5000   139.0150    29.4290     5.6280    -6.3380    74.3740    14.2480    16.7910    19.6890     2.0820 
  144.6250   139.1250    29.4870     5.6390    -4.7170    64.3450    18.0210    21.0910    27.0090     2.0650 
  144.7500   139.2350    29.5450     5.6500    -2.7180    57.9340    20.9650    24.1950    30.8530     2.0660 
  144.8750   139.3450    29.6040     5.6610    -0.7190    55.7750    22.0890    25.1490    33.3810     2.0760 
  145.0000   139.4550    29.6620     5.6720     0.8320    56.7210    21.3890    24.1670    31.1050     2.0860 
  145.1250   139.5650    29.7200     5.6830     1.7630    58.6610    19.4680    21.8710    23.6890     2.0930 
  145.2500   139.6750    29.7790     5.6940     1.8210    60.4960    17.1190    19.2640    19.5680     2.0990 
  145.3750   139.7850    29.8370     5.7050     1.0030    62.3320    15.3120    17.3650    18.8330     2.1050 
  145.5000   139.8950    29.8950     5.7160    -0.3000    64.1840    14.1660    16.2980    16.3730     2.1110 
  145.6250   140.0050    29.9530     5.7270    -1.5460    65.3090    13.7460    16.0860    15.3620     2.1160 
  145.7500   140.1150    30.0110     5.7380    -2.1550    64.1320    14.0070    16.6250    16.5360     2.1190 
  145.8750   140.2250    30.0690     5.7490    -1.8310    61.5280    14.6060    17.4850    18.6130     2.1240 
  146.0000   140.3350    30.1270     5.7590    -0.9360    58.7760    15.3300    18.3740    21.1340     2.1390 
  146.1250   140.4460    30.1850     5.7700    -0.1190    58.4020    15.9840    19.0810    19.6440     2.1670 
  146.2500   140.5560    30.2430     5.7810     0.5050    59.9400    16.4190    19.4850    16.4090     2.1950 
  146.3750   140.6660    30.3010     5.7920     1.1090    60.2260    16.6380    19.6030    16.1730     2.2030 
  146.5000   140.7760    30.3600     5.8030     1.5070    58.0240    16.6990    19.5660    17.1110     2.1810 
  146.6250   140.8860    30.4170     5.8140     1.6780    56.0540    16.6610    19.4550    16.8810     2.1420 
  146.7500   140.9960    30.4750     5.8250     1.7090    57.1930    16.5060    19.2480    16.5830     2.1080 
  146.8750   141.1070    30.5330     5.8360     1.6440    59.8240    16.2920    19.0020    16.3860     2.0910 
  147.0000   141.2170    30.5910     5.8470     1.6150    61.6820    16.0400    18.7200    15.6300     2.0890 
  147.1250   141.3270    30.6490     5.8590     1.5970    62.9720    15.7500    18.4100    15.0590     2.0930 
  147.2500   141.4370    30.7070     5.8700     1.2810    63.5020    15.4600    18.1190    13.9920     2.0980 
  147.3750   141.5480    30.7650     5.8810     0.7760    62.7280    15.2140    17.8960    12.7860     2.0990 
  147.5000   141.6580    30.8230     5.8920     0.3540    60.5850    15.0360    17.7460    12.2060     2.0980 
  147.6250   141.7680    30.8810     5.9040    -0.0510    59.4380    14.9330    17.6580    11.7780     2.0980 
  147.7500   141.8780    30.9380     5.9150    -0.3940    61.2300    14.8690    17.6170    11.5750     2.0960 
  147.8750   141.9880    30.9960     5.9260    -0.4510    63.9080    14.8270    17.6040    11.6310     2.0920 
  148.0000   142.0990    31.0540     5.9380    -0.1050    64.6630    14.8040    17.6460    11.6440     2.0860 
  148.1250   142.2090    31.1120     5.9490     0.4000    64.7140    14.7970    17.6930    12.4090     2.0820 
  148.2500   142.3190    31.1700     5.9600     0.7590    65.3450    14.7880    17.7580    13.9350     2.0820 
  148.3750   142.4290    31.2280     5.9710     0.6910    65.7930    14.7220    17.7520    14.3380     2.0830 
  148.5000   142.5400    31.2860     5.9820     0.0290    65.7040    14.5680    17.6030    13.2920     2.0850 
  148.6250   142.6500    31.3440     5.9940    -0.9730    65.6260    14.2970    17.3000    12.0780     2.0870 
  148.7500   142.7600    31.4010     6.0050    -2.1090    66.7050    14.0660    17.0290    11.2850     2.0930 
  148.8750   142.8700    31.4590     6.0160    -3.0490    68.6740    14.0630    17.0610    10.8360     2.1040 
  149.0000   142.9800    31.5170     6.0270    -3.3280    70.2080    14.3120    17.4460    10.6000     2.1260 
  149.1250   143.0910    31.5750     6.0380    -3.0760    71.5680    14.6950    18.0090    10.7860     2.1590 
  149.2500   143.2010    31.6330     6.0500    -2.6520    72.0180    15.0060    18.4720    20.4410     2.1880 
  149.3750   143.3110    31.6910     6.0610    -2.1260    70.8250    15.0870    18.6020    31.3530     2.1910 
  149.5000   143.4210    31.7490     6.0730    -1.3670    66.6310    14.8770    18.3330    24.0840     2.1580 
  149.6250   143.5310    31.8070     6.0840    -0.6720    62.6820    14.5660    17.9330    13.9020     2.1150 
  149.7500   143.6410    31.8650     6.0960    -0.2170    61.7210    14.2350    17.5210    12.4470     2.0860 
  149.8750   143.7510    31.9230     6.1070     0.0440    64.0360    14.0170    17.2610    12.5640     2.0750 
  150.0000   143.8620    31.9810     6.1190     0.1620    67.0370    13.8960    17.0820    13.1040     2.0720 
  150.1250   143.9720    32.0390     6.1310     0.2710    67.5350    13.8360    16.9780    13.1000     2.0650 
  150.2500   144.0820    32.0970     6.1420     0.5190    66.1890    13.8380    16.9490    11.8090     2.0550 
  150.3750   144.1920    32.1560     6.1540     0.7860    66.0710    13.9030    17.0210    10.7090     2.0470 
  150.5000   144.3020    32.2140     6.1650     0.9830    65.5260    13.9890    17.1520    11.1610     2.0480 
  150.6250   144.4120    32.2720     6.1770     1.1120    63.4240    14.0590    17.2460    12.1560     2.0530 
  150.7500   144.5220    32.3300     6.1890     1.0310    62.6820    14.0210    17.2170    12.0410     2.0580 
  150.8750   144.6320    32.3880     6.2010     0.8300    63.8400    13.8820    17.0870    10.6650     2.0610 
  151.0000   144.7420    32.4460     6.2130     0.9640    64.6100    13.5110    16.6440     9.4950     2.0660 
  151.1250   144.8520    32.5040     6.2250     1.4980    65.2200    12.9500    15.9760     9.0800     2.0740 
  151.2500   144.9620    32.5630     6.2370     2.1310    65.3730    12.3080    15.1890     9.1010     2.0800 
  151.3750   145.0720    32.6210     6.2480     2.4890    65.5890    11.6780    14.4070     9.5810     2.0850 
  151.5000   145.1820    32.6790     6.2600     2.2460    67.5740    11.1560    13.7690    10.1650     2.0930 
