~V
VERS. 2.00: Ver 2.00
~W
STRT.M 53.0000:
STOP.M 258.0000:
STEP.M 0.1250:
NULL. -999.2500:
UWI. FD10870:
~C
DEPT.M :
TVD. :
DX. :
DY. :
SP.MV :
GR.API :
RI. :
RML.OHMM :
RXO.OHMM :
DEN.GM/CC :
~A
# ...
   89.5000    89.3160    -0.8600    -2.8790    -8.7180    83.7770     9.7810    11.3150    13.3990     2.2890 
   89.6250    89.4400    -0.8730    -2.8960    -8.0990    85.0430     9.6510    11.3310    10.6540     2.2940 
   89.7500    89.5630    -0.8850    -2.9120    -7.5140    83.6000    10.2980    12.3270     9.7690     2.2780 
   89.8750    89.6860    -0.8980    -2.9290    -7.0270    81.7540    11.7730    14.3300    10.7010     2.2700 
   90.0000    89.8090    -0.9110    -2.9450    -6.7000    79.3210    13.6820    16.6940    17.4320     2.2790 
   90.1250    89.9330    -0.9240    -2.9620    -6.7070    76.8070    15.6230    18.9310    26.8500     2.2810 
   90.2500    90.0560    -0.9370    -2.9790    -7.0660    73.0280    17.4070    20.8760    24.9290     2.2620 
   90.3750    90.1790    -0.9500    -2.9950    -7.6240    71.3480    18.5550    22.0820    17.4620     2.2390 
   90.5000    90.3020    -0.9630    -3.0120    -8.1450    72.1500    19.0720    22.6000    15.1340     2.2270 
   90.6250    90.4250    -0.9760    -3.0290    -8.9060    75.6440    17.9230    21.0070    15.2490     2.2220 
   90.7500    90.5480    -0.9890    -3.0460   -10.0130    79.0500    15.5550    17.9580    16.2610     2.2220 
   90.8750    90.6720    -1.0030    -3.0620   -11.2570    81.8610    12.3730    13.9630    16.2980     2.2430 
   91.0000    90.7950    -1.0160    -3.0790   -12.4440    85.4740     9.3720    10.3130    12.9970     2.2770 
   91.1250    90.9180    -1.0300    -3.0960   -13.4610    91.0620     7.4610     8.1070     8.3510     2.3050 
   91.2500    91.0410    -1.0430    -3.1130   -14.1970    95.1530     6.3220     6.8630     5.9470     2.3200 
   91.3750    91.1640    -1.0570    -3.1290   -14.7020    97.4950     5.9030     6.4630     5.8670     2.3270 
   91.5000    91.2870    -1.0710    -3.1460   -14.9400    97.4560     5.8820     6.4920     6.2560     2.3270 
   91.6250    91.4100    -1.0850    -3.1630   -15.0970    96.4630     6.0640     6.6570     6.2560     2.3190 
   91.7500    91.5330    -1.0990    -3.1800   -15.2720    96.2680     6.1300     6.6200     5.9460     2.3120 
   91.8750    91.6560    -1.1130    -3.1970   -15.4310    98.1290     5.9540     6.2800     5.6760     2.3220 
   92.0000    91.7790    -1.1270    -3.2140   -15.6110   100.7180     5.6290     5.8110     5.5310     2.3500 
   92.1250    91.9020    -1.1410    -3.2300   -15.6820   100.8000     5.2620     5.3540     5.2180     2.3800 
   92.2500    92.0250    -1.1560    -3.2470   -15.6420    99.1710     4.9750     5.0540     4.7230     2.4010 
   92.3750    92.1490    -1.1700    -3.2640   -15.5400    97.8150     4.8480     4.9860     4.7420     2.4020 
   92.5000    92.2720    -1.1850    -3.2800   -15.4550    97.0120     4.7860     5.0050     4.8330     2.3880 
   92.6250    92.3950    -1.2000    -3.2970   -15.0720    97.0140     4.7410     4.9950     4.7320     2.3600 
   92.7500    92.5180    -1.2140    -3.3140   -14.4180    97.7070     4.7660     5.0170     5.0860     2.3430 
   92.8750    92.6410    -1.2290    -3.3300   -13.6500    98.8090     5.0140     5.2870     5.1110     2.3590 
   93.0000    92.7640    -1.2440    -3.3470   -12.7970    98.4710     5.5040     5.8750     4.6150     2.4010 
   93.1250    92.8870    -1.2590    -3.3630   -11.9250    95.1940     6.6700     7.3220     5.9170     2.4730 
   93.2500    93.0090    -1.2740    -3.3800   -11.0170    88.8550     8.9710    10.1260    10.4390     2.5620 
   93.3750    93.1320    -1.2900    -3.3970    -9.8940    81.2870    12.2530    14.1150    16.5340     2.6480 
   93.5000    93.2550    -1.3050    -3.4130    -8.5340    75.3390    15.5910    17.9850    21.7440     2.6710 
   93.6250    93.3780    -1.3210    -3.4290    -7.4680    72.7660    17.4010    19.9760    23.3610     2.5860 
   93.7500    93.5010    -1.3360    -3.4460    -6.7240    72.3050    17.3980    19.7940    20.0180     2.4390 
   93.8750    93.6240    -1.3520    -3.4620    -6.2080    72.2950    16.4140    18.4890    15.2110     2.3040 
   94.0000    93.7470    -1.3680    -3.4790    -5.7610    72.0170    15.8240    17.8020    12.9260     2.2300 
   94.1250    93.8700    -1.3840    -3.4950    -5.3320    70.6460    16.6480    18.8210    13.5320     2.2290 
   94.2500    93.9930    -1.4000    -3.5120    -5.0490    67.6440    18.7380    21.3580    16.1180     2.3140 
   94.3750    94.1160    -1.4160    -3.5280    -4.9790    63.8650    21.3560    24.4890    18.8690     2.4750 
   94.5000    94.2390    -1.4320    -3.5440    -5.2590    61.6700    23.7440    27.2020    20.1160     2.6010 
   94.6250    94.3610    -1.4480    -3.5610    -5.8810    61.7260    24.5580    27.8810    20.5560     2.5810 
   94.7500    94.4840    -1.4650    -3.5770    -6.8050    62.4220    23.3990    26.1340    20.8570     2.4280 
   94.8750    94.6070    -1.4810    -3.5930    -8.1700    63.3110    20.2770    22.1080    20.9970     2.2580 
   95.0000    94.7300    -1.4980    -3.6090    -9.8570    65.4060    16.1600    17.1390    20.1360     2.1630 
   95.1250    94.8530    -1.5140    -3.6260   -11.8410    70.7190    12.5020    12.9180    16.0550     2.1480 
   95.2500    94.9760    -1.5310    -3.6420   -13.8310    77.2970     9.5630     9.6770    10.5560     2.1780 
   95.3750    95.0980    -1.5480    -3.6580   -15.4040    84.6560     7.8460     7.9020     7.1200     2.2280 
   95.5000    95.2210    -1.5650    -3.6740   -16.6010    90.2240     6.6660     6.7530     5.8610     2.2760 
   95.6250    95.3440    -1.5820    -3.6900   -17.2740    94.9440     6.0060     6.1580     5.8410     2.3010 
   95.7500    95.4670    -1.5990    -3.7060   -17.9340    97.8240     5.6790     5.8920     5.8220     2.3150 
   95.8750    95.5890    -1.6170    -3.7230   -18.3610    99.9030     5.4640     5.7040     5.7140     2.3250 
   96.0000    95.7120    -1.6340    -3.7390   -18.4360   100.7300     5.3200     5.5440     5.5870     2.3490 
   96.1250    95.8350    -1.6510    -3.7550   -18.1610    99.4390     5.2080     5.4150     4.9620     2.3690 
   96.2500    95.9580    -1.6690    -3.7710   -17.6460    97.6700     5.2260     5.4200     4.6940     2.3840 
   96.3750    96.0800    -1.6870    -3.7870   -16.8910    97.1570     5.4710     5.6760     5.1490     2.3710 
   96.5000    96.2030    -1.7050    -3.8030   -16.0860    96.2080     6.1290     6.3510     5.7000     2.3510 
   96.6250    96.3260    -1.7230    -3.8190   -15.0310    92.3070     7.3690     7.6900     6.1770     2.3300 
   96.7500    96.4480    -1.7410    -3.8350   -13.9260    84.9750     9.1420     9.6820     7.1690     2.3400 
   96.8750    96.5710    -1.7590    -3.8510   -12.7170    77.2790    11.3670    12.2760    11.9980     2.3920 
   97.0000    96.6940    -1.7770    -3.8670   -11.6510    72.4240    13.7860    15.1800    18.3140     2.4390 
   97.1250    96.8160    -1.7960    -3.8830   -11.0280    71.0110    16.1060    17.8800    18.0460     2.4200 
   97.2500    96.9390    -1.8140    -3.8980   -10.5890    72.9640    17.9550    20.0010    14.0900     2.3420 
   97.3750    97.0610    -1.8330    -3.9140   -10.2150    75.4340    19.4580    21.7240    19.2800     2.2750 
   97.5000    97.1840    -1.8520    -3.9300    -9.8600    75.7890    21.3180    23.8720    43.2760     2.2650 
   97.6250    97.3060    -1.8710    -3.9450    -9.3800    73.0610    23.5150    26.2070    74.1980     2.2760 
   97.7500    97.4290    -1.8900    -3.9610    -9.0700    70.1550    25.1860    27.6970    86.5210     2.2640 
   97.8750    97.5520    -1.9090    -3.9770    -8.7960    69.4660    25.5390    27.6070    76.2160     2.2200 
   98.0000    97.6740    -1.9280    -3.9920    -8.3620    69.4370    24.6030    26.1240    53.5270     2.1910 
   98.1250    97.7970    -1.9470    -4.0080    -8.2170    67.7830    23.3610    24.6830    29.6800     2.1840 
   98.2500    97.9190    -1.9660    -4.0230    -8.3510    64.8730    23.0030    24.4230    18.9250     2.1850 
   98.3750    98.0420    -1.9850    -4.0390    -8.8280    63.6540    23.4070    25.0240    19.5720     2.1640 
   98.5000    98.1640    -2.0040    -4.0540    -9.6400    64.7740    23.6960    25.3540    21.0260     2.1430 
