~V
VERS. 2.00: Ver 2.00
~W
STRT.M 30.0000:
STOP.M 223.0000:
STEP.M 0.1250:
NULL. -999.2500:
UWI. FD10814:
~C
DEPT.M :
TVD. :
DX. :
DY. :
SP.MV :
GR.API :
RI. :
RML.OHMM :
RXO.OHMM :
DEN.GM/CC :
~A
# ...
  148.6250   142.4460    -1.0120    30.1150   -20.6640    72.8110    16.5850    19.1610    14.5920     2.1510 
  148.7500   142.5560    -1.0140    30.1750   -20.4890    74.7090    16.1310    18.5700    14.1850     2.1500 
  148.8750   142.6660    -1.0160    30.2350   -20.3380    77.8390    15.0810    17.3350    13.9360     2.1630 
  149.0000   142.7750    -1.0180    30.2950   -20.1700    79.5260    13.5560    15.5510    12.8580     2.1870 
  149.1250   142.8850    -1.0200    30.3550   -20.0440    79.8480    11.7200    13.4600    11.2810     2.2110 
  149.2500   142.9950    -1.0220    30.4150   -20.0030    80.4540    10.0920    11.6000    10.6560     2.2220 
  149.3750   143.1050    -1.0240    30.4740   -19.9840    81.7460     9.1030    10.4890    10.2220     2.2210 
  149.5000   143.2140    -1.0260    30.5340   -19.9860    82.8560     8.9950    10.4360     8.7240     2.2120 
  149.6250   143.3240    -1.0270    30.5940   -20.0020    82.4820     9.9270    11.6770     8.7230     2.2000 
  149.7500   143.4340    -1.0290    30.6540   -19.9880    80.5210    11.8710    14.1380    12.4340     2.1850 
  149.8750   143.5430    -1.0310    30.7140   -19.8430    78.8780    14.7130    17.5040    17.4010     2.1740 
  150.0000   143.6530    -1.0330    30.7740   -19.6660    78.2480    17.6890    20.9250    21.7360     2.1670 
  150.1250   143.7630    -1.0350    30.8340   -19.3710    78.4210    20.2160    23.6190    23.3290     2.1650 
  150.2500   143.8720    -1.0370    30.8940   -19.0310    77.3150    21.6590    25.2000    20.5290     2.1600 
  150.3750   143.9820    -1.0390    30.9540   -18.6500    75.2420    22.4570    26.1400    19.0820     2.1530 
  150.5000   144.0910    -1.0400    31.0140   -18.2780    71.9540    23.3350    27.1710    22.5910     2.1430 
  150.6250   144.2010    -1.0420    31.0750   -17.9100    68.8050    24.5080    28.5690    25.4780     2.1350 
  150.7500   144.3100    -1.0440    31.1350   -17.5550    66.9280    25.8760    30.1840    25.6450     2.1300 
  150.8750   144.4200    -1.0460    31.1950   -17.2360    67.4760    27.0520    31.5160    27.2280     2.1300 
  151.0000   144.5290    -1.0480    31.2550   -16.8970    70.1390    27.5350    32.1060    29.7890     2.1350 
  151.1250   144.6390    -1.0490    31.3160   -16.5900    71.5510    27.3610    31.8680    31.4610     2.1400 
  151.2500   144.7480    -1.0510    31.3760   -16.2860    70.9390    26.7580    31.1010    35.1120     2.1450 
  151.3750   144.8580    -1.0530    31.4360   -16.1010    69.4880    26.0450    30.1700    36.9850     2.1470 
  151.5000   144.9670    -1.0550    31.4970   -15.9640    69.5630    25.4950    29.3890    31.1210     2.1490 
  151.6250   145.0770    -1.0560    31.5570   -15.9820    71.7590    25.0320    28.6370    25.8750     2.1500 
  151.7500   145.1860    -1.0580    31.6180   -16.0610    73.2830    24.2250    27.4990    26.4570     2.1500 
  151.8750   145.2950    -1.0600    31.6780   -16.1490    74.5090    22.8310    25.7360    26.7100     2.1530 
  152.0000   145.4050    -1.0620    31.7380   -16.2710    74.6240    21.0780    23.5660    26.3550     2.1640 
  152.1250   145.5140    -1.0640    31.7990   -16.4100    76.8630    19.2360    21.3890    24.3240     2.1800 
  152.2500   145.6240    -1.0660    31.8590   -16.5760    78.8700    17.7500    19.7060    17.9120     2.1920 
  152.3750   145.7330    -1.0670    31.9200   -16.7540    80.5320    16.9210    18.7340    13.5960     2.2010 
  152.5000   145.8430    -1.0690    31.9800   -17.0640    81.4150    16.4180    18.2280    14.5160     2.2070 
  152.6250   145.9520    -1.0710    32.0410   -17.3890    82.8300    16.2850    18.0900    15.8240     2.2120 
  152.7500   146.0610    -1.0730    32.1010   -17.6870    84.2120    16.3530    18.1860    15.5630     2.2130 
  152.8750   146.1710    -1.0750    32.1610   -17.9970    82.8510    16.7540    18.6540    14.0430     2.2060 
  153.0000   146.2800    -1.0770    32.2220   -18.4460    80.0400    17.6230    19.7460    12.7000     2.1930 
  153.1250   146.3900    -1.0790    32.2820   -18.9270    75.7530    19.4770    21.9350    16.1270     2.1760 
  153.2500   146.4990    -1.0810    32.3420   -19.2490    72.2160    22.5090    25.3340    24.0280     2.1640 
  153.3750   146.6090    -1.0830    32.4030   -19.4180    69.6300    26.5350    29.7830    29.7090     2.1610 
  153.5000   146.7180    -1.0840    32.4630   -19.4830    68.8070    31.0350    34.7230    32.5450     2.1600 
  153.6250   146.8270    -1.0860    32.5240   -19.5430    69.5050    35.3970    39.4720    39.3040     2.1550 
  153.7500   146.9370    -1.0880    32.5840   -19.5740    70.3360    38.9450    43.3660    48.6240     2.1480 
  153.8750   147.0460    -1.0900    32.6440   -19.5750    71.6140    41.3930    45.8560    52.4980     2.1470 
  154.0000   147.1560    -1.0920    32.7050   -19.4340    71.1490    42.3560    46.8230    50.8610     2.1580 
  154.1250   147.2650    -1.0940    32.7650   -19.2520    69.5280    42.1990    46.5020    46.9520     2.2040 
  154.2500   147.3740    -1.0960    32.8260   -19.0950    67.9880    41.4930    45.5590    42.1020     2.2830 
  154.3750   147.4840    -1.0980    32.8860   -19.0550    67.5410    40.5830    44.0310    40.5670     2.3700 
  154.5000   147.5930    -1.0990    32.9470   -19.1250    68.6450    38.5440    41.2670    41.3140     2.4040 
  154.6250   147.7030    -1.1010    33.0070   -19.2350    69.6790    34.6710    37.0640    38.9200     2.3590 
  154.7500   147.8120    -1.1030    33.0670   -19.4430    72.4620    30.2400    32.3310    34.9280     2.2770 
  154.8750   147.9220    -1.1050    33.1280   -19.6020    76.8260    26.0850    28.5680    29.8470     2.2220 
  155.0000   148.0310    -1.1070    33.1880   -19.7880    80.6980    24.6270    27.0930    23.3690     2.2060 
  155.1250   148.1400    -1.1090    33.2480   -19.8900    80.7380    25.7840    28.6130    17.7000     2.2100 
  155.2500   148.2500    -1.1110    33.3090   -19.9300    77.2110    30.1320    31.8870    13.9480     2.2040 
  155.3750   148.3590    -1.1130    33.3690   -19.8500    73.7070    33.6700    34.5500    18.7760     2.1930 
  155.5000   148.4690    -1.1150    33.4300   -19.7570    72.4590    33.9470    34.6520    27.8340     2.1890 
  155.6250   148.5780    -1.1170    33.4900   -19.6090    74.4950    30.1510    31.0520    25.4890     2.2070 
  155.7500   148.6880    -1.1190    33.5500   -19.4140    78.4280    22.8920    24.9260    16.3550     2.2420 
  155.8750   148.7970    -1.1210    33.6110   -19.3100    83.1800    17.1100    18.9930    10.9400     2.2790 
  156.0000   148.9070    -1.1220    33.6710   -19.2610    86.6880    13.5250    15.2100    10.2140     2.3030 
  156.1250   149.0160    -1.1240    33.7310   -19.2690    88.7820    12.5160    14.1450    12.3680     2.3100 
  156.2500   149.1250    -1.1260    33.7920   -19.2740    89.7280    13.5370    15.4100    13.1140     2.3020 
  156.3750   149.2350    -1.1280    33.8520   -19.2970    88.8150    16.8350    18.9460    11.7300     2.2820 
  156.5000   149.3440    -1.1300    33.9120   -19.1850    86.4640    21.9530    24.2290    14.3180     2.2570 
  156.6250   149.4540    -1.1320    33.9730   -18.9310    83.0100    28.1750    30.5920    22.6410     2.2400 
  156.7500   149.5630    -1.1340    34.0330   -18.5780    81.1700    35.0910    36.6280    27.8790     2.2360 
  156.8750   149.6730    -1.1350    34.0940   -18.1890    80.6960    39.9820    41.1400    25.3290     2.2410 
  157.0000   149.7820    -1.1370    34.1540   -17.6990    79.4350    42.8600    44.3570    20.7960     2.2410 
  157.1250   149.8910    -1.1390    34.2150   -17.1970    77.7380    45.0480    46.9940    23.1920     2.2320 
  157.2500   150.0010    -1.1410    34.2750   -16.7830    76.6050    47.7020    49.2460    32.2310     2.2210 
  157.3750   150.1100    -1.1430    34.3360   -16.3930    78.0040    48.4930    50.1590    40.2430     2.2160 
  157.5000   150.2190    -1.1450    34.3960   -16.0940    79.2740    47.4290    48.7430    44.4400     2.2190 
  157.6250   150.3290    -1.1470    34.4570   -15.9120    81.2220    42.4570    44.4660    40.3960     2.2330 
