~V
VERS. 2.00: Ver 2.00
~W
STRT.M 64.0000:
STOP.M 246.0000:
STEP.M 0.1250:
NULL. -999.2500:
UWI. FD10853:
~C
DEPT.M :
TVD. :
DX. :
DY. :
SP.MV :
GR.API :
RI. :
RML.OHMM :
RXO.OHMM :
DEN.GM/CC :
~A
# ...
  109.6250   109.5770    -1.3530    -0.5660   -19.6000   101.2580     4.8350     4.5560     4.2960     2.2970 
  109.7500   109.7010    -1.3660    -0.5680   -19.3540    95.2740     5.4600     5.2250     4.8460     2.2480 
  109.8750   109.8250    -1.3790    -0.5710   -18.8340    88.4710     6.8360     6.6900     6.7720     2.2070 
  110.0000   109.9500    -1.3930    -0.5730   -18.1130    81.6960     9.3880     9.4090    10.0700     2.1920 
  110.1250   110.0740    -1.4060    -0.5750   -17.1740    74.7170    12.9220    13.1370    13.1370     2.1900 
  110.2500   110.1980    -1.4190    -0.5770   -15.9600    68.4470    16.4910    16.8810    15.3570     2.1780 
  110.3750   110.3220    -1.4330    -0.5790   -14.5480    65.4880    18.0170    18.4320    16.7820     2.1500 
  110.5000   110.4470    -1.4460    -0.5810   -13.2510    66.6320    17.3050    17.6590    16.0070     2.1330 
  110.6250   110.5710    -1.4600    -0.5830   -12.3730    68.6470    15.0500    15.3080    14.1080     2.1390 
  110.7500   110.6950    -1.4740    -0.5860   -11.9860    71.3560    12.7740    13.0540    13.0330     2.1690 
  110.8750   110.8190    -1.4880    -0.5880   -11.9880    73.6740    11.7860    12.2600    12.7640     2.1960 
  111.0000   110.9440    -1.5010    -0.5900   -12.1250    75.9590    11.5310    12.3170    13.3740     2.1970 
  111.1250   111.0680    -1.5150    -0.5920   -12.4540    75.8770    11.9240    13.1610    14.1180     2.1770 
  111.2500   111.1920    -1.5300    -0.5940   -12.9360    75.2510    13.2890    15.1460    15.0420     2.1540 
  111.3750   111.3160    -1.5440    -0.5970   -13.1700    73.0760    14.8480    17.1670    16.0500     2.1460 
  111.5000   111.4400    -1.5580    -0.5990   -13.0070    70.5090    16.0730    18.6840    16.7820     2.1510 
  111.6250   111.5640    -1.5720    -0.6010   -12.6190    67.3510    16.9950    19.7790    17.9160     2.1760 
  111.7500   111.6890    -1.5870    -0.6040   -12.2910    65.8890    17.5470    20.4240    19.0360     2.2480 
  111.8750   111.8130    -1.6020    -0.6060   -12.5540    64.9760    17.6760    20.5980    18.5640     2.3650 
  112.0000   111.9370    -1.6160    -0.6080   -13.2200    65.0420    16.5770    19.2920    17.7500     2.4610 
  112.1250   112.0610    -1.6310    -0.6100   -14.0530    66.8850    14.5260    16.7880    16.9250     2.4690 
  112.2500   112.1850    -1.6460    -0.6120   -14.9870    73.1990    11.8860    13.5450    14.8610     2.4000 
  112.3750   112.3090    -1.6610    -0.6140   -16.0650    81.1480     9.7680    11.0140    11.4430     2.3500 
  112.5000   112.4330    -1.6770    -0.6160   -17.3060    87.9660     8.4510     9.5020     9.4930     2.3520 
  112.6250   112.5570    -1.6920    -0.6190   -18.4490    89.2700     7.5970     8.6370     8.5530     2.3710 
  112.7500   112.6810    -1.7070    -0.6210   -19.3380    89.4300     7.1690     8.2620     7.7090     2.3620 
  112.8750   112.8050    -1.7220    -0.6230   -19.8160    90.1860     7.0360     8.1170     6.7770     2.3330 
  113.0000   112.9290    -1.7380    -0.6250   -19.9780    93.8870     6.8820     7.8580     6.4990     2.2990 
  113.1250   113.0530    -1.7530    -0.6280   -19.9870    95.6060     6.6630     7.5050     6.5240     2.2770 
  113.2500   113.1770    -1.7690    -0.6300   -20.2290    97.2460     6.5420     7.3350     6.3390     2.2730 
  113.3750   113.3010    -1.7850    -0.6320   -20.6550    98.4620     6.4340     7.1980     6.0060     2.2720 
  113.5000   113.4250    -1.8000    -0.6350   -20.9860   100.5420     6.2390     6.9650     5.8560     2.2710 
  113.6250   113.5490    -1.8160    -0.6370   -21.1360   101.6050     5.9460     6.6110     5.7440     2.2820 
  113.7500   113.6730    -1.8320    -0.6390   -21.2810   104.5140     5.5840     6.1800     5.3020     2.3130 
  113.8750   113.7970    -1.8480    -0.6420   -21.4330   106.9050     5.2770     5.8270     4.7160     2.3500 
  114.0000   113.9210    -1.8640    -0.6440   -21.5520   107.6430     5.0180     5.5480     4.3980     2.3700 
  114.1250   114.0450    -1.8800    -0.6470   -21.5400   108.1070     4.8340     5.3770     4.3280     2.3630 
  114.2500   114.1690    -1.8960    -0.6490   -21.4600   110.2840     4.7610     5.3320     4.3680     2.3370 
  114.3750   114.2930    -1.9120    -0.6510   -21.4130   113.2900     4.7860     5.3850     4.4250     2.3090 
  114.5000   114.4170    -1.9290    -0.6540   -21.4360   111.6820     4.9080     5.5400     4.5680     2.2940 
  114.6250   114.5410    -1.9450    -0.6570   -21.4750   106.0320     5.1530     5.8470     4.8790     2.2820 
  114.7500   114.6650    -1.9610    -0.6590   -21.4570   100.5150     5.6450     6.4800     5.1120     2.2730 
  114.8750   114.7880    -1.9780    -0.6620   -21.3770    95.9510     6.3260     7.3480     5.4180     2.2650 
  115.0000   114.9120    -1.9940    -0.6650   -21.2160    91.5450     6.9860     8.1700     6.2470     2.2660 
  115.1250   115.0360    -2.0110    -0.6670   -20.9650    85.3250     7.3580     8.6070     7.3940     2.2690 
  115.2500   115.1600    -2.0270    -0.6700   -20.6870    82.0960     7.2850     8.4610     7.4670     2.2810 
  115.3750   115.2840    -2.0440    -0.6730   -20.4720    83.9560     6.9240     7.9430     6.8380     2.2920 
  115.5000   115.4080    -2.0610    -0.6750   -20.2900    88.2990     6.4550     7.3180     6.6420     2.3050 
  115.6250   115.5320    -2.0770    -0.6780   -20.4790    91.6490     6.1720     6.9730     6.8290     2.3090 
  115.7500   115.6550    -2.0940    -0.6810   -20.8740    90.9800     6.2110     7.0630     7.1110     2.3110 
  115.8750   115.7790    -2.1110    -0.6840   -21.2650    89.9270     6.5410     7.4970     7.2940     2.3040 
  116.0000   115.9030    -2.1280    -0.6870   -21.5180    89.5850     7.1100     8.1640     7.5120     2.2910 
  116.1250   116.0270    -2.1450    -0.6900   -21.6280    90.6950     7.7210     8.8350     7.8010     2.2640 
  116.2500   116.1510    -2.1620    -0.6930   -21.5920    90.5100     8.2550     9.3780     8.0670     2.2290 
  116.3750   116.2750    -2.1790    -0.6960   -21.4450    89.3950     8.6550     9.7680     8.3370     2.1980 
  116.5000   116.3980    -2.1960    -0.7000   -21.2360    87.8060     8.8490     9.9060     8.3950     2.1800 
  116.6250   116.5220    -2.2130    -0.7030   -20.9840    88.1030     8.7310     9.6400     8.2510     2.1780 
  116.7500   116.6460    -2.2300    -0.7060   -20.7450    89.2800     8.2940     9.0210     7.6970     2.1910 
  116.8750   116.7700    -2.2480    -0.7100   -20.5750    89.9620     7.7740     8.3200     7.3510     2.2180 
  117.0000   116.8930    -2.2650    -0.7130   -20.5450    89.9700     7.3350     7.7750     7.1000     2.2420 
  117.1250   117.0170    -2.2820    -0.7160   -20.6460    89.4150     7.0820     7.4830     7.0180     2.2510 
  117.2500   117.1410    -2.3000    -0.7200   -20.7550    91.1070     7.0780     7.4940     7.0180     2.2430 
  117.3750   117.2650    -2.3170    -0.7230   -20.7960    92.4790     7.1610     7.5990     7.0290     2.2380 
  117.5000   117.3880    -2.3350    -0.7260   -20.7820    93.4140     7.2850     7.7270     7.1000     2.2420 
  117.6250   117.5120    -2.3530    -0.7290   -20.7570    91.9020     7.3810     7.8010     7.1970     2.2410 
  117.7500   117.6360    -2.3700    -0.7330   -20.7180    90.5100     7.4410     7.8390     7.3180     2.2260 
  117.8750   117.7590    -2.3880    -0.7360   -20.6620    91.2120     7.4970     7.8820     7.5220     2.2060 
  118.0000   117.8830    -2.4060    -0.7400   -20.6570    93.2900     7.6050     8.0210     7.7170     2.1980 
  118.1250   118.0070    -2.4240    -0.7430   -20.6380    94.5440     7.8100     8.2720     7.8520     2.1970 
  118.2500   118.1300    -2.4420    -0.7470   -20.5550    92.5220     8.0600     8.5560     7.9980     2.2070 
  118.3750   118.2540    -2.4600    -0.7500   -20.4630    87.8020     8.3210     8.8280     8.0600     2.2270 
  118.5000   118.3780    -2.4780    -0.7540   -20.3010    82.5340     8.7440     9.2660     8.1430     2.2490 
  118.6250   118.5010    -2.4960    -0.7570   -20.0820    79.2970     9.4410    10.0330     8.7760     2.2550 
