~V
VERS. 2.00: Ver 2.00
~W
STRT.M 22.0000:
STOP.M 238.0000:
STEP.M 0.1250:
NULL. -999.2500:
UWI. FD10612:
~C
DEPT.M :
TVD. :
DX. :
DY. :
GR.API :
RML.OHMM :
RI. :
RXO.OHMM :
CALI.CM :
DEN.GM/CC :
SP.MV :
~A
# ...
  104.5000   103.5570     7.5380     6.1030    58.3910    28.4240    26.5790    34.8620    22.0620     2.4690   -13.2470 
  104.6250   103.6770     7.5650     6.1240    57.8320    27.9730    26.9480    58.2030    22.1430     2.5950   -13.8940 
  104.7500   103.7980     7.5930     6.1440    59.3020    24.6900    24.0440    57.8530    22.2270     2.6440   -14.5500 
  104.8750   103.9180     7.6200     6.1650    64.1300    19.8360    19.3720    30.5320    22.2180     2.6110   -15.2000 
  105.0000   104.0380     7.6470     6.1850    70.3210    15.0930    14.9020    13.1440    22.1360     2.5310   -15.9280 
  105.1250   104.1580     7.6750     6.2060    74.2810    11.7430    11.8090     9.2060    22.0650     2.4590   -16.6300 
  105.2500   104.2780     7.7020     6.2260    76.4250     9.6320     9.8390     8.8240    22.0020     2.4240   -17.3270 
  105.3750   104.3980     7.7290     6.2470    80.2890     8.3850     8.6570     9.1060    21.9720     2.4230   -17.9440 
  105.5000   104.5190     7.7560     6.2680    88.0300     7.6370     7.9510     7.9190    22.0100     2.4420   -18.4280 
  105.6250   104.6390     7.7840     6.2880    93.1440     7.1530     7.5180     6.7410    22.0560     2.4620   -18.8170 
  105.7500   104.7590     7.8110     6.3090    91.9510     6.7660     7.1840     6.1940    22.0870     2.4720   -19.0190 
  105.8750   104.8790     7.8380     6.3290    90.4960     6.4390     6.9010     5.9110    22.0970     2.4700   -19.1790 
  106.0000   104.9990     7.8660     6.3500    93.9560     6.1610     6.6560     5.8510    22.0970     2.4550   -19.3300 
  106.1250   105.1190     7.8930     6.3700    97.2920     5.9330     6.4460     6.0140    22.0940     2.4330   -19.3690 
  106.2500   105.2400     7.9200     6.3910    96.9460     5.7530     6.2620     6.0520    22.0860     2.4120   -19.3300 
  106.3750   105.3600     7.9480     6.4110    96.6520     5.6420     6.1120     5.8990    22.0760     2.3970   -19.2220 
  106.5000   105.4800     7.9750     6.4320    99.8070     5.6230     6.0230     5.5570    22.1040     2.3880   -19.0820 
  106.6250   105.6000     8.0020     6.4520   102.3590     5.7130     6.0270     5.3410    22.1790     2.3830   -18.9740 
  106.7500   105.7200     8.0300     6.4730   100.7320     5.8520     6.0880     5.3100    22.2750     2.3790   -19.0280 
  106.8750   105.8400     8.0570     6.4930    95.9920     5.9670     6.1470     5.5660    22.3110     2.3770   -19.1190 
  107.0000   105.9610     8.0840     6.5140    92.7170     5.9910     6.1290     5.9330    22.2290     2.3760   -19.1150 
  107.1250   106.0810     8.1110     6.5350    92.7500     5.8870     5.9860     6.2500    22.0850     2.3760   -19.1400 
  107.2500   106.2010     8.1390     6.5550    94.2760     5.7560     5.8010     6.0970    21.9820     2.3790   -19.1020 
  107.3750   106.3210     8.1660     6.5760    95.6120     5.7470     5.7010     5.6740    21.9660     2.3840   -19.0220 
  107.5000   106.4410     8.1930     6.5960    94.7150     6.0480     5.8310     5.3590    22.0300     2.3860   -18.9990 
  107.6250   106.5610     8.2210     6.6170    89.8340     6.9580     6.4260     5.9130    22.1590     2.3760   -18.8660 
  107.7500   106.6810     8.2480     6.6370    82.8320     8.5620     7.5880     7.3220    22.2710     2.3590   -18.5850 
  107.8750   106.8020     8.2750     6.6580    77.5940    10.9180     9.4460     9.1340    22.2990     2.3500   -18.2230 
  108.0000   106.9220     8.3030     6.6780    74.7010    13.9010    12.0400    10.5570    22.2120     2.3630   -17.7990 
  108.1250   107.0420     8.3300     6.6990    70.5570    16.9870    15.1130    12.4680    22.0470     2.3940   -17.3270 
  108.2500   107.1620     8.3570     6.7190    65.4650    19.2660    17.7040    14.3180    21.9290     2.4140   -16.9010 
  108.3750   107.2820     8.3840     6.7400    62.8810    20.0060    18.8300    15.7210    21.9950     2.3990   -16.5490 
  108.5000   107.4020     8.4120     6.7600    64.7800    18.9760    18.0750    15.9230    22.1720     2.3490   -16.2430 
  108.6250   107.5230     8.4390     6.7810    69.9230    16.4960    15.7980    14.0800    22.2580     2.2940   -16.2530 
  108.7500   107.6430     8.4660     6.8020    73.9820    13.6880    13.2030    11.2940    22.2540     2.2640   -16.5370 
  108.8750   107.7630     8.4940     6.8220    77.4350    11.2000    10.9150     8.8940    22.2080     2.2700   -16.8820 
  109.0000   107.8830     8.5210     6.8430    81.3480     9.3640     9.2080     7.5780    22.1440     2.2990   -17.2690 
  109.1250   108.0030     8.5480     6.8630    86.1680     8.3890     8.2410     6.9450    22.1090     2.3280   -17.4570 
  109.2500   108.1230     8.5760     6.8840    90.4130     8.1360     7.8900     7.0490    22.1030     2.3410   -17.5920 
  109.3750   108.2440     8.6030     6.9040    91.2080     8.5770     8.1520     7.5180    22.1290     2.3330   -17.7010 
  109.5000   108.3640     8.6300     6.9250    86.9050     9.6330     9.0180     7.9080    22.1940     2.3050   -17.6170 
  109.6250   108.4840     8.6580     6.9450    78.1530    11.0950    10.4400     9.0010    22.2380     2.2640   -17.2280 
  109.7500   108.6040     8.6850     6.9660    72.7420    12.4110    11.9430    10.5120    22.2620     2.2260   -16.7640 
  109.8750   108.7240     8.7120     6.9860    74.3090    13.0770    12.9300    11.9280    22.2550     2.2050   -16.3630 
  110.0000   108.8440     8.7390     7.0070    77.0550    12.7920    12.8830    12.0380    22.2370     2.2070   -15.9780 
  110.1250   108.9640     8.7670     7.0270    76.9670    11.5770    11.7070    10.1120    22.2310     2.2330   -15.8700 
  110.2500   109.0850     8.7940     7.0480    79.0200    10.1130    10.2060     7.9860    22.2310     2.2700   -15.8290 
  110.3750   109.2050     8.8210     7.0690    84.4030     8.9130     8.9330     7.3120    22.2340     2.3050   -15.7380 
  110.5000   109.3250     8.8490     7.0890    88.3820     8.3120     8.1850     7.8520    22.2450     2.3280   -15.7210 
  110.6250   109.4450     8.8760     7.1100    88.3530     8.5990     8.1870     7.4670    22.2780     2.3290   -15.5970 
  110.7500   109.5650     8.9030     7.1300    85.9980     9.6970     8.8910     7.4450    22.3180     2.3120   -15.2120 
  110.8750   109.6850     8.9310     7.1510    81.4850    11.5980    10.3420     8.0860    22.3470     2.2790   -14.5480 
  111.0000   109.8060     8.9580     7.1710    74.6620    14.1980    12.5310     9.8280    22.3570     2.2380   -13.6110 
  111.1250   109.9260     8.9850     7.1920    67.7460    17.2560    15.3720    11.2510    22.3560     2.2020   -12.3920 
  111.2500   110.0460     9.0130     7.2120    63.3350    20.2430    18.3450    12.1860    22.3580     2.1770   -11.0620 
  111.3750   110.1660     9.0400     7.2330    61.8900    22.7880    20.9730    13.3270    22.3590     2.1670    -9.7190 
  111.5000   110.2860     9.0670     7.2530    62.9290    24.7210    22.9670    15.1440    22.3640     2.1680    -8.3550 
  111.6250   110.4060     9.0940     7.2740    61.8380    26.0450    24.2900    16.2910    22.3510     2.1770    -7.2380 
  111.7500   110.5270     9.1220     7.2940    58.1950    27.0020    25.2280    16.1840    22.3080     2.1860    -6.2780 
  111.8750   110.6470     9.1490     7.3150    56.2940    27.5970    25.8070    17.1930    22.2540     2.1910    -5.5100 
  112.0000   110.7670     9.1760     7.3360    57.3890    27.7140    25.9110    19.0520    22.2280     2.1940    -5.0860 
  112.1250   110.8870     9.2040     7.3560    60.5750    27.1990    25.3730    19.8490    22.2290     2.1970    -4.8550 
  112.2500   111.0070     9.2310     7.3770    63.0150    26.3190    24.4520    19.7520    22.2280     2.2030    -4.6890 
  112.3750   111.1270     9.2580     7.3970    64.2230    25.4180    23.4850    19.8240    22.2300     2.2130    -4.4680 
  112.5000   111.2480     9.2860     7.4180    64.2160    24.8660    22.8190    19.1250    22.2470     2.2220    -4.1840 
  112.6250   111.3680     9.3130     7.4380    62.6460    25.0360    22.8130    17.7310    22.2870     2.2230    -3.8390 
