~V
VERS. 2.00: Ver 2.00
~W
STRT.M 53.0000:
STOP.M 258.0000:
STEP.M 0.1250:
NULL. -999.2500:
UWI. FD10870:
~C
DEPT.M :
TVD. :
DX. :
DY. :
SP.MV :
GR.API :
RI. :
RML.OHMM :
RXO.OHMM :
DEN.GM/CC :
~A
# ...
  116.8750   116.0230    -5.7300    -6.1800   -11.1300    82.9550    12.7410    13.9140    11.0230     2.3050 
  117.0000   116.1440    -5.7600    -6.1920   -11.1350    80.8980    11.2370    12.3540     8.3780     2.2400 
  117.1250   116.2650    -5.7910    -6.2030   -11.1390    81.7090    10.2070    11.3370     7.3980     2.2190 
  117.2500   116.3850    -5.8220    -6.2140   -11.2570    83.4600     9.5160    10.6090     7.2980     2.2210 
  117.3750   116.5060    -5.8520    -6.2250   -11.4200    87.0570     8.8370     9.8420     7.5240     2.2420 
  117.5000   116.6270    -5.8830    -6.2360   -11.3620    90.4010     8.2090     9.1180     7.6260     2.2720 
  117.6250   116.7470    -5.9140    -6.2470   -11.1590    92.6120     7.7840     8.6690     7.1580     2.2990 
  117.7500   116.8680    -5.9450    -6.2580   -10.9620    93.1310     7.6600     8.6340     6.3100     2.3060 
  117.8750   116.9890    -5.9760    -6.2690   -10.6570    92.8680     7.9680     9.1600     5.9700     2.2930 
  118.0000   117.1090    -6.0070    -6.2790   -10.3420    92.7460     8.5980    10.0890     6.0650     2.2690 
  118.1250   117.2300    -6.0380    -6.2900   -10.1840    92.8240     9.2470    10.8980     6.7030     2.2510 
  118.2500   117.3500    -6.0690    -6.3000   -10.2770    90.9560     9.5380    11.1890     8.7100     2.2410 
  118.3750   117.4710    -6.1000    -6.3100   -10.6130    89.1560     9.3050    10.8100    10.3940     2.2420 
  118.5000   117.5920    -6.1310    -6.3210   -10.8740    89.0530     8.7020    10.0100     9.6100     2.2570 
  118.6250   117.7120    -6.1630    -6.3310   -10.7670    91.7820     8.0600     9.2830     7.5440     2.2790 
  118.7500   117.8330    -6.1940    -6.3410   -10.5320    95.5830     7.6940     8.9220     6.3220     2.2940 
  118.8750   117.9540    -6.2250    -6.3500   -10.3130    96.9970     7.7240     9.0900     6.4960     2.2950 
  119.0000   118.0740    -6.2570    -6.3600   -10.0640    96.1450     8.2090     9.8190     7.0430     2.2870 
  119.1250   118.1950    -6.2880    -6.3690    -9.8230    92.3460     8.9950    10.8840     7.3940     2.2720 
  119.2500   118.3150    -6.3200    -6.3790    -9.7650    89.6680     9.7030    11.7440     7.9860     2.2540 
  119.3750   118.4360    -6.3510    -6.3880    -9.9990    89.3780    10.0330    12.0640     8.8160     2.2450 
  119.5000   118.5570    -6.3830    -6.3970   -10.4980    91.8300    10.0640    12.0070     9.2690     2.2490 
  119.6250   118.6770    -6.4140    -6.4060   -11.1840    94.9000     9.9880    11.8760     8.7900     2.2620 
  119.7500   118.7980    -6.4460    -6.4150   -11.7630    96.4260     9.8990    11.7930     7.7460     2.2720 
  119.8750   118.9180    -6.4780    -6.4240   -12.3980    96.4170     9.7810    11.7420     7.1040     2.2750 
  120.0000   119.0390    -6.5090    -6.4330   -13.2610    94.0010     9.5230    11.5350     7.7040     2.2680 
  120.1250   119.1590    -6.5410    -6.4420   -14.2190    92.5300     8.9510    10.8700     8.4020     2.2770 
  120.2500   119.2800    -6.5730    -6.4500   -15.0310    91.9570     8.1100     9.8020     7.6940     2.3020 
  120.3750   119.4010    -6.6050    -6.4580   -15.5030    95.6200     7.1980     8.5960     6.5560     2.3440 
  120.5000   119.5210    -6.6370    -6.4670   -15.7770    99.9820     6.3460     7.4930     5.9160     2.3670 
  120.6250   119.6420    -6.6690    -6.4750   -16.0180   104.9710     5.8870     6.9920     5.5350     2.3710 
  120.7500   119.7620    -6.7010    -6.4830   -16.2760   106.7720     5.8110     6.9990     5.2470     2.3570 
  120.8750   119.8830    -6.7330    -6.4910   -16.3860   106.7130     6.0620     7.3780     5.2050     2.3400 
  121.0000   120.0030    -6.7650    -6.4990   -16.4690   104.1630     6.4710     7.8950     5.5740     2.3310 
  121.1250   120.1240    -6.7970    -6.5070   -16.3940   102.8810     7.0010     8.5310     6.0180     2.3460 
  121.2500   120.2440    -6.8290    -6.5140   -16.2050   102.1580     7.5220     9.1310     6.3920     2.3800 
  121.3750   120.3650    -6.8620    -6.5220   -15.9940   101.8120     7.8740     9.5000     7.0990     2.3970 
  121.5000   120.4860    -6.8940    -6.5300   -15.8150   100.8290     8.0730     9.6600     7.8600     2.3780 
  121.6250   120.6060    -6.9260    -6.5370   -15.7650   100.1020     8.0970     9.6080     7.7750     2.3360 
  121.7500   120.7270    -6.9590    -6.5450   -15.7430    98.6280     8.1230     9.6080     7.0230     2.3030 
  121.8750   120.8470    -6.9910    -6.5520   -15.8650    95.3700     8.3750    10.0190     6.5000     2.2910 
  122.0000   120.9680    -7.0230    -6.5600   -16.0180    91.5130     8.9640    10.9950     6.6540     2.2860 
  122.1250   121.0880    -7.0560    -6.5670   -16.2280    90.0580     9.8560    12.3850     7.8170     2.2750 
  122.2500   121.2090    -7.0880    -6.5750   -16.7170    89.1730    10.5880    13.4400    10.2140     2.2660 
  122.3750   121.3290    -7.1200    -6.5820   -17.3180    86.8370    10.7500    13.6180    11.9110     2.2840 
  122.5000   121.4500    -7.1530    -6.5890   -17.9410    84.7700    10.2260    12.7990    10.5320     2.3370 
  122.6250   121.5700    -7.1850    -6.5970   -18.3880    87.4050     9.2260    11.4100     8.4370     2.3840 
  122.7500   121.6910    -7.2180    -6.6040   -18.5240    94.2480     8.2430    10.1060     7.9340     2.3990 
  122.8750   121.8110    -7.2500    -6.6110   -18.6240    99.1760     7.4950     9.1630     7.3570     2.3870 
  123.0000   121.9320    -7.2830    -6.6180   -18.5410   100.1350     7.3090     8.9990     6.5270     2.3880 
  123.1250   122.0520    -7.3150    -6.6250   -18.1200    97.0900     7.6920     9.6290     6.7100     2.4080 
  123.2500   122.1730    -7.3480    -6.6310   -17.5540    93.7820     8.4040    10.6500     6.9820     2.4410 
  123.3750   122.2930    -7.3800    -6.6380   -16.7320    91.6170     9.0130    11.4760     7.8280     2.4800 
  123.5000   122.4140    -7.4130    -6.6450   -15.9230    90.3320     9.3640    11.9060    10.2790     2.5020 
  123.6250   122.5340    -7.4450    -6.6510   -15.3550    91.5550     9.1840    11.5290    10.7210     2.4720 
  123.7500   122.6550    -7.4780    -6.6580   -14.6550    95.0960     8.6670    10.7500     8.3310     2.4010 
  123.8750   122.7750    -7.5110    -6.6640   -14.0380    99.4740     8.0020     9.8120     6.6430     2.3320 
  124.0000   122.8960    -7.5440    -6.6700   -13.4650   101.4470     7.3160     8.8880     6.2980     2.2950 
  124.1250   123.0160    -7.5760    -6.6760   -12.5070    99.7420     6.8420     8.2820     6.2680     2.2850 
  124.2500   123.1360    -7.6090    -6.6830   -11.1960    98.7350     6.5680     7.9040     6.0850     2.2920 
  124.3750   123.2570    -7.6420    -6.6890    -9.4700   100.3300     6.4380     7.6710     5.6550     2.3070 
  124.5000   123.3770    -7.6750    -6.6940    -8.1850   103.4660     6.3860     7.5630     5.1260     2.3210 
  124.6250   123.4980    -7.7080    -6.7000    -7.2760   105.1160     6.4550     7.6640     4.8240     2.3280 
  124.7500   123.6180    -7.7410    -6.7060    -7.0120   103.1250     6.5750     7.8640     5.1870     2.3280 
  124.8750   123.7390    -7.7740    -6.7110    -7.1660   101.6650     6.6090     7.9040     5.7840     2.3240 
  125.0000   123.8590    -7.8070    -6.7170    -7.3950   102.4730     6.4150     7.6340     5.8700     2.3190 
  125.1250   123.9790    -7.8410    -6.7220    -7.6140   106.9250     6.0130     7.0950     5.5780     2.3230 
  125.2500   124.1000    -7.8740    -6.7270    -7.7070   110.7280     5.4690     6.4200     5.2440     2.3370 
  125.3750   124.2200    -7.9070    -6.7320    -7.6120   112.5290     4.9480     5.8400     4.8200     2.3570 
  125.5000   124.3400    -7.9410    -6.7370    -7.4530   110.1310     4.5670     5.4470     4.4290     2.3770 
  125.6250   124.4610    -7.9740    -6.7420    -7.2970   106.8030     4.3170     5.2020     4.3440     2.3890 
  125.7500   124.5810    -8.0080    -6.7470    -6.9950   104.7250     4.2030     5.1030     4.3720     2.3880 
  125.8750   124.7010    -8.0410    -6.7510    -6.7530   106.5390     4.2670     5.2320     4.3450     2.3780 
