~V
VERS. 2.00: Ver 2.00
~W
STRT.M 22.0000:
STOP.M 238.0000:
STEP.M 0.1250:
NULL. -999.2500:
UWI. FD10612:
~C
DEPT.M :
TVD. :
DX. :
DY. :
GR.API :
RML.OHMM :
RI. :
RXO.OHMM :
CALI.CM :
DEN.GM/CC :
SP.MV :
~A
# ...
  145.7500   141.9020    20.1010    13.8740    52.2360    19.0420    17.6140    17.2620    22.4940     2.5150   -17.5880 
  145.8750   142.0160    20.1460    13.9000    49.3400    19.2230    17.8220    17.7610    22.4140     2.5220   -17.5710 
  146.0000   142.1300    20.1900    13.9250    48.1440    19.3600    17.9750    17.8100    22.2910     2.5340   -17.6080 
  146.1250   142.2440    20.2350    13.9500    47.4070    19.4430    18.0690    18.3550    22.2410     2.5460   -17.7590 
  146.2500   142.3570    20.2800    13.9760    45.7870    19.4180    18.0620    19.6090    22.2590     2.5530   -17.8110 
  146.3750   142.4710    20.3240    14.0010    43.9970    19.2340    17.9120    19.1670    22.3380     2.5520   -17.8190 
  146.5000   142.5850    20.3690    14.0260    44.7970    18.8970    17.6240    16.8480    22.4160     2.5420   -17.8400 
  146.6250   142.6990    20.4130    14.0520    48.6850    18.4550    17.2580    14.8580    22.4600     2.5260   -17.7680 
  146.7500   142.8130    20.4580    14.0770    49.9700    17.9910    16.8960    15.1090    22.4460     2.5110   -17.6750 
  146.8750   142.9260    20.5020    14.1020    48.0210    17.5150    16.5450    16.3450    22.3820     2.5030   -17.6250 
  147.0000   143.0400    20.5470    14.1280    46.8380    17.0010    16.1680    16.7380    22.3170     2.5060   -17.5920 
  147.1250   143.1540    20.5910    14.1530    50.3790    16.4220    15.7120    15.3900    22.3040     2.5190   -17.5670 
  147.2500   143.2680    20.6360    14.1780    53.6700    15.8290    15.2110    13.5070    22.3240     2.5310   -17.6460 
  147.3750   143.3820    20.6810    14.2040    52.8620    15.3180    14.7540    12.2190    22.3440     2.5370   -17.7430 
  147.5000   143.4950    20.7250    14.2290    50.7790    14.9880    14.4450    11.8040    22.3510     2.5330   -17.7990 
  147.6250   143.6090    20.7700    14.2550    50.2020    14.9250    14.3880    12.3670    22.3500     2.5250   -17.9810 
  147.7500   143.7230    20.8140    14.2800    49.2950    15.0390    14.5190    13.6220    22.3400     2.5210   -18.2700 
  147.8750   143.8370    20.8590    14.3050    48.2300    15.2180    14.7380    14.8230    22.3160     2.5240   -18.4920 
  148.0000   143.9510    20.9030    14.3310    48.2310    15.3380    14.9160    15.1130    22.2940     2.5320   -18.5440 
  148.1250   144.0640    20.9480    14.3560    49.9090    15.2860    14.9220    14.9260    22.2870     2.5370   -18.4530 
  148.2500   144.1780    20.9920    14.3810    50.5060    15.0640    14.7420    14.7040    22.2960     2.5360   -18.2700 
  148.3750   144.2920    21.0370    14.4070    49.4450    14.7060    14.4020    13.7670    22.3190     2.5280   -18.0950 
  148.5000   144.4060    21.0810    14.4320    48.6400    14.2690    13.9620    12.4360    22.3410     2.5130   -17.9640 
  148.6250   144.5200    21.1260    14.4570    48.9620    13.8400    13.5060    11.4750    22.3460     2.4970   -17.7490 
  148.7500   144.6340    21.1710    14.4830    49.5240    13.5210    13.1350    11.1080    22.3320     2.4870   -17.5090 
  148.8750   144.7470    21.2150    14.5080    50.2650    13.4110    12.9430    10.9940    22.3060     2.4870   -17.4240 
  149.0000   144.8610    21.2600    14.5340    52.3420    13.5920    13.0120    11.4840    22.2890     2.5000   -17.4180 
  149.1250   144.9750    21.3040    14.5590    55.2610    14.1580    13.4380    12.5130    22.2880     2.5210   -17.5130 
  149.2500   145.0890    21.3490    14.5840    54.9790    15.0040    14.1450    13.9870    22.3000     2.5400   -17.6250 
  149.3750   145.2030    21.3930    14.6100    52.1330    16.0070    15.0370    15.2720    22.3310     2.5500   -17.6620 
  149.5000   145.3160    21.4380    14.6350    50.4700    16.9950    15.9560    16.1170    22.3640     2.5480   -17.7410 
  149.6250   145.4300    21.4820    14.6600    51.8530    17.7460    16.6720    16.4220    22.3820     2.5370   -17.7840 
  149.7500   145.5440    21.5270    14.6860    54.2930    18.1960    17.0890    16.2860    22.3460     2.5250   -17.7410 
  149.8750   145.6580    21.5720    14.7110    56.1680    18.3840    17.2340    16.6430    22.2770     2.5200   -17.7160 
  150.0000   145.7720    21.6160    14.7360    57.2340    18.4300    17.2240    16.8200    22.2320     2.5250   -17.6990 
  150.1250   145.8740    21.6780    14.7730    55.8410    18.4860    17.2110    17.1340    22.2200     2.5360   -17.6250 
  150.2500   145.9760    21.7390    14.8100    53.4150    18.6280    17.2770    16.3470    22.2220     2.5450   -17.5460 
  150.3750   146.0780    21.8010    14.8470    52.3070    18.8430    17.4150    16.0790    22.2230     2.5490   -17.5050 
  150.5000   146.1800    21.8630    14.8840    53.5900    19.0760    17.5740    16.0960    22.2170     2.5460   -17.4680 
  150.6250   146.2820    21.9240    14.9210    57.5980    19.2720    17.6940    16.1870    22.1980     2.5370   -17.4280 
  150.7500   146.3830    21.9860    14.9580    62.7060    19.4370    17.7790    15.3220    22.1710     2.5310   -17.3890 
  150.8750   146.4850    22.0480    14.9950    67.1520    19.6070    17.8680    15.1060    22.1590     2.5290   -17.3190 
  151.0000   146.5870    22.1090    15.0320    69.3420    19.8190    18.0010    15.8570    22.1670     2.5350   -17.3350 
  151.1250   146.6890    22.1710    15.0690    69.1400    20.0790    18.1960    17.1160    22.1810     2.5450   -17.4140 
  151.2500   146.7910    22.2330    15.1060    68.4030    20.3240    18.3990    18.3400    22.1870     2.5520   -17.4590 
  151.3750   146.8930    22.2940    15.1430    68.1670    20.4700    18.5270    18.7430    22.1580     2.5500   -17.5610 
  151.5000   146.9950    22.3560    15.1800    68.3720    20.4470    18.5020    17.5530    22.0990     2.5400   -17.6410 
  151.6250   147.0970    22.4180    15.2170    65.1670    20.2130    18.2720    16.4460    22.0490     2.5270   -17.7260 
  151.7500   147.1990    22.4790    15.2540    59.8840    19.8780    17.9320    15.9970    22.0300     2.5190   -17.8650 
  151.8750   147.3010    22.5410    15.2910    56.8930    19.5590    17.5820    16.0630    22.0270     2.5170   -17.9970 
  152.0000   147.4030    22.6030    15.3280    58.5440    19.3560    17.3200    16.7330    22.0270     2.5210   -18.0470 
  152.1250   147.5050    22.6640    15.3650    61.8230    19.3240    17.2110    17.1920    22.0270     2.5270   -18.1980 
  152.2500   147.6070    22.7260    15.4020    62.7610    19.3540    17.1840    17.3520    22.0270     2.5300   -18.5100 
  152.3750   147.7090    22.7880    15.4390    61.5350    19.3170    17.1280    16.8720    22.0270     2.5290   -18.6800 
  152.5000   147.8110    22.8490    15.4760    59.2720    19.1060    16.9410    16.0040    22.0270     2.5250   -18.8170 
  152.6250   147.9130    22.9110    15.5130    57.3910    18.6690    16.5570    15.3850    22.0270     2.5200   -19.0670 
  152.7500   148.0150    22.9730    15.5500    56.5020    18.1260    16.0750    14.9100    22.0230     2.5170   -19.2510 
  152.8750   148.1170    23.0340    15.5870    56.7710    17.5970    15.5960    14.6150    22.0100     2.5190   -19.4230 
  153.0000   148.2190    23.0960    15.6240    58.0630    17.1750    15.2040    14.5720    21.9790     2.5280   -19.6360 
  153.1250   148.3210    23.1580    15.6610    58.8920    16.8960    14.9470    14.6270    21.9680     2.5380   -19.7270 
  153.2500   148.4230    23.2190    15.6980    57.1600    16.6440    14.7340    14.7780    21.9800     2.5470   -19.8180 
  153.3750   148.5250    23.2810    15.7350    56.0300    16.2700    14.4230    13.8670    22.0060     2.5510   -20.0520 
  153.5000   148.6270    23.3430    15.7720    59.1380    15.6350    13.8760    12.4250    22.0220     2.5480   -20.4060 
  153.6250   148.7290    23.4040    15.8090    65.7920    14.6380    12.9910    11.4170    22.0260     2.5360   -20.8440 
  153.7500   148.8310    23.4660    15.8460    72.9340    13.4150    11.8910    10.4850    22.0190     2.5190   -21.3330 
  153.8750   148.9330    23.5280    15.8830    79.5390    12.1130    10.7090     9.1330    22.0060     2.4960   -21.9080 
