~V
VERS. 2.00: Ver 2.00
~W
STRT.M 63.0000:
STOP.M 266.0000:
STEP.M 0.1250:
NULL. -999.2500:
UWI. FD10888:
~C
DEPT.M :
TVD. :
DX. :
DY. :
SP.MV :
GR.API :
RI. :
RML.OHMM :
RXO.OHMM :
DEN.GM/CC :
~A
# ...
  190.7500   189.8290    -7.1940    -8.7450   -24.5070    63.8150     7.9300     8.8280    11.0120     2.3280 
  190.8750   189.9500    -7.2130    -8.7680   -25.0830    65.2760     8.3270     9.2610    11.1390     2.3160 
  191.0000   190.0710    -7.2320    -8.7910   -25.5940    65.1850     8.5040     9.4280    11.0030     2.3000 
  191.1250   190.1930    -7.2510    -8.8140   -26.0510    61.3650     8.6020     9.4940    12.0710     2.2730 
  191.2500   190.3140    -7.2700    -8.8370   -26.3920    57.3290     8.7920     9.6620    12.2490     2.2410 
  191.3750   190.4360    -7.2880    -8.8600   -26.6150    55.5040     9.0810     9.9750    10.6690     2.2190 
  191.5000   190.5570    -7.3070    -8.8840   -26.7430    56.2240     9.4090    10.3730    10.0270     2.2130 
  191.6250   190.6780    -7.3260    -8.9070   -26.8690    58.1280     9.6000    10.6400    11.5660     2.2140 
  191.7500   190.8000    -7.3440    -8.9300   -27.0330    58.6830     9.4530    10.5740    12.7740     2.2100 
  191.8750   190.9210    -7.3630    -8.9530   -27.1970    58.9300     8.9800    10.0840    11.5170     2.1960 
  192.0000   191.0430    -7.3820    -8.9770   -27.3640    60.0450     8.3090     9.2840     9.1580     2.1790 
  192.1250   191.1640    -7.4010    -9.0000   -27.5640    61.7900     7.5790     8.4320     7.4970     2.1650 
  192.2500   191.2850    -7.4200    -9.0230   -27.7690    61.3070     7.0030     7.7420     6.7530     2.1580 
  192.3750   191.4070    -7.4390    -9.0460   -27.9250    58.2300     6.6440     7.3650     6.4570     2.1620 
  192.5000   191.5280    -7.4580    -9.0700   -27.9300    56.2680     6.4390     7.1820     6.3410     2.1790 
  192.6250   191.6490    -7.4770    -9.0930   -27.8200    58.3910     6.4070     7.1600     6.6340     2.2040 
  192.7500   191.7710    -7.4960    -9.1160   -27.6700    60.9730     6.5240     7.2990     7.0690     2.2270 
  192.8750   191.8920    -7.5150    -9.1390   -27.5230    61.4060     6.7820     7.6010     7.2860     2.2330 
  193.0000   192.0130    -7.5340    -9.1630   -27.3630    61.2350     7.1750     8.0460     7.5920     2.2190 
  193.1250   192.1350    -7.5530    -9.1860   -27.2220    60.6380     7.6520     8.5450     8.2610     2.1880 
  193.2500   192.2560    -7.5720    -9.2100   -27.1000    57.8740     8.1050     9.0200     9.0520     2.1530 
  193.3750   192.3770    -7.5910    -9.2330   -26.9810    55.3010     8.4200     9.3210     9.4950     2.1300 
  193.5000   192.4990    -7.6100    -9.2560   -26.8480    56.1330     8.5480     9.4260     9.2860     2.1260 
  193.6250   192.6200    -7.6290    -9.2800   -26.6790    57.7820     8.5070     9.3730     8.8090     2.1400 
  193.7500   192.7410    -7.6480    -9.3030   -26.4590    56.5650     8.3680     9.2280     8.6840     2.1590 
  193.8750   192.8620    -7.6670    -9.3260   -26.1820    55.3120     8.1990     9.0810     8.7660     2.1720 
  194.0000   192.9840    -7.6870    -9.3500   -25.9520    56.8720     8.0400     8.9730     8.7140     2.1710 
  194.1250   193.1050    -7.7060    -9.3730   -25.8020    58.1040     7.9020     8.8950     8.7730     2.1550 
  194.2500   193.2260    -7.7250    -9.3970   -25.6930    55.9710     7.7750     8.8210     9.1190     2.1330 
  194.3750   193.3470    -7.7440    -9.4200   -25.6220    54.0860     7.6240     8.6610     9.3610     2.1180 
  194.5000   193.4690    -7.7640    -9.4430   -25.6200    53.3940     7.4260     8.4180     9.1630     2.1140 
  194.6250   193.5900    -7.7830    -9.4670   -25.6600    55.7530     7.1880     8.1200     8.5610     2.1220 
  194.7500   193.7110    -7.8020    -9.4910   -25.6990    59.7620     6.9570     7.8370     7.8800     2.1400 
  194.8750   193.8320    -7.8210    -9.5140   -25.8120    62.8530     6.8140     7.7110     7.4430     2.1640 
  195.0000   193.9540    -7.8410    -9.5380   -25.8980    61.4540     6.8240     7.7450     7.3940     2.1930 
  195.1250   194.0750    -7.8600    -9.5620   -25.9170    58.7160     6.9690     7.9340     8.0210     2.2200 
  195.2500   194.1960    -7.8790    -9.5850   -25.8720    57.8180     7.1790     8.2070     9.0870     2.2410 
  195.3750   194.3170    -7.8990    -9.6090   -25.8590    57.6580     7.3810     8.4660     9.4790     2.2490 
  195.5000   194.4380    -7.9180    -9.6330   -25.8260    57.3060     7.4850     8.6450     8.9190     2.2450 
  195.6250   194.5600    -7.9370    -9.6560   -25.7930    56.7790     7.4500     8.6910     8.5130     2.2300 
  195.7500   194.6810    -7.9570    -9.6800   -25.7800    55.0470     7.2890     8.5250     8.8140     2.2080 
  195.8750   194.8020    -7.9760    -9.7030   -25.7470    54.2010     7.0000     8.1210     9.1080     2.1820 
  196.0000   194.9230    -7.9960    -9.7270   -25.7040    56.9910     6.7090     7.6810     9.0870     2.1550 
  196.1250   195.0440    -8.0150    -9.7510   -25.6460    61.6280     6.5170     7.3760     8.8640     2.1330 
  196.2500   195.1660    -8.0350    -9.7740   -25.5260    63.0870     6.4000     7.2490     8.1270     2.1200 
  196.3750   195.2870    -8.0540    -9.7980   -25.2950    59.9580     6.2390     7.1240     7.3680     2.1230 
  196.5000   195.4080    -8.0740    -9.8220   -25.0290    57.1890     5.8720     6.7300     7.3990     2.1430 
  196.6250   195.5290    -8.0930    -9.8450   -24.7160    57.5620     5.2880     6.0460     7.5120     2.1790 
  196.7500   195.6500    -8.1120    -9.8690   -24.3760    60.0480     4.5760     5.2000     6.6660     2.2210 
  196.8750   195.7720    -8.1320    -9.8930   -24.0130    61.3930     3.8730     4.3780     5.1000     2.2620 
  197.0000   195.8930    -8.1510    -9.9160   -23.6460    61.9070     3.3130     3.7500     3.8890     2.2940 
  197.1250   196.0140    -8.1710    -9.9400   -23.3850    65.5090     2.9310     3.3580     3.5240     2.3200 
  197.2500   196.1350    -8.1900    -9.9630   -23.2200    71.7460     2.7470     3.2090     3.5060     2.3440 
  197.3750   196.2560    -8.2100    -9.9870   -23.0560    74.2850     2.6890     3.1900     3.4200     2.3690 
  197.5000   196.3780    -8.2290   -10.0110   -22.7470    71.7280     2.6630     3.1820     3.4050     2.3950 
  197.6250   196.4990    -8.2490   -10.0340   -22.3440    68.8670     2.6190     3.1180     3.5480     2.4150 
  197.7500   196.6200    -8.2680   -10.0580   -22.0910    69.6390     2.5700     3.0240     3.5780     2.4220 
  197.8750   196.7410    -8.2880   -10.0820   -22.0960    71.6600     2.5570     2.9690     3.3660     2.4080 
  198.0000   196.8620    -8.3070   -10.1050   -22.3910    72.4670     2.6020     2.9830     3.0960     2.3740 
  198.1250   196.9830    -8.3270   -10.1290   -22.8950    69.9090     2.7150     3.0960     3.0620     2.3290 
  198.2500   197.1050    -8.3460   -10.1530   -23.5590    66.0440     2.8890     3.3130     3.4420     2.2820 
  198.3750   197.2260    -8.3660   -10.1760   -24.3310    62.7420     3.0760     3.5610     4.0360     2.2440 
  198.5000   197.3470    -8.3850   -10.2000   -25.0660    60.8880     3.2370     3.7730     4.3420     2.2170 
  198.6250   197.4680    -8.4050   -10.2240   -25.5190    61.1040     3.3210     3.8730     4.2560     2.2030 
  198.7500   197.5890    -8.4240   -10.2480   -25.6060    61.7940     3.3210     3.8440     4.1390     2.2030 
  198.8750   197.7100    -8.4440   -10.2710   -25.5110    63.6330     3.2650     3.7370     4.1190     2.2140 
  199.0000   197.8320    -8.4630   -10.2950   -25.3000    65.9110     3.1910     3.5850     4.0850     2.2300 
  199.1250   197.9530    -8.4830   -10.3190   -25.0100    68.1770     3.1210     3.4320     3.9990     2.2440 
  199.2500   198.0740    -8.5020   -10.3430   -24.7150    70.2020     3.0510     3.3110     3.9460     2.2520 
  199.3750   198.1950    -8.5220   -10.3670   -24.4750    72.9820     2.9910     3.2440     3.9830     2.2490 
  199.5000   198.3160    -8.5410   -10.3910   -24.3130    75.7890     2.9550     3.2440     4.0590     2.2370 
  199.6250   198.4370    -8.5610   -10.4140   -24.2290    72.8550     2.9550     3.2730     4.1300     2.2240 
  199.7500   198.5590    -8.5800   -10.4380   -24.1750    66.1910     3.0010     3.3250     4.1800     2.2190 
