~V
VERS. 2.00: Ver 2.00
~W
STRT.M 40.0000:
STOP.M 276.0000:
STEP.M 0.1250:
NULL. -999.2500:
UWI. FD10882:
~C
DEPT.M :
TVD. :
DX. :
DY. :
SP.MV :
GR.API :
RI. :
RML.OHMM :
RXO.OHMM :
DEN.GM/CC :
~A
# ...
  204.2500   193.6980   -39.0070   -29.6620    -2.7930    81.7630     2.6010     3.4930     3.1310     2.3510 
  204.3750   193.8060   -39.0580   -29.6990    -2.7950    80.2330     2.6020     3.4750     3.2830     2.3620 
  204.5000   193.9140   -39.1090   -29.7360    -2.8030    80.6360     2.5840     3.4340     3.3460     2.3720 
  204.6250   194.0220   -39.1600   -29.7720    -2.8550    80.2110     2.5570     3.3860     3.2560     2.3810 
  204.7500   194.1300   -39.2110   -29.8090    -2.9380    79.6500     2.5220     3.3290     3.0790     2.3830 
  204.8750   194.2380   -39.2620   -29.8460    -2.9660    78.0010     2.4890     3.2920     2.9380     2.3830 
  205.0000   194.3460   -39.3130   -29.8830    -2.9640    77.8470     2.4630     3.2750     2.8910     2.3740 
  205.1250   194.4530   -39.3650   -29.9200    -2.9250    78.4010     2.4480     3.2700     2.9310     2.3630 
  205.2500   194.5610   -39.4160   -29.9570    -2.9230    79.8400     2.4600     3.2940     3.0330     2.3570 
  205.3750   194.6690   -39.4670   -29.9940    -2.8610    80.6490     2.4830     3.3250     3.1850     2.3600 
  205.5000   194.7770   -39.5190   -30.0310    -2.9120    81.6580     2.5170     3.3660     3.3380     2.3750 
  205.6250   194.8850   -39.5700   -30.0680    -3.0060    80.6500     2.5410     3.3930     3.4100     2.3850 
  205.7500   194.9930   -39.6210   -30.1050    -3.0770    78.8320     2.5550     3.4080     3.3800     2.3910 
  205.8750   195.1000   -39.6730   -30.1420    -3.0850    77.6120     2.5580     3.4090     3.2970     2.3860 
  206.0000   195.2080   -39.7240   -30.1790    -3.0630    77.8590     2.5480     3.3970     3.2300     2.3900 
  206.1250   195.3160   -39.7750   -30.2160    -3.0830    77.9700     2.5330     3.3680     3.1870     2.3960 
  206.2500   195.4240   -39.8270   -30.2530    -3.0650    77.7180     2.5040     3.3310     3.1270     2.4020 
  206.3750   195.5310   -39.8780   -30.2900    -3.0380    78.5050     2.4660     3.2800     3.0370     2.3990 
  206.5000   195.6390   -39.9290   -30.3270    -3.0100    80.0570     2.4280     3.2290     2.9490     2.3910 
  206.6250   195.7470   -39.9810   -30.3640    -2.9890    81.8370     2.3980     3.1940     2.9170     2.3830 
  206.7500   195.8550   -40.0320   -30.4010    -2.9820    82.3060     2.3790     3.1730     2.9640     2.3800 
  206.8750   195.9620   -40.0840   -30.4380    -3.0140    80.3400     2.3680     3.1620     3.0550     2.3800 
  207.0000   196.0700   -40.1350   -30.4750    -3.0700    76.7680     2.3560     3.1510     3.1030     2.3800 
  207.1250   196.1780   -40.1870   -30.5120    -3.0980    74.1440     2.3370     3.1230     3.0530     2.3780 
  207.2500   196.2850   -40.2380   -30.5490    -3.0720    75.5710     2.3120     3.0810     2.9630     2.3750 
  207.3750   196.3930   -40.2900   -30.5870    -3.0260    78.6740     2.3050     3.0530     2.9390     2.3720 
  207.5000   196.5010   -40.3410   -30.6240    -2.9490    79.0690     2.3340     3.0800     3.0520     2.3650 
  207.6250   196.6090   -40.3920   -30.6610    -2.8150    76.5970     2.4170     3.1890     3.3170     2.3580 
  207.7500   196.7160   -40.4440   -30.6980    -2.6980    73.0550     2.5400     3.3650     3.6440     2.3610 
  207.8750   196.8240   -40.4950   -30.7360    -2.6360    70.2890     2.6880     3.5850     3.8950     2.3720 
  208.0000   196.9320   -40.5460   -30.7730    -2.6630    68.8390     2.8330     3.8050     4.0040     2.3750 
  208.1250   197.0400   -40.5980   -30.8100    -2.7660    69.1380     2.9590     4.0070     4.0230     2.3670 
  208.2500   197.1470   -40.6490   -30.8470    -2.8220    71.2180     3.0550     4.1620     4.0480     2.3560 
  208.3750   197.2550   -40.7010   -30.8830    -2.8380    71.8710     3.1210     4.2750     4.0890     2.3540 
  208.5000   197.3630   -40.7530   -30.9200    -2.8110    70.5390     3.1660     4.3630     4.1210     2.3510 
  208.6250   197.4710   -40.8040   -30.9570    -2.7900    68.6420     3.2060     4.4550     4.1700     2.3430 
  208.7500   197.5780   -40.8560   -30.9940    -2.7790    68.1420     3.2660     4.5810     4.2980     2.3350 
  208.8750   197.6860   -40.9070   -31.0310    -2.8010    68.2630     3.3380     4.7140     4.5080     2.3370 
  209.0000   197.7940   -40.9590   -31.0680    -2.8190    66.3550     3.4180     4.8550     4.7070     2.3440 
  209.1250   197.9020   -41.0100   -31.1040    -2.8970    64.0440     3.4920     4.9710     4.8560     2.3590 
  209.2500   198.0090   -41.0620   -31.1410    -3.0760    63.0300     3.5350     5.0490     5.0310     2.3800 
  209.3750   198.1170   -41.1130   -31.1780    -3.2670    64.7240     3.5670     5.1020     5.2110     2.3970 
  209.5000   198.2250   -41.1650   -31.2140    -3.4010    65.4380     3.5840     5.1340     5.2390     2.3980 
  209.6250   198.3330   -41.2160   -31.2510    -3.5060    65.1670     3.6030     5.1530     5.0640     2.3770 
  209.7500   198.4410   -41.2670   -31.2880    -3.5700    64.6540     3.6490     5.1900     4.8510     2.3530 
  209.8750   198.5490   -41.3190   -31.3250    -3.6180    64.8410     3.7470     5.2890     4.7420     2.3440 
  210.0000   198.6570   -41.3700   -31.3620    -3.6440    64.1620     3.8860     5.4460     4.7520     2.3500 
  210.1250   198.7650   -41.4210   -31.3990    -3.6530    62.9610     4.0630     5.6710     4.9080     2.3650 
  210.2500   198.8720   -41.4720   -31.4350    -3.6500    62.9310     4.2550     5.9220     5.2060     2.3710 
  210.3750   198.9800   -41.5240   -31.4720    -3.6690    64.2710     4.4130     6.1140     5.5820     2.3740 
  210.5000   199.0880   -41.5750   -31.5080    -3.7570    66.4390     4.5460     6.2670     5.8850     2.3690 
  210.6250   199.1960   -41.6260   -31.5450    -3.8350    67.7950     4.6510     6.3660     5.9760     2.3600 
  210.7500   199.3040   -41.6770   -31.5820    -3.8820    69.5960     4.7310     6.4270     5.9100     2.3340 
  210.8750   199.4120   -41.7280   -31.6190    -3.8390    72.2980     4.8000     6.4890     5.8590     2.3050 
  211.0000   199.5200   -41.7790   -31.6560    -3.7930    73.9130     4.8800     6.5670     5.9320     2.2790 
  211.1250   199.6280   -41.8300   -31.6930    -3.7330    74.0830     4.9790     6.7080     6.0990     2.2640 
  211.2500   199.7360   -41.8810   -31.7290    -3.7070    72.5630     5.0970     6.8520     6.2570     2.2450 
  211.3750   199.8440   -41.9330   -31.7660    -3.6460    72.1020     5.2150     6.9690     6.3390     2.2250 
  211.5000   199.9520   -41.9830   -31.8030    -3.5510    71.6030     5.3140     7.0450     6.3850     2.2070 
  211.6250   200.0600   -42.0340   -31.8400    -3.5060    71.6000     5.4110     7.1140     6.5680     2.2020 
  211.7500   200.1680   -42.0850   -31.8770    -3.4620    70.9780     5.5630     7.2850     7.0210     2.2020 
  211.8750   200.2760   -42.1370   -31.9140    -3.3680    70.1640     5.9250     7.7260     7.7250     2.2040 
  212.0000   200.3840   -42.1880   -31.9500    -3.2980    68.0510     6.4950     8.4570     8.9570     2.2070 
  212.1250   200.4920   -42.2390   -31.9870    -3.2890    64.5630     7.4150     9.6710    11.6890     2.2130 
  212.2500   200.6000   -42.2900   -32.0230    -3.3210    60.6700     8.4940    11.1430    16.7400     2.2180 
  212.3750   200.7080   -42.3410   -32.0600    -3.3020    59.1990     9.7530    12.8610    23.3210     2.2170 
  212.5000   200.8160   -42.3920   -32.0970    -3.2730    58.5960    10.7220    14.0690    28.1480     2.2100 
  212.6250   200.9240   -42.4440   -32.1330    -3.3050    60.1670    10.9600    14.1600    27.9620     2.2060 
  212.7500   201.0320   -42.4950   -32.1700    -3.4210    60.7380    10.5680    13.3250    23.3650     2.2020 
  212.8750   201.1400   -42.5460   -32.2070    -3.6900    62.9200     9.7180    11.8980    17.7300     2.1980 
  213.0000   201.2480   -42.5970   -32.2440    -4.0270    64.0970     8.8750    10.6120    14.1160     2.1840 
  213.1250   201.3560   -42.6480   -32.2800    -4.3750    65.4380     8.3280     9.8100    12.8490     2.1600 
  213.2500   201.4640   -42.7000   -32.3170    -4.6130    65.5140     8.1340     9.5290    12.3210     2.1260 
