~V
VERS. 2.00: Ver 2.00
~W
STRT.M 20.0000:
STOP.M 206.0000:
STEP.M 0.1250:
NULL. -999.2500:
UWI. FD10809:
~C
DEPT.M :
TVD. :
DX. :
DY. :
SP.MV :
GR.API :
RI. :
RML.OHMM :
DEN.GM/CC :
RXO.OHMM :
~A
# ...
   74.7500    73.8130     1.2650     7.7040   -22.4670    51.6220     4.7620     5.6140     2.1030     8.3040 
   74.8750    73.9300     1.2730     7.7480   -22.4460    52.7780     4.7170     5.5310     2.0940     8.6710 
   75.0000    74.0470     1.2800     7.7920   -22.2640    55.1400     4.6650     5.4400     2.0820     8.7680 
   75.1250    74.1640     1.2880     7.8360   -21.9160    56.3110     4.6170     5.3560     2.0750     8.4560 
   75.2500    74.2800     1.2960     7.8800   -21.3350    57.3210     4.5880     5.3040     2.0820     7.8090 
   75.3750    74.3970     1.3040     7.9240   -20.5240    58.0460     4.5920     5.2890     2.0920     7.2980 
   75.5000    74.5130     1.3110     7.9690   -19.4930    58.8830     4.6250     5.3020     2.1010     7.3130 
   75.6250    74.6300     1.3190     8.0130   -18.4240    59.0920     4.6590     5.3220     2.1150     7.8040 
   75.7500    74.7470     1.3270     8.0580   -17.3210    60.5980     4.6990     5.3420     2.1340     8.0290 
   75.8750    74.8630     1.3350     8.1030   -16.0690    63.6850     4.7310     5.3430     2.1530     7.4910 
   76.0000    74.9790     1.3420     8.1470   -14.4970    69.0370     4.7080     5.2920     2.1640     6.7660 
   76.1250    75.0960     1.3500     8.1920   -12.7250    75.1680     4.6200     5.1700     2.1730     6.6250 
   76.2500    75.2120     1.3580     8.2370   -10.8610    83.4610     4.4330     4.9620     2.1920     6.8720 
   76.3750    75.3280     1.3660     8.2830    -8.9970    91.1160     4.1880     4.7010     2.2240     6.2750 
   76.5000    75.4450     1.3730     8.3280    -7.3690    97.7810     3.9340     4.4410     2.2550     5.0940 
   76.6250    75.5610     1.3810     8.3740    -6.1880   100.2720     3.7200     4.2250     2.2750     4.5630 
   76.7500    75.6770     1.3890     8.4190    -5.5400    99.8950     3.5680     4.0810     2.2810     4.3700 
   76.8750    75.7930     1.3960     8.4650    -5.2000    98.3950     3.4760     4.0000     2.2850     4.2550 
   77.0000    75.9090     1.4040     8.5110    -5.1330    98.9860     3.4240     3.9520     2.2880     4.2700 
   77.1250    76.0250     1.4120     8.5570    -5.0870   101.2420     3.3760     3.8940     2.2880     4.0890 
   77.2500    76.1410     1.4190     8.6030    -5.1930   103.0340     3.3170     3.8090     2.2830     3.8950 
   77.3750    76.2570     1.4270     8.6490    -5.3910   102.7860     3.2640     3.7440     2.2800     3.8270 
   77.5000    76.3730     1.4340     8.6950    -5.7050   101.3340     3.3400     3.8700     2.2930     4.1290 
   77.6250    76.4880     1.4420     8.7420    -6.1560    98.4250     3.7860     4.4020     2.3280     4.7670 
   77.7500    76.6040     1.4490     8.7890    -6.7400    92.9260     4.7340     5.5210     2.3810     5.7020 
   77.8750    76.7200     1.4570     8.8360    -7.4160    85.7340     6.1480     7.0780     2.4170    14.1680 
   78.0000    76.8350     1.4640     8.8820    -8.2020    77.8580     7.6180     8.6020     2.3960    34.6110 
   78.1250    76.9510     1.4710     8.9300    -9.0620    73.1250     8.5000     9.4610     2.3210    50.3690 
   78.2500    77.0660     1.4790     8.9770    -9.9260    72.4050     8.3970     9.2210     2.2370    43.9460 
   78.3750    77.1820     1.4860     9.0240   -10.8040    76.5680     7.4200     8.1300     2.1890    23.4380 
   78.5000    77.2970     1.4930     9.0720   -11.5610    81.3990     6.1520     6.7750     2.1800     9.2640 
   78.6250    77.4130     1.5010     9.1190   -12.2670    85.4830     5.2130     5.7770     2.1770     6.6220 
   78.7500    77.5280     1.5080     9.1670   -12.6080    86.3420     4.8470     5.3800     2.1630     7.3840 
   78.8750    77.6430     1.5150     9.2150   -12.4490    86.8410     4.8270     5.3710     2.1490     7.3040 
   79.0000    77.7580     1.5220     9.2630   -11.8160    85.8440     4.9220     5.5040     2.1450     6.9170 
   79.1250    77.8730     1.5300     9.3110   -11.0440    85.5330     4.9920     5.6160     2.1470     6.6760 
   79.2500    77.9890     1.5370     9.3600   -10.3110    85.2340     5.0090     5.6570     2.1520     6.4610 
   79.3750    78.1040     1.5440     9.4080    -9.5710    86.6440     4.9650     5.6080     2.1570     6.2570 
   79.5000    78.2180     1.5510     9.4570    -8.8330    88.2630     4.7990     5.4250     2.1640     5.8980 
   79.6250    78.3330     1.5580     9.5050    -8.1050    91.3590     4.5240     5.1240     2.1770     5.4450 
   79.7500    78.4480     1.5650     9.5540    -7.5350    94.4390     4.2140     4.7570     2.1970     5.3020 
   79.8750    78.5630     1.5720     9.6030    -7.2360    98.5500     3.9280     4.4360     2.2200     5.1250 
   80.0000    78.6780     1.5790     9.6520    -7.2040   101.8390     3.8280     4.3570     2.2450     4.6780 
   80.1250    78.7920     1.5860     9.7020    -7.3090   103.2380     4.0930     4.7110     2.2820     4.5950 
   80.2500    78.9070     1.5930     9.7510    -7.7320   101.3140     4.8790     5.6690     2.3440     4.9380 
   80.3750    79.0210     1.6000     9.8010    -8.4270    96.6320     6.1110     7.0710     2.4030     9.1000 
   80.5000    79.1360     1.6070     9.8510    -9.3160    89.7970     7.4620     8.5370     2.4150    19.2100 
   80.6250    79.2500     1.6140     9.9000   -10.3680    82.9810     8.4810     9.5100     2.3610    26.8240 
   80.7500    79.3650     1.6210     9.9500   -11.4930    77.5480     8.5190     9.4970     2.2690    29.6420 
   80.8750    79.4790     1.6280    10.0010   -12.6180    75.4760     7.8110     8.6730     2.1890    26.2960 
   81.0000    79.5930     1.6350    10.0510   -13.6040    76.8620     6.7110     7.5010     2.1490    14.6970 
   81.1250    79.7070     1.6420    10.1010   -14.4820    79.3140     5.8130     6.5670     2.1350     7.6570 
   81.2500    79.8210     1.6500    10.1520   -15.1970    80.2240     5.4650     6.1920     2.1290     7.5820 
   81.3750    79.9360     1.6570    10.2020   -15.8510    79.0360     5.4760     6.2110     2.1220     7.8230 
   81.5000    80.0500     1.6640    10.2530   -16.3450    76.6770     5.6160     6.3860     2.1130     8.0300 
   81.6250    80.1640     1.6710    10.3040   -16.6600    75.0380     5.7370     6.5430     2.1090     7.8520 
   81.7500    80.2770     1.6780    10.3550   -16.9740    73.3910     5.8100     6.6300     2.1030     7.4350 
   81.8750    80.3910     1.6850    10.4060   -17.3060    72.4290     5.8230     6.6410     2.0960     6.9920 
   82.0000    80.5050     1.6920    10.4570   -17.7000    71.0350     5.7690     6.5830     2.0890     6.8670 
   82.1250    80.6190     1.6990    10.5080   -17.9900    70.5310     5.6950     6.4970     2.0910     7.2820 
   82.2500    80.7330     1.7060    10.5600   -18.1740    71.5890     5.6240     6.4080     2.0960     7.4400 
   82.3750    80.8460     1.7130    10.6110   -18.2940    72.9600     5.5550     6.3380     2.0970     7.0690 
   82.5000    80.9600     1.7200    10.6630   -18.3640    73.2780     5.5200     6.2980     2.0950     6.8700 
   82.6250    81.0730     1.7270    10.7150   -18.3570    71.9020     5.4880     6.2790     2.0920     6.9850 
   82.7500    81.1870     1.7340    10.7670   -18.3510    69.8520     5.4630     6.2690     2.0940     7.1690 
   82.8750    81.3000     1.7410    10.8190   -18.3930    68.8860     5.4360     6.2630     2.0940     7.1620 
   83.0000    81.4140     1.7480    10.8710   -18.4730    70.1050     5.4190     6.2610     2.0920     7.1150 
   83.1250    81.5270     1.7550    10.9230   -18.5710    73.0540     5.4170     6.2720     2.0900     7.2300 
   83.2500    81.6400     1.7620    10.9760   -18.6620    75.2460     5.4450     6.3080     2.0910     7.2910 
   83.3750    81.7530     1.7690    11.0280   -18.7190    75.6110     5.4940     6.3500     2.0970     7.3390 
   83.5000    81.8670     1.7760    11.0810   -18.6670    74.6660     5.5210     6.3620     2.1020     7.6040 
   83.6250    81.9800     1.7830    11.1340   -18.5960    73.0850     5.5250     6.3360     2.1030     8.0080 
   83.7500    82.0930     1.7900    11.1870   -18.4320    71.1340     5.4940     6.2860     2.1000     8.2470 
