~V
VERS. 2.00: Ver 2.00
~W
STRT.M 55.0000:
STOP.M 289.0000:
STEP.M 0.1250:
NULL. -999.2500:
UWI. FD10909:
~C
DEPT.M :
TVD. :
DX. :
DY. :
SP.MV :
GR.API :
RI. :
RML.OHMM :
RXO.OHMM :
DEN.GM/CC :
~A
# ...
   73.2500    73.2460     0.3540    -0.1530    -8.2020   113.0450     2.9410     4.1910     3.3140     2.2940 
   73.3750    73.3700     0.3580    -0.1530    -7.7740   111.7280     2.9670     4.2180     3.2890     2.2890 
   73.5000    73.4950     0.3620    -0.1540    -7.4450   111.6570     3.0060     4.2600     3.3420     2.2880 
   73.6250    73.6200     0.3670    -0.1540    -7.1980   110.7460     3.0280     4.2840     3.3980     2.2970 
   73.7500    73.7450     0.3710    -0.1550    -7.0190   110.6350     3.0240     4.2790     3.4130     2.3140 
   73.8750    73.8700     0.3750    -0.1550    -6.8880   109.5510     3.0050     4.2600     3.4040     2.3250 
   74.0000    73.9950     0.3790    -0.1560    -6.8000   110.9690     2.9900     4.2440     3.4090     2.3210 
   74.1250    74.1200     0.3840    -0.1560    -6.7440   114.1660     3.0160     4.2720     3.4240     2.3110 
   74.2500    74.2450     0.3880    -0.1560    -6.7040   116.7780     3.1530     4.4170     3.5050     2.3080 
   74.3750    74.3700     0.3920    -0.1570    -6.6590   115.6110     3.4220     4.7050     3.7620     2.3210 
   74.5000    74.4950     0.3970    -0.1570    -6.5920   110.2770     3.7800     5.0870     4.7920     2.3500 
   74.6250    74.6200     0.4010    -0.1570    -6.5100   103.0720     4.1110     5.4400     7.2620     2.3830 
   74.7500    74.7450     0.4060    -0.1580    -6.4400    94.4590     4.2990     5.6410     9.4960     2.4000 
   74.8750    74.8700     0.4100    -0.1580    -6.4070    87.3350     4.3030     5.6460     8.7390     2.3910 
   75.0000    74.9950     0.4150    -0.1580    -6.4280    85.9940     4.1420     5.4730     5.9270     2.3570 
   75.1250    75.1190     0.4190    -0.1580    -6.4900    88.4970     3.9180     5.2350     4.1670     2.3170 
   75.2500    75.2440     0.4240    -0.1580    -6.5680    91.2080     3.7460     5.0510     3.9500     2.2850 
   75.3750    75.3690     0.4280    -0.1580    -6.6560    89.4090     3.6890     4.9890     4.1380     2.2610 
   75.5000    75.4940     0.4330    -0.1580    -6.7650    85.5570     3.7630     5.0690     4.3230     2.2400 
   75.6250    75.6190     0.4380    -0.1580    -6.9170    81.6900     3.9400     5.2580     4.5640     2.2240 
   75.7500    75.7440     0.4420    -0.1580    -7.1290    78.6480     4.2980     5.6400     4.8970     2.2240 
   75.8750    75.8690     0.4470    -0.1580    -7.3820    75.1420     4.9440     6.3740     5.5250     2.2530 
   76.0000    75.9940     0.4520    -0.1580    -7.6420    72.3640     6.0090     7.6930     7.1940     2.3210 
   76.1250    76.1190     0.4570    -0.1580    -7.8630    71.3200     7.5500     9.5200    10.0610     2.4120 
   76.2500    76.2440     0.4620    -0.1570    -8.0050    71.8700     9.6180    11.7720    13.2540     2.5010 
   76.3750    76.3690     0.4660    -0.1570    -8.0700    71.4200    11.9560    14.2690    16.0240     2.5700 
   76.5000    76.4930     0.4710    -0.1570    -8.0820    71.5300    14.0040    16.4570    18.6950     2.6120 
   76.6250    76.6180     0.4760    -0.1560    -8.0910    73.2820    15.1380    17.6680    21.3160     2.6270 
   76.7500    76.7430     0.4810    -0.1560    -8.1510    75.1750    14.8480    17.3580    22.8000     2.6090 
   76.8750    76.8680     0.4860    -0.1550    -8.2890    74.1490    13.3840    15.7950    21.7240     2.5590 
   77.0000    76.9930     0.4910    -0.1550    -8.5210    72.3700    11.2660    13.5320    17.5470     2.4800 
   77.1250    77.1180     0.4960    -0.1540    -8.8330    73.4550     9.1470    11.2100    12.6000     2.3850 
   77.2500    77.2430     0.5010    -0.1540    -9.2130    78.1870     7.4600     9.1670     9.3390     2.2970 
   77.3750    77.3680     0.5060    -0.1530    -9.6260    81.6810     6.3120     7.7000     7.9060     2.2300 
   77.5000    77.4930     0.5110    -0.1520   -10.0340    81.7580     5.6880     6.9750     7.3090     2.1900 
   77.6250    77.6180     0.5160    -0.1520   -10.3980    78.9330     5.3990     6.6660     6.6500     2.1640 
   77.7500    77.7420     0.5210    -0.1510   -10.6860    76.2590     5.3050     6.5660     5.9880     2.1390 
   77.8750    77.8670     0.5260    -0.1500   -10.9020    74.0670     5.2700     6.5280     5.7310     2.1150 
   78.0000    77.9920     0.5310    -0.1490   -11.0630    72.2640     5.2280     6.4840     5.7090     2.1020 
   78.1250    78.1170     0.5360    -0.1480   -11.2020    70.4900     5.1670     6.4190     5.5120     2.1030 
   78.2500    78.2420     0.5420    -0.1480   -11.3450    70.1080     5.1020     6.3490     5.3110     2.1110 
   78.3750    78.3670     0.5470    -0.1470   -11.5020    70.3280     5.0560     6.3000     5.4790     2.1160 
   78.5000    78.4920     0.5520    -0.1460   -11.6730    70.8910     5.0450     6.2880     6.0160     2.1140 
   78.6250    78.6170     0.5570    -0.1450   -11.8500    71.5870     5.0610     6.3050     6.5360     2.1050 
   78.7500    78.7420     0.5620    -0.1450   -12.0180    72.0810     5.0840     6.3290     6.7550     2.0890 
   78.8750    78.8660     0.5680    -0.1440   -12.1610    72.2740     5.0920     6.3380     6.7660     2.0700 
   79.0000    78.9910     0.5730    -0.1430   -12.2550    73.4670     5.0750     6.3200     6.7840     2.0580 
   79.1250    79.1160     0.5780    -0.1420   -12.2960    74.4170     5.0390     6.2820     6.8390     2.0620 
   79.2500    79.2410     0.5840    -0.1410   -12.2960    74.6390     4.9970     6.2370     6.7410     2.0830 
   79.3750    79.3660     0.5890    -0.1400   -12.2950    73.8210     4.9610     6.1980     6.4390     2.1090 
   79.5000    79.4910     0.5950    -0.1400   -12.3370    72.9000     4.9460     6.1820     6.1990     2.1270 
   79.6250    79.6160     0.6000    -0.1390   -12.4530    72.9690     4.9570     6.1940     6.3070     2.1320 
   79.7500    79.7410     0.6050    -0.1380   -12.6590    71.6610     4.9960     6.2350     6.6950     2.1290 
   79.8750    79.8650     0.6110    -0.1370   -12.9300    71.5170     5.0480     6.2910     7.0510     2.1250 
   80.0000    79.9900     0.6170    -0.1360   -13.2290    69.9030     5.0970     6.3430     7.2080     2.1230 
   80.1250    80.1150     0.6220    -0.1350   -13.5070    68.4330     5.1280     6.3770     7.1810     2.1200 
   80.2500    80.2400     0.6280    -0.1340   -13.7290    66.0700     5.1330     6.3820     7.0720     2.1160 
   80.3750    80.3650     0.6340    -0.1330   -13.8940    65.6220     5.1230     6.3710     6.9970     2.1120 
   80.5000    80.4900     0.6390    -0.1330   -14.0020    65.7180     5.1100     6.3570     6.9430     2.1100 
   80.6250    80.6150     0.6450    -0.1320   -14.0660    67.7850     5.0860     6.3310     6.8940     2.1100 
   80.7500    80.7400     0.6510    -0.1310   -14.0780    69.1390     5.0200     6.2610     6.9380     2.1130 
   80.8750    80.8640     0.6570    -0.1300   -14.0330    70.1740     4.8900     6.1230     7.0370     2.1170 
   81.0000    80.9890     0.6630    -0.1290   -13.9230    69.7390     4.6880     5.9070     6.8730     2.1210 
   81.1250    81.1140     0.6690    -0.1280   -13.7580    70.7890     4.4620     5.6650     6.3520     2.1310 
   81.2500    81.2390     0.6750    -0.1270   -13.5570    74.4710     4.2900     5.4810     5.8740     2.1500 
   81.3750    81.3640     0.6810    -0.1260   -13.3460    78.8270     4.2290     5.4160     5.6670     2.1750 
   81.5000    81.4890     0.6870    -0.1250   -13.1560    82.4230     4.3160     5.5090     5.7260     2.1940 
   81.6250    81.6130     0.6930    -0.1240   -13.0200    83.2330     4.5250     5.7330     6.2050     2.2000 
   81.7500    81.7380     0.7000    -0.1230   -12.9800    82.1180     4.8180     6.0460     6.9190     2.1910 
   81.8750    81.8630     0.7060    -0.1220   -13.0480    78.4460     5.1140     6.3620     7.3290     2.1770 
   82.0000    81.9880     0.7120    -0.1210   -13.2240    74.7510     5.3230     6.5850     7.3950     2.1650 
   82.1250    82.1130     0.7190    -0.1200   -13.4630    72.2900     5.4110     6.6790     7.4170     2.1600 
   82.2500    82.2380     0.7250    -0.1190   -13.7100    71.2360     5.3810     6.6470     7.5090     2.1580 
