~V
VERS. 2.00: Ver 2.00
~W
STRT.M 1.0000:
STOP.M 198.0000:
STEP.M 0.1250:
NULL. -999.2500:
UWI. FD10802:
~C
DEPT.M :
TVD. :
DX. :
DY. :
SP.MV :
GR.API :
RI. :
RML.OHMM :
RXO.OHMM :
DEN.GM/CC :
~A
# ...
  128.7500   126.5430    -9.7070    11.9140   -16.1310    89.6200     4.4760     5.0710     4.8710     2.2550 
  128.8750   126.6590    -9.7400    11.9470   -16.2800    81.5980     5.6900     6.6460     7.1760     2.3100 
  129.0000   126.7750    -9.7720    11.9790   -16.4560    72.0560     7.7100     8.9370    11.8580     2.3860 
  129.1250   126.8910    -9.8050    12.0120   -16.5850    63.4670    10.2640    11.4400    14.9350     2.4560 
  129.2500   127.0070    -9.8380    12.0440   -16.6760    58.6870    12.3110    13.5190    14.4960     2.4860 
  129.3750   127.1240    -9.8700    12.0770   -16.7470    56.0300    13.5500    14.6560    13.5250     2.4830 
  129.5000   127.2400    -9.9030    12.1100   -16.7650    56.1510    13.7400    14.7670    13.4460     2.4580 
  129.6250   127.3560    -9.9360    12.1420   -16.7460    55.9500    13.4270    14.4590    13.6250     2.4420 
  129.7500   127.4720    -9.9680    12.1750   -16.7680    56.1800    13.2120    14.2500    15.8010     2.4370 
  129.8750   127.5880   -10.0010    12.2080   -16.8580    56.9410    13.1560    14.2500    16.8770     2.4410 
  130.0000   127.7040   -10.0340    12.2400   -16.9560    59.3710    13.0720    14.2900    16.0430     2.4520 
  130.1250   127.8200   -10.0670    12.2730   -16.9790    63.4710    13.1040    14.4850    15.6320     2.4650 
  130.2500   127.9360   -10.1000    12.3060   -16.9230    66.9300    13.3890    14.9540    16.1870     2.4750 
  130.3750   128.0520   -10.1330    12.3380   -16.7950    67.5000    13.9820    15.7660    16.5210     2.4740 
  130.5000   128.1680   -10.1660    12.3710   -16.7080    64.9560    15.0890    17.1830    18.6310     2.4790 
  130.6250   128.2840   -10.1990    12.4040   -16.7810    61.2060    16.7870    19.2480    22.2170     2.4920 
  130.7500   128.4000   -10.2320    12.4360   -16.8970    57.5940    18.5890    21.3560    23.2120     2.5150 
  130.8750   128.5170   -10.2650    12.4690   -17.0170    55.9800    20.1700    23.1460    25.5670     2.5360 
  131.0000   128.6330   -10.2980    12.5020   -17.0390    57.1180    21.0460    24.0430    30.2780     2.5370 
  131.1250   128.7490   -10.3310    12.5350   -17.0200    58.4770    20.8260    23.5700    29.5970     2.5170 
  131.2500   128.8650   -10.3640    12.5680   -17.0270    59.0780    19.4280    21.7770    26.2380     2.4850 
  131.3750   128.9810   -10.3970    12.6010   -17.1040    58.3490    17.6180    19.5310    24.0770     2.4600 
  131.5000   129.0970   -10.4300    12.6340   -17.3390    58.6900    15.6550    17.1960    20.3450     2.4460 
  131.6250   129.2130   -10.4630    12.6660   -17.5270    57.2400    14.3780    15.7840    16.3490     2.4430 
  131.7500   129.3280   -10.4960    12.6990   -17.6170    54.2680    13.7720    15.1760    14.1270     2.4500 
  131.8750   129.4440   -10.5290    12.7320   -17.6010    50.7850    13.7240    15.2400    14.4810     2.4530 
  132.0000   129.5600   -10.5620    12.7650   -17.6190    49.9880    14.1360    15.8170    15.4020     2.4430 
  132.1250   129.6760   -10.5950    12.7980   -17.5940    50.8470    14.8830    16.7300    14.3170     2.4180 
  132.2500   129.7920   -10.6280    12.8310   -17.5640    52.6190    15.7270    17.6770    13.8910     2.3990 
  132.3750   129.9080   -10.6620    12.8640   -17.5220    54.1740    16.2860    18.2230    15.2360     2.3900 
  132.5000   130.0240   -10.6950    12.8960   -17.4690    54.4720    16.5350    18.4320    17.3420     2.3910 
  132.6250   130.1400   -10.7280    12.9290   -17.4020    54.6980    16.7160    18.5850    20.1780     2.3920 
  132.7500   130.2560   -10.7610    12.9620   -17.2680    54.6770    17.0140    18.9060    20.6550     2.4030 
  132.8750   130.3720   -10.7950    12.9950   -17.1470    54.8500    17.6090    19.6480    17.6010     2.4250 
  133.0000   130.4880   -10.8280    13.0280   -17.1790    52.7640    18.5730    20.8810    15.7300     2.4570 
  133.1250   130.6040   -10.8610    13.0610   -17.2620    50.6320    19.8510    22.5440    18.6790     2.4830 
  133.2500   130.7200   -10.8940    13.0940   -17.2730    49.8290    20.8480    23.7890    24.5940     2.4960 
  133.3750   130.8360   -10.9280    13.1270   -17.2200    51.1990    20.9070    23.8160    27.4670     2.4910 
  133.5000   130.9510   -10.9610    13.1600   -17.1030    52.0710    19.8730    22.4790    23.8420     2.4760 
  133.6250   131.0670   -10.9940    13.1930   -17.0500    53.0140    17.9550    20.0840    18.6340     2.4590 
  133.7500   131.1830   -11.0280    13.2260   -16.9430    53.7550    16.2460    18.0750    16.0550     2.4480 
  133.8750   131.2990   -11.0610    13.2590   -16.8320    55.2000    15.1490    16.8390    15.1010     2.4420 
  134.0000   131.4150   -11.0940    13.2920   -16.7130    55.0260    14.7020    16.4070    15.2290     2.4440 
  134.1250   131.5310   -11.1270    13.3250   -16.6110    53.3760    14.6510    16.4420    16.5750     2.4510 
  134.2500   131.6470   -11.1610    13.3580   -16.6020    51.3700    14.8000    16.6680    18.1740     2.4740 
  134.3750   131.7620   -11.1940    13.3920   -16.6100    50.4370    14.8170    16.6690    17.2490     2.4980 
  134.5000   131.8780   -11.2270    13.4250   -16.6800    51.6650    14.6990    16.5240    15.3650     2.5110 
  134.6250   131.9940   -11.2600    13.4580   -16.7250    53.7430    14.5400    16.3070    15.5800     2.5060 
  134.7500   132.1100   -11.2940    13.4910   -16.7790    55.9460    14.2400    15.9530    15.8500     2.4860 
  134.8750   132.2260   -11.3270    13.5240   -16.8230    56.5740    13.9630    15.6200    15.4480     2.4680 
  135.0000   132.3420   -11.3600    13.5570   -16.8660    57.2720    13.5790    15.1600    15.6640     2.4590 
  135.1250   132.4570   -11.3940    13.5900   -16.8590    58.3130    13.1450    14.6390    15.1030     2.4560 
  135.2500   132.5730   -11.4270    13.6230   -16.8500    60.7340    12.7370    14.1860    13.6700     2.4510 
  135.3750   132.6890   -11.4610    13.6560   -16.8820    61.4930    12.5540    14.0360    13.2220     2.4490 
  135.5000   132.8050   -11.4950    13.6890   -16.9430    59.6710    12.5650    14.1290    13.2580     2.4510 
  135.6250   132.9210   -11.5280    13.7220   -16.9760    55.4480    12.7670    14.4510    13.3420     2.4490 
  135.7500   133.0360   -11.5620    13.7550   -16.8930    52.9510    13.0460    14.8340    13.8690     2.4440 
  135.8750   133.1520   -11.5950    13.7880   -16.8090    52.4600    13.3370    15.2020    14.3890     2.4390 
  136.0000   133.2680   -11.6290    13.8210   -16.7460    52.7980    13.5570    15.4640    14.7440     2.4460 
  136.1250   133.3840   -11.6630    13.8540   -16.7100    51.2390    13.7070    15.6400    14.7730     2.4590 
  136.2500   133.5000   -11.6960    13.8870   -16.5370    48.9260    13.7500    15.7070    14.5070     2.4760 
  136.3750   133.6150   -11.7300    13.9200   -16.3570    46.0430    13.6480    15.6150    14.4920     2.4860 
  136.5000   133.7310   -11.7640    13.9540   -16.1870    44.5670    13.4240    15.3720    14.5130     2.4930 
  136.6250   133.8470   -11.7970    13.9870   -16.2310    44.1380    13.0700    14.9650    14.5090     2.4910 
  136.7500   133.9620   -11.8310    14.0200   -16.4050    45.5660    12.6980    14.5340    14.5600     2.4840 
  136.8750   134.0780   -11.8650    14.0530   -16.6500    46.8910    12.3220    14.0950    13.9070     2.4720 
  137.0000   134.1940   -11.8980    14.0860   -16.9110    48.6260    12.0230    13.7700    13.1640     2.4620 
  137.1250   134.3100   -11.9320    14.1200   -17.0020    50.7410    11.7830    13.5070    13.6760     2.4520 
  137.2500   134.4250   -11.9660    14.1530   -16.9650    52.9270    11.5650    13.2620    14.5330     2.4420 
  137.3750   134.5410   -12.0000    14.1860   -16.8360    53.4320    11.4200    13.1180    14.1420     2.4360 
  137.5000   134.6570   -12.0330    14.2190   -16.7620    52.2870    11.3730    13.0980    13.3020     2.4390 
  137.6250   134.7720   -12.0670    14.2530   -16.6650    50.6530    11.3120    13.0670    13.0850     2.4480 
  137.7500   134.8880   -12.1010    14.2860   -16.4430    50.1970    11.2630    13.0590    12.9550     2.4560 
