~V
VERS. 2.00: Ver 2.00
~W
STRT.M 33.0000:
STOP.M 287.0000:
STEP.M 0.1250:
NULL. -999.2500:
UWI. FD10889:
~C
DEPT.M :
TVD. :
DX. :
DY. :
SP.MV :
GR.API :
RI. :
RML.OHMM :
RXO.OHMM :
DEN.GM/CC :
~A
# ...
   96.8750    96.1740    -7.3560    -3.1530   -18.2340    73.8790     5.5980     6.4470     6.1050     2.1930 
   97.0000    96.2950    -7.3840    -3.1700   -18.2330    77.8180     5.3720     6.1640     5.6070     2.1980 
   97.1250    96.4150    -7.4130    -3.1870   -18.3400    79.0640     5.1070     5.8390     5.7680     2.2030 
   97.2500    96.5360    -7.4410    -3.2040   -18.4740    76.7510     4.9370     5.6360     5.6130     2.2030 
   97.3750    96.6560    -7.4700    -3.2210   -18.5290    75.0200     4.9440     5.6870     5.0460     2.1960 
   97.5000    96.7770    -7.4990    -3.2380   -18.4820    73.7810     5.2110     6.1160     4.9050     2.1810 
   97.6250    96.8970    -7.5280    -3.2550   -18.3770    70.7780     5.6950     6.7930     5.6210     2.1590 
   97.7500    97.0170    -7.5560    -3.2730   -18.1820    65.9300     6.3140     7.6110     6.6030     2.1390 
   97.8750    97.1380    -7.5850    -3.2900   -17.8170    64.5830     6.8320     8.2080     7.2160     2.1290 
   98.0000    97.2580    -7.6140    -3.3070   -17.4530    66.3300     7.1170     8.4740     7.4580     2.1320 
   98.1250    97.3780    -7.6430    -3.3250   -17.1870    67.9780     7.2440     8.5450     7.3040     2.1440 
   98.2500    97.4990    -7.6730    -3.3420   -16.7430    69.3350     7.4010     8.7170     7.5740     2.1580 
   98.3750    97.6190    -7.7020    -3.3600   -16.1860    70.7430     8.0460     9.4200    10.3490     2.1720 
   98.5000    97.7390    -7.7310    -3.3770   -15.4440    69.5150     9.3750    11.1620    12.1450     2.1830 
   98.6250    97.8590    -7.7600    -3.3950   -14.7280    68.6370    11.3590    13.8540    13.1300     2.1870 
   98.7500    97.9800    -7.7900    -3.4130   -14.1060    70.6100    13.7240    17.0100    17.6390     2.1810 
   98.8750    98.1000    -7.8190    -3.4300   -13.3480    73.3950    15.5200    19.4500    18.1170     2.1650 
   99.0000    98.2200    -7.8480    -3.4480   -12.6600    73.5510    16.3790    20.3510    19.1650     2.1480 
   99.1250    98.3400    -7.8770    -3.4660   -12.1210    71.4230    16.1820    19.8220    18.7580     2.1330 
   99.2500    98.4600    -7.9070    -3.4840   -11.5870    66.0280    15.4500    18.6780    16.6950     2.1220 
   99.3750    98.5810    -7.9360    -3.5030   -11.1920    59.4620    14.8300    17.7830    16.7090     2.1130 
   99.5000    98.7010    -7.9650    -3.5210   -10.9650    56.7330    14.6420    17.4590    16.4680     2.1050 
   99.6250    98.8210    -7.9940    -3.5400   -10.8870    57.0710    14.8650    17.5730    15.7840     2.0970 
   99.7500    98.9410    -8.0230    -3.5580   -11.0360    57.0630    15.2860    17.8430    15.8610     2.0900 
   99.8750    99.0610    -8.0520    -3.5770   -11.1310    55.2600    15.7020    18.0820    18.5360     2.0840 
  100.0000    99.1810    -8.0810    -3.5960   -11.2660    53.9470    16.0250    18.3160    19.7100     2.0800 
  100.1250    99.3010    -8.1100    -3.6150   -11.5440    54.4020    16.3700    18.7120    17.4090     2.0760 
  100.2500    99.4210    -8.1390    -3.6340   -11.9280    56.1340    16.6150    18.9560    17.2440     2.0740 
  100.3750    99.5410    -8.1690    -3.6530   -12.6360    57.3120    15.5900    17.9810    17.2980     2.0770 
  100.5000    99.6620    -8.1980    -3.6720   -13.4300    56.9570    13.3400    15.2990    20.1690     2.0920 
  100.6250    99.7820    -8.2270    -3.6910   -14.3040    57.6000    10.3730    11.7150    14.1570     2.1230 
  100.7500    99.9020    -8.2560    -3.7110   -15.4470    61.6760     7.4280     8.2710    11.7740     2.1650 
  100.8750   100.0220    -8.2850    -3.7300   -16.4710    69.0190     5.7050     6.0770     7.4880     2.2040 
  101.0000   100.1410    -8.3140    -3.7500   -17.1850    75.2420     4.7010     5.0370     4.9040     2.2280 
  101.1250   100.2610    -8.3440    -3.7690   -17.4480    75.9020     4.2180     4.5940     4.6430     2.2390 
  101.2500   100.3810    -8.3730    -3.7890   -17.4480    72.1510     4.1210     4.5920     4.6680     2.2420 
  101.3750   100.5010    -8.4030    -3.8080   -17.2310    68.6280     4.4380     5.0350     4.4080     2.2360 
  101.5000   100.6210    -8.4320    -3.8270   -17.0510    67.6870     5.0050     5.7110     4.6380     2.2180 
  101.6250   100.7410    -8.4620    -3.8470   -16.7050    67.6110     5.5940     6.3750     5.7150     2.1930 
  101.7500   100.8610    -8.4920    -3.8660   -16.2630    68.0520     6.1140     6.9210     7.1700     2.1770 
  101.8750   100.9810    -8.5210    -3.8860   -16.1220    70.3640     6.5820     7.3570     7.9050     2.1870 
  102.0000   101.1010    -8.5510    -3.9050   -16.1080    72.9730     7.1140     7.8390     7.1990     2.2260 
  102.1250   101.2200    -8.5810    -3.9250   -16.0440    73.9730     7.9280     8.5760     7.8730     2.2850 
  102.2500   101.3400    -8.6110    -3.9440   -15.7440    73.9420     9.4600    10.2950    13.6240     2.3340 
  102.3750   101.4600    -8.6410    -3.9640   -15.3390    73.1770    11.4350    12.7240    21.6390     2.3440 
  102.5000   101.5800    -8.6710    -3.9840   -14.9170    70.3170    13.0050    14.6900    23.7380     2.2980 
  102.6250   101.6990    -8.7010    -4.0030   -14.7390    62.9920    13.1880    15.3590    18.4770     2.2220 
  102.7500   101.8190    -8.7310    -4.0230   -14.8910    55.3900    11.6600    13.5440    13.0810     2.1640 
  102.8750   101.9390    -8.7610    -4.0430   -15.4300    53.0350     9.1820    10.6540    10.4280     2.1480 
  103.0000   102.0590    -8.7910    -4.0630   -16.2140    59.0620     7.0860     8.0510     8.1420     2.1680 
  103.1250   102.1780    -8.8210    -4.0820   -16.9190    69.2130     5.7280     6.3560     5.9720     2.1960 
  103.2500   102.2980    -8.8510    -4.1020   -17.4750    75.7100     5.1510     5.8400     4.9700     2.2080 
  103.3750   102.4180    -8.8810    -4.1220   -17.8340    73.9540     5.0100     5.8470     5.2420     2.2030 
  103.5000   102.5370    -8.9110    -4.1430   -17.9230    70.3770     5.1230     6.0920     5.9610     2.1910 
  103.6250   102.6570    -8.9410    -4.1630   -17.8610    69.6330     5.2370     6.2510     6.1980     2.1850 
  103.7500   102.7770    -8.9710    -4.1830   -17.6770    69.6990     5.2500     6.2020     5.8610     2.1890 
  103.8750   102.8960    -9.0010    -4.2040   -17.4610    68.4350     5.2850     6.2000     5.4070     2.1980 
  104.0000   103.0160    -9.0310    -4.2240   -17.2610    68.4050     5.4980     6.4370     5.1860     2.2010 
  104.1250   103.1350    -9.0620    -4.2440   -17.0580    69.6370     6.0710     7.1320     6.7970     2.1900 
  104.2500   103.2550    -9.0920    -4.2650   -16.8090    68.9740     7.0250     8.3180    11.1080     2.1640 
  104.3750   103.3740    -9.1220    -4.2850   -16.5870    67.1430     8.1080     9.6090    13.1910     2.1350 
  104.5000   103.4940    -9.1530    -4.3060   -16.6680    64.5780     8.8060    10.3860    10.8480     2.1180 
  104.6250   103.6130    -9.1830    -4.3260   -16.9050    58.9500     8.9320    10.4930     8.9380     2.1160 
  104.7500   103.7330    -9.2140    -4.3470   -17.0900    54.4210     8.4910     9.9460     8.6190     2.1280 
  104.8750   103.8520    -9.2450    -4.3670   -17.3390    57.8000     7.7510     9.0900     7.9600     2.1430 
  105.0000   103.9710    -9.2760    -4.3880   -17.7110    67.6580     6.9460     8.2240     7.0210     2.1550 
  105.1250   104.0910    -9.3070    -4.4090   -18.1360    73.2580     6.2490     7.4530     6.7730     2.1660 
  105.2500   104.2100    -9.3370    -4.4290   -18.4460    70.7580     5.6200     6.7380     7.0280     2.1780 
  105.3750   104.3290    -9.3680    -4.4500   -18.6960    67.7150     5.1260     6.1700     6.6100     2.1920 
  105.5000   104.4490    -9.3990    -4.4720   -19.0260    70.6170     4.8420     5.8240     5.8210     2.2090 
  105.6250   104.5680    -9.4300    -4.4930   -19.5810    76.6570     4.7560     5.7280     5.4510     2.2270 
  105.7500   104.6870    -9.4610    -4.5140   -20.1590    81.4020     5.0190     6.1760     5.3380     2.2500 
  105.8750   104.8060    -9.4920    -4.5350   -20.5030    83.1490     5.5290     6.9030     6.2330     2.2760 
