~V
VERS. 2.00: Ver 2.00
~W
STRT.M 30.0000:
STOP.M 210.0000:
STEP.M 0.1250:
NULL. -999.2500:
UWI. FD10800:
~C
DEPT.M :
TVD. :
DX. :
DY. :
SP.MV :
GR.API :
RI. :
RML.OHMM :
RXO.OHMM :
DEN.GM/CC :
~A
# ...
  203.3750   190.0870   -53.4260     8.0260   -17.9040    65.2770     6.2870     7.0430     5.6610     2.3250 
  203.5000   190.1930   -53.4920     8.0280   -17.9040    65.2770     6.2870     7.0450     6.1930     2.3570 
  203.6250   190.3000   -53.5570     8.0300   -17.9040    65.2770     6.2870     7.0460     6.3920     2.3720 
  203.7500   190.4060   -53.6220     8.0330   -17.9040    65.2770     6.2870     7.0480     6.9360     2.3720 
  203.8750   190.5130   -53.6880     8.0350   -17.9040    65.2770     6.2870     7.0490     7.1440     2.3640 
  204.0000   190.6200   -53.7530     8.0370   -17.9040    65.2770     6.2870     7.0500     6.4340     2.3530 
  204.1250   190.7260   -53.8180     8.0400   -17.9040    65.2770     6.2870     7.0520     5.6110     2.3400 
  204.2500   190.8330   -53.8840     8.0420   -17.9040    65.2770     6.2680     7.0390     5.6970     2.3350 
  204.3750   190.9390   -53.9490     8.0440   -17.9040    65.2770     6.2440     7.0220     6.4600     2.3310 
  204.5000   191.0460   -54.0140     8.0470   -17.9040    65.2770     6.2200     7.0040     6.8190     2.3320 
  204.6250   191.1520   -54.0790     8.0490   -17.9040    65.2770     6.2010     6.9890     6.4230     2.3320 
  204.7500   191.2590   -54.1450     8.0510   -17.9040    65.2770     6.2010     6.9890     5.7810     2.3290 
  204.8750   191.3650   -54.2100     8.0540   -17.9040    65.2770     6.2010     6.9890     5.4490     2.3100 
  205.0000   191.4720   -54.2750     8.0560   -17.9040    65.2770     6.2010     6.9890     5.3540     2.2990 
  205.1250   191.5790   -54.3410     8.0590   -17.9040    65.2770     6.2010     6.9890     5.4420     2.3070 
  205.2500   191.6850   -54.4060     8.0610   -17.9040    65.2770     6.2010     6.9890     5.7920     2.3210 
  205.3750   191.7920   -54.4710     8.0630   -17.9040    65.2770     6.2010     6.9890     5.9840     2.3040 
  205.5000   191.8980   -54.5370     8.0660   -17.9040    65.2770     6.2010     6.9890     5.7780     2.2490 
  205.6250   192.0050   -54.6020     8.0680   -17.9040    65.2770     6.2010     6.9890     5.3520     2.2000 
  205.7500   192.1110   -54.6670     8.0700   -17.9040    65.2770     6.2010     6.9890     5.0820     2.1830 
  205.8750   192.2180   -54.7330     8.0730   -17.9040    65.2770     6.2010     6.9890     4.6960     2.2020 
  206.0000   192.3240   -54.7980     8.0750   -17.9040    65.2770     6.2010     6.9890     3.9140     2.2220 
  206.1250   192.4310   -54.8630     8.0770   -17.9040    65.2770     6.2010     6.9890     3.3730     2.2360 
  206.2500   192.5370   -54.9290     8.0800   -17.9040    65.2770     6.2010     6.9890     3.2500     2.2400 
  206.3750   192.6440   -54.9940     8.0820   -17.9040    65.2770     6.2010     6.9890     3.2370     2.2410 
  206.5000   192.7510   -55.0590     8.0840   -17.9040    65.2770     6.2010     6.9890     3.2360     2.2430 
  206.6250   192.8570   -55.1240     8.0870   -17.9040    65.2770     6.2010     6.9890     3.2360     2.2400 
  206.7500   192.9640   -55.1900     8.0890   -17.9040    65.2770     6.2010     6.9890     3.2360     2.2360 
  206.8750   193.0700   -55.2550     8.0920   -17.9040    65.2770     6.2010     6.9890     3.2360     2.2300 
  207.0000   193.1770   -55.3200     8.0940   -17.9040    65.2770     6.2010     6.9890     3.2360     2.2310 
  207.1250   193.2830   -55.3860     8.0960   -17.9040    65.2770     6.2010     6.9890     3.2350     2.2310 
  207.2500   193.3900   -55.4510     8.0990   -17.9040    65.2770     6.2010     6.9890     3.2350     2.2300 
  207.3750   193.4960   -55.5160     8.1010   -17.9040    65.2770     6.2010     6.9890     3.2350     2.2310 
  207.5000   193.6030   -55.5820     8.1030   -17.9040    65.2770     6.2010     6.9890     3.2350     2.2380 
  207.6250   193.7100   -55.6470     8.1060   -17.9040    65.2770     6.2010     6.9890     3.2350     2.2470 
  207.7500   193.8160   -55.7120     8.1080   -17.9040    65.2770     6.2010     6.9890     3.2350     2.2470 
  207.8750   193.9230   -55.7780     8.1100   -17.9040    65.2770     6.2010     6.9890     3.2340     2.2390 
  208.0000   194.0290   -55.8430     8.1130   -17.9040    65.2770     6.2010     6.9890     3.2340     2.2330 
  208.1250   194.1360   -55.9080     8.1150   -17.9040    65.2770     6.2010     6.9890     3.2340     2.2280 
  208.2500   194.2420   -55.9740     8.1170   -17.9040    65.2770     6.2010     6.9890     3.2340     2.2290 
  208.3750   194.3490   -56.0390     8.1200   -17.9040    65.2770     6.2010     6.9890     3.2340     2.2290 
  208.5000   194.4550   -56.1040     8.1220   -17.9040    65.2770     6.2010     6.9890     3.2340     2.2380 
  208.6250   194.5620   -56.1690     8.1250   -17.9040    65.2770     6.2010     6.9890     3.2340     2.2430 
  208.7500   194.6690   -56.2350     8.1270   -17.9040    65.2770     6.2010     6.9890     3.2340     2.2470 
  208.8750   194.7750   -56.3000     8.1290   -17.9040    65.2770     6.2010     6.9890     3.2330     2.2470 
  209.0000   194.8820   -56.3650     8.1320   -17.9040    65.2770     6.2010     6.9890     3.2330     2.2470 
  209.1250   194.9880   -56.4310     8.1340   -17.9040    65.2770     6.2010     6.9890     3.2330     2.2470 
  209.2500   195.0950   -56.4960     8.1360   -17.9040    65.2770     6.2010     6.9890     3.2330     2.2470 
  209.3750   195.2010   -56.5610     8.1380   -17.9040    65.2770     6.2010     6.9890     3.2330     2.2470 
  209.5000   195.3080   -56.6270     8.1400   -18.0240    65.2770     6.2010     6.9890     3.2330     2.2470 
  209.6250   195.4140   -56.6920     8.1430   -18.0240    65.2770     6.2010     6.9890     3.2330     2.2470 
  209.7500   195.5210   -56.7570     8.1460   -18.0240    65.2770     6.2010     6.9890     3.2090     2.2470 
  209.8750   195.6280   -56.8230     8.1490   -18.0240    65.2770     6.2010     6.9890     3.1360     2.2470 
  210.0000   195.7340   -56.8880     8.1520   -18.0240    65.2770     6.2010     6.9890     3.0640     2.2470 
