~V
VERS. 2.00: Ver 2.00
~W
STRT.M 24.0000:
STOP.M 269.0000:
STEP.M 0.1250:
NULL. -999.2500:
UWI. FD10666:
~C
DEPT.M :
TVD. :
DX. :
DY. :
GR.API :
RML.OHMM :
RI. :
RXO.OHMM :
CALI.CM :
DEN.GM/CC :
SP.MV :
~A
# ...
  164.2500   158.4150    30.8540    16.1110    47.0900    17.6500    16.7590    14.9030    20.9460     2.5330    -6.5510 
  164.3750   158.5300    30.8990    16.1330    50.4060    17.4290    16.5470    15.7010    20.9470     2.5330    -6.6650 
  164.5000   158.6440    30.9440    16.1550    50.8810    17.4140    16.5450    15.7830    20.9480     2.5300    -6.7840 
  164.6250   158.7590    30.9900    16.1760    49.3860    17.6060    16.7500    14.5210    20.9490     2.5210    -6.8920 
  164.7500   158.8730    31.0350    16.1980    48.1010    17.9870    17.1240    13.2080    20.9490     2.5080    -6.9870 
  164.8750   158.9880    31.0800    16.2200    47.4160    18.5470    17.6590    12.7960    20.9490     2.4940    -7.0720 
  165.0000   159.1020    31.1250    16.2420    47.5250    19.2200    18.2990    13.3000    20.9490     2.4810    -7.1470 
  165.1250   159.2170    31.1700    16.2630    48.3230    19.8170    18.8910    14.3620    20.9470     2.4710    -7.2090 
  165.2500   159.3310    31.2160    16.2850    47.5730    20.1100    19.2270    15.2680    20.9420     2.4630    -7.2670 
  165.3750   159.4460    31.2610    16.3070    45.4800    19.9250    19.1310    16.1630    20.9350     2.4610    -7.3210 
  165.5000   159.5600    31.3060    16.3280    44.5490    19.2030    18.5240    16.3750    20.9340     2.4670    -7.3710 
  165.6250   159.6750    31.3510    16.3500    46.1650    18.0130    17.4390    15.5240    20.9540     2.4780    -7.4300 
  165.7500   159.7890    31.3960    16.3720    48.8140    16.7170    16.2060    14.3480    21.0060     2.4870    -7.5000 
  165.8750   159.9040    31.4420    16.3930    51.2680    15.6050    15.0910    13.2790    21.0920     2.4870    -7.5730 
  166.0000   160.0180    31.4870    16.4150    52.5770    14.8850    14.2970    12.4010    21.1930     2.4770    -7.6480 
  166.1250   160.1330    31.5320    16.4370    51.4960    14.7100    13.9910    11.7630    21.2670     2.4600    -7.7150 
  166.2500   160.2470    31.5770    16.4590    49.4360    14.9240    14.0750    11.8470    21.2920     2.4450    -7.7730 
  166.3750   160.3620    31.6220    16.4800    48.6960    15.3840    14.4480    12.9440    21.2990     2.4360    -7.8250 
  166.5000   160.4760    31.6680    16.5020    49.5070    15.9360    14.9770    14.5650    21.3090     2.4350    -7.8720 
  166.6250   160.5910    31.7130    16.5240    50.1080    16.4500    15.5230    15.4760    21.3310     2.4410    -7.9090 
  166.7500   160.7050    31.7580    16.5450    49.1670    16.8780    15.9910    15.3080    21.3640     2.4490    -7.9340 
  166.8750   160.8200    31.8030    16.5670    48.7950    17.2170    16.3530    14.5530    21.3990     2.4550    -7.9550 
  167.0000   160.9340    31.8480    16.5890    50.4510    17.4700    16.6020    14.0370    21.4240     2.4570    -7.9730 
  167.1250   161.0490    31.8940    16.6110    52.7290    17.5860    16.6970    14.3080    21.4320     2.4530    -7.9840 
  167.2500   161.1630    31.9390    16.6320    53.2780    17.5220    16.6150    14.5640    21.4340     2.4470    -7.9900 
  167.3750   161.2780    31.9840    16.6540    51.3770    17.2310    16.3200    14.6350    21.4340     2.4430    -7.9910 
  167.5000   161.3920    32.0290    16.6760    48.4190    16.7270    15.8260    15.0000    21.4310     2.4440    -7.9890 
  167.6250   161.5070    32.0740    16.6970    46.5100    16.1150    15.2180    15.2550    21.4250     2.4520    -7.9920 
  167.7500   161.6210    32.1200    16.7190    47.3480    15.6020    14.6720    14.8770    21.4250     2.4620    -8.0080 
  167.8750   161.7360    32.1650    16.7410    50.1470    15.3510    14.3310    13.5590    21.4500     2.4740    -8.0240 
  168.0000   161.8500    32.2100    16.7620    52.1590    15.4640    14.2920    12.5470    21.5060     2.4850    -8.0320 
  168.1250   161.9650    32.2550    16.7840    51.6120    15.9980    14.6350    12.5140    21.5930     2.4920    -8.0290 
  168.2500   162.0790    32.3000    16.8060    50.9890    16.7710    15.2380    13.3790    21.6600     2.4940    -8.0250 
  168.3750   162.1940    32.3460    16.8280    51.4160    17.6150    15.9770    14.2350    21.6480     2.4950    -8.0210 
  168.5000   162.3080    32.3910    16.8490    51.9210    18.3570    16.7080    14.4620    21.5210     2.4970    -8.0100 
  168.6250   162.4230    32.4360    16.8710    51.2330    18.8130    17.2540    14.4510    21.3440     2.5050    -7.9680 
  168.7500   162.5370    32.4810    16.8930    50.3210    18.9860    17.5610    14.5430    21.2500     2.5190    -7.8890 
  168.8750   162.6520    32.5260    16.9140    49.5530    18.9340    17.6390    14.3700    21.2280     2.5330    -7.7870 
  169.0000   162.7660    32.5720    16.9360    48.5720    18.7670    17.5520    14.0770    21.2370     2.5410    -7.6700 
  169.1250   162.8810    32.6170    16.9580    46.5410    18.6050    17.3870    13.9170    21.2570     2.5370    -7.5520 
  169.2500   162.9950    32.6620    16.9800    44.6320    18.5240    17.2430    13.9510    21.2760     2.5240    -7.4330 
  169.3750   163.1100    32.7070    17.0010    44.1630    18.5340    17.1640    13.8510    21.2880     2.5070    -7.3120 
  169.5000   163.2240    32.7520    17.0230    45.8360    18.6060    17.1610    13.6610    21.2920     2.4910    -7.1910 
  169.6250   163.3390    32.7980    17.0450    47.4960    18.6840    17.2090    13.7280    21.2920     2.4800    -7.0910 
  169.7500   163.4530    32.8430    17.0660    47.0730    18.7120    17.2500    14.2550    21.2920     2.4750    -7.0160 
  169.8750   163.5680    32.8880    17.0880    46.3520    18.6580    17.2420    14.9140    21.2920     2.4730    -6.9630 
  170.0000   163.6820    32.9330    17.1100    46.7780    18.5140    17.1610    15.0090    21.2930     2.4750    -6.9310 
  170.1250   163.7970    32.9780    17.1310    46.0980    18.3210    17.0250    14.5550    21.2940     2.4790    -6.9130 
  170.2500   163.9110    33.0240    17.1530    44.4020    18.1790    16.9140    14.0830    21.2930     2.4830    -6.9040 
  170.3750   164.0260    33.0690    17.1750    43.7460    18.1740    16.9050    13.7970    21.2860     2.4860    -6.9110 
  170.5000   164.1400    33.1140    17.1970    45.8250    18.3490    17.0500    13.8390    21.2740     2.4860    -6.9310 
  170.6250   164.2550    33.1590    17.2180    49.0610    18.6920    17.3600    14.1820    21.2590     2.4830    -6.9510 
  170.7500   164.3690    33.2040    17.2400    50.5700    19.0650    17.7230    14.8900    21.2520     2.4790    -6.9600 
  170.8750   164.4840    33.2500    17.2620    49.3240    19.3530    18.0330    15.8660    21.2670     2.4780    -6.9430 
  171.0000   164.5980    33.2950    17.2830    46.8350    19.4840    18.2020    16.8500    21.3060     2.4800    -6.9000 
  171.1250   164.7130    33.3400    17.3050    46.6910    19.4370    18.1780    16.8860    21.3560     2.4850    -6.8400 
  171.2500   164.8270    33.3850    17.3270    46.6410    19.3090    18.0420    15.8190    21.3950     2.4890    -6.7670 
  171.3750   164.9420    33.4310    17.3490    43.8320    19.1760    17.8740    14.3850    21.4190     2.4910    -6.6850 
  171.5000   165.0560    33.4760    17.3700    40.3590    19.0760    17.7360    13.6570    21.4280     2.4900    -6.5990 
  171.6250   165.1710    33.5210    17.3920    41.5990    18.9830    17.6400    14.2270    21.4340     2.4860    -6.5170 
  171.7500   165.2850    33.5660    17.4140    45.5440    18.8390    17.5370    15.2170    21.4460     2.4770    -6.4520 
  171.8750   165.4000    33.6110    17.4350    47.4140    18.6110    17.3820    16.0440    21.4730     2.4630    -6.4160 
  172.0000   165.5140    33.6570    17.4570    45.2070    18.3140    17.1630    16.6950    21.5120     2.4490    -6.4120 
  172.1250   165.6290    33.7020    17.4790    42.0250    18.0230    16.9270    16.7470    21.5560     2.4400    -6.4380 
  172.2500   165.7430    33.7470    17.5000    41.4070    17.8380    16.7630    16.2250    21.5920     2.4420    -6.4810 
  172.3750   165.8580    33.7920    17.5220    43.8120    17.8170    16.7300    15.2920    21.6180     2.4540    -6.5370 
