~V
VERS. 2.00: Ver 2.00
~W
STRT.M 62.0000:
STOP.M 282.0000:
STEP.M 0.1250:
NULL. -999.2500:
UWI. FD10887:
~C
DEPT.M :
TVD. :
DX. :
DY. :
SP.MV :
GR.API :
RI. :
RML.OHMM :
RXO.OHMM :
DEN.GM/CC :
~A
# ...
  189.7500   183.9310    -1.6320    32.4400   -20.3470    63.0980     1.9040     2.3030     2.2030     2.3350 
  189.8750   184.0390    -1.6310    32.5010   -20.2300    67.2270     1.8240     2.2050     2.1420     2.3290 
  190.0000   184.1480    -1.6300    32.5630   -20.0970    73.3740     1.7630     2.1180     2.1130     2.3200 
  190.1250   184.2570    -1.6290    32.6240   -19.9660    77.7980     1.7420     2.0720     2.2440     2.3130 
  190.2500   184.3660    -1.6290    32.6860   -19.8660    77.6760     1.7600     2.0750     2.4490     2.3100 
  190.3750   184.4750    -1.6280    32.7470   -19.8340    75.9030     1.8970     2.2050     2.7250     2.3140 
  190.5000   184.5840    -1.6280    32.8090   -19.8750    74.2040     2.1610     2.4980     3.3540     2.3330 
  190.6250   184.6920    -1.6270    32.8700   -19.9820    72.4100     2.6330     3.0500     4.0880     2.3730 
  190.7500   184.8010    -1.6270    32.9320   -20.1240    68.5490     3.2590     3.7920     5.5290     2.4300 
  190.8750   184.9100    -1.6270    32.9930   -20.2760    62.7340     4.0250     4.7160     7.8260     2.4870 
  191.0000   185.0190    -1.6260    33.0550   -20.4250    57.6670     4.8200     5.6620     8.9360     2.5170 
  191.1250   185.1280    -1.6260    33.1160   -20.5570    56.6460     5.2690     6.1200     8.5560     2.5020 
  191.2500   185.2370    -1.6260    33.1780   -20.6630    57.6170     5.3800     6.1510     8.1870     2.4570 
  191.3750   185.3450    -1.6250    33.2390   -20.7320    58.9080     5.1350     5.7440     7.9980     2.4010 
  191.5000   185.4540    -1.6250    33.3010   -20.7790    60.6620     4.7790     5.2460     6.8590     2.3500 
  191.6250   185.5630    -1.6240    33.3620   -20.8260    63.0060     4.5480     4.9620     5.5830     2.3080 
  191.7500   185.6720    -1.6240    33.4240   -20.8880    63.7630     4.4800     4.9070     5.4460     2.2780 
  191.8750   185.7810    -1.6230    33.4850   -20.9590    63.4700     4.5820     5.0390     5.7380     2.2590 
  192.0000   185.8890    -1.6220    33.5470   -21.0150    64.0490     4.8400     5.3620     6.0470     2.2460 
  192.1250   185.9980    -1.6210    33.6080   -21.0230    64.1900     5.2570     5.8380     6.3620     2.2330 
  192.2500   186.1070    -1.6210    33.6700   -20.9700    62.9800     5.7230     6.3570     6.5730     2.2180 
  192.3750   186.2160    -1.6200    33.7320   -20.8470    61.9880     6.2020     6.8810     6.8310     2.2040 
  192.5000   186.3250    -1.6190    33.7930   -20.6580    62.6300     6.6470     7.3480     7.3250     2.1930 
  192.6250   186.4330    -1.6180    33.8550   -20.4060    63.1210     7.0080     7.7280     7.8380     2.1860 
  192.7500   186.5420    -1.6180    33.9160   -20.1230    62.6190     7.3040     8.0160     7.9270     2.1830 
  192.8750   186.6510    -1.6170    33.9780   -19.8510    63.0540     7.5180     8.2360     7.7210     2.1840 
  193.0000   186.7600    -1.6170    34.0390   -19.6190    64.3280     7.6460     8.3890     7.6910     2.1870 
  193.1250   186.8690    -1.6160    34.1010   -19.4310    64.4110     7.6600     8.4760     7.9010     2.1930 
  193.2500   186.9780    -1.6150    34.1620   -19.2590    63.1340     7.5720     8.4480     8.1440     2.2010 
  193.3750   187.0860    -1.6140    34.2240   -19.0820    62.7440     7.3630     8.1860     8.1710     2.2090 
  193.5000   187.1950    -1.6140    34.2850   -18.8980    64.9410     7.0490     7.7780     7.9580     2.2180 
  193.6250   187.3040    -1.6130    34.3470   -18.7180    67.7060     6.6390     7.1840     7.7560     2.2250 
  193.7500   187.4130    -1.6120    34.4080   -18.5510    69.3080     6.1970     6.6120     7.4450     2.2300 
  193.8750   187.5220    -1.6120    34.4700   -18.4150    68.9160     5.7990     6.1560     6.8640     2.2320 
  194.0000   187.6300    -1.6110    34.5310   -18.3280    67.9420     5.4650     5.8050     6.3560     2.2330 
  194.1250   187.7390    -1.6100    34.5930   -18.3260    67.3100     5.1620     5.5030     6.1170     2.2370 
  194.2500   187.8480    -1.6100    34.6540   -18.4270    66.6970     4.8620     5.2120     6.1850     2.2480 
  194.3750   187.9570    -1.6090    34.7160   -18.6320    66.3220     4.5770     4.9110     6.2080     2.2630 
  194.5000   188.0660    -1.6080    34.7770   -18.8970    67.4050     4.3380     4.6470     5.7070     2.2730 
  194.6250   188.1740    -1.6080    34.8390   -19.1730    69.6530     4.2180     4.5160     5.0690     2.2730 
  194.7500   188.2830    -1.6070    34.9000   -19.4180    70.5370     4.2950     4.6110     4.8480     2.2670 
  194.8750   188.3920    -1.6070    34.9620   -19.6120    69.0080     4.5710     4.9620     5.1300     2.2610 
  195.0000   188.5010    -1.6060    35.0240   -19.7570    66.8240     4.9860     5.4660     6.0360     2.2630 
  195.1250   188.6100    -1.6060    35.0850   -19.8510    64.9020     5.3970     5.9550     8.3000     2.2680 
  195.2500   188.7180    -1.6050    35.1470   -19.9090    64.0500     5.7010     6.3230     9.8130     2.2710 
  195.3750   188.8270    -1.6040    35.2080   -19.9480    64.4050     5.7850     6.4200     8.2880     2.2640 
  195.5000   188.9360    -1.6030    35.2700   -20.0000    64.9280     5.6970     6.3200     6.5170     2.2510 
  195.6250   189.0450    -1.6030    35.3310   -20.0850    64.4070     5.5070     6.0840     6.4820     2.2400 
  195.7500   189.1540    -1.6020    35.3920   -20.1970    64.0620     5.3400     5.8740     7.2300     2.2370 
  195.8750   189.2630    -1.6020    35.4540   -20.3110    65.1000     5.3240     5.8350     7.3380     2.2440 
  196.0000   189.3710    -1.6010    35.5150   -20.4020    66.4610     5.4410     5.9450     6.4910     2.2600 
  196.1250   189.4800    -1.6000    35.5770   -20.4580    66.8630     5.6790     6.1960     5.9590     2.2800 
  196.2500   189.5890    -1.6000    35.6380   -20.4820    65.9920     6.0210     6.6130     6.6280     2.2950 
  196.3750   189.6980    -1.5990    35.7000   -20.4710    63.8740     6.3870     7.0620     7.6130     2.2960 
  196.5000   189.8070    -1.5980    35.7610   -20.4270    62.2410     6.4640     7.1490     7.5380     2.2810 
  196.6250   189.9160    -1.5970    35.8220   -20.3620    63.0080     6.1930     6.7710     7.0280     2.2590 
  196.7500   190.0250    -1.5960    35.8840   -20.2950    65.5740     5.7000     6.1300     6.5510     2.2440 
  196.8750   190.1340    -1.5950    35.9450   -20.2410    67.0900     5.1250     5.4270     5.4670     2.2430 
  197.0000   190.2430    -1.5940    36.0060   -20.1920    67.0010     4.6710     4.9070     4.7080     2.2530 
  197.1250   190.3520    -1.5930    36.0670   -20.1250    66.7690     4.3320     4.5360     5.9340     2.2650 
  197.2500   190.4610    -1.5920    36.1280   -20.0250    67.1490     4.0920     4.2630     7.0390     2.2780 
  197.3750   190.5700    -1.5910    36.1900   -19.8900    68.1570     4.0180     4.1750     5.6520     2.2900 
  197.5000   190.6790    -1.5900    36.2510   -19.7350    69.2690     4.0610     4.2190     4.2860     2.3020 
  197.6250   190.7880    -1.5880    36.3120   -19.5780    69.8020     4.2250     4.4210     4.6630     2.3090 
  197.7500   190.8970    -1.5870    36.3730   -19.4310    69.0400     4.4940     4.7590     5.7130     2.3070 
  197.8750   191.0060    -1.5860    36.4340   -19.3140    67.0610     4.8820     5.2160     6.6470     2.2960 
  198.0000   191.1150    -1.5850    36.4960   -19.2450    64.9970     5.1940     5.5340     6.8640     2.2810 
  198.1250   191.2240    -1.5830    36.5570   -19.2420    63.0860     5.3600     5.6750     6.4050     2.2710 
  198.2500   191.3330    -1.5820    36.6180   -19.2970    62.3240     5.4320     5.7050     6.0280     2.2700 
  198.3750   191.4420    -1.5810    36.6790   -19.3860    63.4980     5.5230     5.7940     5.8580     2.2810 
  198.5000   191.5500    -1.5800    36.7410   -19.4710    64.7080     5.7930     6.0970     5.9500     2.3030 
  198.6250   191.6590    -1.5790    36.8020   -19.5300    63.6910     6.2890     6.6480     6.8550     2.3310 
  198.7500   191.7680    -1.5780    36.8630   -19.5630    60.2840     6.9890     7.4690     8.6630     2.3550 
