~V
VERS. 2.00: Ver 2.00
~W
STRT.M 30.0000:
STOP.M 210.0000:
STEP.M 0.1250:
NULL. -999.2500:
UWI. FD10800:
~C
DEPT.M :
TVD. :
DX. :
DY. :
SP.MV :
GR.API :
RI. :
RML.OHMM :
RXO.OHMM :
DEN.GM/CC :
~A
# ...
  130.3750   127.3810   -16.1650     5.9820   -28.4590    71.4950     9.4250    10.4380    11.8370     2.4230 
  130.5000   127.4930   -16.2200     5.9930   -28.2890    67.2810    10.6590    11.6940    15.0010     2.4920 
  130.6250   127.6040   -16.2740     6.0040   -28.0760    64.4180    11.1790    12.1500    17.5570     2.5050 
  130.7500   127.7160   -16.3290     6.0150   -27.8080    62.7100    11.0350    11.9010    17.4580     2.4900 
  130.8750   127.8280   -16.3840     6.0260   -27.6060    62.5980    10.3490    11.0850    15.4260     2.4740 
  131.0000   127.9400   -16.4390     6.0370   -27.3700    63.6500     9.3290     9.9570    13.6890     2.4700 
  131.1250   128.0520   -16.4940     6.0480   -27.1550    64.6380     8.3280     8.8820    12.1300     2.4710 
  131.2500   128.1630   -16.5490     6.0590   -26.9940    64.0440     7.5440     8.0650    10.2030     2.4760 
  131.3750   128.2750   -16.6040     6.0700   -26.9430    61.7150     7.1570     7.6930     8.7610     2.4780 
  131.5000   128.3870   -16.6590     6.0800   -26.8750    59.3070     7.0660     7.6480     8.8220     2.4800 
  131.6250   128.4980   -16.7150     6.0910   -26.8410    56.8980     7.1860     7.8440     9.6040     2.4660 
  131.7500   128.6100   -16.7700     6.1010   -26.8280    57.0120     7.4330     8.1410    10.0170     2.4410 
  131.8750   128.7210   -16.8260     6.1120   -26.7870    58.2710     7.6610     8.3760    10.1410     2.4190 
  132.0000   128.8330   -16.8810     6.1220   -26.7500    61.4290     7.7420     8.4020     9.8780     2.4100 
  132.1250   128.9440   -16.9370     6.1330   -26.5780    63.4340     7.6340     8.2110     9.5740     2.4030 
  132.2500   129.0550   -16.9940     6.1430   -26.4210    64.3410     7.3990     7.8990     9.6400     2.4090 
  132.3750   129.1660   -17.0500     6.1540   -26.3560    64.1230     7.1650     7.5990     9.5270     2.4290 
  132.5000   129.2770   -17.1060     6.1640   -26.4480    64.1400     7.0170     7.4180     9.0440     2.4670 
  132.6250   129.3880   -17.1630     6.1750   -26.6140    64.1350     7.0710     7.5000     8.2240     2.4890 
  132.7500   129.4990   -17.2200     6.1850   -26.7730    62.7460     7.3850     7.8750     7.2340     2.5060 
  132.8750   129.6100   -17.2770     6.1950   -26.8770    60.5860     7.9330     8.6290     7.3290     2.5110 
  133.0000   129.7210   -17.3340     6.2050   -26.9290    58.7620     8.5160     9.4390     8.8280     2.5010 
  133.1250   129.8310   -17.3910     6.2160   -26.9890    58.0100     8.9770     9.9720    12.0060     2.4560 
  133.2500   129.9420   -17.4480     6.2260   -27.1160    59.1450     9.0200     9.9490    14.7260     2.3930 
  133.3750   130.0520   -17.5060     6.2360   -27.3350    61.6020     8.6790     9.3640    13.2260     2.3480 
  133.5000   130.1630   -17.5630     6.2460   -27.4580    63.3980     8.1860     8.6860     9.8610     2.3350 
  133.6250   130.2730   -17.6210     6.2560   -27.5750    62.8250     7.8060     8.2510     8.8040     2.3580 
  133.7500   130.3840   -17.6790     6.2670   -27.7190    61.1300     7.6850     8.1530     9.3000     2.4010 
  133.8750   130.4940   -17.7360     6.2770   -27.8350    59.1490     7.7650     8.2880    10.2590     2.4460 
  134.0000   130.6040   -17.7940     6.2870   -27.8620    58.3020     7.8790     8.4410    11.6340     2.4680 
  134.1250   130.7150   -17.8520     6.2980   -27.8640    57.7960     7.9190     8.4910    11.4580     2.4530 
  134.2500   130.8250   -17.9100     6.3080   -27.7940    57.5530     7.7860     8.3210    10.1320     2.4200 
  134.3750   130.9350   -17.9680     6.3180   -27.7210    57.5520     7.4770     7.9520     9.3060     2.3890 
  134.5000   131.0450   -18.0260     6.3270   -27.6280    58.9280     7.1180     7.5500     8.6950     2.3830 
  134.6250   131.1560   -18.0850     6.3370   -27.5890    59.4030     6.8920     7.3160     8.0680     2.4000 
  134.7500   131.2660   -18.1430     6.3470   -27.6820    57.8150     6.8450     7.2890     7.3990     2.4330 
  134.8750   131.3760   -18.2010     6.3560   -27.7010    53.7320     6.9580     7.4440     7.5420     2.4480 
  135.0000   131.4860   -18.2600     6.3650   -27.6280    50.4710     7.2000     7.7330     8.7220     2.4510 
  135.1250   131.5960   -18.3180     6.3740   -27.4670    49.4830     7.4990     8.0760     9.8030     2.4400 
  135.2500   131.7060   -18.3770     6.3840   -27.3500    50.0830     7.7480     8.3370    10.3300     2.4320 
  135.3750   131.8160   -18.4360     6.3930   -27.2130    51.3710     7.8750     8.4380    10.5740     2.4220 
  135.5000   131.9260   -18.4940     6.4020   -27.1190    52.3130     7.9170     8.4620    11.2540     2.4120 
  135.6250   132.0360   -18.5530     6.4110   -26.9940    52.9310     7.9980     8.5560    11.4870     2.4110 
  135.7500   132.1460   -18.6120     6.4200   -26.8990    52.8640     8.1410     8.7240    10.3520     2.4210 
  135.8750   132.2560   -18.6710     6.4290   -26.9230    53.3820     8.3000     8.9130     9.9960     2.4410 
  136.0000   132.3650   -18.7300     6.4380   -26.9970    53.2590     8.4150     9.0500    11.5750     2.4590 
  136.1250   132.4750   -18.7900     6.4470   -27.1600    53.6900     8.4540     9.0850    13.1570     2.4570 
  136.2500   132.5850   -18.8490     6.4560   -27.2750    52.7330     8.4210     9.0390    12.9490     2.4380 
  136.3750   132.6940   -18.9080     6.4640   -27.3570    53.4210     8.3010     8.8940    11.7570     2.4190 
  136.5000   132.8040   -18.9680     6.4730   -27.4180    53.2770     8.1690     8.7410    10.8020     2.4140 
  136.6250   132.9130   -19.0280     6.4810   -27.5180    53.8340     8.0540     8.6280    10.5010     2.4260 
  136.7500   133.0230   -19.0870     6.4890   -27.6720    52.0860     7.9840     8.5610    10.7380     2.4390 
  136.8750   133.1320   -19.1470     6.4980   -27.8470    49.7510     7.9110     8.4920    10.6240     2.4510 
  137.0000   133.2420   -19.2070     6.5060   -27.9640    47.7020     7.8560     8.4480    10.0940     2.4600 
  137.1250   133.3510   -19.2670     6.5140   -28.0670    47.3350     7.8120     8.4100    10.7020     2.4710 
  137.2500   133.4610   -19.3270     6.5230   -28.1810    47.7530     7.7900     8.3900    11.7890     2.4780 
  137.3750   133.5700   -19.3870     6.5300   -28.2450    47.4590     7.7680     8.3590    11.2010     2.4850 
  137.5000   133.6790   -19.4470     6.5380   -28.3160    47.0570     7.7170     8.2900    10.4130     2.4900 
  137.6250   133.7880   -19.5080     6.5460   -28.2720    46.1720     7.6270     8.1930    10.2530     2.4930 
  137.7500   133.8970   -19.5680     6.5540   -28.1600    46.1960     7.5560     8.1120     9.9650     2.4940 
  137.8750   134.0070   -19.6290     6.5610   -28.0140    46.0290     7.5530     8.1060     9.7680     2.4940 
  138.0000   134.1160   -19.6890     6.5690   -27.9330    45.1910     7.6420     8.2030     9.6710     2.4960 
  138.1250   134.2250   -19.7500     6.5760   -27.9420    43.6330     7.8180     8.4060    10.2140     2.4970 
  138.2500   134.3340   -19.8100     6.5830   -28.0110    43.6470     8.0430     8.6700    11.0030     2.4940 
  138.3750   134.4430   -19.8710     6.5900   -28.0530    45.6190     8.2440     8.8900    10.9500     2.4820 
  138.5000   134.5520   -19.9320     6.5980   -28.0720    48.0980     8.3100     8.9410    10.6390     2.4710 
  138.6250   134.6610   -19.9930     6.6050   -28.0940    48.7610     8.2520     8.8630    10.6540     2.4640 
  138.7500   134.7700   -20.0540     6.6120   -28.0250    48.3440     8.0830     8.7030    10.7800     2.4590 
  138.8750   134.8790   -20.1150     6.6190   -27.9960    48.3590     7.9070     8.5290    10.3610     2.4550 
  139.0000   134.9870   -20.1760     6.6260   -27.8550    48.4030     7.7820     8.4280     9.9280     2.4520 
  139.1250   135.0960   -20.2370     6.6320   -27.6380    48.5090     7.7260     8.3700    10.2940     2.4590 
  139.2500   135.2050   -20.2980     6.6390   -27.4960    48.4970     7.7000     8.3400    10.3210     2.4700 
  139.3750   135.3140   -20.3590     6.6460   -27.4090    48.8680     7.7150     8.3540     9.6470     2.4850 
