~V
VERS. 2.00: Ver 2.00
~W
STRT.M 27.0000:
STOP.M 267.0000:
STEP.M 0.1250:
NULL. -999.2500:
UWI. FD10204:
~C
DEPT.M :
TVD. :
DX. :
DY. :
GR.API :
RML.OHMM :
RI. :
RXO.OHMM :
CALI.CM :
SP.MV :
DEN.GM/CC :
~A
# ...
   43.5000    43.5000    -0.0510    -0.0690    71.4700    10.6160     6.9200     6.0710    26.3400   -30.2550     2.1040 
   43.6250    43.6250    -0.0520    -0.0700    66.9700    11.0110     7.3210     6.6750    26.3670   -30.6010     2.1250 
   43.7500    43.7500    -0.0530    -0.0700    63.4170    10.5890     7.2740     8.2140    26.3760   -31.0140     2.1640 
   43.8750    43.8750    -0.0540    -0.0700    63.9530     9.5130     6.7850     8.7790    26.3910   -31.5420     2.2120 
   44.0000    44.0000    -0.0550    -0.0710    70.7170     8.2350     6.0610     7.4210    26.4110   -32.1400     2.2580 
   44.1250    44.1250    -0.0550    -0.0710    80.2810     7.2440     5.3750     4.9960    26.4230   -32.8210     2.2900 
   44.2500    44.2500    -0.0560    -0.0720    87.8420     6.6580     4.8700     4.2930    26.4260   -33.5730     2.3070 
   44.3750    44.3750    -0.0570    -0.0720    92.0790     6.4280     4.5570     4.3510    26.4370   -34.3250     2.3140 
   44.5000    44.5000    -0.0580    -0.0720    91.9480     6.4360     4.3940     4.3280    26.4930   -35.0380     2.3180 
   44.6250    44.6250    -0.0590    -0.0730    89.4060     6.5250     4.3090     4.1100    26.5980   -35.6730     2.3230 
   44.7500    44.7500    -0.0590    -0.0730    88.5140     6.5180     4.2080     3.8350    26.6860   -36.1870     2.3290 
   44.8750    44.8750    -0.0600    -0.0730    88.8660     6.3250     4.0430     3.7960    26.7180   -36.5050     2.3330 
   45.0000    45.0000    -0.0610    -0.0740    89.1110     5.9560     3.8130     3.7580    26.6740   -36.6540     2.3250 
   45.1250    45.1250    -0.0620    -0.0740    89.7200     5.5820     3.5920     3.6990    26.5770   -36.6640     2.3000 
   45.2500    45.2500    -0.0620    -0.0740    91.0910     5.4660     3.5000     3.6470    26.4800   -36.5800     2.2700 
   45.3750    45.3750    -0.0630    -0.0750    92.0200     5.8690     3.6670     3.8190    26.3480   -36.3810     2.2530 
   45.5000    45.5000    -0.0640    -0.0750    92.1740     7.0400     4.2310     4.9360    26.1020   -36.0790     2.2710 
   45.6250    45.6250    -0.0650    -0.0760    88.0860     9.3250     5.4210     9.1140    25.7760   -35.6710     2.3530 
   45.7500    45.7500    -0.0660    -0.0760    77.0570    12.4500     7.1760    17.3870    25.5550   -35.1440     2.4680 
   45.8750    45.8750    -0.0660    -0.0760    65.1310    15.7950     9.2620    25.5120    25.4850   -34.5400     2.5520 
   46.0000    46.0000    -0.0670    -0.0760    60.0910    18.2130    11.0940    27.9310    25.4990   -33.8800     2.5440 
   46.1250    46.1250    -0.0690    -0.0760    60.2440    18.2840    11.7430    23.5950    25.6010   -33.1050     2.4410 
   46.2500    46.2500    -0.0700    -0.0760    60.8080    16.6370    11.2700    15.9070    25.8460   -32.2140     2.3140 
   46.3750    46.3750    -0.0710    -0.0760    62.8090    14.4600    10.2130    11.5640    26.1950   -31.2900     2.2050 
   46.5000    46.5000    -0.0730    -0.0760    65.3510    12.7050     9.1350     9.8520    26.5050   -30.4000     2.1310 
   46.6250    46.6250    -0.0740    -0.0760    65.2550    11.8250     8.3880     9.4340    26.6340   -29.5880     2.0990 
   46.7500    46.7500    -0.0750    -0.0760    63.4380    11.5610     7.9620     9.4150    26.6500   -28.8890     2.0880 
   46.8750    46.8750    -0.0760    -0.0760    63.3510    11.8650     7.8980     9.5390    26.6440   -28.3320     2.0830 
   47.0000    47.0000    -0.0780    -0.0760    66.0020    13.2080     8.6450     9.5330    26.6500   -27.9030     2.0770 
   47.1250    47.1250    -0.0790    -0.0760    69.3070    15.4860    10.7900     9.5150    26.6320   -27.5990     2.0730 
   47.2500    47.2500    -0.0800    -0.0760    71.3920    17.1390    13.3180     9.4480    26.5650   -27.4230     2.0720 
   47.3750    47.3750    -0.0810    -0.0760    71.5810    17.4920    15.0310     9.3150    26.4670   -27.3620     2.0760 
   47.5000    47.5000    -0.0830    -0.0760    72.6120    16.6790    15.1380     9.5090    26.3870   -27.3770     2.0790 
   47.6250    47.6250    -0.0840    -0.0760    75.6290    15.0020    13.3260     9.5870    26.3570   -27.4210     2.0770 
   47.7500    47.7500    -0.0850    -0.0760    76.5810    13.1150    10.7200     9.2910    26.3600   -27.4860     2.0790 
   47.8750    47.8750    -0.0870    -0.0760    73.8870    11.7700     8.5530     8.9230    26.3760   -27.5600     2.1080 
   48.0000    47.9990    -0.0880    -0.0750    68.3160    11.6370     7.7000     8.6190    26.2390   -27.6200     2.1750 
   48.1250    48.1240    -0.0890    -0.0750    64.4190    12.3530     7.9910     9.8420    25.7390   -27.6860     2.2560 
   48.2500    48.2490    -0.0900    -0.0750    64.8050    12.9390     8.3960    14.4890    25.1370   -27.7690     2.2980 
   48.3750    48.3740    -0.0920    -0.0750    67.6690    12.9940     8.5620    20.6720    24.8640   -27.8510     2.2780 
   48.5000    48.4990    -0.0930    -0.0750    70.3270    12.3500     8.3500    17.9890    25.1650   -27.9240     2.2180 
   48.6250    48.6240    -0.0940    -0.0750    71.3680    11.1800     7.7720    11.4120    25.8540   -28.0530     2.1700 
   48.7500    48.7490    -0.0950    -0.0750    70.0960    10.0030     7.0920     8.8050    26.4450   -28.2430     2.1570 
   48.8750    48.8740    -0.0970    -0.0750    67.7310     9.0920     6.4830     8.0670    26.7440   -28.4930     2.1720 
   49.0000    48.9990    -0.0980    -0.0750    67.9130     8.5370     6.0420     7.7750    26.8030   -28.8560     2.1970 
   49.1250    49.1240    -0.0990    -0.0750    72.2700     8.3040     5.8000     7.6770    26.7980   -29.3610     2.2180 
   49.2500    49.2490    -0.1010    -0.0750    74.5940     8.1780     5.6570     7.2710    26.7390   -30.0030     2.2340 
   49.3750    49.3740    -0.1020    -0.0750    73.9630     8.0460     5.5400     6.1820    26.5200   -30.7780     2.2450 
   49.5000    49.4990    -0.1030    -0.0750    75.3110     7.8750     5.4110     5.4040    26.1560   -31.5960     2.2520 
   49.6250    49.6240    -0.1040    -0.0750    80.1870     7.6910     5.2740     5.2580    25.8040   -32.3320     2.2570 
   49.7500    49.7490    -0.1060    -0.0750    85.0930     7.5430     5.1550     5.2410    25.5820   -32.9990     2.2630 
   49.8750    49.8740    -0.1070    -0.0750    89.5290     7.4730     5.0760     5.2930    25.4730   -33.5780     2.2680 
   50.0000    49.9990    -0.1080    -0.0740    92.4870     7.4940     5.0480     5.0970    25.4240   -33.9560     2.2670 
   50.1250    50.1240    -0.1100    -0.0740    92.4140     7.6030     5.0730     5.1830    25.3690   -34.0580     2.2540 
   50.2500    50.2490    -0.1110    -0.0740    90.2850     7.7660     5.1300     5.5100    25.2730   -33.9250     2.2360 
   50.3750    50.3740    -0.1120    -0.0740    86.9780     7.9930     5.2240     6.0560    25.2030   -33.5540     2.2200 
   50.5000    50.4990    -0.1130    -0.0740    82.2780     8.3070     5.3750     6.4070    25.2210   -32.9730     2.2170 
   50.6250    50.6240    -0.1150    -0.0740    77.7230     8.7790     5.6290     6.8320    25.2780   -32.2170     2.2300 
   50.7500    50.7490    -0.1160    -0.0740    76.4570     9.4710     6.0200     7.7570    25.3010   -31.3550     2.2510 
   50.8750    50.8740    -0.1170    -0.0740    75.3740    10.4630     6.5950     9.2820    25.2960   -30.4280     2.2760 
   51.0000    50.9990    -0.1180    -0.0740    70.6930    11.7750     7.3700    10.9130    25.3000   -29.5350     2.3060 
   51.1250    51.1240    -0.1200    -0.0740    64.7590    13.3130     8.3140    12.3370    25.3030   -28.7030     2.3520 
   51.2500    51.2490    -0.1210    -0.0740    61.4840    14.7670     9.2580    13.9070    25.3030   -27.9020     2.4090 
   51.3750    51.3740    -0.1220    -0.0740    60.3660    15.8310    10.0280    14.9760    25.3010   -27.1600     2.4580 
   51.5000    51.4990    -0.1240    -0.0740    59.1640    16.2550    10.4640    15.2420    25.2860   -26.5310     2.4730 
   51.6250    51.6240    -0.1250    -0.0740    58.4930    15.9190    10.4430    13.9810    25.2860   -26.0140     2.4390 
