~V
VERS. 2.00: Ver 2.00
~W
STRT.M 20.0000:
STOP.M 242.0000:
STEP.M 0.1250:
NULL. -999.2500:
UWI. FD10624:
~C
DEPT.M :
TVD. :
DX. :
DY. :
GR.API :
RML.OHMM :
RI. :
RXO.OHMM :
CALI.CM :
DEN.GM/CC :
SP.MV :
~A
# ...
  119.0000   117.7020     8.1420     8.2370    62.3970    22.7830    21.3600    18.2600    22.5170     2.0980    -1.9720 
  119.1250   117.8230     8.1660     8.2590    64.3370    22.0570    20.5650    16.9940    22.4190     2.0730    -2.1090 
  119.2500   117.9440     8.1910     8.2800    65.5950    21.2840    19.8770    16.3400    22.2510     2.0690    -2.2760 
  119.3750   118.0640     8.2160     8.3010    64.5000    20.7070    19.4680    16.3280    21.9470     2.0900    -2.4370 
  119.5000   118.1850     8.2400     8.3220    62.2430    20.6280    19.4520    17.8430    21.7210     2.1250    -2.6570 
  119.6250   118.3060     8.2650     8.3430    59.8640    21.2680    19.8810    18.4840    21.7480     2.1490    -2.8960 
  119.7500   118.4260     8.2890     8.3640    57.9750    22.2690    20.5440    18.5980    21.8700     2.1530    -3.1270 
  119.8750   118.5470     8.3140     8.3860    57.8140    23.2420    21.2440    18.6990    21.8600     2.1480    -3.3570 
  120.0000   118.6670     8.3380     8.4070    58.7770    23.8840    21.7840    19.0760    21.7250     2.1480    -3.5030 
  120.1250   118.7830     8.3730     8.4400    59.0850    24.0220    22.0010    19.3140    21.6470     2.1620    -3.5710 
  120.2500   118.8980     8.4070     8.4740    59.1460    23.8420    21.9890    19.4790    21.5950     2.1820    -3.6720 
  120.3750   119.0130     8.4420     8.5080    59.7340    23.5180    21.8610    19.8180    21.5970     2.1970    -3.8240 
  120.5000   119.1290     8.4760     8.5410    59.8570    23.1900    21.7060    19.2600    21.6840     2.2010    -3.9940 
  120.6250   119.2440     8.5110     8.5750    58.5840    22.9570    21.5770    17.8830    21.9230     2.1950    -4.2520 
  120.7500   119.3590     8.5450     8.6080    57.1070    22.8220    21.4840    17.4430    22.1950     2.1830    -4.5480 
  120.8750   119.4740     8.5790     8.6420    55.8510    22.7540    21.4070    17.7220    22.4970     2.1700    -4.8500 
  121.0000   119.5900     8.6140     8.6750    55.4000    22.6980    21.3040    17.8540    22.6780     2.1590    -5.2540 
  121.1250   119.7050     8.6480     8.7090    55.9030    22.5970    21.1620    17.4900    22.7280     2.1460    -5.6670 
  121.2500   119.8200     8.6830     8.7420    55.3770    22.4390    21.0110    16.5390    22.7260     2.1240    -6.1640 
  121.3750   119.9360     8.7170     8.7760    53.2740    22.2200    20.8290    14.8970    22.6680     2.0890    -6.6410 
  121.5000   120.0510     8.7520     8.8100    51.8010    21.9270    20.5650    13.4210    22.4690     2.0450    -7.1660 
  121.6250   120.1660     8.7860     8.8430    53.9670    21.5510    20.1970    13.8380    22.0260     2.0150    -7.6420 
  121.7500   120.2810     8.8210     8.8770    59.5720    21.1580    19.8360    15.1370    21.6220     2.0190    -8.1350 
  121.8750   120.3970     8.8550     8.9100    64.8840    20.8070    19.6040    15.1160    21.2010     2.0650    -8.5960 
  122.0000   120.5120     8.8900     8.9440    65.7180    20.4770    19.5500    14.7170    20.9540     2.1350    -8.9590 
  122.1250   120.6270     8.9240     8.9770    63.0490    19.8800    19.4490    15.8650    21.1880     2.1910    -9.1650 
  122.2500   120.7430     8.9580     9.0110    62.4850    18.6770    18.8230    18.3160    21.7390     2.2040    -9.2720 
  122.3750   120.8580     8.9930     9.0450    64.6520    16.7140    17.3300    18.3850    22.1140     2.1760    -9.3680 
  122.5000   120.9730     9.0270     9.0780    68.3880    14.1930    15.0540    16.1060    22.2030     2.1320    -9.4250 
  122.6250   121.0880     9.0620     9.1120    76.1790    11.6810    12.5370    12.2050    22.1050     2.1110    -9.5370 
  122.7500   121.2040     9.0960     9.1450    87.5670     9.6990    10.3860     8.7650    21.8980     2.1300    -9.6190 
  122.8750   121.3190     9.1310     9.1790    96.5760     8.4230     8.8230     7.4490    21.6040     2.1830    -9.6830 
  123.0000   121.4340     9.1650     9.2120    99.7840     7.7650     7.8460     7.4650    21.4420     2.2530    -9.7800 
  123.1250   121.5500     9.2000     9.2460    98.0030     7.5520     7.3980     7.7540    21.5040     2.3110    -9.9410 
  123.2500   121.6650     9.2340     9.2800    95.9730     7.5330     7.2600     7.9540    21.6790     2.3440   -10.0970 
  123.3750   121.7800     9.2690     9.3130    94.5800     7.6590     7.3450     7.9180    21.8320     2.3480   -10.2410 
  123.5000   121.8950     9.3030     9.3470    91.7650     7.9690     7.6200     7.7650    21.8870     2.3280   -10.3810 
  123.6250   122.0110     9.3370     9.3800    87.3390     8.6430     8.1610     8.1320    21.7420     2.2920   -10.4270 
  123.7500   122.1260     9.3720     9.4140    80.8710     9.7680     9.0330     9.3730    21.4590     2.2570   -10.4190 
  123.8750   122.2410     9.4060     9.4470    72.9270    11.4230    10.3490    11.8620    21.2540     2.2320   -10.4740 
  124.0000   122.3570     9.4410     9.4810    65.9810    13.6070    12.1970    14.6170    21.2630     2.2220   -10.5330 
  124.1250   122.4720     9.4750     9.5140    62.7270    16.1740    14.6110    16.0600    21.5740     2.2160   -10.6910 
  124.2500   122.5870     9.5100     9.5480    60.9500    18.5400    17.1260    17.0490    22.0620     2.1940   -10.8840 
  124.3750   122.7020     9.5440     9.5820    58.0160    20.0000    18.9790    19.0540    22.4660     2.1440   -11.1080 
  124.5000   122.8180     9.5790     9.6150    57.2500    19.9580    19.2860    21.1960    22.5740     2.0790   -11.2770 
  124.6250   122.9330     9.6130     9.6490    63.4260    18.1070    17.4910    21.6010    22.2180     2.0430   -11.3770 
  124.7500   123.0480     9.6480     9.6820    73.2780    15.3490    14.7200    18.2730    21.6300     2.0680   -11.4930 
  124.8750   123.1640     9.6820     9.7160    83.8340    12.4900    11.9420    13.5830    21.2070     2.1550   -11.5080 
  125.0000   123.2790     9.7160     9.7490    91.3330    10.1570     9.7410     8.9330    21.1500     2.2700   -11.4970 
  125.1250   123.3940     9.7510     9.7830    93.9020     8.7660     8.4000     8.0540    21.4410     2.3520   -11.4270 
  125.2500   123.5090     9.7850     9.8170    94.4600     8.1170     7.7080     7.8700    21.8100     2.3720   -11.3450 
  125.3750   123.6250     9.8200     9.8500    94.2790     8.0150     7.5440     8.1830    22.0610     2.3310   -11.1800 
  125.5000   123.7400     9.8540     9.8840    92.5070     8.2730     7.8130     8.3480    22.0880     2.2560   -11.0570 
  125.6250   123.8550     9.8890     9.9170    89.0160     8.8340     8.5170     8.6640    21.8590     2.1900   -11.0090 
  125.7500   123.9710     9.9230     9.9510    87.3330     9.6660     9.5490     9.6600    21.5340     2.1710   -10.9900 
  125.8750   124.0860     9.9580     9.9840    86.5960    10.7300    10.7950    11.9010    21.3150     2.2180   -10.9900 
  126.0000   124.2010     9.9920    10.0180    84.5110    11.7780    11.9970    15.5660    21.2460     2.3270   -11.0150 
  126.1250   124.3160    10.0270    10.0520    79.9050    12.2890    12.6880    18.8730    21.2660     2.4560   -11.0020 
  126.2500   124.4320    10.0610    10.0850    77.2800    12.1260    12.6990    18.4860    21.3290     2.5430   -11.0230 
  126.3750   124.5470    10.0950    10.1190    80.6690    11.4780    12.1210    13.7860    21.4260     2.5540   -11.1210 
  126.5000   124.6620    10.1300    10.1520    86.0590    10.7030    11.2580     9.6420    21.4920     2.4970   -11.2430 
  126.6250   124.7780    10.1640    10.1860    85.2570    10.1010    10.4520    10.5430    21.4020     2.4170   -11.3030 
  126.7500   124.8930    10.1990    10.2190    81.6900     9.7010     9.8340    13.4840    21.1940     2.3630   -11.3030 
  126.8750   125.0080    10.2330    10.2530    82.6780     9.4270     9.3850    12.9650    21.0410     2.3460   -11.2960 
  127.0000   125.1230    10.2680    10.2860    88.4910     9.1760     9.0360     9.3010    21.0430     2.3550   -11.3360 
  127.1250   125.2390    10.3020    10.3200    90.9550     8.8540     8.7010     8.1510    21.2770     2.3650   -11.4060 
