~V
VERS. 2.00: Ver 2.00
~W
STRT.M 33.0000:
STOP.M 273.0000:
STEP.M 0.1250:
NULL. -999.2500:
UWI. FD10880:
~C
DEPT.M :
TVD. :
DX. :
DY. :
SP.MV :
GR.API :
RI. :
RML.OHMM :
RXO.OHMM :
DEN.GM/CC :
~A
# ...
   78.6250    78.2300     5.1090     1.2480   -10.0610    82.2180     4.4410     5.3430     6.5810     2.1640 
   78.7500    78.3520     5.1360     1.2550    -9.5400    86.9750     4.1660     4.9800     5.9770     2.1800 
   78.8750    78.4740     5.1630     1.2630    -9.5790    93.4340     3.9020     4.6610     5.5890     2.1990 
   79.0000    78.5950     5.1910     1.2710   -10.1250    96.6740     3.7070     4.4300     5.4270     2.2160 
   79.1250    78.7170     5.2180     1.2780   -10.8030    97.8550     3.6350     4.3700     5.3770     2.2280 
   79.2500    78.8390     5.2450     1.2860   -11.4550   100.5640     3.6980     4.4730     5.1900     2.2360 
   79.3750    78.9610     5.2730     1.2930   -11.7700   102.0330     3.8570     4.7010     5.1050     2.2360 
   79.5000    79.0820     5.3000     1.3010   -11.5430    98.8590     4.1030     5.0310     5.4550     2.2260 
   79.6250    79.2040     5.3280     1.3080   -11.1290    93.1850     4.3860     5.3990     5.9380     2.2090 
   79.7500    79.3260     5.3560     1.3160   -10.8850    89.5260     4.6450     5.7360     6.4190     2.1930 
   79.8750    79.4470     5.3830     1.3240   -10.7050    89.3750     4.8200     5.9410     7.0480     2.1810 
   80.0000    79.5690     5.4110     1.3310   -10.5980    89.1100     4.8550     5.9590     7.5040     2.1700 
   80.1250    79.6910     5.4390     1.3390   -10.7020    85.6490     4.7670     5.8220     7.3260     2.1630 
   80.2500    79.8120     5.4670     1.3460   -10.9660    81.1600     4.5960     5.5790     6.9010     2.1630 
   80.3750    79.9340     5.4950     1.3540   -11.2850    80.3980     4.3680     5.2820     6.6230     2.1720 
   80.5000    80.0550     5.5230     1.3610   -11.6220    82.8700     4.1610     5.0220     6.4650     2.1840 
   80.6250    80.1770     5.5510     1.3690   -11.9290    85.5600     3.9960     4.8150     6.4390     2.1920 
   80.7500    80.2980     5.5790     1.3760   -12.1680    87.4940     3.8690     4.6640     6.0740     2.1940 
   80.8750    80.4200     5.6080     1.3830   -12.4340    91.0440     3.7950     4.5710     5.6210     2.1920 
   81.0000    80.5410     5.6360     1.3910   -12.7790    94.5050     3.7600     4.5350     5.5990     2.1940 
   81.1250    80.6630     5.6640     1.3980   -13.1470    95.0960     3.7660     4.5300     5.5740     2.2020 
   81.2500    80.7840     5.6930     1.4050   -13.5960    94.8170     3.7730     4.5140     5.3630     2.2150 
   81.3750    80.9060     5.7220     1.4130   -13.9770    95.3830     3.7510     4.4520     5.3620     2.2250 
   81.5000    81.0270     5.7500     1.4200   -13.9570    96.4810     3.6630     4.2930     5.6970     2.2270 
   81.6250    81.1490     5.7790     1.4280   -13.4960    97.9440     3.5500     4.1240     5.7730     2.2250 
   81.7500    81.2700     5.8080     1.4350   -12.7680    99.4670     3.4770     4.0140     5.1960     2.2260 
   81.8750    81.3910     5.8370     1.4420   -12.1190   102.9440     3.4810     4.0130     4.7190     2.2310 
   82.0000    81.5130     5.8660     1.4500   -11.9840   105.8660     3.5900     4.1480     4.9120     2.2320 
   82.1250    81.6340     5.8950     1.4570   -12.3770   104.5930     3.7640     4.3580     5.3980     2.2240 
   82.2500    81.7550     5.9240     1.4640   -12.9700    97.6920     3.9780     4.6130     5.9830     2.2090 
   82.3750    81.8770     5.9540     1.4720   -13.5200    91.1800     4.2140     4.8860     6.3780     2.1950 
   82.5000    81.9980     5.9830     1.4790   -13.8570    89.4350     4.4520     5.1680     6.1880     2.1850 
   82.6250    82.1190     6.0120     1.4860   -13.6790    88.2270     4.6630     5.4140     6.1890     2.1750 
   82.7500    82.2410     6.0420     1.4930   -13.1010    83.3990     4.8640     5.6550     7.0810     2.1610 
   82.8750    82.3620     6.0710     1.5000   -12.5260    79.0840     5.0900     5.9130     8.0290     2.1470 
   83.0000    82.4830     6.1010     1.5080   -12.0970    79.2580     5.4300     6.2860     8.2990     2.1400 
   83.1250    82.6040     6.1310     1.5150   -11.7330    80.7770     5.9660     6.8950     8.4340     2.1470 
   83.2500    82.7250     6.1610     1.5220   -11.6220    79.1940     6.8200     7.8520    10.5540     2.1720 
   83.3750    82.8470     6.1900     1.5290   -11.7290    75.5530     8.0600     9.2490    15.9210     2.2170 
   83.5000    82.9680     6.2200     1.5360   -11.9170    72.5980    10.0490    11.5360    22.4510     2.2800 
   83.6250    83.0890     6.2500     1.5430   -12.0990    70.5850    12.4540    14.2920    27.7010     2.3470 
   83.7500    83.2100     6.2800     1.5510   -12.0780    69.0180    14.5340    16.6520    33.5660     2.3990 
   83.8750    83.3310     6.3110     1.5580   -11.7360    67.4380    15.9770    18.2630    48.1950     2.4230 
   84.0000    83.4520     6.3410     1.5650   -11.2490    65.1540    16.5430    18.7010    55.0220     2.4050 
   84.1250    83.5730     6.3710     1.5720   -10.7630    62.7250    16.1230    17.9070    36.5910     2.3440 
   84.2500    83.6940     6.4020     1.5790   -10.3320    61.7750    14.7930    16.1590    19.7010     2.2500 
   84.3750    83.8150     6.4320     1.5860   -10.2200    61.9770    12.9610    13.9300    17.7800     2.1640 
   84.5000    83.9360     6.4630     1.5930   -10.5140    62.9030    10.8680    11.6340    19.4540     2.1210 
   84.6250    84.0570     6.4940     1.6000   -10.8000    65.4280     9.3000     9.9600    18.7420     2.1200 
   84.7500    84.1780     6.5240     1.6070   -10.8370    69.4220     8.3810     8.9600    13.9750     2.1420 
   84.8750    84.2990     6.5550     1.6140   -10.7530    72.3720     7.8180     8.3490    10.1500     2.1600 
   85.0000    84.4200     6.5860     1.6210   -10.6020    72.8620     7.8090     8.3970     9.5630     2.1650 
   85.1250    84.5410     6.6170     1.6280   -10.5660    71.8690     8.4400     9.1520     9.9640     2.1560 
   85.2500    84.6620     6.6480     1.6350   -10.7830    69.9460     9.5300    10.4140    10.3700     2.1410 
   85.3750    84.7830     6.6800     1.6430   -11.1150    67.2420    10.8180    11.8400    11.3080     2.1290 
   85.5000    84.9030     6.7110     1.6500   -11.4360    64.9820    11.9420    13.0370    12.6610     2.1230 
   85.6250    85.0240     6.7430     1.6570   -11.6310    65.0430    12.6450    13.7440    13.2500     2.1220 
   85.7500    85.1450     6.7740     1.6640   -11.4120    66.6810    13.0110    14.0910    12.8960     2.1220 
   85.8750    85.2660     6.8060     1.6710   -10.8650    67.2550    13.1370    14.2310    12.6530     2.1200 
   86.0000    85.3860     6.8380     1.6790   -10.3410    65.6920    13.1420    14.2620    12.8700     2.1170 
   86.1250    85.5070     6.8690     1.6860    -9.9630    64.6550    13.0920    14.2650    13.5040     2.1120 
   86.2500    85.6280     6.9010     1.6930    -9.5980    65.5490    12.9230    14.1590    14.1260     2.1090 
   86.3750    85.7480     6.9330     1.7010    -9.3250    65.9250    12.5840    13.8670    13.8290     2.1110 
   86.5000    85.8690     6.9650     1.7080    -9.2490    64.9210    12.0770    13.3760    12.9150     2.1200 
   86.6250    85.9890     6.9970     1.7160    -9.2740    64.1500    11.5430    12.8400    12.2640     2.1270 
   86.7500    86.1100     7.0300     1.7240    -9.4000    64.7120    11.1580    12.4550    11.9280     2.1270 
   86.8750    86.2300     7.0620     1.7320    -9.5450    64.2810    11.0360    12.4040    11.7600     2.1180 
   87.0000    86.3510     7.0940     1.7390    -9.5570    62.2530    11.2390    12.7370    11.7930     2.1080 
   87.1250    86.4710     7.1260     1.7470    -9.5520    62.0290    11.6380    13.2880    12.4360     2.1000 
   87.2500    86.5920     7.1590     1.7550    -9.6150    64.3370    12.0630    13.8160    15.2430     2.0940 
   87.3750    86.7120     7.1910     1.7620    -9.7320    64.9510    12.2580    14.0230    18.0730     2.0920 
   87.5000    86.8330     7.2240     1.7700    -9.9810    63.1070    12.1240    13.7830    16.7300     2.0920 
   87.6250    86.9530     7.2560     1.7780   -10.2910    61.9350    11.6940    13.2040    14.1500     2.0930 
