~V
VERS. 2.00: Ver 2.00
~W
STRT.M 64.0000:
STOP.M 246.0000:
STEP.M 0.1250:
NULL. -999.2500:
UWI. FD10853:
~C
DEPT.M :
TVD. :
DX. :
DY. :
SP.MV :
GR.API :
RI. :
RML.OHMM :
RXO.OHMM :
DEN.GM/CC :
~A
# ...
  146.1250   145.4860    -7.5900    -2.1090   -12.8030    53.3170    22.7120    23.8950    22.7150     2.6620 
  146.2500   145.6080    -7.6150    -2.1170   -13.1970    53.8220    19.6300    20.2850    19.9670     2.6610 
  146.3750   145.7300    -7.6410    -2.1250   -13.6950    55.0270    15.7630    15.8170    16.4710     2.6450 
  146.5000   145.8530    -7.6660    -2.1340   -14.2110    56.2080    13.1450    13.0170    15.5260     2.6090 
  146.6250   145.9750    -7.6920    -2.1420   -14.5340    57.4990    12.2120    12.1300    15.0460     2.5700 
  146.7500   146.0970    -7.7180    -2.1500   -14.7260    58.6360    12.5760    12.7120    14.6730     2.5460 
  146.8750   146.2190    -7.7430    -2.1580   -14.8010    60.0020    14.1540    14.5910    14.8140     2.5340 
  147.0000   146.3410    -7.7690    -2.1660   -14.9020    60.1990    16.3510    16.9970    15.4150     2.5340 
  147.1250   146.4630    -7.7950    -2.1740   -15.0210    60.1070    18.4340    19.0640    16.8090     2.5440 
  147.2500   146.5850    -7.8200    -2.1820   -15.2310    59.0420    19.6470    20.0370    18.7540     2.5720 
  147.3750   146.7070    -7.8460    -2.1900   -15.4740    57.7840    20.0550    20.1860    20.1490     2.6060 
  147.5000   146.8290    -7.8720    -2.1980   -15.6590    56.5940    20.6330    20.6390    20.9790     2.6320 
  147.6250   146.9510    -7.8980    -2.2060   -15.8010    56.5720    21.5090    21.5050    22.0660     2.6490 
  147.7500   147.0730    -7.9230    -2.2140   -15.8820    57.0200    22.7540    22.8820    23.0920     2.6600 
  147.8750   147.1950    -7.9490    -2.2220   -15.9130    57.5160    24.1440    24.3960    23.4920     2.6720 
  148.0000   147.3170    -7.9750    -2.2300   -15.9230    57.1890    24.8420    25.1540    23.6640     2.6700 
  148.1250   147.4390    -8.0010    -2.2380   -15.9310    56.6240    24.5920    24.9300    23.1230     2.6580 
  148.2500   147.5610    -8.0270    -2.2460   -15.9260    57.4300    23.3430    23.6900    21.8210     2.6590 
  148.3750   147.6830    -8.0520    -2.2550   -16.0010    57.9200    21.7550    22.1550    21.0160     2.6830 
  148.5000   147.8050    -8.0780    -2.2630   -16.0930    56.9640    20.3170    20.8270    20.2670     2.7110 
  148.6250   147.9270    -8.1040    -2.2710   -16.1380    53.8790    19.5900    20.2550    20.2090     2.7170 
  148.7500   148.0490    -8.1300    -2.2800   -16.1130    52.1620    19.7890    20.6920    21.7910     2.6920 
  148.8750   148.1710    -8.1560    -2.2880   -16.0470    51.6550    20.8180    22.0050    22.7490     2.6610 
  149.0000   148.2930    -8.1820    -2.2970   -15.9370    51.8740    22.3060    23.6080    23.3860     2.6390 
  149.1250   148.4150    -8.2080    -2.3060   -15.9210    51.7120    23.4860    24.7850    23.8940     2.6330 
  149.2500   148.5370    -8.2340    -2.3140   -16.0310    51.7340    24.0280    25.2430    24.0400     2.6250 
  149.3750   148.6590    -8.2590    -2.3230   -16.2430    51.9780    24.2120    25.2910    23.9670     2.6180 
  149.5000   148.7810    -8.2850    -2.3320   -16.4620    52.2750    23.9600    24.9070    23.2640     2.6250 
  149.6250   148.9030    -8.3110    -2.3400   -16.6710    53.1530    23.3180    24.1490    22.2660     2.6510 
  149.7500   149.0250    -8.3370    -2.3490   -16.8150    54.2170    22.4340    23.1740    21.8380     2.6700 
  149.8750   149.1470    -8.3630    -2.3580   -16.8940    55.1470    21.7950    22.5120    21.8380     2.6670 
  150.0000   149.2690    -8.3900    -2.3660   -16.9330    55.1430    21.7730    22.4770    22.0580     2.6390 
  150.1250   149.3910    -8.4160    -2.3750   -16.9330    55.1970    21.9440    22.5440    22.4690     2.6130 
  150.2500   149.5130    -8.4420    -2.3840   -17.0050    55.1000    22.0220    22.5070    22.9760     2.6010 
  150.3750   149.6350    -8.4680    -2.3930   -17.1180    55.1640    22.1450    22.5300    23.6750     2.6070 
  150.5000   149.7570    -8.4940    -2.4020   -17.2180    56.7620    22.2320    22.4790    24.2360     2.6170 
  150.6250   149.8790    -8.5200    -2.4110   -17.2590    58.0700    22.3050    22.4580    24.7920     2.6210 
  150.7500   150.0010    -8.5460    -2.4200   -17.2280    60.1400    22.5390    22.7310    25.3040     2.6200 
  150.8750   150.1230    -8.5720    -2.4300   -17.1370    60.9270    23.1170    23.5470    25.2780     2.6220 
  151.0000   150.2440    -8.5980    -2.4390   -17.0590    60.4380    24.2830    25.0880    24.9250     2.6290 
  151.1250   150.3660    -8.6240    -2.4480   -17.0570    57.8200    25.6620    26.8300    24.5010     2.6250 
  151.2500   150.4880    -8.6510    -2.4580   -17.1840    55.7220    26.4620    27.7470    23.7270     2.6050 
  151.3750   150.6100    -8.6770    -2.4670   -17.3880    56.0450    26.0960    27.2700    23.0050     2.5790 
  151.5000   150.7320    -8.7030    -2.4760   -17.6420    57.2080    24.6990    25.6750    22.9140     2.5760 
  151.6250   150.8540    -8.7300    -2.4860   -17.9470    57.3690    22.8980    23.6640    23.8130     2.6140 
  151.7500   150.9750    -8.7560    -2.4950   -18.1580    55.9000    21.3520    22.0870    24.9500     2.6760 
  151.8750   151.0970    -8.7830    -2.5050   -18.2030    56.2830    20.6130    21.4520    24.1950     2.7150 
  152.0000   151.2190    -8.8100    -2.5140   -18.1300    57.8450    20.6180    21.6040    23.2960     2.6990 
  152.1250   151.3410    -8.8360    -2.5240   -18.0070    59.7810    20.9430    21.9950    22.6960     2.6470 
  152.2500   151.4620    -8.8630    -2.5330   -18.0020    59.9750    21.2180    22.2140    21.8120     2.5990 
  152.3750   151.5840    -8.8900    -2.5430   -18.1710    59.4550    21.2200    22.0390    21.1350     2.5740 
  152.5000   151.7060    -8.9170    -2.5520   -18.3580    59.7320    20.8250    21.4950    20.7300     2.5850 
  152.6250   151.8270    -8.9440    -2.5620   -18.5070    59.3240    20.3890    21.0510    20.2860     2.5950 
  152.7500   151.9490    -8.9710    -2.5710   -18.5410    58.1190    20.1910    20.9780    20.3010     2.5930 
  152.8750   152.0710    -8.9980    -2.5810   -18.6090    55.4510    20.2430    21.2140    20.6550     2.5820 
  153.0000   152.1920    -9.0250    -2.5900   -18.6630    52.7610    20.3970    21.5520    20.8410     2.6000 
  153.1250   152.3140    -9.0520    -2.6000   -18.7370    51.8780    20.3680    21.6280    20.7610     2.6290 
  153.2500   152.4360    -9.0790    -2.6100   -18.8020    54.1550    20.2130    21.5020    20.6620     2.6330 
  153.3750   152.5570    -9.1060    -2.6200   -18.8150    57.4390    19.9820    21.2540    20.6460     2.6050 
  153.5000   152.6790    -9.1340    -2.6290   -18.8870    58.0390    19.7470    20.9690    20.2880     2.5860 
  153.6250   152.8010    -9.1610    -2.6390   -18.9800    56.1300    19.6280    20.8190    19.6560     2.5930 
  153.7500   152.9220    -9.1880    -2.6490   -19.0730    53.8510    19.7260    20.8950    19.5350     2.6110 
  153.8750   153.0440    -9.2160    -2.6590   -19.1990    53.2670    19.9180    21.0450    19.5350     2.6140 
  154.0000   153.1650    -9.2430    -2.6690   -19.3170    54.2020    20.1110    21.2400    19.2840     2.6090 
  154.1250   153.2870    -9.2700    -2.6790   -19.4390    56.2830    20.1880    21.3410    18.6570     2.5990 
  154.2500   153.4080    -9.2980    -2.6900   -19.5100    59.0890    19.9050    21.1080    17.7940     2.6010 
  154.3750   153.5300    -9.3250    -2.7000   -19.5510    61.4180    19.2190    20.4500    16.9630     2.6150 
  154.5000   153.6510    -9.3530    -2.7100   -19.5850    62.0470    17.9720    19.0880    16.1990     2.6440 
  154.6250   153.7730    -9.3810    -2.7200   -19.5410    61.7330    16.2490    17.1670    15.4760     2.6510 
  154.7500   153.8940    -9.4080    -2.7300   -19.4700    61.5830    14.4720    15.1830    14.1580     2.6260 
  154.8750   154.0160    -9.4360    -2.7410   -19.3650    62.0850    13.0150    13.5690    12.5810     2.5800 
  155.0000   154.1370    -9.4640    -2.7510   -19.2160    61.3920    12.1360    12.6170    12.2640     2.5480 
  155.1250   154.2590    -9.4910    -2.7620   -19.1000    59.4440    11.8210    12.2950    12.6850     2.5260 
