~V
VERS. 2.00: Ver 2.00
~W
STRT.M 62.0000:
STOP.M 282.0000:
STEP.M 0.1250:
NULL. -999.2500:
UWI. FD10887:
~C
DEPT.M :
TVD. :
DX. :
DY. :
SP.MV :
GR.API :
RI. :
RML.OHMM :
RXO.OHMM :
DEN.GM/CC :
~A
# ...
  116.7500   116.3360    -1.0020     5.6800   -21.4590    78.2460     6.4110     7.2580     8.9580     2.2820 
  116.8750   116.4580    -1.0040     5.7080   -20.2660    70.5900     7.2300     8.2760    11.2210     2.2840 
  117.0000   116.5800    -1.0050     5.7350   -18.8890    65.8870     7.7030     8.8610     7.7270     2.2720 
  117.1250   116.7020    -1.0060     5.7630   -17.3950    66.5130     7.7490     8.8980     4.7300     2.2390 
  117.2500   116.8240    -1.0080     5.7910   -15.8660    68.5930     7.6470     8.7560     4.5040     2.1960 
  117.3750   116.9450    -1.0090     5.8190   -14.3400    68.8080     7.6140     8.7170     4.3230     2.1570 
  117.5000   117.0670    -1.0110     5.8460   -12.8240    68.3020     7.8920     9.0660     4.2300     2.1340 
  117.6250   117.1890    -1.0120     5.8740   -11.3130    67.0460     8.4960     9.7980     4.4490     2.1250 
  117.7500   117.3110    -1.0130     5.9020    -9.8090    64.4900     9.2310    10.6570     5.1180     2.1250 
  117.8750   117.4330    -1.0150     5.9310    -8.3460    62.1800     9.8850    11.4480     6.0070     2.1300 
  118.0000   117.5550    -1.0160     5.9590    -6.9780    61.6570    10.3750    12.0650     6.5680     2.1350 
  118.1250   117.6760    -1.0170     5.9870    -5.7870    60.7490    10.6000    12.3690     6.2420     2.1340 
  118.2500   117.7980    -1.0190     6.0150    -4.8160    58.1180    10.5910    12.4010     5.2530     2.1260 
  118.3750   117.9200    -1.0200     6.0440    -4.1070    56.7490    10.4560    12.2610     4.5770     2.1120 
  118.5000   118.0410    -1.0210     6.0720    -3.6320    58.1150    10.2830    12.0150     4.4830     2.0980 
  118.6250   118.1630    -1.0220     6.1010    -3.3790    59.9420    10.0620    11.7170     4.6670     2.0870 
  118.7500   118.2850    -1.0240     6.1290    -3.2980    60.3830     9.8530    11.4250     4.8300     2.0800 
  118.8750   118.4060    -1.0250     6.1580    -3.3660    58.8150     9.7010    11.2300     4.7950     2.0780 
  119.0000   118.5280    -1.0260     6.1870    -3.5250    57.6880     9.6100    11.1400     4.6830     2.0820 
  119.1250   118.6500    -1.0270     6.2160    -3.7230    58.5790     9.6230    11.1150     4.5680     2.0920 
  119.2500   118.7710    -1.0280     6.2440    -3.9140    60.2440     9.6990    11.0920     4.4910     2.1010 
  119.3750   118.8930    -1.0300     6.2730    -4.0880    61.5470     9.7660    11.0190     4.4040     2.1050 
  119.5000   119.0150    -1.0310     6.3020    -4.2770    62.8640     9.8400    10.9240     4.3300     2.1040 
  119.6250   119.1360    -1.0320     6.3310    -4.5370    61.7820     9.9640    10.9210     4.5870     2.1010 
  119.7500   119.2580    -1.0330     6.3600    -4.9090    57.9050    10.2330    11.0940     5.2170     2.0980 
  119.8750   119.3790    -1.0340     6.3890    -5.4430    54.9210    10.6350    11.4750     6.3700     2.0950 
  120.0000   119.5010    -1.0350     6.4190    -6.1640    55.3100    11.1420    12.0360     8.0700     2.0920 
  120.1250   119.6220    -1.0370     6.4480    -7.1350    56.8280    11.3580    12.2560     9.1590     2.0950 
  120.2500   119.7440    -1.0380     6.4770    -8.3710    56.9830    10.5080    11.2370     8.9940     2.1070 
  120.3750   119.8650    -1.0390     6.5060    -9.9050    57.0030     9.0040     9.4670     8.5520     2.1340 
  120.5000   119.9870    -1.0400     6.5360   -11.6790    58.4610     7.0190     7.1990     9.0470     2.1750 
  120.6250   120.1080    -1.0410     6.5650   -13.6280    64.6590     5.3150     5.3410     8.3580     2.2250 
  120.7500   120.2300    -1.0420     6.5950   -15.6130    74.9510     4.2590     4.2790     5.2320     2.2720 
  120.8750   120.3510    -1.0430     6.6250   -17.4570    84.1680     3.5300     3.5590     3.2800     2.3060 
  121.0000   120.4730    -1.0450     6.6540   -18.9890    87.9030     3.1840     3.2470     3.1350     2.3250 
  121.1250   120.5940    -1.0460     6.6840   -20.0260    88.6380     3.1670     3.2940     3.0270     2.3350 
  121.2500   120.7150    -1.0470     6.7140   -20.5370    88.8150     3.6430     3.8330     2.9510     2.3370 
  121.3750   120.8370    -1.0480     6.7440   -20.5040    87.6700     4.7740     5.0970     3.3030     2.3230 
  121.5000   120.9580    -1.0490     6.7740   -20.0500    83.0450     6.3670     6.7970     4.0400     2.2870 
  121.6250   121.0790    -1.0500     6.8040   -19.2710    74.8110     8.1750     8.6550     4.5630     2.2330 
  121.7500   121.2010    -1.0510     6.8340   -18.3440    65.0010     9.6520    10.0690     4.7280     2.1810 
  121.8750   121.3220    -1.0520     6.8640   -17.4520    56.8960    10.4130    10.7460     4.8360     2.1540 
  122.0000   121.4430    -1.0530     6.8950   -16.7730    54.0120    10.6920    10.9660     5.5970     2.1660 
  122.1250   121.5640    -1.0540     6.9250   -16.4460    57.0820    10.5500    10.7950     7.6050     2.2140 
  122.2500   121.6860    -1.0550     6.9560   -16.4530    61.8250    10.0070    10.2920     8.7760     2.2690 
  122.3750   121.8070    -1.0550     6.9860   -16.7240    64.5700     9.2770     9.5420     7.9540     2.2920 
  122.5000   121.9280    -1.0560     7.0170   -17.1270    65.0850     8.2250     8.5050     7.2290     2.2720 
  122.6250   122.0490    -1.0570     7.0480   -17.6030    65.6530     7.0530     7.3140     6.4820     2.2290 
  122.7500   122.1700    -1.0580     7.0790   -18.1360    67.4040     6.1190     6.3360     5.4170     2.2000 
  122.8750   122.2910    -1.0590     7.1100   -18.7140    71.0790     5.4760     5.7300     5.0200     2.1990 
  123.0000   122.4130    -1.0600     7.1410   -19.2470    75.2190     5.3070     5.6080     4.7330     2.2110 
  123.1250   122.5340    -1.0610     7.1720   -19.5760    75.7530     5.7000     6.1360     4.2370     2.2150 
  123.2500   122.6550    -1.0620     7.2030   -19.6040    71.9020     6.5660     7.2170     4.1010     2.2040 
  123.3750   122.7760    -1.0620     7.2340   -19.3140    66.5830     8.2510     9.2720     4.2970     2.1840 
  123.5000   122.8970    -1.0630     7.2650   -18.8670    62.4120    11.1340    12.5410     4.4670     2.1680 
  123.6250   123.0180    -1.0640     7.2960   -18.4860    59.5870    13.4410    15.0830     4.6140     2.1810 
  123.7500   123.1390    -1.0650     7.3280   -18.3760    56.7310    13.8730    15.5000    16.1980     2.2340 
  123.8750   123.2600    -1.0660     7.3590   -18.7000    55.0680    12.3810    13.6730    47.6510     2.3230 
  124.0000   123.3810    -1.0670     7.3910   -19.4340    57.4050     9.3100    10.1750    57.5630     2.4090 
  124.1250   123.5020    -1.0670     7.4220   -20.5030    64.4390     6.8940     7.3970    27.4640     2.4480 
  124.2500   123.6230    -1.0680     7.4540   -21.7070    71.2000     5.5020     5.7810     5.8130     2.4300 
  124.3750   123.7430    -1.0690     7.4860   -22.8640    74.0520     4.7620     5.0840     4.2280     2.3740 
  124.5000   123.8640    -1.0700     7.5170   -23.8510    75.7750     4.5310     4.9870     4.5450     2.3170 
  124.6250   123.9850    -1.0710     7.5490   -24.6100    77.7550     4.4280     4.9630     4.9640     2.2780 
  124.7500   124.1060    -1.0720     7.5810   -25.1820    79.5930     4.2880     4.8370     4.7620     2.2570 
  124.8750   124.2270    -1.0730     7.6130   -25.6110    79.5170     3.9840     4.5050     4.0750     2.2530 
  125.0000   124.3480    -1.0740     7.6450   -25.9530    81.1790     3.6540     4.1420     3.4350     2.2640 
  125.1250   124.4690    -1.0750     7.6770   -26.2290    85.6480     3.4720     3.9050     3.0830     2.2850 
  125.2500   124.5890    -1.0760     7.7090   -26.4580    89.6080     3.4610     3.8670     3.2290     2.3090 
  125.3750   124.7100    -1.0770     7.7410   -26.6380    87.9280     3.6400     4.1030     3.6700     2.3280 
  125.5000   124.8310    -1.0780     7.7730   -26.7650    82.7410     3.9020     4.4950     3.9900     2.3400 
  125.6250   124.9520    -1.0790     7.8060   -26.8170    80.0830     4.2210     4.9180     4.2330     2.3400 
  125.7500   125.0730    -1.0800     7.8380   -26.7890    80.3710     4.5470     5.2780     4.4120     2.3270 
