~V
VERS. 2.00: Ver 2.00
~W
STRT.M 33.0000:
STOP.M 287.0000:
STEP.M 0.1250:
NULL. -999.2500:
UWI. FD10889:
~C
DEPT.M :
TVD. :
DX. :
DY. :
SP.MV :
GR.API :
RI. :
RML.OHMM :
RXO.OHMM :
DEN.GM/CC :
~A
# ...
  261.1250   228.9560   -62.5120   -75.2670   -14.2130    52.9170    56.6890    64.6210    64.2840     2.7150 
  261.2500   229.0440   -62.5560   -75.3450   -14.3740    49.5730    54.4620    61.9840    58.3640     2.6830 
  261.3750   229.1320   -62.5990   -75.4220   -14.1820    48.0900    51.7050    58.6480    59.1950     2.6420 
  261.5000   229.2200   -62.6420   -75.4990   -14.2720    49.8070    48.8870    55.3510    54.5280     2.6030 
  261.6250   229.3080   -62.6860   -75.5770   -14.2300    54.3590    46.4840    52.5010    47.4990     2.5710 
  261.7500   229.3960   -62.7290   -75.6540   -14.0550    59.1890    44.5240    50.1710    43.1640     2.5450 
  261.8750   229.4840   -62.7720   -75.7310   -13.7250    61.4230    42.3420    47.5980    60.9590     2.5280 
  262.0000   229.5730   -62.8160   -75.8080   -13.5200    62.9270    39.8920    44.7850    62.9890     2.5160 
  262.1250   229.6610   -62.8600   -75.8850   -13.3960    64.6790    37.1160    41.6580    45.8120     2.5030 
  262.2500   229.7490   -62.9030   -75.9620   -13.1800    66.7590    34.1870    38.4490    35.0500     2.4820 
  262.3750   229.8370   -62.9470   -76.0400   -13.0060    68.1020    31.8670    36.0030    35.5390     2.4600 
  262.5000   229.9250   -62.9900   -76.1170   -12.7240    68.1370    30.1670    35.0470    33.4880     2.4530 
  262.6250   230.0130   -63.0340   -76.1940   -12.4970    67.0410    29.3320    34.5820    33.3350     2.4700 
  262.7500   230.1010   -63.0770   -76.2710   -12.3060    66.0800    29.2650    31.8410    37.6090     2.5120 
  262.8750   230.1900   -63.1210   -76.3490   -12.0460    66.9640    29.5260    31.8410    35.0150     2.5620 
  263.0000   230.2780   -63.1640   -76.4260   -11.9160    67.4610    29.8930    31.8410    32.6730     2.6010 
  263.1250   230.3660   -63.2070   -76.5040   -11.8970    65.2200    30.3700    32.7300    32.7300     2.6170 
  263.2500   230.4540   -63.2510   -76.5810   -12.0480    62.7950    31.0340    32.7300    32.9150     2.6100 
  263.3750   230.5420   -63.2940   -76.6580   -12.1580    61.8830    31.6290    33.6430    36.4090     2.5880 
  263.5000   230.6300   -63.3380   -76.7360   -12.4600    64.2200    31.9370    34.8210    39.4450     2.5670 
  263.6250   230.7180   -63.3810   -76.8130   -12.8090    67.6240    31.8110    35.0610    38.8440     2.5550 
  263.7500   230.8060   -63.4250   -76.8900   -13.1890    68.7240    31.3430    35.0610    35.9440     2.5540 
  263.8750   230.8940   -63.4690   -76.9670   -13.4330    68.7880    31.1070    33.6430    33.1800     2.5570 
  264.0000   230.9820   -63.5120   -77.0450   -13.6470    68.9590    31.0450    32.9540    33.9500     2.5590 
  264.1250   231.0700   -63.5560   -77.1220   -13.8230    69.7340    30.6460    33.0300    34.2790     2.5640 
  264.2500   231.1580   -63.5990   -77.1990   -14.1100    66.0180    29.6930    32.1980    32.1290     2.5760 
  264.3750   231.2460   -63.6430   -77.2760   -14.4030    58.5780    27.6720    29.9950    28.8710     2.5960 
  264.5000   231.3340   -63.6870   -77.3540   -14.6400    52.2590    24.8180    26.8360    26.3000     2.6230 
  264.6250   231.4220   -63.7300   -77.4310   -14.7620    50.1140    22.0890    23.8150    25.0450     2.6500 
  264.7500   231.5100   -63.7740   -77.5080   -15.0150    50.9340    19.9560    21.5390    24.2250     2.6720 
  264.8750   231.5980   -63.8180   -77.5850   -15.2910    52.7070    18.8870    20.5580    21.9350     2.6890 
  265.0000   231.6870   -63.8610   -77.6630   -15.3060    55.3470    18.6680    20.4850    18.2840     2.6920 
  265.1250   231.7750   -63.9050   -77.7400   -15.4370    58.4200    18.2260    19.8520    15.2150     2.6730 
  265.2500   231.8630   -63.9490   -77.8170   -15.6910    61.0540    16.7520    18.1490    12.8820     2.6250 
  265.3750   231.9510   -63.9930   -77.8940   -15.9970    64.3320    14.5940    15.7420    11.6000     2.5590 
  265.5000   232.0390   -64.0370   -77.9710   -16.5360    69.5610    12.1990    13.1370    10.3170     2.4910 
  265.6250   232.1270   -64.0810   -78.0480   -16.9630    75.5390    10.1460    11.2080     9.1290     2.4340 
  265.7500   232.2150   -64.1250   -78.1250   -17.3730    81.5510     8.9080     9.9570     8.4420     2.4020 
  265.8750   232.3030   -64.1690   -78.2020   -17.7500    83.3380     8.1340     9.2560     8.0340     2.3930 
  266.0000   232.3910   -64.2130   -78.2790   -17.9380    81.5920     7.8260     9.0800     7.7210     2.4010 
  266.1250   232.4790   -64.2570   -78.3560   -18.2990    80.7240     7.7750     9.1510     7.6040     2.4080 
  266.2500   232.5670   -64.3010   -78.4330   -18.7840    81.7390     7.7730     9.2350     7.6870     2.4030 
  266.3750   232.6560   -64.3460   -78.5090   -19.1570    80.1800     7.7370     9.2420     7.9060     2.3830 
  266.5000   232.7440   -64.3900   -78.5860   -19.4330    75.1690     7.6380     9.1260     8.1510     2.3540 
  266.6250   232.8320   -64.4340   -78.6630   -19.7030    75.1360     7.4850     8.9360     8.2590     2.3250 
  266.7500   232.9200   -64.4780   -78.7400   -19.9350    80.3850     7.3060     8.6960     8.2830     2.3030 
  266.8750   233.0080   -64.5220   -78.8170   -20.6350    82.0130     7.1330     8.4210     8.3180     2.2930 
  267.0000   233.0960   -64.5670   -78.8930   -20.8670    77.1780     7.0280     8.2420     8.3080     2.2960 
  267.1250   233.1840   -64.6110   -78.9700   -20.4960    72.8820     7.0730     8.2490     8.3480     2.3150 
  267.2500   233.2730   -64.6550   -79.0470   -20.2810    73.2330     7.3210     8.5950     8.3800     2.3500 
  267.3750   233.3610   -64.6990   -79.1240   -20.3370    74.5990     7.6110     9.0450     7.1170     2.3940 
  267.5000   233.4490   -64.7440   -79.2000   -19.8990    73.5330     7.7660     9.3710     6.4560     2.4370 
  267.6250   233.5370   -64.7880   -79.2770   -19.1090    73.3660     7.6400     9.3550     6.3290     2.4690 
  267.7500   233.6260   -64.8320   -79.3540   -18.1330    77.4760     7.0390     8.6940     6.0560     2.4830 
  267.8750   233.7140   -64.8760   -79.4310   -17.0820    81.1490     6.2550     7.7800     5.7140     2.4760 
  268.0000   233.8020   -64.9200   -79.5070   -16.2760    77.7820     5.3840     6.7330     5.4670     2.4460 
  268.1250   233.8910   -64.9640   -79.5840   -15.8950    70.9660     4.6780     5.9090     5.3200     2.4010 
  268.2500   233.9790   -65.0080   -79.6610   -14.8010    70.1470     4.2560     5.4530     5.1600     2.3560 
  268.3750   234.0670   -65.0520   -79.7370   -13.7420    71.7450     4.0330     5.2450     4.9370     2.3250 
  268.5000   234.1560   -65.0960   -79.8140   -13.8720    69.5750     4.0260     5.2900     4.7120     2.3230 
  268.6250   234.2440   -65.1400   -79.8910   -14.2570    65.7590     4.1840     5.5480     4.5820     2.3570 
  268.7500   234.3320   -65.1840   -79.9670   -14.4520    63.0270     4.6650     6.1620     4.6730     2.4280 
  268.8750   234.4210   -65.2280   -80.0440   -14.5280    57.8980     5.5090     7.2470     5.0600     2.5140 
  269.0000   234.5090   -65.2720   -80.1210   -14.5180    52.3550     6.5540     8.5510     5.6670     2.5830 
  269.1250   234.5980   -65.3150   -80.1980   -14.2270    52.4320     7.5780     9.7860     6.3440     2.6170 
  269.2500   234.6860   -65.3590   -80.2740   -14.0650    56.3710     8.1210    10.4250     7.0380     2.6100 
  269.3750   234.7740   -65.4030   -80.3510   -14.0640    55.7740     8.1080    10.3690     7.5970     2.5780 
  269.5000   234.8630   -65.4470   -80.4280   -13.9350    49.6740     7.5420     9.5580     7.7890     2.5340 
  269.6250   234.9510   -65.4910   -80.5050   -13.7180    44.4040     6.6820     8.4450     7.4080     2.4970 
  269.7500   235.0400   -65.5340   -80.5810   -13.5740    44.5740     5.8710     7.4190     6.4810     2.4740 
  269.8750   235.1280   -65.5780   -80.6580   -13.3550    47.9970     5.2080     6.6300     5.6190     2.4640 
  270.0000   235.2160   -65.6220   -80.7350   -13.1010    51.5600     4.7860     6.1900     5.2440     2.4600 
  270.1250   235.3050   -65.6650   -80.8120   -12.9820    53.6540     4.5240     5.9260     5.2120     2.4570 
