~V
VERS. 2.00: Ver 2.00
~W
STRT.M 64.0000:
STOP.M 246.0000:
STEP.M 0.1250:
NULL. -999.2500:
UWI. FD10853:
~C
DEPT.M :
TVD. :
DX. :
DY. :
SP.MV :
GR.API :
RI. :
RML.OHMM :
RXO.OHMM :
DEN.GM/CC :
~A
# ...
  210.0000   207.2980   -22.5720    -7.9390   -12.3390    31.2240     1.6880     1.9800     2.4960     2.3400 
  210.1250   207.4180   -22.6030    -7.9510   -12.3370    30.1100     1.7120     2.0360     2.5860     2.3530 
  210.2500   207.5390   -22.6340    -7.9630   -12.2850    28.8060     1.7450     2.0980     2.5850     2.3780 
  210.3750   207.6590   -22.6650    -7.9740   -12.1950    28.0650     1.7540     2.1270     2.5860     2.3920 
  210.5000   207.7800   -22.6950    -7.9860   -12.1630    27.1720     1.7220     2.1040     2.6390     2.3900 
  210.6250   207.9000   -22.7260    -7.9980   -12.2370    25.9850     1.6540     2.0400     2.6180     2.3590 
  210.7500   208.0210   -22.7570    -8.0100   -12.3630    24.9150     1.5720     1.9580     2.4340     2.3230 
  210.8750   208.1420   -22.7880    -8.0220   -12.5680    25.1890     1.4950     1.8740     2.2300     2.3090 
  211.0000   208.2620   -22.8180    -8.0340   -12.7050    26.2480     1.4320     1.8040     2.1630     2.3250 
  211.1250   208.3830   -22.8490    -8.0460   -12.5420    26.6800     1.4050     1.7750     2.1630     2.3430 
  211.2500   208.5030   -22.8800    -8.0580   -12.0270    26.0410     1.4340     1.8160     2.1290     2.3490 
  211.3750   208.6240   -22.9100    -8.0690   -11.5010    24.8720     1.5170     1.9290     2.2990     2.3660 
  211.5000   208.7450   -22.9410    -8.0810   -11.1220    24.4500     1.6570     2.1210     3.2240     2.4030 
  211.6250   208.8650   -22.9720    -8.0930   -10.8280    24.0320     1.7940     2.3130     4.4350     2.4450 
  211.7500   208.9860   -23.0030    -8.1050   -10.6710    24.0000     1.9070     2.4660     4.5350     2.4540 
  211.8750   209.1060   -23.0340    -8.1160   -10.5930    24.6380     1.9640     2.5250     3.6090     2.4300 
  212.0000   209.2270   -23.0650    -8.1280   -10.5380    25.8490     1.9450     2.4850     2.8430     2.3940 
  212.1250   209.3470   -23.0960    -8.1400   -10.4150    26.2390     1.8810     2.4020     2.6100     2.3770 
  212.2500   209.4680   -23.1270    -8.1510   -10.3040    25.4910     1.7960     2.3020     2.6290     2.3830 
  212.3750   209.5880   -23.1580    -8.1630   -10.2640    24.2950     1.7110     2.2150     2.6270     2.3820 
  212.5000   209.7090   -23.1890    -8.1740   -10.3110    24.4290     1.6370     2.1420     2.5040     2.3640 
  212.6250   209.8290   -23.2200    -8.1860   -10.2920    25.9890     1.5730     2.0750     2.3380     2.3360 
  212.7500   209.9500   -23.2510    -8.1970   -10.2400    28.5430     1.5290     2.0360     2.2460     2.3260 
  212.8750   210.0700   -23.2820    -8.2090   -10.1870    30.2230     1.5130     2.0270     2.2420     2.3360 
  213.0000   210.1910   -23.3130    -8.2210   -10.1890    30.2370     1.5190     2.0400     2.2720     2.3590 
  213.1250   210.3110   -23.3440    -8.2320   -10.2790    30.2000     1.5450     2.0710     2.2820     2.3770 
  213.2500   210.4320   -23.3760    -8.2440   -10.3690    30.8510     1.5840     2.1130     2.2740     2.3800 
  213.3750   210.5520   -23.4070    -8.2550   -10.4370    32.0410     1.6310     2.1740     2.3020     2.3710 
  213.5000   210.6730   -23.4380    -8.2670   -10.4300    32.0790     1.6920     2.2530     2.3580     2.3600 
  213.6250   210.7930   -23.4690    -8.2790   -10.3700    31.1340     1.7560     2.3430     2.3880     2.3570 
  213.7500   210.9140   -23.5000    -8.2900   -10.3550    28.9000     1.8080     2.4190     2.4430     2.3640 
  213.8750   211.0340   -23.5310    -8.3020   -10.4670    27.1510     1.8420     2.4710     2.5700     2.3680 
  214.0000   211.1550   -23.5620    -8.3140   -10.5150    27.3140     1.8410     2.4740     2.6210     2.3610 
  214.1250   211.2760   -23.5930    -8.3260   -10.4500    28.6370     1.8030     2.4230     2.4990     2.3380 
  214.2500   211.3960   -23.6240    -8.3380   -10.4260    29.2890     1.7440     2.3500     2.3740     2.3100 
  214.3750   211.5170   -23.6550    -8.3490   -10.4470    29.1620     1.6840     2.2830     2.3990     2.2830 
  214.5000   211.6370   -23.6860    -8.3610   -10.4160    29.3210     1.6470     2.2590     2.4230     2.2750 
  214.6250   211.7580   -23.7170    -8.3730   -10.3110    30.2770     1.6510     2.2950     2.3190     2.2940 
  214.7500   211.8780   -23.7480    -8.3850   -10.1110    30.7980     1.6980     2.3920     2.2750     2.3320 
  214.8750   211.9990   -23.7790    -8.3960    -9.9860    31.9100     1.7660     2.5120     2.4020     2.3660 
  215.0000   212.1190   -23.8100    -8.4080    -9.9720    32.8120     1.8430     2.6360     2.5660     2.3790 
  215.1250   212.2400   -23.8410    -8.4200   -10.0350    33.8330     1.9020     2.7140     2.6740     2.3780 
  215.2500   212.3600   -23.8720    -8.4310   -10.1380    33.8690     1.9330     2.7350     2.7440     2.3710 
  215.3750   212.4810   -23.9020    -8.4430   -10.2600    33.4990     1.9360     2.7150     2.7820     2.3590 
  215.5000   212.6020   -23.9330    -8.4540   -10.3450    32.6480     1.9180     2.6720     2.7560     2.3470 
  215.6250   212.7220   -23.9640    -8.4660   -10.3650    31.4690     1.8980     2.6390     2.6960     2.3380 
  215.7500   212.8430   -23.9950    -8.4770   -10.3080    30.8980     1.8950     2.6330     2.6460     2.3410 
  215.8750   212.9630   -24.0260    -8.4890   -10.1670    30.8850     1.9080     2.6570     2.6190     2.3510 
  216.0000   213.0840   -24.0570    -8.5010   -10.0700    31.6300     1.9310     2.7020     2.6210     2.3630 
  216.1250   213.2040   -24.0880    -8.5120    -9.9600    32.5860     1.9540     2.7490     2.6460     2.3720 
  216.2500   213.3250   -24.1190    -8.5240    -9.8800    32.9990     1.9720     2.7850     2.6670     2.3780 
  216.3750   213.4450   -24.1500    -8.5350    -9.8230    33.2300     1.9660     2.7830     2.6570     2.3840 
  216.5000   213.5660   -24.1810    -8.5470    -9.7450    32.6410     1.9510     2.7510     2.6190     2.3900 
  216.6250   213.6870   -24.2120    -8.5580    -9.6750    31.4830     1.9220     2.6980     2.5680     2.3860 
  216.7500   213.8070   -24.2430    -8.5700    -9.5750    31.2100     1.8870     2.6420     2.5260     2.3730 
  216.8750   213.9280   -24.2740    -8.5810    -9.4800    32.0120     1.8680     2.6080     2.5080     2.3610 
  217.0000   214.0480   -24.3040    -8.5930    -9.4500    32.3760     1.8640     2.5980     2.5270     2.3560 
  217.1250   214.1690   -24.3350    -8.6040    -9.3990    31.3310     1.8800     2.6130     2.5630     2.3520 
  217.2500   214.2890   -24.3660    -8.6160    -9.3010    30.2840     1.9110     2.6480     2.5860     2.3530 
  217.3750   214.4100   -24.3970    -8.6280    -9.2310    30.9080     1.9520     2.6920     2.6280     2.3570 
  217.5000   214.5300   -24.4280    -8.6390    -9.2020    32.4790     1.9970     2.7380     2.7000     2.3660 
  217.6250   214.6510   -24.4590    -8.6500    -9.1790    33.4470     2.0450     2.7930     2.7500     2.3690 
  217.7500   214.7720   -24.4910    -8.6620    -9.0900    32.9680     2.0970     2.8460     2.7660     2.3750 
  217.8750   214.8920   -24.5220    -8.6730    -9.0110    31.7680     2.1360     2.8920     2.8180     2.3770 
  218.0000   215.0130   -24.5530    -8.6840    -8.9480    31.1220     2.1640     2.9160     2.9260     2.3740 
  218.1250   215.1330   -24.5840    -8.6960    -8.9890    31.7420     2.1720     2.9080     3.0020     2.3540 
  218.2500   215.2540   -24.6150    -8.7070    -9.1110    32.9060     2.1540     2.8680     3.0090     2.3300 
  218.3750   215.3740   -24.6460    -8.7180    -9.3230    32.6620     2.1210     2.8100     2.9380     2.3130 
  218.5000   215.4950   -24.6770    -8.7300    -9.5350    31.2670     2.0840     2.7470     2.7930     2.3110 
  218.6250   215.6150   -24.7080    -8.7410    -9.6550    29.1850     2.0530     2.7020     2.6870     2.3290 
  218.7500   215.7360   -24.7390    -8.7520    -9.7580    29.1790     2.0350     2.6760     2.6580     2.3530 
  218.8750   215.8560   -24.7700    -8.7640    -9.8690    29.5970     2.0230     2.6630     2.6410     2.3670 
  219.0000   215.9770   -24.8010    -8.7750    -9.8840    30.1560     2.0210     2.6640     2.6150     2.3590 
