~V
VERS. 2.00: Ver 2.00
~W
STRT.M 63.0000:
STOP.M 256.0000:
STEP.M 0.1250:
NULL. -999.2500:
UWI. FD10901:
~C
DEPT.M :
TVD. :
DX. :
DY. :
SP.MV :
GR.API :
RI. :
RML.OHMM :
RXO.OHMM :
DEN.GM/CC :
~A
# ...
  236.3750   233.2100    -6.9850   -25.2510    -5.9640    47.3760     1.6440     2.2050     2.6420     2.2700 
  236.5000   233.3300    -6.9930   -25.2850    -6.2150    46.4130     1.5800     2.1020     2.2720     2.2460 
  236.6250   233.4500    -7.0020   -25.3190    -6.3550    44.6340     1.5400     2.0550     2.1190     2.2310 
  236.7500   233.5700    -7.0110   -25.3530    -6.2860    42.5230     1.5220     2.0470     2.1580     2.2350 
  236.8750   233.6900    -7.0200   -25.3870    -5.9550    40.6530     1.5170     2.0580     2.2100     2.2540 
  237.0000   233.8100    -7.0290   -25.4210    -5.3670    39.3800     1.5070     2.0470     2.1690     2.2800 
  237.1250   233.9300    -7.0370   -25.4550    -4.9540    37.3640     1.4890     2.0170     2.0660     2.3000 
  237.2500   234.0500    -7.0460   -25.4890    -4.7290    35.3690     1.4690     1.9790     2.0010     2.3140 
  237.3750   234.1700    -7.0550   -25.5220    -4.4220    33.1280     1.4470     1.9620     1.9950     2.3130 
  237.5000   234.2900    -7.0640   -25.5560    -4.2120    32.2820     1.4280     1.9490     1.9700     2.3080 
  237.6250   234.4100    -7.0720   -25.5900    -4.3880    33.1180     1.4180     1.9510     1.9440     2.2890 
  237.7500   234.5300    -7.0810   -25.6240    -4.6030    35.9110     1.4320     1.9690     1.9750     2.2560 
  237.8750   234.6500    -7.0900   -25.6570    -4.4290    38.8650     1.4830     2.0170     2.0140     2.2140 
  238.0000   234.7700    -7.0990   -25.6910    -3.6810    39.1670     1.5930     2.1330     2.0640     2.1980 
  238.1250   234.8900    -7.1070   -25.7250    -2.8120    37.1060     1.7980     2.3730     2.3380     2.2260 
  238.2500   235.0110    -7.1160   -25.7590    -2.2600    34.0600     2.1290     2.7910     2.9170     2.2940 
  238.3750   235.1310    -7.1240   -25.7920    -1.8880    32.8070     2.5930     3.4110     3.5920     2.3700 
  238.5000   235.2510    -7.1330   -25.8260    -1.5030    32.9900     3.1050     4.1010     4.2830     2.4240 
  238.6250   235.3710    -7.1410   -25.8600    -1.3830    33.8660     3.5130     4.6190     5.5470     2.4300 
  238.7500   235.4910    -7.1500   -25.8930    -1.6060    35.4820     3.6950     4.8150     7.2090     2.3960 
  238.8750   235.6110    -7.1590   -25.9270    -1.6420    37.5980     3.5850     4.6180     7.3690     2.3400 
  239.0000   235.7310    -7.1670   -25.9610    -1.6390    39.9950     3.2780     4.1640     5.8100     2.2910 
  239.1250   235.8510    -7.1760   -25.9950    -1.6370    40.5400     2.8970     3.6720     4.5550     2.2570 
  239.2500   235.9710    -7.1840   -26.0280    -1.6340    39.4030     2.5930     3.3060     4.2370     2.2190 
  239.3750   236.0910    -7.1930   -26.0620    -1.6320    38.0400     2.3820     3.0570     4.1810     2.1750 
  239.5000   236.2110    -7.2020   -26.0960    -1.6290    38.2460     2.2410     2.8990     3.9290     2.1420 
  239.6250   236.3310    -7.2100   -26.1290    -1.6270    39.1140     2.1220     2.7510     3.3440     2.1500 
  239.7500   236.4510    -7.2190   -26.1630    -1.6240    39.0380     2.0020     2.6000     2.9910     2.1910 
  239.8750   236.5710    -7.2280   -26.1970    -1.7240    38.1180     1.8940     2.4700     3.0870     2.2360 
  240.0000   236.6910    -7.2370   -26.2300    -2.0000    36.3160     1.8120     2.3700     2.8820     2.2620 
  240.1250   236.8110    -7.2460   -26.2640    -2.2540    34.6470     1.7560     2.3010     2.4150     2.2680 
  240.2500   236.9310    -7.2550   -26.2980    -2.3940    31.8250     1.7160     2.2490     2.2280     2.2670 
  240.3750   237.0510    -7.2630   -26.3320    -2.4030    30.3410     1.7050     2.2340     2.2120     2.2720 
  240.5000   237.1710    -7.2720   -26.3650    -2.4590    29.0770     1.7010     2.2280     2.1810     2.2790 
  240.6250   237.2920    -7.2810   -26.3990    -2.6910    29.9800     1.7080     2.2290     2.1470     2.2860 
  240.7500   237.4120    -7.2900   -26.4330    -2.7910    31.4740     1.7210     2.2300     2.1500     2.2940 
  240.8750   237.5320    -7.2990   -26.4660    -2.8760    33.7410     1.7380     2.2430     2.1640     2.3060 
  241.0000   237.6520    -7.3080   -26.5000    -3.1810    35.3460     1.7570     2.2570     2.1870     2.3130 
  241.1250   237.7720    -7.3170   -26.5340    -3.5140    36.3790     1.7760     2.2900     2.2470     2.3160 
  241.2500   237.8920    -7.3260   -26.5680    -3.7690    37.3840     1.7900     2.3190     2.3410     2.3150 
  241.3750   238.0120    -7.3350   -26.6010    -3.9370    37.9100     1.7990     2.3330     2.3870     2.3180 
  241.5000   238.1320    -7.3440   -26.6350    -3.9620    37.9990     1.8030     2.3380     2.3370     2.3210 
  241.6250   238.2520    -7.3530   -26.6690    -3.9590    36.9050     1.7960     2.3290     2.2910     2.3270 
  241.7500   238.3720    -7.3620   -26.7030    -3.9570    35.5610     1.7800     2.3110     2.2910     2.3290 
  241.8750   238.4920    -7.3710   -26.7360    -3.9540    35.0250     1.7510     2.2860     2.2810     2.3340 
  242.0000   238.6120    -7.3800   -26.7700    -3.9300    35.3660     1.7180     2.2570     2.2490     2.3310 
  242.1250   238.7320    -7.3890   -26.8040    -3.6970    36.9070     1.6870     2.2200     2.2180     2.3230 
  242.2500   238.8520    -7.3990   -26.8380    -3.5520    37.7500     1.6730     2.2090     2.1940     2.3130 
  242.3750   238.9720    -7.4080   -26.8710    -3.5780    38.2820     1.6870     2.2230     2.1610     2.3090 
  242.5000   239.0920    -7.4170   -26.9050    -3.6050    37.8670     1.7430     2.2930     2.1670     2.3150 
  242.6250   239.2120    -7.4260   -26.9390    -3.6030    37.9950     1.8510     2.4370     2.2320     2.3270 
  242.7500   239.3320    -7.4350   -26.9730    -3.6000    38.3650     2.0030     2.6420     2.3180     2.3470 
  242.8750   239.4520    -7.4440   -27.0060    -3.5980    39.4960     2.1520     2.8420     2.4760     2.3650 
  243.0000   239.5720    -7.4540   -27.0400    -3.5950    40.3680     2.2470     2.9640     2.7930     2.3740 
  243.1250   239.6920    -7.4630   -27.0740    -3.5930    40.7550     2.2530     2.9610     3.1340     2.3680 
  243.2500   239.8120    -7.4720   -27.1070    -3.5900    40.5090     2.1840     2.8540     3.1640     2.3560 
  243.3750   239.9320    -7.4820   -27.1410    -3.5880    39.4260     2.0840     2.7110     2.9110     2.3500 
  243.5000   240.0520    -7.4910   -27.1750    -3.5850    38.2950     1.9890     2.5930     2.7070     2.3520 
  243.6250   240.1720    -7.5010   -27.2080    -3.5830    37.3690     1.9310     2.5200     2.6690     2.3580 
  243.7500   240.2920    -7.5100   -27.2420    -3.5800    37.0020     1.8990     2.4780     2.6890     2.3560 
  243.8750   240.4120    -7.5200   -27.2750    -3.5780    37.8410     1.9210     2.4990     2.6470     2.3470 
  244.0000   240.5320    -7.5290   -27.3090    -3.5750    39.7330     1.9790     2.5610     2.5600     2.3390 
  244.1250   240.6520    -7.5380   -27.3430    -3.5730    41.2250     2.0800     2.6990     2.5260     2.3400 
  244.2500   240.7720    -7.5470   -27.3760    -3.5700    42.8240     2.2020     2.8560     2.5790     2.3440 
  244.3750   240.8920    -7.5560   -27.4100    -3.5680    43.8320     2.2930     2.9650     3.0620     2.3490 
  244.5000   241.0120    -7.5650   -27.4440    -3.5650    44.6820     2.3290     2.9840     3.7010     2.3510 
  244.6250   241.1320    -7.5750   -27.4770    -3.5630    42.1310     2.2860     2.9030     3.5360     2.3470 
  244.7500   241.2520    -7.5840   -27.5110    -3.5600    39.0780     2.2040     2.7810     2.9240     2.3350 
  244.8750   241.3720    -7.5930   -27.5450    -3.5580    36.8040     2.1200     2.6630     2.6160     2.3210 
  245.0000   241.4920    -7.6020   -27.5780    -3.5550    37.2610     2.0640     2.5930     2.5260     2.3130 
  245.1250   241.6120    -7.6110   -27.6120    -3.5530    36.8220     2.0500     2.5720     2.5410     2.3190 
  245.2500   241.7320    -7.6200   -27.6450    -3.5500    35.9700     2.0730     2.5910     2.6310     2.3310 
  245.3750   241.8530    -7.6300   -27.6790    -3.5480    35.3970     2.1180     2.6290     2.6740     2.3460 
