~V
VERS. 2.00: Ver 2.00
~W
STRT.M 64.0000:
STOP.M 246.0000:
STEP.M 0.1250:
NULL. -999.2500:
UWI. FD10853:
~C
DEPT.M :
TVD. :
DX. :
DY. :
SP.MV :
GR.API :
RI. :
RML.OHMM :
RXO.OHMM :
DEN.GM/CC :
~A
# ...
   91.3750    91.3700    -0.1810    -0.3480   -11.0160    94.3250     6.8770     6.8770     6.9450     2.2760 
   91.5000    91.4950    -0.1850    -0.3490   -11.1520    94.9590     7.0830     7.0470     7.0710     2.2950 
   91.6250    91.6200    -0.1900    -0.3500   -11.3000    95.8040     6.7850     6.6850     6.4340     2.2980 
   91.7500    91.7450    -0.1940    -0.3510   -11.3560    98.0100     6.1100     5.9660     5.7860     2.2960 
   91.8750    91.8700    -0.1980    -0.3530   -11.2940   101.2360     5.2240     5.0580     5.1620     2.3060 
   92.0000    91.9950    -0.2020    -0.3540   -11.1550   105.2080     4.4020     4.2500     4.5220     2.3180 
   92.1250    92.1200    -0.2060    -0.3550   -10.9600   108.5770     3.8630     3.7350     4.1420     2.3280 
   92.2500    92.2450    -0.2110    -0.3560   -10.7550   110.5520     3.7400     3.6380     3.9460     2.3380 
   92.3750    92.3700    -0.2150    -0.3570   -10.4130   111.5800     4.0840     4.0440     3.8030     2.3820 
   92.5000    92.4950    -0.2200    -0.3580    -9.9520   109.1100     5.0490     5.1670     5.9310     2.4660 
   92.6250    92.6200    -0.2240    -0.3590    -9.4960   103.0900     6.8190     7.2280    12.8660     2.5490 
   92.7500    92.7440    -0.2290    -0.3600    -9.0060    93.2560     9.9430    10.7820    19.7770     2.5370 
   92.8750    92.8690    -0.2330    -0.3610    -8.2600    83.4820    14.0080    15.1710    20.2470     2.4230 
   93.0000    92.9940    -0.2380    -0.3630    -7.2390    77.2640    17.1080    18.1700    17.5450     2.2700 
   93.1250    93.1190    -0.2420    -0.3640    -5.8500    74.3530    18.7920    19.5490    16.7810     2.1780 
   93.2500    93.2440    -0.2470    -0.3650    -4.1670    73.2350    18.5640    18.8530    17.8800     2.1480 
   93.3750    93.3690    -0.2520    -0.3660    -2.3990    72.2630    17.5430    17.5720    18.7760     2.1410 
   93.5000    93.4940    -0.2560    -0.3670    -0.7830    73.0840    16.6610    16.6690    18.1890     2.1260 
   93.6250    93.6190    -0.2610    -0.3680     0.4850    75.9620    15.8020    15.8840    16.8050     2.1160 
   93.7500    93.7440    -0.2660    -0.3690     1.4620    79.7270    14.8900    15.1360    15.1710     2.1180 
   93.8750    93.8690    -0.2700    -0.3710     1.9840    80.6490    14.1310    14.5830    14.0100     2.1290 
   94.0000    93.9940    -0.2750    -0.3720     2.1470    80.0450    13.7000    14.3180    14.1300     2.1390 
   94.1250    94.1180    -0.2800    -0.3730     2.2960    78.2750    13.5180    14.2530    14.5550     2.1430 
   94.2500    94.2430    -0.2850    -0.3740     2.4490    77.7460    13.6210    14.4220    14.6610     2.1400 
   94.3750    94.3680    -0.2900    -0.3760     2.6610    74.9320    14.1070    14.9810    14.7900     2.1310 
   94.5000    94.4930    -0.2950    -0.3770     3.1370    72.4810    15.4380    16.4350    15.0200     2.1140 
   94.6250    94.6180    -0.3000    -0.3780     3.6810    69.8670    17.3990    18.5810    16.7650     2.0960 
   94.7500    94.7430    -0.3050    -0.3790     4.2250    69.4260    20.1810    21.6270    20.8240     2.0850 
   94.8750    94.8680    -0.3100    -0.3800     4.9780    69.7940    23.0310    24.6330    24.9170     2.0880 
   95.0000    94.9930    -0.3150    -0.3820     5.8670    69.0860    25.0570    26.5960    27.3700     2.0980 
   95.1250    95.1180    -0.3200    -0.3830     6.8990    68.2030    26.0510    27.3460    27.4620     2.1060 
   95.2500    95.2420    -0.3260    -0.3840     7.9040    66.9040    25.8510    26.8190    26.3480     2.1030 
   95.3750    95.3670    -0.3310    -0.3860     8.4980    66.9710    24.9820    25.7940    25.6450     2.0950 
   95.5000    95.4920    -0.3360    -0.3870     8.7690    65.9180    24.1900    25.0270    25.1560     2.0890 
   95.6250    95.6170    -0.3420    -0.3880     8.8150    65.5600    23.7710    24.7530    25.0590     2.0970 
   95.7500    95.7420    -0.3470    -0.3890     8.7050    64.9630    23.8320    24.9750    24.8860     2.1120 
   95.8750    95.8670    -0.3530    -0.3910     8.5250    65.2340    24.0650    25.3320    24.7140     2.1260 
   96.0000    95.9920    -0.3580    -0.3920     8.2330    65.9040    24.2670    25.6350    24.9250     2.1390 
   96.1250    96.1170    -0.3640    -0.3930     7.8160    67.4910    24.3840    25.8470    25.6470     2.1530 
   96.2500    96.2410    -0.3690    -0.3950     7.3450    68.6380    24.5400    26.0970    26.1000     2.1650 
   96.3750    96.3660    -0.3750    -0.3960     7.0990    69.0410    24.7880    26.4190    26.1200     2.1760 
   96.5000    96.4910    -0.3810    -0.3970     6.9210    69.4740    25.1890    26.8430    26.1200     2.1850 
   96.6250    96.6160    -0.3870    -0.3990     6.7180    70.8380    25.6390    27.2470    26.1200     2.1830 
   96.7500    96.7410    -0.3930    -0.4000     6.4260    70.9980    25.9930    27.4630    25.7850     2.1670 
   96.8750    96.8660    -0.3990    -0.4020     6.2870    70.0770    26.0950    27.3410    25.0980     2.1470 
   97.0000    96.9910    -0.4050    -0.4030     6.3620    68.1290    25.7360    26.7300    24.5470     2.1360 
   97.1250    97.1150    -0.4110    -0.4040     6.6210    67.7660    25.0520    25.8350    24.0770     2.1290 
   97.2500    97.2400    -0.4170    -0.4060     6.8940    69.7840    24.2650    24.9310    24.0350     2.1240 
   97.3750    97.3650    -0.4230    -0.4070     7.0570    70.7800    23.6200    24.2380    23.9480     2.1250 
   97.5000    97.4900    -0.4290    -0.4080     7.0530    69.4260    23.1720    23.7680    23.7740     2.1360 
   97.6250    97.6150    -0.4360    -0.4100     6.8260    67.1520    22.9130    23.4910    23.7100     2.1510 
   97.7500    97.7400    -0.4420    -0.4110     6.5650    68.2260    22.7520    23.3000    23.7100     2.1630 
   97.8750    97.8640    -0.4480    -0.4130     6.2670    73.0280    22.6670    23.1890    23.7100     2.1720 
   98.0000    97.9890    -0.4550    -0.4140     5.8840    76.1860    22.6680    23.1670    23.7100     2.1740 
   98.1250    98.1140    -0.4610    -0.4150     5.4920    75.7730    22.7630    23.2430    23.7100     2.1650 
   98.2500    98.2390    -0.4670    -0.4170     5.1510    73.1750    22.9010    23.3640    23.7100     2.1470 
   98.3750    98.3640    -0.4740    -0.4180     4.7920    72.2730    23.0210    23.4600    23.8200     2.1320 
   98.5000    98.4890    -0.4800    -0.4190     4.4020    72.2920    23.0820    23.4800    24.0220     2.1320 
   98.6250    98.6130    -0.4870    -0.4210     4.0120    71.1630    23.0550    23.4140    24.0400     2.1330 
   98.7500    98.7380    -0.4930    -0.4220     3.7570    69.0610    22.9490    23.2820    24.0400     2.1300 
   98.8750    98.8630    -0.5000    -0.4230     3.5740    68.4300    22.8260    23.1760    24.0400     2.1170 
   99.0000    98.9880    -0.5060    -0.4250     3.2830    67.7250    22.7690    23.1640    24.0400     2.1120 
   99.1250    99.1130    -0.5130    -0.4260     2.7670    67.3550    22.7970    23.2490    24.1140     2.1060 
   99.2500    99.2370    -0.5200    -0.4270     2.1060    66.2310    22.9080    23.4190    24.3470     2.1050 
   99.3750    99.3620    -0.5270    -0.4290     1.4750    66.1220    23.0570    23.6220    24.6010     2.1020 
   99.5000    99.4870    -0.5330    -0.4300     0.9770    65.0450    23.2030    23.8190    24.7620     2.1040 
   99.6250    99.6120    -0.5400    -0.4320     0.7360    64.1510    23.3320    23.9910    24.9820     2.1060 
   99.7500    99.7370    -0.5470    -0.4330     0.5630    64.7690    23.3770    24.0690    25.0590     2.1120 
   99.8750    99.8610    -0.5540    -0.4340     0.4900    66.5650    23.3300    24.0490    25.0460     2.1180 
  100.0000    99.9860    -0.5610    -0.4360     0.3530    68.3970    23.1780    23.9170    24.8740     2.1220 
  100.1250   100.1110    -0.5690    -0.4370     0.1770    68.8030    22.9740    23.7270    24.4760     2.1210 
  100.2500   100.2360    -0.5760    -0.4380    -0.0610    68.4950    22.7170    23.4940    23.9280     2.1150 
  100.3750   100.3610    -0.5830    -0.4400    -0.4610    67.4740    22.3670    23.1610    23.5290     2.1160 
