~V
VERS. 2.00: Ver 2.00
~W
STRT.M 50.0000:
STOP.M 287.0000:
STEP.M 0.1250:
NULL. -999.2500:
UWI. FD10894:
~C
DEPT.M :
TVD. :
DX. :
DY. :
SP.MV :
GR.API :
RI. :
RML.OHMM :
RXO.OHMM :
DEN.GM/CC :
~A
# ...
  186.8750   181.1980    31.1310     6.9450    -6.7090    51.1300    12.2080    13.6270    17.0820     2.4290 
  187.0000   181.3120    31.1810     6.9540    -7.0980    50.6090    12.2310    13.7170    18.2910     2.4320 
  187.1250   181.4260    31.2320     6.9630    -7.5490    50.5270    12.1850    13.7060    18.6610     2.4360 
  187.2500   181.5400    31.2820     6.9720    -8.0430    50.6670    12.2620    13.7700    18.9980     2.4400 
  187.3750   181.6540    31.3320     6.9810    -8.5710    50.8890    12.4550    13.9340    18.4760     2.4450 
  187.5000   181.7680    31.3830     6.9900    -9.1200    50.6480    12.8670    14.3690    17.6550     2.4470 
  187.6250   181.8820    31.4330     6.9990    -9.6780    49.6370    13.5140    15.1290    19.1540     2.4430 
  187.7500   181.9960    31.4830     7.0080   -10.2270    48.6890    14.3020    16.0430    20.3860     2.4340 
  187.8750   182.1100    31.5340     7.0170   -10.7410    49.6370    15.1870    17.0620    21.4050     2.4240 
  188.0000   182.2240    31.5840     7.0260   -11.1970    50.9100    16.1260    18.1010    22.4750     2.4180 
  188.1250   182.3380    31.6340     7.0360   -11.5710    51.4590    16.6950    18.7290    24.6110     2.4200 
  188.2500   182.4520    31.6850     7.0450   -11.8700    52.6500    16.7620    18.7950    24.0970     2.4270 
  188.3750   182.5660    31.7350     7.0540   -12.1130    53.9770    16.3160    18.2720    22.0100     2.4360 
  188.5000   182.6800    31.7860     7.0640   -12.3440    54.8120    15.4970    17.3310    20.6720     2.4440 
  188.6250   182.7940    31.8360     7.0730   -12.6030    54.9130    14.6520    16.3410    19.5530     2.4480 
  188.7500   182.9080    31.8870     7.0830   -12.9090    53.9340    13.8590    15.4820    18.3620     2.4480 
  188.8750   183.0220    31.9370     7.0930   -13.2550    53.0700    13.3420    14.9540    17.4880     2.4440 
  189.0000   183.1360    31.9870     7.1020   -13.6040    53.8880    13.2000    14.8480    16.7720     2.4340 
  189.1250   183.2500    32.0380     7.1120   -13.9050    54.7200    13.4220    15.1600    17.9840     2.4210 
  189.2500   183.3640    32.0880     7.1220   -14.1190    53.6590    13.9350    15.7420    18.7500     2.4090 
  189.3750   183.4780    32.1390     7.1310   -14.2180    52.4540    14.5020    16.3720    19.4150     2.4010 
  189.5000   183.5920    32.1900     7.1410   -14.2150    53.2200    15.1190    17.0770    20.2910     2.4010 
  189.6250   183.7060    32.2400     7.1500   -14.1320    53.4380    15.8040    17.8480    22.0620     2.4060 
  189.7500   183.8200    32.2910     7.1590   -14.0110    52.1360    16.4580    18.5880    23.1100     2.4130 
  189.8750   183.9340    32.3420     7.1680   -13.8860    52.1030    16.9380    19.1660    24.0990     2.4170 
  190.0000   184.0470    32.3920     7.1770   -13.7800    53.1900    17.2230    19.4980    26.5660     2.4180 
  190.1250   184.1610    32.4430     7.1870   -13.7090    53.8190    17.1160    19.3600    27.7010     2.4150 
  190.2500   184.2750    32.4940     7.1960   -13.6690    53.6190    16.6430    18.7770    25.4790     2.4080 
  190.3750   184.3890    32.5440     7.2050   -13.6580    52.6740    15.8880    17.8870    23.2860     2.3990 
  190.5000   184.5030    32.5950     7.2140   -13.6680    50.8210    15.0690    16.9680    20.3860     2.3910 
  190.6250   184.6170    32.6460     7.2230   -13.6980    49.0500    14.5550    16.4320    20.9620     2.3910 
  190.7500   184.7310    32.6970     7.2330   -13.7470    49.3390    14.5470    16.5010    21.2560     2.3990 
  190.8750   184.8440    32.7480     7.2410   -13.8120    50.1780    14.8980    16.9880    22.3230     2.4130 
  191.0000   184.9580    32.7980     7.2500   -13.8840    49.8270    15.3580    17.6230    23.1100     2.4280 
  191.1250   185.0720    32.8490     7.2590   -13.9420    49.7440    15.6340    18.0440    24.6070     2.4400 
  191.2500   185.1860    32.9000     7.2680   -13.9690    52.2730    15.5980    18.0740    23.1100     2.4490 
  191.3750   185.3000    32.9510     7.2770   -13.9560    55.2580    15.2170    17.6700    20.6030     2.4510 
  191.5000   185.4130    33.0020     7.2860   -13.9190    55.9200    14.6810    17.1350    19.2800     2.4480 
  191.6250   185.5270    33.0530     7.2950   -13.8940    54.1980    14.1990    16.6980    18.0610     2.4420 
  191.7500   185.6410    33.1040     7.3030   -13.9250    52.5490    13.8800    16.4590    17.7040     2.4370 
  191.8750   185.7550    33.1560     7.3120   -14.0560    52.2540    13.7750    16.4440    17.4010     2.4360 
  192.0000   185.8680    33.2070     7.3210   -14.2850    53.0110    13.7250    16.4030    16.7570     2.4380 
  192.1250   185.9820    33.2580     7.3300   -14.5950    53.4740    13.7600    16.3460    16.7180     2.4400 
  192.2500   186.0960    33.3090     7.3400   -14.9320    53.5850    13.8600    16.3150    16.8640     2.4370 
  192.3750   186.2100    33.3600     7.3490   -15.2430    53.4590    14.1630    16.5280    16.7670     2.4290 
  192.5000   186.3230    33.4110     7.3580   -15.4950    52.2060    14.5690    16.8720    17.1370     2.4170 
  192.6250   186.4370    33.4620     7.3680   -15.6730    50.3420    15.0070    17.2800    17.5310     2.4040 
  192.7500   186.5510    33.5130     7.3770   -15.7980    48.4160    15.2300    17.4030    18.0160     2.3960 
  192.8750   186.6640    33.5640     7.3860   -15.8980    47.5490    14.9930    16.9770    17.8920     2.3920 
  193.0000   186.7780    33.6150     7.3960   -16.0070    48.0070    14.3040    16.0820    16.4040     2.3920 
  193.1250   186.8920    33.6660     7.4050   -16.1530    49.7340    12.8630    14.3490    14.7960     2.3910 
  193.2500   187.0060    33.7170     7.4140   -16.3520    52.9630    10.8910    12.0310    13.0630     2.3870 
  193.3750   187.1190    33.7680     7.4240   -16.6170    56.6240     8.7860     9.5710    10.8260     2.3800 
  193.5000   187.2330    33.8190     7.4330   -16.9480    59.3750     6.9620     7.4220     8.6190     2.3760 
  193.6250   187.3470    33.8700     7.4430   -17.3500    62.8990     5.8230     6.0980     6.8400     2.3770 
  193.7500   187.4600    33.9210     7.4520   -17.8120    69.8140     5.3450     5.5320     5.9180     2.3830 
  193.8750   187.5740    33.9720     7.4620   -18.3250    78.9350     5.3600     5.5200     5.9680     2.3910 
  194.0000   187.6880    34.0230     7.4710   -18.8550    85.6960     5.7860     5.9780     6.7050     2.3970 
  194.1250   187.8020    34.0750     7.4810   -19.3550    88.5230     6.5210     6.7970     8.1950     2.3950 
  194.2500   187.9150    34.1260     7.4900   -19.7740    87.8190     7.4120     7.7660    10.3160     2.3870 
  194.3750   188.0290    34.1770     7.5000   -20.0450    83.7090     8.0940     8.5190    11.5290     2.3750 
  194.5000   188.1430    34.2280     7.5090   -20.1470    78.4980     8.4120     8.8640    11.1110     2.3630 
  194.6250   188.2560    34.2790     7.5180   -20.0610    76.4760     8.2620     8.6680    10.3000     2.3530 
  194.7500   188.3700    34.3300     7.5270   -19.8320    77.3640     7.7860     8.1530     9.5680     2.3470 
  194.8750   188.4840    34.3810     7.5370   -19.5060    80.0700     7.3530     7.7070     9.2320     2.3420 
  195.0000   188.5970    34.4320     7.5460   -19.1480    81.7150     7.1810     7.5890     9.0480     2.3380 
  195.1250   188.7110    34.4830     7.5560   -18.7960    81.5720     7.5020     8.0990     8.6770     2.3330 
  195.2500   188.8250    34.5340     7.5650   -18.4600    80.1210     8.4720     9.4140     9.8460     2.3260 
  195.3750   188.9380    34.5860     7.5750   -18.1230    78.3060    10.8940    12.4390    13.5890     2.3210 
  195.5000   189.0520    34.6370     7.5840   -17.7510    77.0770    14.2720    16.4550    20.7620     2.3170 
  195.6250   189.1660    34.6880     7.5940   -17.3150    75.1950    18.5910    21.4380    33.0140     2.3160 
  195.7500   189.2800    34.7390     7.6040   -16.8120    72.3890    23.2260    26.5490    41.5390     2.3180 
  195.8750   189.3930    34.7900     7.6130   -16.2550    68.9190    26.9110    30.5510    43.0980     2.3220 
