~V
VERS. 2.00: Ver 2.00
~W
STRT.M 40.0000:
STOP.M 276.0000:
STEP.M 0.1250:
NULL. -999.2500:
UWI. FD10882:
~C
DEPT.M :
TVD. :
DX. :
DY. :
SP.MV :
GR.API :
RI. :
RML.OHMM :
RXO.OHMM :
DEN.GM/CC :
~A
# ...
  195.1250   185.8230   -35.2680   -26.9640    -4.9450    81.4770     4.3360     4.8340     5.7570     2.3830 
  195.2500   185.9310   -35.3190   -27.0020    -5.1170    80.4710     4.4730     4.9850     6.3090     2.4300 
  195.3750   186.0390   -35.3700   -27.0380    -5.3180    77.3660     4.8310     5.4120     9.5030     2.4800 
  195.5000   186.1470   -35.4210   -27.0750    -5.5370    72.0820     5.4910     6.2180    15.9740     2.5090 
  195.6250   186.2550   -35.4730   -27.1120    -5.6640    65.6370     6.8000     7.8400    23.1790     2.4910 
  195.7500   186.3630   -35.5240   -27.1490    -5.6580    60.5110     9.1380    10.6610    27.2850     2.4300 
  195.8750   186.4700   -35.5750   -27.1860    -5.6050    57.6420    12.4130    14.4590    27.0810     2.3420 
  196.0000   186.5780   -35.6270   -27.2230    -5.6780    56.8080    15.8060    18.2290    25.0250     2.2710 
  196.1250   186.6860   -35.6780   -27.2600    -5.6700    58.6060    18.4310    20.9400    23.2050     2.2270 
  196.2500   186.7940   -35.7300   -27.2970    -5.6230    60.9250    19.5790    21.8990    22.2040     2.1960 
  196.3750   186.9020   -35.7810   -27.3330    -5.5880    63.9090    19.7080    21.7620    21.8140     2.1660 
  196.5000   187.0100   -35.8330   -27.3700    -5.5510    65.4630    19.4550    21.3080    21.6660     2.1480 
  196.6250   187.1170   -35.8840   -27.4070    -5.4860    66.7290    19.2290    20.9820    21.6140     2.1470 
  196.7500   187.2250   -35.9350   -27.4430    -5.3700    66.0260    19.2090    20.9690    21.4130     2.1560 
  196.8750   187.3330   -35.9870   -27.4800    -5.2340    63.7560    19.2070    21.0790    20.9660     2.1610 
  197.0000   187.4410   -36.0380   -27.5170    -5.1490    60.0760    18.8000    20.6870    20.6320     2.1630 
  197.1250   187.5490   -36.0890   -27.5540    -5.0640    58.5000    17.9000    19.6990    20.5630     2.1690 
  197.2500   187.6570   -36.1400   -27.5910    -4.9720    58.9420    16.4260    18.0570    20.0980     2.1860 
  197.3750   187.7650   -36.1910   -27.6280    -4.8830    60.7020    14.9030    16.3350    18.6950     2.2350 
  197.5000   187.8730   -36.2430   -27.6650    -4.7780    60.8810    13.7660    15.1050    17.4090     2.3150 
  197.6250   187.9800   -36.2940   -27.7020    -4.6790    59.5870    13.2350    14.6000    17.9970     2.4310 
  197.7500   188.0880   -36.3450   -27.7390    -4.5970    56.7040    13.5090    15.0160    20.4040     2.5510 
  197.8750   188.1960   -36.3960   -27.7770    -4.5870    54.7100    14.6230    16.3990    22.8170     2.6330 
  198.0000   188.3040   -36.4470   -27.8140    -4.5760    53.5290    16.1720    18.1910    23.5320     2.6230 
  198.1250   188.4120   -36.4980   -27.8510    -4.6320    54.3790    17.6660    19.8450    22.6670     2.5080 
  198.2500   188.5200   -36.5490   -27.8880    -4.6430    54.3970    18.7420    20.9410    22.0280     2.3540 
  198.3750   188.6280   -36.6000   -27.9260    -4.6460    54.0800    19.2780    21.4940    23.5260     2.2760 
  198.5000   188.7350   -36.6510   -27.9630    -4.6800    53.0490    19.7940    22.0890    27.2980     2.3180 
  198.6250   188.8430   -36.7020   -28.0000    -4.6610    53.1930    20.2940    22.7140    30.9870     2.4310 
  198.7500   188.9510   -36.7530   -28.0380    -4.5770    53.2930    20.6310    23.1360    31.5370     2.5050 
  198.8750   189.0590   -36.8040   -28.0750    -4.5670    54.1000    20.5970    23.1010    28.2540     2.4660 
  199.0000   189.1670   -36.8550   -28.1130    -4.5970    54.9730    20.1330    22.5660    23.8890     2.3570 
  199.1250   189.2750   -36.9060   -28.1500    -4.6560    57.2310    19.3850    21.7690    20.9660     2.2560 
  199.2500   189.3820   -36.9570   -28.1870    -4.7150    59.1190    18.6300    21.0260    19.8450     2.2110 
  199.3750   189.4900   -37.0080   -28.2250    -4.7140    59.7810    18.1020    20.5760    19.9050     2.2130 
  199.5000   189.5980   -37.0590   -28.2620    -4.7070    59.0630    17.8440    20.4050    20.2500     2.2240 
  199.6250   189.7060   -37.1110   -28.2990    -4.6950    58.1250    17.6290    20.2530    20.3580     2.2270 
  199.7500   189.8140   -37.1620   -28.3360    -4.7610    57.9230    17.4650    20.1550    20.2160     2.2200 
  199.8750   189.9210   -37.2130   -28.3730    -4.9010    56.1760    17.5450    20.3220    20.0950     2.2120 
  200.0000   190.0290   -37.2640   -28.4100    -5.0850    54.1850    17.7510    20.6430    20.3900     2.2150 
  200.1250   190.1370   -37.3160   -28.4470    -5.2540    52.4190    17.9550    20.9760    21.3220     2.2460 
  200.2500   190.2450   -37.3670   -28.4840    -5.3490    51.9420    18.1300    21.2840    22.0230     2.3010 
  200.3750   190.3530   -37.4180   -28.5210    -5.3670    51.4570    17.9970    21.1990    21.4130     2.3590 
  200.5000   190.4610   -37.4690   -28.5580    -5.3820    50.1450    17.4170    20.5560    20.1400     2.4170 
  200.6250   190.5680   -37.5200   -28.5950    -5.3820    49.0490    16.2930    19.2730    19.2450     2.4740 
  200.7500   190.6760   -37.5720   -28.6320    -5.3640    49.6060    14.7190    17.4460    18.1900     2.5060 
  200.8750   190.7840   -37.6230   -28.6690    -5.2960    53.3650    12.9600    15.3930    16.0080     2.4690 
  201.0000   190.8920   -37.6740   -28.7060    -5.1810    59.0980    11.3500    13.5220    13.5140     2.3740 
  201.1250   191.0000   -37.7250   -28.7430    -5.0870    62.9780    10.0740    12.0060    12.0960     2.2860 
  201.2500   191.1080   -37.7760   -28.7800    -5.0440    63.6510     9.1800    10.9980    11.8860     2.2440 
  201.3750   191.2160   -37.8280   -28.8170    -5.0120    62.4610     8.6970    10.5170    12.5670     2.2430 
  201.5000   191.3240   -37.8790   -28.8540    -5.0060    62.3410     8.5380    10.4000    13.6350     2.2490 
  201.6250   191.4310   -37.9300   -28.8910    -5.0430    64.1480     8.4750    10.3810    14.2670     2.2480 
  201.7500   191.5390   -37.9810   -28.9280    -5.0800    66.6510     8.3680    10.3090    13.7970     2.2480 
  201.8750   191.6470   -38.0320   -28.9650    -5.0860    67.2800     7.9930     9.9020    12.3150     2.2490 
  202.0000   191.7550   -38.0830   -29.0020    -5.0010    65.8830     7.3300     9.1560    10.6530     2.2540 
  202.1250   191.8630   -38.1350   -29.0390    -4.9140    64.6020     6.4980     8.1810     9.2730     2.2580 
  202.2500   191.9710   -38.1860   -29.0760    -4.7730    67.1030     5.5270     6.9950     8.0260     2.2680 
  202.3750   192.0790   -38.2370   -29.1130    -4.5570    72.2320     4.6650     5.9200     6.7720     2.2840 
  202.5000   192.1870   -38.2880   -29.1500    -4.2910    77.5250     3.8810     4.9440     5.6740     2.3020 
  202.6250   192.2940   -38.3390   -29.1870    -3.9430    78.8900     3.2660     4.1930     4.9360     2.3200 
  202.7500   192.4020   -38.3910   -29.2240    -3.6630    78.5290     2.8800     3.7720     4.4160     2.3370 
  202.8750   192.5100   -38.4420   -29.2600    -3.5110    77.1690     2.7070     3.6370     3.8820     2.3520 
  203.0000   192.6180   -38.4940   -29.2960    -3.4110    77.8470     2.6590     3.6500     3.4080     2.3560 
  203.1250   192.7260   -38.5460   -29.3330    -3.3500    80.2330     2.6680     3.7140     3.1390     2.3540 
  203.2500   192.8340   -38.5970   -29.3690    -3.2270    82.0100     2.6840     3.7460     3.0830     2.3540 
  203.3750   192.9420   -38.6490   -29.4050    -3.1100    81.1490     2.6910     3.7320     3.0840     2.3610 
  203.5000   193.0500   -38.7000   -29.4420    -3.1180    79.5960     2.6800     3.6830     3.1030     2.3670 
  203.6250   193.1580   -38.7510   -29.4780    -3.2140    79.2430     2.6540     3.6170     3.1210     2.3640 
  203.7500   193.2660   -38.8020   -29.5150    -3.1950    81.5550     2.6270     3.5700     3.0900     2.3580 
  203.8750   193.3740   -38.8540   -29.5520    -2.9880    83.4400     2.6060     3.5360     3.0070     2.3490 
  204.0000   193.4820   -38.9050   -29.5880    -2.7810    84.8960     2.5950     3.5160     2.9510     2.3470 
  204.1250   193.5900   -38.9560   -29.6250    -2.7570    83.1950     2.5980     3.5050     2.9970     2.3460 
