~V
VERS. 2.00: Ver 2.00
~W
STRT.M 15.0000:
STOP.M 236.0000:
STEP.M 0.1250:
NULL. -999.2500:
UWI. FD10614:
~C
DEPT.M :
TVD. :
DX. :
DY. :
DEN.GM/CC :
GR.API :
RML.OHMM :
RI. :
RXO.OHMM :
CALI.CM :
SP.MV :
~A
# ...
  188.2500   177.3500    42.9660    20.9320     2.4260   107.7880    10.0900     8.9650     8.4740    20.3740   -17.9600 
  188.3750   177.4560    43.0260    20.9620     2.4280   110.2740     9.8640     8.6440     7.7930    20.3350   -17.9760 
  188.5000   177.5620    43.0850    20.9910     2.4370   110.4280     9.7520     8.4050     7.4870    20.3240   -17.9040 
  188.6250   177.6680    43.1440    21.0210     2.4540   109.4150    10.0740     8.4930     7.7790    20.4130   -17.9080 
  188.7500   177.7750    43.2030    21.0500     2.4720   109.6440    11.0380     9.0560     8.4990    20.5650   -17.8970 
  188.8750   177.8810    43.2620    21.0790     2.4850   107.8940    12.8450    10.2650    10.0900    20.6640   -17.9180 
  189.0000   177.9870    43.3210    21.1090     2.4850    99.3930    15.6130    12.2900    13.5290    20.7010   -17.9530 
  189.1250   178.0930    43.3800    21.1380     2.4700    85.8820    19.4400    15.4120    19.4760    20.6860   -18.0470 
  189.2500   178.1990    43.4400    21.1670     2.4500    77.8460    23.8340    19.3510    23.5390    20.6770   -18.1260 
  189.3750   178.3050    43.4990    21.1970     2.4360    76.3150    28.2680    23.6540    24.7230    20.6720   -18.2690 
  189.5000   178.4110    43.5580    21.2260     2.4350    75.5970    32.1790    27.6520    23.2250    20.6730   -18.4960 
  189.6250   178.5170    43.6170    21.2550     2.4420    72.2240    35.0610    30.6510    20.9180    20.6710   -18.6920 
  189.7500   178.6240    43.6760    21.2850     2.4460    68.7990    37.1210    32.7760    19.8350    20.6680   -18.8060 
  189.8750   178.7300    43.7350    21.3140     2.4380    68.3540    38.6330    34.3240    20.4670    20.6670   -18.9000 
  190.0000   178.8360    43.7950    21.3440     2.4200    70.9640    39.8350    35.5480    21.3930    20.6690   -18.9830 
  190.1250   178.9420    43.8540    21.3730     2.3970    72.6560    40.7760    36.5050    22.0650    20.6730   -19.0950 
  190.2500   179.0480    43.9130    21.4020     2.3800    72.2800    41.4670    37.2310    22.1950    20.6700   -19.2400 
  190.3750   179.1540    43.9720    21.4320     2.3710    72.3440    41.8900    37.7330    22.3380    20.6550   -19.4000 
  190.5000   179.2600    44.0310    21.4610     2.3700    73.8290    42.0850    38.0540    22.3700    20.6260   -19.5180 
  190.6250   179.3660    44.0900    21.4900     2.3690    74.3520    42.1640    38.2910    21.9640    20.6110   -19.6080 
  190.7500   179.4730    44.1490    21.5200     2.3630    74.3210    42.3080    38.6100    21.0680    20.6070   -19.6980 
  190.8750   179.5790    44.2090    21.5490     2.3510    75.4320    42.6480    39.1260    20.3880    20.6070   -19.7560 
  191.0000   179.6850    44.2680    21.5780     2.3350    75.9340    43.2440    39.8950    20.6560    20.6070   -19.7230 
  191.1250   179.7910    44.3270    21.6080     2.3200    73.4730    44.0510    40.9080    22.0400    20.6070   -19.5610 
  191.2500   179.8970    44.3860    21.6370     2.3110    70.7760    44.7940    41.9290    24.0590    20.6070   -19.3030 
  191.3750   180.0030    44.4450    21.6670     2.3080    69.4130    45.1830    42.6470    25.7110    20.6070   -18.9770 
  191.5000   180.1090    44.5040    21.6960     2.3100    68.2340    45.0080    42.7920    25.1860    20.6140   -18.6870 
  191.6250   180.2150    44.5640    21.7250     2.3130    68.1300    44.2370    42.2450    24.5190    20.6540   -18.3390 
  191.7500   180.3220    44.6230    21.7550     2.3150    70.4480    43.3470    41.4340    24.5810    20.7360   -18.0560 
  191.8750   180.4280    44.6820    21.7840     2.3150    73.5440    42.8800    40.8600    24.0950    20.8280   -17.7720 
  192.0000   180.5340    44.7410    21.8130     2.3130    74.3890    43.4070    41.1020    22.6000    20.9160   -17.6010 
  192.1250   180.6400    44.8000    21.8430     2.3090    71.2730    45.6740    42.9460    21.9290    20.9870   -17.5220 
  192.2500   180.7460    44.8590    21.8720     2.3030    68.0720    49.6520    46.4510    21.3930    21.0520   -17.5060 
  192.3750   180.8520    44.9190    21.9020     2.2980    66.9680    55.2430    51.5850    21.5680    21.1170   -17.5220 
  192.5000   180.9580    44.9780    21.9310     2.2920    66.3580    65.0950    58.0420    24.0580    21.1770   -17.5590 
  192.6250   181.0640    45.0370    21.9600     2.2860    63.8200    72.9610    65.2470    26.2910    21.2470   -17.6490 
  192.7500   181.1700    45.0960    21.9900     2.2820    62.0380    80.8110    72.3430    28.0010    21.2600   -17.7420 
  192.8750   181.2770    45.1550    22.0190     2.2790    62.7740    88.4000    79.0300    28.3820    21.2750   -17.8560 
  193.0000   181.3830    45.2140    22.0480     2.2750    62.5520    95.8410    85.4480    29.2310    21.3320   -17.9530 
  193.1250   181.4890    45.2730    22.0780     2.2670    59.1330   103.4710    91.9770    30.6480    21.4530   -17.9850 
  193.2500   181.5950    45.3330    22.1070     2.2560    57.0070   111.3910    98.7790    33.1020    21.5400   -18.0170 
  193.3750   181.7010    45.3920    22.1360     2.2450    56.4260   119.3640   105.7050    32.6840    21.5750   -17.9900 
  193.5000   181.8070    45.4510    22.1660     2.2370    55.9000   126.9010   112.3480    29.6080    21.5730   -17.9250 
  193.6250   181.9130    45.5100    22.1950     2.2360    57.7330   133.3220   118.0810    26.7760    21.5630   -17.8560 
  193.7500   182.0190    45.5690    22.2250     2.2400    61.3340   138.6970   122.9700    26.2060    21.5630   -17.7030 
  193.8750   182.1260    45.6280    22.2540     2.2430    62.9490   143.4150   127.4420    27.4710    21.5980   -17.5340 
  194.0000   182.2320    45.6880    22.2830     2.2440    62.7330   147.8870   132.0690    30.7620    21.6660   -17.3540 
  194.1250   182.3380    45.7470    22.3130     2.2390    63.2730   153.0100   137.4380    35.6920    21.7270   -17.2190 
  194.2500   182.4440    45.8060    22.3420     2.2310    62.8130   159.7360   143.5400    39.1320    21.7020   -17.1740 
  194.3750   182.5500    45.8650    22.3710     2.2240    60.5970   167.3500   149.8350    36.6060    21.5690   -17.2260 
  194.5000   182.6560    45.9240    22.4010     2.2210    59.4320   173.1290   155.0940    32.1690    21.3200   -17.3050 
  194.6250   182.7620    45.9830    22.4300     2.2250    60.3250   174.3350   157.3150    30.2030    21.1080   -17.2730 
  194.7500   182.8680    46.0430    22.4590     2.2330    59.5340   172.7980   156.0810    29.9470    20.9560   -17.2980 
  194.8750   182.9750    46.1020    22.4890     2.2380    56.7030   169.5680   151.5970    31.3060    20.8840   -17.3330 
  195.0000   183.0810    46.1610    22.5180     2.2370    54.2500   164.0970   144.9170    33.5620    20.8650   -17.3330 
  195.1250   183.1870    46.2200    22.5480     2.2280    53.9970   156.5700   137.8340    36.1550    20.8740   -17.3100 
  195.2500   183.2930    46.2790    22.5770     2.2190    54.5040   149.7370   132.1220    34.7370    20.8780   -17.2030 
  195.3750   183.3990    46.3380    22.6060     2.2130    56.2380   145.5530   128.7290    30.1880    20.8450   -17.0790 
  195.5000   183.5050    46.3970    22.6360     2.2200    58.1920   144.3710   128.1990    25.6180    20.7680   -16.9590 
  195.6250   183.6110    46.4570    22.6650     2.2450    58.9850   146.2150   130.9910    25.2320    20.6890   -16.9630 
  195.7500   183.7170    46.5160    22.6940     2.2810    58.8850   149.3920   135.6280    27.6460    20.6410   -16.9380 
  195.8750   183.8240    46.5750    22.7240     2.3160    58.1320   152.0030   140.3910    31.0030    20.6200   -16.8870 
  196.0000   183.9300    46.6340    22.7530     2.3340    57.5940   151.8510   143.1120    34.5170    20.6240   -16.8250 
  196.1250   184.0360    46.6930    22.7820     2.3250    57.7740   146.3750   140.9040    37.9240    20.6640   -16.8920 
  196.2500   184.1420    46.7520    22.8120     2.2980    59.2450   136.2890   133.7400    41.5710    20.7150   -17.0410 
  196.3750   184.2480    46.8120    22.8410     2.2680    59.8480   123.2090   122.8640    43.2810    20.7670   -17.2260 
