~V
VERS. 2.00: Ver 2.00
~W
STRT.M 34.0000:
STOP.M 260.0000:
STEP.M 0.1250:
NULL. -999.2500:
UWI. FD10858:
~C
DEPT.M :
TVD. :
DX. :
DY. :
SP.MV :
GR.API :
RI. :
RML.OHMM :
RXO.OHMM :
DEN.GM/CC :
~A
# ...
  125.2500   121.5780   -13.6820   -16.0070   -15.0000    54.3290    26.2970    29.8190    15.9080     2.1410 
  125.3750   121.6880   -13.7230   -16.0490   -14.9740    53.8780    28.2110    32.5350    21.6270     2.1410 
  125.5000   121.7980   -13.7640   -16.0910   -14.9500    53.6590    30.6660    35.8100    24.9290     2.1410 
  125.6250   121.9090   -13.8050   -16.1330   -14.8930    53.7320    32.4420    38.0980    25.2870     2.1450 
  125.7500   122.0190   -13.8470   -16.1750   -14.7800    52.8260    32.6530    38.3520    26.1450     2.1480 
  125.8750   122.1290   -13.8880   -16.2170   -14.5930    52.0720    31.1960    36.5440    26.7250     2.1450 
  126.0000   122.2390   -13.9290   -16.2590   -14.3380    52.7940    28.3820    33.1510    27.0140     2.1380 
  126.1250   122.3490   -13.9710   -16.3010   -14.0240    53.1120    25.4100    29.6400    25.5420     2.1320 
  126.2500   122.4590   -14.0120   -16.3440   -13.6740    52.0580    22.6050    26.4200    20.7550     2.1290 
  126.3750   122.5700   -14.0530   -16.3860   -13.3110    52.4150    20.7360    24.3610    16.0130     2.1280 
  126.5000   122.6800   -14.0950   -16.4290   -12.9510    54.5600    19.5710    23.1190    13.8840     2.1280 
  126.6250   122.7900   -14.1360   -16.4720   -12.6060    56.6710    18.8930    22.4560    13.7670     2.1290 
  126.7500   122.8990   -14.1780   -16.5140   -12.2780    56.9940    18.7460    22.4190    15.0410     2.1300 
  126.8750   123.0090   -14.2190   -16.5570   -11.9750    57.2640    19.0110    22.8820    16.3210     2.1340 
  127.0000   123.1190   -14.2600   -16.6000   -11.7090    58.8020    19.3830    23.4950    15.5490     2.1380 
  127.1250   123.2290   -14.3020   -16.6430   -11.5040    60.5890    19.6520    23.9520    13.6790     2.1410 
  127.2500   123.3390   -14.3440   -16.6850   -11.3720    60.2240    19.4730    23.7840    13.4890     2.1400 
  127.3750   123.4490   -14.3860   -16.7270   -11.3280    59.6390    18.6420    22.7590    14.1450     2.1360 
  127.5000   123.5590   -14.4290   -16.7690   -11.3630    60.3860    17.5950    21.4000    13.3290     2.1340 
  127.6250   123.6680   -14.4710   -16.8110   -11.4650    61.4920    16.5460    20.0930    11.9990     2.1380 
  127.7500   123.7780   -14.5140   -16.8530   -11.5950    60.6320    15.9240    19.4160    11.2480     2.1470 
  127.8750   123.8880   -14.5560   -16.8950   -11.7050    58.2860    15.9310    19.6540    10.9800     2.1550 
  128.0000   123.9980   -14.5990   -16.9370   -11.7510    55.4960    16.5460    20.6930    12.5610     2.1570 
  128.1250   124.1070   -14.6420   -16.9800   -11.6990    52.6210    17.3610    21.9050    14.9470     2.1540 
  128.2500   124.2170   -14.6840   -17.0220   -11.5670    50.9200    18.0500    22.8670    15.6750     2.1520 
  128.3750   124.3260   -14.7270   -17.0640   -11.3960    50.6370    18.4140    23.3280    15.7690     2.1540 
  128.5000   124.4360   -14.7700   -17.1060   -11.2500    51.0920    18.5490    23.5580    15.6920     2.1580 
  128.6250   124.5460   -14.8120   -17.1490   -11.1840    51.9030    18.8870    24.1440    14.6030     2.1620 
  128.7500   124.6550   -14.8550   -17.1910   -11.2170    52.8720    19.1800    24.6720    14.0190     2.1670 
  128.8750   124.7650   -14.8980   -17.2330   -11.3530    52.8770    19.0860    24.6530    14.7820     2.1770 
  129.0000   124.8740   -14.9410   -17.2760   -11.5640    52.0910    18.6530    24.1580    16.0450     2.1960 
  129.1250   124.9840   -14.9840   -17.3180   -11.8240    51.9120    17.8200    23.0510    16.8340     2.2110 
  129.2500   125.0930   -15.0270   -17.3590   -12.0980    53.3580    16.9020    21.8120    15.5980     2.2110 
  129.3750   125.2030   -15.0710   -17.4010   -12.3600    55.6190    16.0460    20.6840    14.7090     2.1940 
  129.5000   125.3120   -15.1140   -17.4430   -12.5940    56.7220    15.3600    19.8350    15.2750     2.1750 
  129.6250   125.4220   -15.1580   -17.4850   -12.7910    55.2630    15.1610    19.6150    14.6100     2.1730 
  129.7500   125.5310   -15.2020   -17.5260   -12.9610    53.2620    15.4540    20.0040    13.3850     2.1950 
  129.8750   125.6410   -15.2450   -17.5680   -13.1210    52.0410    16.0740    20.7140    12.2920     2.2520 
  130.0000   125.7500   -15.2890   -17.6100   -13.2950    51.2060    16.8050    21.5170    11.6010     2.3380 
  130.1250   125.8600   -15.3320   -17.6520   -13.5140    50.5410    17.5270    22.3560    12.6080     2.4400 
  130.2500   125.9690   -15.3750   -17.6940   -13.7970    51.2030    18.2580    23.2500    14.0250     2.5280 
  130.3750   126.0790   -15.4180   -17.7360   -14.1540    53.1840    18.7930    23.9730    13.6850     2.5780 
  130.5000   126.1880   -15.4620   -17.7780   -14.5650    52.9380    18.4630    23.4740    12.9550     2.5890 
  130.6250   126.2980   -15.5050   -17.8200   -14.9900    51.8580    16.7770    21.1780    14.2560     2.5630 
  130.7500   126.4070   -15.5480   -17.8620   -15.3770    54.7890    14.0330    17.5320    17.4670     2.5120 
  130.8750   126.5170   -15.5920   -17.9040   -15.6750    62.1000    10.9140    13.3810    19.6910     2.4460 
  131.0000   126.6260   -15.6350   -17.9460   -15.8590    68.6510     8.3220    10.0660    16.3300     2.3830 
  131.1250   126.7360   -15.6790   -17.9880   -15.9180    73.2640     6.6180     7.9560     9.3950     2.3380 
  131.2500   126.8450   -15.7220   -18.0290   -15.8840    77.5050     5.5800     6.7420     5.5780     2.3100 
  131.3750   126.9540   -15.7660   -18.0710   -15.7900    80.6160     5.1560     6.3760     4.9650     2.2940 
  131.5000   127.0640   -15.8090   -18.1130   -15.6800    82.5700     5.1920     6.5340     5.0750     2.2840 
  131.6250   127.1730   -15.8530   -18.1550   -15.5870    85.3020     5.5050     6.9370     5.4570     2.2780 
  131.7500   127.2830   -15.8970   -18.1970   -15.5260    87.1510     5.8270     7.3140     5.6300     2.2760 
  131.8750   127.3920   -15.9400   -18.2380   -15.4940    86.6970     6.0270     7.5520     5.4450     2.2750 
  132.0000   127.5020   -15.9840   -18.2800   -15.4780    84.9660     6.0110     7.5520     5.4380     2.2780 
  132.1250   127.6110   -16.0270   -18.3220   -15.4630    84.4990     5.6890     7.1630     5.7380     2.2850 
  132.2500   127.7210   -16.0710   -18.3640   -15.4380    86.1340     5.2360     6.5720     5.8450     2.2990 
  132.3750   127.8300   -16.1140   -18.4060   -15.3970    90.0080     4.7690     5.9170     5.5800     2.3150 
  132.5000   127.9390   -16.1580   -18.4480   -15.3400    93.2970     4.3630     5.3570     4.7790     2.3280 
  132.6250   128.0490   -16.2020   -18.4900   -15.2730    91.6670     4.1110     5.0630     3.8350     2.3350 
  132.7500   128.1580   -16.2450   -18.5310   -15.2070    86.6240     3.9380     4.9340     3.5720     2.3350 
  132.8750   128.2680   -16.2890   -18.5730   -15.1560    83.6060     3.8800     5.0040     3.8090     2.3290 
  133.0000   128.3770   -16.3320   -18.6150   -15.1240    84.1530     3.9420     5.1950     3.9870     2.3210 
  133.1250   128.4860   -16.3760   -18.6570   -15.1060    86.7400     4.1310     5.4960     4.0310     2.3120 
  133.2500   128.5960   -16.4190   -18.6990   -15.0890    88.6950     4.4220     5.8830     4.0420     2.3030 
  133.3750   128.7050   -16.4630   -18.7410   -15.0640    89.2680     4.8000     6.3230     4.1070     2.2940 
  133.5000   128.8150   -16.5070   -18.7830   -15.0300    88.3910     5.1950     6.7390     4.3960     2.2860 
  133.6250   128.9240   -16.5500   -18.8250   -14.9940    85.7430     5.5470     7.0820     5.0130     2.2760 
  133.7500   129.0330   -16.5940   -18.8670   -14.9630    83.3090     5.8680     7.3800     5.5500     2.2620 
  133.8750   129.1430   -16.6380   -18.9080   -14.9450    82.1120     6.1140     7.6480     5.5650     2.2410 
  134.0000   129.2520   -16.6820   -18.9500   -14.9420    80.6610     6.3020     7.8910     5.2830     2.2180 
  134.1250   129.3610   -16.7250   -18.9920   -14.9650    77.5120     6.4200     8.0690     5.1730     2.2010 
  134.2500   129.4710   -16.7690   -19.0340   -15.0170    73.6830     6.4680     8.1370     5.4070     2.1960 
