~V
VERS. 2.00: Ver 2.00
~W
STRT.M 20.0000:
STOP.M 206.0000:
STEP.M 0.1250:
NULL. -999.2500:
UWI. FD10809:
~C
DEPT.M :
TVD. :
DX. :
DY. :
SP.MV :
GR.API :
RI. :
RML.OHMM :
DEN.GM/CC :
RXO.OHMM :
~A
# ...
  120.3750   112.7090     3.4570    31.0550   -20.5890    71.4680     7.7610     8.5500     2.3370     7.2460 
  120.5000   112.8080     3.4600    31.1300   -20.9680    70.2090     8.3220     9.1620     2.3270     7.8920 
  120.6250   112.9080     3.4640    31.2060   -21.3270    69.8720     8.5360     9.3980     2.2780     9.5290 
  120.7500   113.0070     3.4680    31.2820   -21.6250    70.5530     8.2940     9.1400     2.2250    10.7050 
  120.8750   113.1070     3.4720    31.3570   -21.8920    71.0900     7.7570     8.5560     2.1960     9.4050 
  121.0000   113.2060     3.4750    31.4320   -21.9590    71.0260     7.1330     7.9660     2.1870     7.9770 
  121.1250   113.3060     3.4790    31.5080   -21.7990    69.7980     6.6460     7.5340     2.1890     7.9690 
  121.2500   113.4060     3.4820    31.5830   -21.3340    68.1330     6.4650     7.4280     2.2030     7.8880 
  121.3750   113.5050     3.4860    31.6590   -20.7160    65.3890     6.7530     7.8350     2.2460     7.4630 
  121.5000   113.6050     3.4890    31.7340   -20.0440    61.9830     7.6970     9.0180     2.3200     7.2290 
  121.6250   113.7050     3.4930    31.8090   -19.2200    58.8030     9.3750    11.1000     2.4080     8.0450 
  121.7500   113.8040     3.4960    31.8840   -18.3170    57.5030    12.2850    14.0990     2.4760    12.4530 
  121.8750   113.9040     3.4990    31.9600   -17.3530    57.0660    15.9840    17.3100     2.5150    22.3770 
  122.0000   114.0040     3.5020    32.0350   -16.5510    55.9030    19.0710    19.4240     2.5240    31.2380 
  122.1250   114.1040     3.5050    32.1100   -15.8910    53.9030    19.2750    19.4320     2.5160    31.0420 
  122.2500   114.2040     3.5080    32.1850   -15.3350    52.9280    16.7780    17.0470     2.4790    26.0460 
  122.3750   114.3040     3.5110    32.2600   -14.9020    55.7410    12.7350    13.4540     2.4120    22.2630 
  122.5000   114.4040     3.5140    32.3350   -14.6860    61.4340     9.1640    10.0910     2.3240    17.2570 
  122.6250   114.5040     3.5170    32.4100   -14.7350    67.9810     7.1960     7.7490     2.2560    10.2660 
  122.7500   114.6040     3.5200    32.4850   -14.8890    71.7730     6.0710     6.4810     2.2270     5.9260 
  122.8750   114.7030     3.5230    32.5600   -14.9300    74.0700     5.5380     5.9260     2.2270     4.9520 
  123.0000   114.8030     3.5250    32.6350   -14.7960    74.8490     5.5560     5.8990     2.2270     4.9900 
  123.1250   114.9030     3.5280    32.7100   -14.6200    75.5870     5.8780     6.1540     2.2190     5.4200 
  123.2500   115.0040     3.5310    32.7850   -14.4270    74.3310     6.2570     6.5420     2.2050     5.9510 
  123.3750   115.1040     3.5330    32.8600   -14.1950    71.7530     6.6990     7.0120     2.2050     6.6320 
  123.5000   115.2040     3.5360    32.9350   -13.8200    69.9190     7.2780     7.6740     2.2320     7.4450 
  123.6250   115.3040     3.5390    33.0100   -13.4480    68.2550     8.1770     8.7040     2.2970     7.3350 
  123.7500   115.4040     3.5410    33.0840   -13.0900    64.8750     9.6510    10.3650     2.3930     7.3180 
  123.8750   115.5040     3.5440    33.1590   -12.6910    58.9090    11.9130    12.6850     2.4870    11.1990 
  124.0000   115.6040     3.5470    33.2340   -12.3390    52.1980    14.8360    15.4040     2.5240    18.9600 
  124.1250   115.7040     3.5490    33.3090   -12.0920    47.4670    17.5600    17.8310     2.5060    23.8280 
  124.2500   115.8040     3.5520    33.3840   -11.9040    45.4430    19.1700    19.2510     2.4600    21.8990 
  124.3750   115.9040     3.5540    33.4580   -11.7010    46.7120    19.4160    19.6200     2.4280    17.8870 
  124.5000   116.0050     3.5570    33.5330   -11.5340    49.3830    18.6790    19.3010     2.4190    16.3380 
  124.6250   116.1050     3.5600    33.6080   -11.3370    51.2410    17.8910    18.9090     2.4320    16.1850 
  124.7500   116.2050     3.5620    33.6830   -11.1300    51.3240    17.6990    18.8600     2.4530    15.8760 
  124.8750   116.3050     3.5650    33.7570   -10.9250    49.8630    17.9030    19.2410     2.4700    16.5620 
  125.0000   116.4050     3.5680    33.8320   -10.7380    48.0000    18.5350    19.9520     2.4840    17.0230 
  125.1250   116.5050     3.5700    33.9070   -10.5780    46.7370    19.4660    20.9120     2.5020    17.7780 
  125.2500   116.6050     3.5730    33.9820   -10.4620    46.5610    20.6660    22.0640     2.5150    20.9400 
  125.3750   116.7060     3.5760    34.0560   -10.3700    47.4020    21.7140    22.9670     2.5160    21.9480 
  125.5000   116.8060     3.5780    34.1310   -10.2190    48.0130    22.1600    23.2550     2.5050    22.7470 
  125.6250   116.9060     3.5810    34.2060   -10.0640    48.5900    21.8180    22.9380     2.4810    25.6970 
  125.7500   117.0060     3.5830    34.2810    -9.9970    49.2110    20.7730    22.1710     2.4440    23.1430 
  125.8750   117.1060     3.5860    34.3560   -10.0590    48.6020    19.9450    21.3590     2.4120    18.0080 
  126.0000   117.2060     3.5880    34.4300   -10.1330    48.6240    19.5080    20.9680     2.4110    16.1230 
  126.1250   117.3060     3.5900    34.5050   -10.2780    48.3490    19.7940    21.2870     2.4400    15.1200 
  126.2500   117.4070     3.5920    34.5800   -10.4160    49.0260    20.9130    22.4500     2.4650    17.2250 
  126.3750   117.5070     3.5940    34.6550   -10.5720    49.3060    22.7720    24.1320     2.4680    23.0680 
  126.5000   117.6070     3.5960    34.7300   -10.6860    49.7120    24.8180    25.5400     2.4590    24.9950 
  126.6250   117.7070     3.5980    34.8040   -10.8250    50.8970    25.5880    25.6030     2.4560    22.5810 
  126.7500   117.8070     3.6010    34.8790   -11.0040    52.8230    23.3020    23.5680     2.4450    25.1030 
  126.8750   117.9070     3.6030    34.9540   -11.2200    55.9510    19.4820    20.0470     2.4100    30.8780 
  127.0000   118.0070     3.6050    35.0290   -11.4890    59.6770    15.1030    16.2310     2.3550    29.8210 
  127.1250   118.1070     3.6080    35.1040   -11.7410    63.6780    12.1900    13.3330     2.3110    21.4090 
  127.2500   118.2070     3.6100    35.1790   -11.9710    64.4400    11.0230    12.0320     2.2950    12.1900 
  127.3750   118.3070     3.6120    35.2530   -12.0620    62.3120    11.0600    12.2150     2.3060     9.6080 
  127.5000   118.4080     3.6150    35.3280   -12.0490    58.3530    12.5230    13.7630     2.3410    16.2910 
  127.6250   118.5080     3.6170    35.4030   -11.9380    55.5270    15.0590    16.1350     2.3940    22.8110 
  127.7500   118.6080     3.6200    35.4780   -11.8820    53.7510    17.8160    18.6850     2.4450    21.5280 
  127.8750   118.7080     3.6220    35.5530   -11.8790    53.6590    20.1070    20.7530     2.4640    19.6940 
  128.0000   118.8080     3.6250    35.6270   -11.9130    53.3180    21.2790    21.8900     2.4440    21.6900 
  128.1250   118.9080     3.6280    35.7020   -11.9530    53.3970    21.5680    22.1650     2.4140    21.8470 
  128.2500   119.0080     3.6300    35.7770   -11.9620    51.7380    21.3100    21.8560     2.3970    19.7490 
  128.3750   119.1080     3.6330    35.8520   -11.9780    52.0100    20.7460    21.3570     2.3930    19.6970 
  128.5000   119.2090     3.6350    35.9270   -11.9270    52.9530    20.0770    20.8120     2.3970    20.2210 
  128.6250   119.3090     3.6380    36.0010   -11.8110    54.8150    19.3830    20.2680     2.3890    18.5180 
  128.7500   119.4090     3.6400    36.0760   -11.5490    55.3350    18.7300    19.8170     2.3720    17.1270 
  128.8750   119.5090     3.6430    36.1510   -11.2770    56.7570    18.2790    19.5750     2.3490    17.4220 
  129.0000   119.6090     3.6450    36.2260   -10.9970    57.4070    18.2780    19.6500     2.3400    17.6680 
  129.1250   119.7090     3.6480    36.3000   -10.7740    58.0010    18.6010    20.0800     2.3420    17.2290 
  129.2500   119.8100     3.6500    36.3750   -10.5380    57.6480    19.2670    20.8060     2.3510    17.4220 
  129.3750   119.9100     3.6520    36.4500   -10.2910    57.0320    19.9710    21.5670     2.3600    21.0170 
