~V
VERS. 2.00: Ver 2.00
~W
STRT.M 40.0000:
STOP.M 276.0000:
STEP.M 0.1250:
NULL. -999.2500:
UWI. FD10882:
~C
DEPT.M :
TVD. :
DX. :
DY. :
SP.MV :
GR.API :
RI. :
RML.OHMM :
RXO.OHMM :
DEN.GM/CC :
~A
# ...
   85.6250    85.5140    -2.1240    -1.0400    -9.9760    74.2270     7.5700     8.4160     6.1150     2.2350 
   85.7500    85.6380    -2.1390    -1.0510    -9.6690    72.1860     7.9270     8.8760     6.3010     2.2570 
   85.8750    85.7610    -2.1550    -1.0620    -9.1990    70.7080     8.3300     9.4450     6.1270     2.2450 
   86.0000    85.8850    -2.1710    -1.0730    -8.6770    70.1960     8.7280    10.0290     5.7910     2.1980 
   86.1250    86.0080    -2.1870    -1.0850    -8.2030    70.4580     8.6780    10.0320     5.5690     2.1540 
   86.2500    86.1310    -2.2020    -1.0960    -7.9290    71.2720     8.0810     9.3390     5.4130     2.1390 
   86.3750    86.2550    -2.2180    -1.1070    -7.9020    74.3980     6.9960     8.0170     5.0670     2.1690 
   86.5000    86.3780    -2.2340    -1.1190    -8.1270    80.6540     5.6930     6.3960     4.5100     2.2270 
   86.6250    86.5020    -2.2500    -1.1300    -8.4720    89.2270     4.7590     5.2530     4.0730     2.2850 
   86.7500    86.6250    -2.2660    -1.1420    -8.7590    94.7830     4.3570     4.7800     5.3740     2.3360 
   86.8750    86.7490    -2.2820    -1.1540    -8.6730    95.6440     4.9300     5.5050    13.3610     2.3880 
   87.0000    86.8720    -2.2980    -1.1650    -8.1260    92.3700     7.7940     8.7020    30.0170     2.4690 
   87.1250    86.9950    -2.3150    -1.1770    -7.2350    86.8030    13.6890    15.9970    49.2570     2.5640 
   87.2500    87.1190    -2.3310    -1.1890    -6.1100    79.4780    26.1430    32.2680    60.6830     2.6410 
   87.3750    87.2420    -2.3470    -1.2010    -4.7720    70.9050    39.0080    46.7060    59.3850     2.6570 
   87.5000    87.3660    -2.3640    -1.2130    -3.4150    64.1000    42.6160    50.6110    49.4100     2.6030 
   87.6250    87.4890    -2.3800    -1.2250    -2.0810    60.4560    39.0060    45.1870    35.4450     2.4780 
   87.7500    87.6120    -2.3970    -1.2370    -0.7780    58.7590    27.2770    29.9160    23.7580     2.3270 
   87.8750    87.7350    -2.4130    -1.2490     0.4610    57.7700    18.7590    20.6800    18.3070     2.2030 
   88.0000    87.8590    -2.4300    -1.2610     1.5230    56.7730    15.6190    17.2000    17.4430     2.1340 
   88.1250    87.9820    -2.4470    -1.2730     2.2890    55.9800    14.7320    16.4670    17.3160     2.1120 
   88.2500    88.1050    -2.4640    -1.2860     2.8260    55.3540    14.8850    16.9020    16.9740     2.1110 
   88.3750    88.2290    -2.4810    -1.2980     3.0680    54.8100    15.5740    17.8400    16.8370     2.1130 
   88.5000    88.3520    -2.4980    -1.3100     3.2020    54.4380    16.1820    18.5680    16.8900     2.1180 
   88.6250    88.4750    -2.5150    -1.3230     3.3020    54.4740    16.5680    19.0110    17.0020     2.1200 
   88.7500    88.5980    -2.5320    -1.3350     3.4050    54.5720    16.7590    19.2230    17.2020     2.1220 
   88.8750    88.7210    -2.5490    -1.3480     3.4270    55.9990    16.7650    19.2290    17.5830     2.1170 
   89.0000    88.8440    -2.5660    -1.3610     3.3880    58.1630    16.6480    19.1050    17.9610     2.1120 
   89.1250    88.9680    -2.5830    -1.3730     3.2790    61.9870    16.4190    18.8960    18.0560     2.1080 
   89.2500    89.0910    -2.6000    -1.3860     3.2010    64.0810    16.1170    18.6450    17.8670     2.1100 
   89.3750    89.2140    -2.6180    -1.3990     3.1380    63.7790    15.7990    18.3920    17.7270     2.1120 
   89.5000    89.3370    -2.6350    -1.4120     3.0720    61.3790    15.5380    18.2540    17.7670     2.1100 
   89.6250    89.4600    -2.6520    -1.4250     3.0070    58.4030    15.4930    18.3740    17.9160     2.1040 
   89.7500    89.5830    -2.6700    -1.4380     2.9560    56.8940    15.8100    18.9400    18.0310     2.1100 
   89.8750    89.7060    -2.6870    -1.4510     2.9390    57.0160    16.5290    19.9920    18.1400     2.1540 
   90.0000    89.8290    -2.7050    -1.4640     2.9930    58.9980    17.3440    21.1150    18.3600     2.2460 
   90.1250    89.9520    -2.7230    -1.4780     3.0570    59.7490    17.8710    21.8310    18.9040     2.3470 
   90.2500    90.0750    -2.7400    -1.4910     3.1250    60.1340    17.8460    21.7980    19.5510     2.3870 
   90.3750    90.1980    -2.7580    -1.5050     3.1550    59.2100    17.3010    21.0870    19.7110     2.3320 
   90.5000    90.3210    -2.7760    -1.5180     3.1350    59.5560    16.5340    20.1360    19.1890     2.2370 
   90.6250    90.4440    -2.7940    -1.5310     3.0580    59.7420    15.8570    19.3710    18.4290     2.1690 
   90.7500    90.5670    -2.8120    -1.5450     2.9540    59.2090    15.4390    18.9810    17.9500     2.1380 
   90.8750    90.6900    -2.8300    -1.5590     2.7300    58.3100    15.3240    18.9750    17.7740     2.1260 
   91.0000    90.8130    -2.8480    -1.5720     2.5230    59.4190    15.3490    19.0770    17.7320     2.1180 
   91.1250    90.9360    -2.8670    -1.5860     2.2980    62.5540    15.3090    19.0490    17.6690     2.1150 
   91.2500    91.0590    -2.8850    -1.6000     2.0820    65.4400    15.1950    18.8900    17.4340     2.1080 
   91.3750    91.1820    -2.9030    -1.6140     1.9500    64.9250    15.0550    18.7020    17.0170     2.1040 
   91.5000    91.3040    -2.9220    -1.6280     1.7600    62.5300    14.9630    18.5910    16.6040     2.1070 
   91.6250    91.4270    -2.9410    -1.6420     1.5200    59.5770    14.9450    18.5750    16.3840     2.1250 
   91.7500    91.5500    -2.9590    -1.6560     1.2170    57.8560    14.9310    18.5670    16.3160     2.1360 
   91.8750    91.6730    -2.9780    -1.6700     0.9350    57.6120    14.8740    18.4980    16.2630     2.1360 
   92.0000    91.7960    -2.9970    -1.6840     0.5790    57.6610    14.7300    18.3300    16.1220     2.1270 
   92.1250    91.9180    -3.0160    -1.6990     0.0850    59.1210    14.4820    18.0590    15.7720     2.1240 
   92.2500    92.0410    -3.0350    -1.7130    -0.4790    60.9750    14.1530    17.6790    15.2770     2.1260 
   92.3750    92.1640    -3.0540    -1.7280    -1.0440    63.3580    13.6030    16.9910    14.8340     2.1290 
   92.5000    92.2860    -3.0730    -1.7420    -1.7040    63.8210    12.9610    16.1480    14.5430     2.1350 
   92.6250    92.4090    -3.0930    -1.7570    -2.5010    63.3790    12.2830    15.2280    14.3210     2.1450 
   92.7500    92.5320    -3.1120    -1.7720    -3.4810    64.2910    11.6340    14.3560    14.0200     2.1560 
   92.8750    92.6540    -3.1310    -1.7860    -4.5780    66.9300    11.2000    13.7880    13.5020     2.1630 
   93.0000    92.7770    -3.1510    -1.8010    -5.7060    69.4140    10.8980    13.4110    12.7340     2.1660 
   93.1250    92.8990    -3.1700    -1.8160    -6.7110    69.8770    10.7010    13.1770    11.9190     2.1630 
   93.2500    93.0220    -3.1900    -1.8310    -7.5370    69.1460    10.5480    12.9760    11.2720     2.1550 
   93.3750    93.1440    -3.2090    -1.8460    -8.2970    69.3260    10.3250    12.6620    10.7430     2.1570 
   93.5000    93.2670    -3.2290    -1.8610    -9.1250    69.5980     9.8700    12.0330    10.1980     2.1650 
   93.6250    93.3890    -3.2480    -1.8760    -9.9450    69.6400     9.1570    11.0550     9.5340     2.1730 
   93.7500    93.5120    -3.2680    -1.8910   -10.7020    69.7200     8.2900     9.8850     8.6250     2.1750 
   93.8750    93.6340    -3.2880    -1.9070   -11.3820    70.2170     7.3310     8.6200     7.5170     2.1850 
   94.0000    93.7570    -3.3080    -1.9220   -12.0420    73.5100     6.5180     7.5610     6.4650     2.2210 
   94.1250    93.8790    -3.3270    -1.9370   -12.7350    78.5350     5.8790     6.7650     5.7560     2.2660 
   94.2500    94.0020    -3.3470    -1.9530   -13.3950    83.4980     5.5100     6.3490     5.4210     2.2990 
   94.3750    94.1240    -3.3670    -1.9680   -13.9000    85.0100     5.4460     6.3350     5.4990     2.2970 
   94.5000    94.2470    -3.3870    -1.9840   -14.1680    84.4340     5.5970     6.5980     5.8630     2.2730 
   94.6250    94.3690    -3.4070    -1.9990   -14.2310    82.5830     5.8290     6.9400     6.2950     2.2410 
