~V
VERS. 2.00: Ver 2.00
~W
STRT.M 44.0000:
STOP.M 206.0000:
STEP.M 0.1250:
NULL. -999.2500:
UWI. FD10808:
~C
DEPT.M :
TVD. :
DX. :
DY. :
SP.MV :
GR.API :
RI. :
RML.OHMM :
RXO.OHMM :
DEN.GM/CC :
~A
# ...
  126.1250   122.5020    -7.9190    18.4930    -7.4840    60.2280    13.4390    15.3100    16.3700     2.4240 
  126.2500   122.6110    -7.9470    18.5490    -7.4530    57.6630    14.3480    16.2870    16.5330     2.4720 
  126.3750   122.7190    -7.9750    18.6040    -7.5940    55.4470    15.3570    17.3010    17.2550     2.4880 
  126.5000   122.8280    -8.0020    18.6590    -7.7860    53.2000    16.2620    18.1940    17.4790     2.4720 
  126.6250   122.9370    -8.0300    18.7140    -8.0480    52.8240    16.9250    18.7490    16.1030     2.4370 
  126.7500   123.0450    -8.0580    18.7700    -8.2040    53.3660    17.0430    18.6290    15.7120     2.4200 
  126.8750   123.1540    -8.0860    18.8250    -8.2410    55.5420    15.9950    17.4330    18.7990     2.4180 
  127.0000   123.2620    -8.1130    18.8810    -8.2550    58.4670    14.1030    15.3070    20.9330     2.3970 
  127.1250   123.3710    -8.1410    18.9360    -8.1620    63.2170    11.5980    12.5990    18.4790     2.3450 
  127.2500   123.4790    -8.1690    18.9910    -8.0320    68.3630     9.1110     9.9550    13.4710     2.2800 
  127.3750   123.5880    -8.1970    19.0470    -7.8680    73.8730     7.2370     7.9080     8.8220     2.2360 
  127.5000   123.6960    -8.2250    19.1030    -7.7650    77.6630     5.9710     6.5290     6.8820     2.2180 
  127.6250   123.8050    -8.2530    19.1580    -7.6170    81.2200     5.2450     5.7550     6.5100     2.2230 
  127.7500   123.9130    -8.2810    19.2140    -7.6230    84.8360     4.9200     5.3780     5.7960     2.2270 
  127.8750   124.0220    -8.3080    19.2690    -7.6860    88.0930     4.8210     5.2690     5.1900     2.2250 
  128.0000   124.1300    -8.3360    19.3250    -7.6640    88.8360     4.9000     5.3940     5.0560     2.2200 
  128.1250   124.2380    -8.3640    19.3810    -7.5740    86.4990     5.3560     5.8360     5.4940     2.2310 
  128.2500   124.3470    -8.3920    19.4360    -7.4950    82.2110     6.0270     6.4740     5.9640     2.2650 
  128.3750   124.4550    -8.4200    19.4920    -7.4780    79.2120     6.6490     7.1150     6.7580     2.3210 
  128.5000   124.5630    -8.4480    19.5480    -7.3840    78.4500     7.1570     7.6370    11.3420     2.3520 
  128.6250   124.6720    -8.4760    19.6030    -7.2630    80.5800     7.4950     7.9640    15.4660     2.3300 
  128.7500   124.7800    -8.5040    19.6590    -7.1500    81.8390     7.6410     8.1360    11.6300     2.2620 
  128.8750   124.8880    -8.5320    19.7150    -7.0880    81.7880     7.7440     8.2840     6.9870     2.2010 
  129.0000   124.9970    -8.5600    19.7710    -7.0290    80.7720     7.8700     8.5020     7.4460     2.1650 
  129.1250   125.1050    -8.5880    19.8270    -7.0170    80.8010     8.0220     8.8100     8.9410     2.1490 
  129.2500   125.2130    -8.6160    19.8820    -6.9950    80.2430     8.2770     9.1320     9.0140     2.1390 
  129.3750   125.3210    -8.6450    19.9380    -6.9680    78.7650     8.3840     9.3290     8.6340     2.1340 
  129.5000   125.4300    -8.6730    19.9940    -6.8670    76.1890     8.3930     9.4980     8.8970     2.1410 
  129.6250   125.5380    -8.7010    20.0500    -6.6540    75.0640     8.6840    10.0370     9.1420     2.1710 
  129.7500   125.6460    -8.7290    20.1060    -6.4330    75.3170     9.6280    11.2970     8.9500     2.2370 
  129.8750   125.7540    -8.7570    20.1620    -6.0840    73.9810    11.3620    13.4930    11.6770     2.3380 
  130.0000   125.8620    -8.7850    20.2180    -5.7080    70.1320    13.7480    16.4860    23.6920     2.4390 
  130.1250   125.9700    -8.8130    20.2750    -5.3470    64.5270    16.7970    19.8490    35.7540     2.5020 
  130.2500   126.0780    -8.8400    20.3310    -4.9800    60.0730    19.3630    22.6390    34.3660     2.5300 
  130.3750   126.1870    -8.8680    20.3870    -4.6020    57.9220    20.7630    23.9100    28.1450     2.5320 
  130.5000   126.2950    -8.8960    20.4440    -4.3330    57.7480    20.4410    23.4930    24.7070     2.5350 
  130.6250   126.4030    -8.9250    20.5000    -4.2800    57.1930    18.9960    21.9000    23.5400     2.5380 
  130.7500   126.5110    -8.9530    20.5560    -4.3390    55.7110    17.4250    20.1460    24.5100     2.5380 
  130.8750   126.6180    -8.9800    20.6130    -4.4510    53.5410    16.2820    18.8660    22.5040     2.5290 
  131.0000   126.7260    -9.0080    20.6690    -4.4720    52.7590    15.7030    18.2320    16.5970     2.5170 
  131.1250   126.8340    -9.0360    20.7260    -4.4670    53.4560    15.6370    18.1990    12.9460     2.5040 
  131.2500   126.9420    -9.0640    20.7820    -4.3600    54.7850    15.9090    18.5210    13.1350     2.4930 
  131.3750   127.0500    -9.0920    20.8390    -4.1440    56.4500    16.3440    18.9470    14.1250     2.4870 
  131.5000   127.1580    -9.1200    20.8960    -3.8270    58.0600    16.6510    19.1100    15.5980     2.4890 
  131.6250   127.2660    -9.1490    20.9520    -3.4950    59.2040    16.3890    18.7530    17.6240     2.4870 
  131.7500   127.3740    -9.1770    21.0090    -3.0880    59.3430    15.8710    18.0800    18.5640     2.4840 
  131.8750   127.4810    -9.2050    21.0660    -2.7750    59.0510    15.3540    17.4720    17.9180     2.4770 
  132.0000   127.5890    -9.2330    21.1220    -2.5290    59.0330    15.2350    17.4090    16.7140     2.4730 
  132.1250   127.6970    -9.2620    21.1790    -2.3410    58.9180    16.0350    18.3670    15.3680     2.4730 
  132.2500   127.8040    -9.2900    21.2360    -2.2980    59.1710    17.6850    20.2280    16.0350     2.4870 
  132.3750   127.9120    -9.3180    21.2930    -2.3300    59.5950    19.7340    22.5090    20.4010     2.5110 
  132.5000   128.0200    -9.3460    21.3500    -2.5290    59.4500    21.6010    24.2190    26.7860     2.5350 
  132.6250   128.1270    -9.3750    21.4070    -2.8370    57.7640    21.6700    24.2360    33.2470     2.5370 
  132.7500   128.2350    -9.4030    21.4640    -3.2270    56.8690    20.2730    22.5970    33.8320     2.5200 
  132.8750   128.3430    -9.4310    21.5210    -3.6610    56.9450    17.8580    19.9290    26.4190     2.4880 
  133.0000   128.4500    -9.4590    21.5770    -4.1050    57.6430    15.3540    17.3680    20.7750     2.4520 
  133.1250   128.5580    -9.4880    21.6340    -4.6140    57.4260    14.0460    15.7940    18.8670     2.4300 
  133.2500   128.6650    -9.5160    21.6920    -5.1530    55.8940    13.4450    15.1720    15.3730     2.4180 
  133.3750   128.7730    -9.5440    21.7490    -5.6820    53.2870    13.5160    15.2810    12.4250     2.4250 
  133.5000   128.8810    -9.5720    21.8060    -6.0930    50.2190    13.9180    15.7740    12.5380     2.4340 
  133.6250   128.9880    -9.6010    21.8630    -6.3160    48.5970    14.4920    16.3500    14.1760     2.4420 
  133.7500   129.0960    -9.6290    21.9200    -6.3940    48.0890    14.8650    16.7920    14.5660     2.4380 
  133.8750   129.2030    -9.6570    21.9770    -6.4570    47.9130    15.1870    17.2000    17.9150     2.4320 
  134.0000   129.3110    -9.6860    22.0340    -6.4420    47.6390    15.7360    17.8040    22.7420     2.4330 
  134.1250   129.4190    -9.7140    22.0910    -6.4330    48.1630    16.5520    18.7450    19.8830     2.4530 
  134.2500   129.5260    -9.7420    22.1480    -6.4350    48.9010    17.6400    19.9320    16.1510     2.4800 
  134.3750   129.6340    -9.7700    22.2050    -6.4250    47.9660    18.6570    21.0150    18.8660     2.4990 
  134.5000   129.7420    -9.7980    22.2620    -6.4760    45.8140    19.1820    21.5960    22.6480     2.5020 
  134.6250   129.8490    -9.8260    22.3180    -6.6200    44.8320    19.0500    21.4600    23.0530     2.4840 
  134.7500   129.9570    -9.8550    22.3750    -6.5980    46.8310    18.4420    20.7610    20.9620     2.4670 
  134.8750   130.0640    -9.8830    22.4320    -6.4600    50.4670    17.4820    19.7770    18.8180     2.4570 
  135.0000   130.1720    -9.9110    22.4890    -6.4760    53.9480    16.6830    18.9690    17.7540     2.4590 
  135.1250   130.2800    -9.9390    22.5460    -6.6420    55.7720    16.3510    18.6260    17.7880     2.4640 
