~V
VERS. 2.00: Ver 2.00
~W
STRT.M 25.0000:
STOP.M 295.0000:
STEP.M 0.1250:
NULL. -999.2500:
UWI. FD10906:
~C
DEPT.M :
TVD. :
DX. :
DY. :
SP.MV :
GR.API :
RI. :
RML.OHMM :
RXO.OHMM :
DEN.GM/CC :
~A
# ...
  271.3750   236.4560  -114.0060     6.4110   -21.0730    69.1430     2.4200     2.8860     3.8240     2.3330 
  271.5000   236.5560  -114.0820     6.4140   -21.1230    65.1210     2.2540     2.7120     3.7400     2.3480 
  271.6250   236.6550  -114.1580     6.4160   -21.1870    60.6810     2.1590     2.6120     3.3970     2.3630 
  271.7500   236.7540  -114.2340     6.4190   -21.2830    58.4350     2.1510     2.6030     2.9700     2.3740 
  271.8750   236.8530  -114.3090     6.4210   -21.4140    58.5470     2.2010     2.6560     2.8410     2.3780 
  272.0000   236.9530  -114.3850     6.4240   -21.5710    59.7710     2.2790     2.7380     3.2090     2.3750 
  272.1250   237.0520  -114.4610     6.4260   -21.7220    60.3830     2.3510     2.8130     3.6700     2.3670 
  272.2500   237.1510  -114.5370     6.4280   -21.8310    60.7160     2.3920     2.8570     3.7130     2.3570 
  272.3750   237.2510  -114.6130     6.4300   -21.8750    59.9860     2.4010     2.8660     3.4550     2.3500 
  272.5000   237.3500  -114.6890     6.4320   -21.8280    60.1010     2.3890     2.8530     3.3240     2.3490 
  272.6250   237.4490  -114.7650     6.4340   -21.6960    61.3380     2.3770     2.8400     3.4060     2.3530 
  272.7500   237.5480  -114.8410     6.4360   -21.5080    63.6390     2.3810     2.8450     3.4860     2.3530 
  272.8750   237.6480  -114.9170     6.4390   -21.3290    65.7950     2.4030     2.8680     3.5050     2.3460 
  273.0000   237.7470  -114.9930     6.4410   -21.2240    66.0020     2.4270     2.8940     3.7270     2.3340 
  273.1250   237.8460  -115.0690     6.4430   -21.2110    66.2750     2.4370     2.9040     4.0660     2.3270 
  273.2500   237.9460  -115.1440     6.4450   -21.2690    65.9560     2.4150     2.8810     4.0160     2.3290 
  273.3750   238.0450  -115.2200     6.4460   -21.3350    65.9410     2.3620     2.8250     3.6280     2.3380 
  273.5000   238.1440  -115.2960     6.4480   -21.3430    64.4350     2.2840     2.7430     3.2410     2.3460 
  273.6250   238.2440  -115.3720     6.4500   -21.2720    62.3780     2.1970     2.6510     2.8990     2.3460 
  273.7500   238.3430  -115.4480     6.4520   -21.1380    58.9120     2.1100     2.5610     2.6330     2.3430 
  273.8750   238.4420  -115.5240     6.4540   -20.9970    56.0890     2.0270     2.4730     2.5570     2.3420 
  274.0000   238.5410  -115.6000     6.4560   -20.9210    53.7800     1.9500     2.3920     2.6610     2.3440 
  274.1250   238.6410  -115.6760     6.4580   -20.9640    54.0060     1.8890     2.3280     2.6970     2.3400 
  274.2500   238.7400  -115.7520     6.4600   -21.1610    54.5400     1.8670     2.3050     2.4590     2.3300 
  274.3750   238.8390  -115.8270     6.4620   -21.4750    55.4100     1.9030     2.3430     2.1340     2.3160 
  274.5000   238.9390  -115.9030     6.4640   -21.8230    56.0230     2.0100     2.4560     2.1180     2.3050 
  274.6250   239.0380  -115.9790     6.4660   -22.0820    59.6320     2.1730     2.6270     2.5430     2.2980 
  274.7500   239.1370  -116.0550     6.4680   -22.1580    64.8840     2.3590     2.8220     3.2170     2.2990 
  274.8750   239.2370  -116.1310     6.4710   -22.0550    69.5950     2.5210     2.9920     3.7460     2.3020 
  275.0000   239.3360  -116.2070     6.4730   -21.8400    70.7610     2.6210     3.0970     3.8900     2.3050 
  275.1250   239.4350  -116.2830     6.4750   -21.6240    69.0900     2.6520     3.1300     3.7180     2.3050 
  275.2500   239.5350  -116.3580     6.4770   -21.4640    66.8830     2.6240     3.1000     3.4370     2.3060 
  275.3750   239.6340  -116.4340     6.4800   -21.3720    65.6300     2.5610     3.0340     3.2400     2.3080 
  275.5000   239.7330  -116.5100     6.4820   -21.3310    64.9600     2.4720     2.9400     3.1370     2.3100 
  275.6250   239.8330  -116.5860     6.4850   -21.3140    63.9150     2.3670     2.8310     3.1220     2.3130 
  275.7500   239.9320  -116.6620     6.4880   -21.3120    61.2380     2.2660     2.7250     3.1330     2.3140 
  275.8750   240.0310  -116.7380     6.4900   -21.3220    57.9260     2.2010     2.6560     2.9160     2.3130 
  276.0000   240.1310  -116.8130     6.4930   -21.3410    55.4500     2.2010     2.6560     2.5090     2.3140 
  276.1250   240.2300  -116.8890     6.4960   -21.3420    55.7340     2.2560     2.7140     2.2730     2.3260 
  276.2500   240.3290  -116.9650     6.4990   -21.2460    57.9980     2.3270     2.7880     2.4470     2.3500 
  276.3750   240.4290  -117.0410     6.5020   -20.9700    59.3870     2.3600     2.8230     2.9530     2.3710 
  276.5000   240.5280  -117.1160     6.5050   -20.4800    59.4990     2.3160     2.7770     3.2310     2.3740 
  276.6250   240.6280  -117.1920     6.5080   -19.8760    57.1750     2.2100     2.6650     2.9150     2.3570 
  276.7500   240.7270  -117.2680     6.5100   -19.3110    53.6760     2.0810     2.5300     2.4590     2.3320 
  276.8750   240.8260  -117.3440     6.5130   -18.8980    49.3820     1.9780     2.4220     2.2600     2.3140 
  277.0000   240.9260  -117.4190     6.5160   -18.6400    47.3720     1.9310     2.3720     2.2040     2.3070 
  277.1250   241.0250  -117.4950     6.5180   -18.4500    47.7470     1.9320     2.3740     2.2220     2.3070 
  277.2500   241.1250  -117.5710     6.5210   -18.2560    48.6690     1.9750     2.4190     2.3370     2.3110 
  277.3750   241.2240  -117.6470     6.5240   -18.0430    50.4040     2.0570     2.5050     2.4780     2.3180 
  277.5000   241.3240  -117.7220     6.5270   -17.8480    54.9260     2.1900     2.6440     2.5500     2.3220 
  277.6250   241.4230  -117.7980     6.5300   -17.7150    62.8570     2.3680     2.8320     2.5310     2.3180 
  277.7500   241.5220  -117.8740     6.5330   -17.6600    71.0450     2.5710     3.0450     2.6380     2.3090 
  277.8750   241.6220  -117.9490     6.5360   -17.6520    77.1190     2.7590     3.2420     3.1490     2.3000 
  278.0000   241.7210  -118.0250     6.5390   -17.6500    80.5140     2.8910     3.3810     3.9740     2.2990 
  278.1250   241.8210  -118.1000     6.5420   -17.6250    82.0390     2.9680     3.4610     4.6060     2.3040 
  278.2500   241.9200  -118.1760     6.5450   -17.5650    82.4040     3.0290     3.5260     4.6100     2.3110 
  278.3750   242.0200  -118.2520     6.5480   -17.4820    82.8410     3.1430     3.6460     4.0920     2.3160 
  278.5000   242.1190  -118.3270     6.5500   -17.3850    84.9280     3.3550     3.8680     3.7450     2.3150 
  278.6250   242.2190  -118.4030     6.5530   -17.2770    87.1520     3.6200     4.1460     4.4110     2.3090 
  278.7500   242.3180  -118.4780     6.5560   -17.1500    87.7660     3.8270     4.3640     6.0830     2.3010 
  278.8750   242.4180  -118.5540     6.5590   -17.0050    86.8980     3.8630     4.4020     7.4700     2.2950 
  279.0000   242.5180  -118.6300     6.5620   -16.8590    85.6920     3.6630     4.1920     7.4490     2.2950 
  279.1250   242.6170  -118.7050     6.5650   -16.7460    82.8460     3.2900     3.7990     6.3400     2.3020 
  279.2500   242.7170  -118.7810     6.5680   -16.6930    76.2980     2.8470     3.3340     5.0280     2.3100 
  279.3750   242.8160  -118.8560     6.5710   -16.6890    67.5000     2.4500     2.9180     3.9660     2.3120 
  279.5000   242.9160  -118.9320     6.5740   -16.7080    57.3000     2.1690     2.6220     3.1840     2.3040 
  279.6250   243.0150  -119.0070     6.5780   -16.7250    49.4160     1.9980     2.4430     2.6900     2.2900 
  279.7500   243.1150  -119.0830     6.5820   -16.7270    43.6850     1.9180     2.3590     2.4570     2.2740 
  279.8750   243.2140  -119.1580     6.5850   -16.7320    40.4530     1.8900     2.3290     2.3570     2.2650 
  280.0000   243.3140  -119.2340     6.5890   -16.7420    37.2450     1.8900     2.3290     2.3720     2.2670 
  280.1250   243.4140  -119.3090     6.5930   -16.7610    35.1330     1.9000     2.3400     2.4740     2.2780 
  280.2500   243.5130  -119.3840     6.5970   -16.7800    34.5320     1.9130     2.3540     2.5680     2.2950 
  280.3750   243.6130  -119.4600     6.6010   -16.7920    35.3700     1.9270     2.3690     2.6170     2.3120 
