~V
VERS. 2.00: Ver 2.00
~W
STRT.M 12.0000:
STOP.M 226.0000:
STEP.M 0.1250:
NULL. -999.2500:
UWI. FD10605:
~C
DEPT.M :
TVD. :
DX. :
DY. :
GR.API :
RML.OHMM :
RI. :
RXO.OHMM :
CALI.CM :
DEN.GM/CC :
SP.MV :
~A
# ...
  201.7500   186.2500    58.1720    26.4190    48.7800     7.4620     7.5230     6.7650    21.0610     2.3340   -18.3000 
  201.8750   186.3510    58.2400    26.4460    47.5800     7.2850     7.3490     6.5320    20.7430     2.3310   -18.5250 
  202.0000   186.4530    58.3080    26.4730    46.1940     7.1170     7.1510     6.4190    20.2910     2.3660   -18.5920 
  202.1250   186.5540    58.3760    26.5010    47.3650     7.0180     6.9980     6.4710    20.0080     2.4150   -18.6150 
  202.2500   186.6550    58.4440    26.5280    49.6070     6.9830     6.8930     6.6580    19.9070     2.4490   -18.6120 
  202.3750   186.7560    58.5120    26.5550    50.3590     6.9870     6.8120     6.9630    19.9210     2.4550   -18.6340 
  202.5000   186.8580    58.5800    26.5820    48.9250     6.9820     6.7120     7.2100    20.0270     2.4340   -18.6920 
  202.6250   186.9590    58.6480    26.6100    47.9820     6.8930     6.5260     7.1830    20.1920     2.3950   -18.7530 
  202.7500   187.0600    58.7160    26.6370    47.3750     6.6940     6.2430     6.7890    20.2410     2.3570   -18.8170 
  202.8750   187.1610    58.7840    26.6640    45.1900     6.3970     5.8800     6.1590    20.1630     2.3340   -18.7900 
  203.0000   187.2630    58.8520    26.6920    40.8810     6.0550     5.4910     5.5400    20.0190     2.3280   -18.7800 
  203.1250   187.3640    58.9200    26.7190    37.7230     5.7490     5.1490     5.2960    19.9510     2.3340   -18.7390 
  203.2500   187.4650    58.9880    26.7460    38.0210     5.5300     4.8960     5.2390    19.9540     2.3340   -18.6290 
  203.3750   187.5660    59.0560    26.7730    39.3490     5.4140     4.7450     5.3620    20.0680     2.3190   -18.4830 
  203.5000   187.6680    59.1240    26.8010    39.6320     5.3890     4.6850     5.5290    20.4180     2.2910   -18.3160 
  203.6250   187.7690    59.1920    26.8280    39.5460     5.4280     4.6990     5.5590    21.0020     2.2620   -18.1820 
  203.7500   187.8700    59.2600    26.8550    39.7090     5.4810     4.7350     5.4740    21.4060     2.2470   -18.0450 
  203.8750   187.9710    59.3280    26.8820    39.5100     5.5160     4.7610     5.4710    21.2860     2.2520   -17.9270 
  204.0000   188.0730    59.3960    26.9100    39.5000     5.5130     4.7520     5.5150    20.7240     2.2730   -17.8200 
  204.1250   188.1740    59.4640    26.9370    40.7910     5.4590     4.6930     5.2480    20.2530     2.2970   -17.6400 
  204.2500   188.2750    59.5320    26.9640    41.4760     5.3740     4.6000     5.0390    19.9820     2.3140   -17.5070 
  204.3750   188.3760    59.6000    26.9920    39.9210     5.2770     4.4900     4.9430    19.9070     2.3210   -17.4000 
  204.5000   188.4780    59.6680    27.0190    36.7290     5.1850     4.3810     4.8990    19.9580     2.3180   -17.2960 
  204.6250   188.5790    59.7360    27.0460    33.6800     5.1130     4.2870     4.8710    20.1160     2.3060   -17.1870 
  204.7500   188.6800    59.8040    27.0730    32.1380     5.0660     4.2110     4.7970    20.3280     2.2890   -17.0810 
  204.8750   188.7810    59.8720    27.1010    32.4510     5.0460     4.1590     4.6580    20.4470     2.2700   -17.0860 
  205.0000   188.8830    59.9400    27.1280    33.7750     5.0500     4.1300     4.6210    20.4640     2.2500   -17.1350 
  205.1250   188.9840    60.0080    27.1550    35.7760     5.0770     4.1230     4.7610    20.3740     2.2350   -17.3110 
  205.2500   189.0850    60.0760    27.1830    36.9150     5.1140     4.1240     4.8860    20.2090     2.2280   -17.5710 
  205.3750   189.1860    60.1440    27.2100    37.4220     5.1520     4.1260     4.9480    20.0510     2.2310   -17.8010 
  205.5000   189.2880    60.2130    27.2370    37.7120     5.1910     4.1240     4.8810    19.9550     2.2450   -18.0880 
  205.6250   189.3890    60.2810    27.2640    37.5790     5.2350     4.1240     4.8150    19.9180     2.2640   -18.3630 
  205.7500   189.4900    60.3490    27.2920    36.8290     5.2870     4.1310     4.9340    19.9010     2.2830   -18.5080 
  205.8750   189.5910    60.4170    27.3190    37.1760     5.3460     4.1490     5.1690    19.9240     2.2980   -18.5010 
  206.0000   189.6930    60.4850    27.3460    39.5510     5.4060     4.1750     5.3400    19.9600     2.3050   -18.4310 
  206.1250   189.7940    60.5530    27.3730    40.4220     5.4640     4.2080     5.3010    19.9670     2.3030   -18.3520 
  206.2500   189.8950    60.6210    27.4010    38.4380     5.5200     4.2460     5.2280    19.9400     2.2940   -18.3570 
  206.3750   189.9960    60.6890    27.4280    36.9890     5.5810     4.2910     5.2130    19.9030     2.2790   -18.5430 
  206.5000   190.0980    60.7570    27.4550    39.0800     5.6550     4.3490     5.3060    19.8810     2.2630   -18.7460 
  206.6250   190.1990    60.8250    27.4830    42.5730     5.7540     4.4280     5.4730    19.8820     2.2480   -18.8750 
  206.7500   190.3000    60.8930    27.5100    43.0600     5.8780     4.5290     5.5640    19.8920     2.2380   -19.0820 
  206.8750   190.4010    60.9610    27.5370    41.2860     6.0210     4.6500     5.5320    19.8890     2.2340   -19.3540 
  207.0000   190.5030    61.0290    27.5640    40.5080     6.1640     4.7760     5.5520    19.8800     2.2380   -19.6320 
  207.1250   190.6040    61.0970    27.5920    41.3900     6.2680     4.8720     5.7180    19.8860     2.2510   -19.8040 
  207.2500   190.7050    61.1650    27.6190    40.4830     6.3060     4.9120     5.8520    19.9260     2.2690   -19.8440 
  207.3750   190.8060    61.2330    27.6460    36.6360     6.2650     4.8780     5.7460    20.0020     2.2830   -19.7380 
  207.5000   190.9080    61.3010    27.6740    31.9290     6.1530     4.7730     5.3640    20.1050     2.2870   -19.5320 
  207.6250   191.0090    61.3690    27.7010    29.2020     5.9990     4.6150     5.0690    20.2120     2.2710   -19.3710 
  207.7500   191.1100    61.4370    27.7280    28.9600     5.8490     4.4470     4.8500    20.3060     2.2450   -19.2230 
  207.8750   191.2110    61.5050    27.7550    30.1070     5.7240     4.2920     4.7220    20.3890     2.2200   -19.0200 
  208.0000   191.3130    61.5730    27.7830    31.0120     5.6300     4.1630     4.6430    20.4390     2.2050   -18.8130 
  208.1250   191.4140    61.6410    27.8100    31.4100     5.5580     4.0690     4.6020    20.4740     2.2060   -18.6560 
  208.2500   191.5150    61.7090    27.8370    31.8130     5.4870     4.0000     4.5670    20.4030     2.2130   -18.4640 
  208.3750   191.6160    61.7770    27.8640    31.9700     5.4170     3.9510     4.5650    20.2320     2.2160   -18.3030 
  208.5000   191.7180    61.8450    27.8920    31.7960     5.3790     3.9340     4.5810    20.1040     2.2070   -18.1890 
  208.6250   191.8190    61.9130    27.9190    31.8050     5.4750     4.0100     4.6390    20.0590     2.1900   -18.0730 
  208.7500   191.9200    61.9810    27.9460    32.1700     5.7830     4.2380     4.8540    20.0470     2.1760   -18.0180 
  208.8750   192.0210    62.0490    27.9740    33.7320     6.3450     4.6640     5.5460    20.0080     2.1780   -17.9870 
  209.0000   192.1230    62.1170    28.0010    38.6750     7.1070     5.2850     7.2720    19.9020     2.1990   -17.9340 
  209.1250   192.2240    62.1850    28.0280    46.2650     7.8490     5.9800    10.4140    19.7910     2.2290   -17.9560 
  209.2500   192.3250    62.2530    28.0550    52.5310     8.2660     6.4770    13.5570    19.7460     2.2530   -18.0650 
  209.3750   192.4260    62.3210    28.0830    54.5560     8.1760     6.5510    13.0280    19.7380     2.2550   -18.1390 
  209.5000   192.5280    62.3890    28.1100    51.1950     7.6070     6.1660     9.5660    19.7450     2.2350   -18.2360 
  209.6250   192.6290    62.4570    28.1370    45.0050     6.7900     5.5040     6.6600    19.7650     2.1980   -18.4150 
  209.7500   192.7300    62.5250    28.1650    41.2990     6.0620     4.8730     5.4980    19.7890     2.1650   -18.5780 
  209.8750   192.8310    62.5930    28.1920    41.5140     5.5660     4.4030     5.1010    19.7870     2.1520   -18.7710 
