~V
VERS. 2.00: Ver 2.00
~W
STRT.M 55.0000:
STOP.M 289.0000:
STEP.M 0.1250:
NULL. -999.2500:
UWI. FD10909:
~C
DEPT.M :
TVD. :
DX. :
DY. :
SP.MV :
GR.API :
RI. :
RML.OHMM :
RXO.OHMM :
DEN.GM/CC :
~A
# ...
   82.3750    82.3630     0.7310    -0.1180   -13.9210    71.4100     5.2970     6.5570     7.6320     2.1570 
   82.5000    82.4870     0.7380    -0.1170   -14.0680    69.8470     5.2200     6.4750     7.7090     2.1540 
   82.6250    82.6120     0.7440    -0.1160   -14.1570    66.8740     5.1960     6.4490     7.7000     2.1500 
   82.7500    82.7370     0.7510    -0.1160   -14.2000    63.6820     5.2790     6.5380     7.5930     2.1520 
   82.8750    82.8620     0.7570    -0.1150   -14.2190    62.5910     5.4810     6.7540     7.4030     2.1690 
   83.0000    82.9870     0.7640    -0.1140   -14.2270    63.3320     5.7530     7.0440     7.1920     2.2110 
   83.1250    83.1110     0.7710    -0.1130   -14.2270    64.1340     5.9940     7.3020     7.1040     2.2590 
   83.2500    83.2360     0.7770    -0.1120   -14.2130    64.5110     6.0990     7.4140     7.1710     2.2790 
   83.3750    83.3610     0.7840    -0.1110   -14.1830    64.5590     6.0320     7.3420     7.2670     2.2590 
   83.5000    83.4860     0.7910    -0.1100   -14.1390    63.7000     5.8350     7.1320     7.3940     2.2220 
   83.6250    83.6110     0.7980    -0.1100   -14.0870    63.3870     5.6050     6.8860     7.5660     2.1980 
   83.7500    83.7360     0.8040    -0.1090   -14.0260    64.6040     5.4320     6.7020     7.6810     2.1940 
   83.8750    83.8600     0.8110    -0.1080   -13.9500    66.9370     5.3510     6.6150     7.7470     2.1970 
   84.0000    83.9850     0.8180    -0.1070   -13.8520    69.9020     5.3360     6.5990     7.7870     2.1940 
   84.1250    84.1100     0.8250    -0.1060   -13.7350    72.0060     5.3330     6.5950     7.7180     2.1820 
   84.2500    84.2350     0.8320    -0.1050   -13.6070    72.4460     5.2990     6.5590     7.6240     2.1660 
   84.3750    84.3600     0.8390    -0.1050   -13.4830    71.2710     5.2310     6.4870     7.7060     2.1520 
   84.5000    84.4840     0.8460    -0.1040   -13.3770    70.1470     5.1460     6.3960     7.8520     2.1460 
   84.6250    84.6090     0.8530    -0.1030   -13.2930    70.1720     5.0650     6.3090     7.7530     2.1490 
   84.7500    84.7340     0.8610    -0.1020   -13.2310    70.1920     5.0140     6.2550     7.4700     2.1550 
   84.8750    84.8590     0.8680    -0.1010   -13.1710    70.7400     5.0130     6.2540     7.3330     2.1590 
   85.0000    84.9830     0.8750    -0.1000   -13.0990    70.1490     5.0690     6.3140     7.4040     2.1630 
   85.1250    85.1080     0.8830    -0.0990   -13.0100    70.6070     5.1520     6.4020     7.7530     2.1670 
   85.2500    85.2330     0.8900    -0.0980   -12.9040    72.0490     5.2210     6.4760     8.4700     2.1660 
   85.3750    85.3580     0.8980    -0.0970   -12.7900    74.3280     5.2420     6.4980     8.7180     2.1600 
   85.5000    85.4830     0.9050    -0.0970   -12.6680    75.7410     5.2050     6.4590     7.8170     2.1560 
   85.6250    85.6070     0.9130    -0.0960   -12.5370    75.6260     5.1310     6.3800     6.7360     2.1590 
   85.7500    85.7320     0.9210    -0.0950   -12.3870    75.0860     5.0210     6.2630     6.6230     2.1710 
   85.8750    85.8570     0.9280    -0.0940   -12.2000    74.2280     4.8780     6.1100     7.8890     2.1880 
   86.0000    85.9820     0.9360    -0.0930   -11.9430    74.0990     4.7060     5.9260     9.6830     2.2060 
   86.1250    86.1060     0.9440    -0.0920   -11.6000    75.9850     4.5170     5.7240     9.5620     2.2250 
   86.2500    86.2310     0.9520    -0.0910   -11.1700    79.9890     4.3080     5.5010     7.5170     2.2410 
   86.3750    86.3560     0.9600    -0.0900   -10.6800    84.4970     4.0910     5.2700     6.3020     2.2530 
   86.5000    86.4810     0.9680    -0.0890   -10.1690    86.7580     3.8900     5.0550     6.1080     2.2610 
   86.6250    86.6050     0.9760    -0.0880    -9.6770    87.8230     3.7110     4.8640     5.6190     2.2660 
   86.7500    86.7300     0.9850    -0.0870    -9.2350    89.2540     3.5600     4.7020     4.9590     2.2730 
   86.8750    86.8550     0.9930    -0.0860    -8.8540    91.3940     3.4400     4.5740     4.5920     2.2830 
   87.0000    86.9790     1.0010    -0.0850    -8.5460    93.6760     3.3650     4.4940     4.4010     2.2900 
   87.1250    87.1040     1.0100    -0.0840    -8.3160    93.3370     3.3560     4.4840     4.2540     2.2890 
   87.2500    87.2290     1.0180    -0.0830    -8.1780    93.0050     3.4300     4.5640     4.3290     2.2740 
   87.3750    87.3540     1.0270    -0.0820    -8.1390    91.6870     3.5650     4.7070     4.5450     2.2530 
   87.5000    87.4780     1.0360    -0.0810    -8.2190    90.5740     3.7340     4.8880     4.6730     2.2340 
   87.6250    87.6030     1.0440    -0.0800    -8.4080    86.6510     3.8810     5.0450     4.8770     2.2230 
   87.7500    87.7280     1.0530    -0.0790    -8.6990    81.9870     3.9510     5.1200     5.4370     2.2220 
   87.8750    87.8520     1.0620    -0.0780    -9.0490    79.0980     3.9480     5.1170     5.9800     2.2260 
   88.0000    87.9770     1.0710    -0.0770    -9.4130    82.0440     3.9020     5.0670     5.7600     2.2270 
   88.1250    88.1020     1.0800    -0.0760    -9.7530    87.2310     3.8610     5.0230     5.0290     2.2190 
   88.2500    88.2260     1.0890    -0.0750   -10.0590    90.9570     3.8660     5.0290     4.7030     2.2020 
   88.3750    88.3510     1.0990    -0.0740   -10.3680    89.2560     3.9260     5.0930     4.8540     2.1860 
   88.5000    88.4760     1.1080    -0.0730   -10.7250    84.5190     4.0140     5.1860     4.9760     2.1800 
   88.6250    88.6000     1.1170    -0.0720   -11.1440    79.7630     4.0760     5.2530     5.0400     2.1800 
   88.7500    88.7250     1.1270    -0.0710   -11.6030    77.6400     4.1110     5.2900     5.2230     2.1790 
   88.8750    88.8500     1.1360    -0.0700   -12.0540    78.7030     4.2030     5.3890     5.3070     2.1760 
   89.0000    88.9740     1.1460    -0.0690   -12.4540    79.7660     4.4830     5.6880     5.2480     2.1870 
   89.1250    89.0990     1.1550    -0.0670   -12.7880    78.4780     4.9830     6.2220     5.7680     2.2290 
   89.2500    89.2230     1.1650    -0.0660   -13.0470    74.7670     5.6430     6.9270     7.4200     2.3000 
   89.3750    89.3480     1.1750    -0.0650   -13.2520    71.9740     6.2730     7.5990     9.0520     2.3570 
   89.5000    89.4730     1.1850    -0.0640   -13.4210    70.2810     6.6260     7.9770     9.2200     2.3570 
   89.6250    89.5970     1.1950    -0.0630   -13.5710    69.9080     6.5860     7.9330     8.3600     2.3010 
   89.7500    89.7220     1.2050    -0.0620   -13.7060    70.7550     6.1760     7.4960     7.5610     2.2230 
   89.8750    89.8460     1.2150    -0.0610   -13.8280    72.5870     5.6600     6.9450     7.2160     2.1610 
   90.0000    89.9710     1.2250    -0.0600   -13.9380    75.2610     5.3010     6.5620     7.2140     2.1280 
   90.1250    90.0960     1.2350    -0.0580   -14.0360    76.4990     5.1800     6.4320     7.3650     2.1130 
   90.2500    90.2200     1.2450    -0.0570   -14.1090    77.0380     5.2340     6.4900     7.5850     2.1090 
   90.3750    90.3450     1.2550    -0.0560   -14.1490    76.5190     5.3340     6.5960     7.7200     2.1100 
   90.5000    90.4690     1.2660    -0.0550   -14.1530    74.7510     5.4100     6.6770     7.6720     2.1130 
   90.6250    90.5940     1.2760    -0.0540   -14.1360    72.9490     5.4430     6.7140     7.6220     2.1170 
   90.7500    90.7180     1.2870    -0.0530   -14.1140    71.2330     5.4340     6.7030     7.6970     2.1210 
   90.8750    90.8430     1.2970    -0.0520   -14.1020    72.0570     5.3970     6.6640     7.8380     2.1260 
   91.0000    90.9670     1.3080    -0.0510   -14.1000    74.2600     5.3490     6.6130     8.0320     2.1320 
   91.1250    91.0920     1.3190    -0.0500   -14.1050    77.6600     5.3010     6.5620     8.1540     2.1380 
   91.2500    91.2170     1.3300    -0.0490   -14.1110    79.7440     5.2550     6.5130     8.0120     2.1410 
   91.3750    91.3410     1.3400    -0.0480   -14.1200    81.1240     5.2120     6.4660     7.7470     2.1420 
