~V
VERS. 2.00: Ver 2.00
~W
STRT.M 34.0000:
STOP.M 260.0000:
STEP.M 0.1250:
NULL. -999.2500:
UWI. FD10858:
~C
DEPT.M :
TVD. :
DX. :
DY. :
SP.MV :
GR.API :
RI. :
RML.OHMM :
RXO.OHMM :
DEN.GM/CC :
~A
# ...
  225.6250   209.3040   -47.2380   -51.3590   -13.0280    77.0950     1.9430     2.1380     2.4130     2.2520 
  225.7500   209.4140   -47.2770   -51.4040   -12.8810    77.4510     1.8560     2.1240     2.6610     2.2580 
  225.8750   209.5240   -47.3170   -51.4490   -12.6920    78.7070     1.7650     2.0400     2.9690     2.2600 
  226.0000   209.6340   -47.3570   -51.4930   -12.4750    81.4470     1.6240     1.8660     2.9270     2.2600 
  226.1250   209.7430   -47.3960   -51.5380   -12.2450    81.4410     1.4820     1.6830     2.4290     2.2680 
  226.2500   209.8530   -47.4360   -51.5830   -12.0180    79.7240     1.4190     1.6020     2.0050     2.2880 
  226.3750   209.9630   -47.4750   -51.6280   -11.7980    78.1050     1.4770     1.6770     2.0240     2.3240 
  226.5000   210.0730   -47.5150   -51.6730   -11.5720    77.5010     1.7270     1.9700     3.0260     2.3750 
  226.6250   210.1830   -47.5540   -51.7180   -11.3070    75.9170     2.2110     2.5260     5.8280     2.4360 
  226.7500   210.2920   -47.5940   -51.7620   -10.9750    74.6150     3.1380     3.5540     8.7590     2.4950 
  226.8750   210.4020   -47.6330   -51.8070   -10.5520    73.2040     4.4920     5.0040     9.6260     2.5440 
  227.0000   210.5120   -47.6730   -51.8520   -10.0530    70.2970     6.0650     6.6820    10.2890     2.5780 
  227.1250   210.6220   -47.7120   -51.8970    -9.5110    66.6350     7.7120     8.4290    13.7950     2.5970 
  227.2500   210.7320   -47.7520   -51.9420    -8.9830    63.9940     8.9270     9.7120    20.4020     2.5990 
  227.3750   210.8410   -47.7920   -51.9860    -8.5350    62.5180     9.4970    10.3410    29.1100     2.5850 
  227.5000   210.9510   -47.8310   -52.0310    -8.2020    61.3790     9.0340     9.8530    34.8420     2.5610 
  227.6250   211.0610   -47.8710   -52.0760    -8.0160    60.9820     7.6800     8.3970    31.9580     2.5280 
  227.7500   211.1710   -47.9110   -52.1200    -7.9680    62.9040     5.8850     6.4740    23.3960     2.4840 
  227.8750   211.2800   -47.9510   -52.1650    -8.0610    66.4940     4.2530     4.7170    14.7140     2.4300 
  228.0000   211.3900   -47.9910   -52.2090    -8.2740    69.6520     3.0980     3.5020     8.8860     2.3760 
  228.1250   211.5000   -48.0310   -52.2540    -8.6000    71.0100     2.4190     2.8130     5.9170     2.3340 
  228.2500   211.6090   -48.0710   -52.2980    -9.0010    70.7710     2.0190     2.4560     4.1430     2.3090 
  228.3750   211.7190   -48.1110   -52.3430    -9.4370    71.0740     1.8310     2.3230     3.2640     2.2980 
  228.5000   211.8290   -48.1510   -52.3870    -9.8580    72.0750     1.7940     2.3520     3.0530     2.2950 
  228.6250   211.9390   -48.1910   -52.4320   -10.2230    72.9200     1.9010     2.5120     2.9210     2.2980 
  228.7500   212.0480   -48.2310   -52.4770   -10.5130    73.7800     2.0670     2.7150     2.8170     2.3020 
  228.8750   212.1580   -48.2710   -52.5210   -10.7090    74.9540     2.2530     2.9450     2.9420     2.3050 
  229.0000   212.2680   -48.3110   -52.5660   -10.8120    76.5220     2.4140     3.1250     3.0300     2.3040 
  229.1250   212.3770   -48.3510   -52.6110   -10.8080    76.9710     2.4350     3.1140     3.2680     2.3000 
  229.2500   212.4870   -48.3910   -52.6560   -10.7040    76.6200     2.3300     2.9390     4.0020     2.2980 
  229.3750   212.5970   -48.4310   -52.7000   -10.5010    75.5380     2.1350     2.6540     4.4150     2.2990 
  229.5000   212.7070   -48.4700   -52.7450   -10.2310    73.7100     1.9300     2.3700     3.8750     2.2990 
  229.6250   212.8160   -48.5100   -52.7900    -9.9390    72.8580     1.8020     2.2000     2.9150     2.2970 
  229.7500   212.9260   -48.5500   -52.8350    -9.6740    74.9770     1.7370     2.1310     2.3210     2.2950 
  229.8750   213.0360   -48.5900   -52.8800    -9.4790    79.2170     1.7320     2.1540     2.2490     2.2940 
  230.0000   213.1450   -48.6290   -52.9250    -9.3590    81.8520     1.7780     2.2490     2.3380     2.2950 
  230.1250   213.2550   -48.6690   -52.9700    -9.3090    81.8350     1.8670     2.3750     2.3620     2.2940 
  230.2500   213.3650   -48.7080   -53.0150    -9.3070    82.4420     1.9410     2.4680     2.4000     2.2910 
  230.3750   213.4740   -48.7480   -53.0600    -9.3570    84.0050     1.9820     2.5020     2.5590     2.2860 
  230.5000   213.5840   -48.7870   -53.1050    -9.4670    84.3870     1.9340     2.4470     2.6840     2.2830 
  230.6250   213.6940   -48.8270   -53.1500    -9.6520    80.4880     1.8360     2.3400     2.6490     2.2850 
  230.7500   213.8040   -48.8660   -53.1950    -9.8850    74.6020     1.7110     2.2030     2.5510     2.2930 
  230.8750   213.9130   -48.9060   -53.2400   -10.1100    69.7100     1.6060     2.0740     2.4640     2.3020 
  231.0000   214.0230   -48.9460   -53.2850   -10.2520    67.5280     1.5190     1.9640     2.3880     2.3070 
  231.1250   214.1330   -48.9850   -53.3300   -10.2440    67.2170     1.4380     1.8680     2.2960     2.3080 
  231.2500   214.2420   -49.0250   -53.3740   -10.0920    65.5760     1.3660     1.7860     2.1760     2.3060 
  231.3750   214.3520   -49.0650   -53.4190    -9.8310    61.0210     1.2910     1.7090     2.1230     2.3080 
  231.5000   214.4620   -49.1050   -53.4630    -9.5380    54.6900     1.2500     1.6570     2.1170     2.3160 
  231.6250   214.5720   -49.1450   -53.5080    -9.2780    49.2090     1.2400     1.6420     2.0330     2.3290 
  231.7500   214.6820   -49.1850   -53.5520    -9.0810    45.0050     1.2600     1.6750     1.9120     2.3390 
  231.8750   214.7910   -49.2250   -53.5970    -8.9500    40.6350     1.3010     1.7300     1.8860     2.3400 
  232.0000   214.9010   -49.2650   -53.6410    -8.8640    36.7860     1.3390     1.7840     2.0280     2.3370 
  232.1250   215.0110   -49.3050   -53.6850    -8.8010    34.5590     1.3570     1.8020     2.2560     2.3410 
  232.2500   215.1210   -49.3450   -53.7300    -8.7440    32.8080     1.3490     1.7740     2.3610     2.3580 
  232.3750   215.2310   -49.3840   -53.7740    -8.6840    31.1400     1.3240     1.7090     2.3240     2.3890 
  232.5000   215.3400   -49.4240   -53.8190    -8.6120    30.1820     1.3050     1.6590     2.2390     2.4260 
  232.6250   215.4500   -49.4640   -53.8630    -8.5130    28.9260     1.3240     1.6720     2.1260     2.4650 
  232.7500   215.5600   -49.5040   -53.9070    -8.3740    26.7450     1.3890     1.7650     2.2390     2.5050 
  232.8750   215.6700   -49.5440   -53.9520    -8.1770    25.7950     1.5010     1.9330     2.6750     2.5470 
  233.0000   215.7800   -49.5840   -53.9960    -7.9300    26.5120     1.6470     2.1420     3.0770     2.5870 
  233.1250   215.8900   -49.6240   -54.0410    -7.6400    26.3550     1.7470     2.2780     3.4510     2.6070 
  233.2500   215.9990   -49.6640   -54.0850    -7.3280    24.3890     1.7520     2.2650     3.7630     2.5960 
  233.3750   216.1090   -49.7030   -54.1300    -7.0100    22.7730     1.6740     2.1040     3.4170     2.5490 
  233.5000   216.2190   -49.7430   -54.1750    -6.7050    23.1450     1.4990     1.8220     2.5510     2.4850 
  233.6250   216.3290   -49.7820   -54.2200    -6.4350    25.2420     1.3320     1.5780     1.9970     2.4300 
  233.7500   216.4390   -49.8210   -54.2640    -6.2130    27.1860     1.2110     1.4450     1.8570     2.4000 
  233.8750   216.5490   -49.8610   -54.3090    -6.0480    28.1040     1.1570     1.4480     1.8240     2.3970 
  234.0000   216.6580   -49.9010   -54.3540    -5.9250    29.1200     1.1770     1.5280     1.8550     2.4030 
  234.1250   216.7680   -49.9410   -54.3980    -5.8250    30.2680     1.2200     1.6110     1.8960     2.4040 
  234.2500   216.8780   -49.9810   -54.4420    -5.7310    30.0960     1.2390     1.6360     1.8790     2.3930 
  234.3750   216.9880   -50.0210   -54.4860    -5.6410    28.5460     1.2240     1.6100     1.8690     2.3740 
  234.5000   217.0980   -50.0610   -54.5300    -5.5670    27.4100     1.1900     1.5560     1.8510     2.3560 
  234.6250   217.2080   -50.1020   -54.5740    -5.5200    26.7700     1.1750     1.5130     1.8100     2.3450 
