~V
VERS. 2.00: Ver 2.00
~W
STRT.M 20.0000:
STOP.M 282.0000:
STEP.M 0.1250:
NULL. -999.2500:
UWI. FD10228:
~C
DEPT.M :
TVD. :
DX. :
DY. :
GR.API :
RML.OHMM :
RI. :
RXO.OHMM :
CALI.CM :
SP.MV :
DEN.GM/CC :
~A
# ...
   69.5000    69.4870    -0.7540     0.4880    56.3970    24.8030    16.3320    72.5120    24.7300   -33.9700     2.4920 
   69.6250    69.6120    -0.7570     0.4900    59.2680    23.4450    16.5680    62.9090    24.5420   -34.2200     2.5010 
   69.7500    69.7370    -0.7600     0.4920    63.4180    19.7070    14.8240    33.5100    24.3820   -34.5690     2.4170 
   69.8750    69.8620    -0.7630     0.4940    67.1490    15.6900    12.3430    18.2460    24.1570   -34.9810     2.3020 
   70.0000    69.9860    -0.7670     0.4960    67.6950    12.7710    10.1890    13.6310    24.2110   -35.4170     2.2000 
   70.1250    70.1110    -0.7700     0.4980    63.6340    11.3530     8.8470    13.6900    24.7300   -35.8140     2.1310 
   70.2500    70.2360    -0.7730     0.4990    59.7320    10.8330     8.1230    13.8140    25.0770   -36.1380     2.1020 
   70.3750    70.3610    -0.7760     0.5010    61.7010    10.8130     7.8420    13.6520    24.9760   -36.4020     2.0950 
   70.5000    70.4860    -0.7790     0.5030    67.3380    10.9790     7.8190    13.3610    24.8830   -36.6330     2.0990 
   70.6250    70.6110    -0.7820     0.5050    68.2980    11.1420     7.9200    13.1510    24.8020   -36.8210     2.1050 
   70.7500    70.7360    -0.7850     0.5070    62.6970    11.2950     8.0650    13.2350    24.6510   -36.9570     2.1110 
   70.8750    70.8610    -0.7880     0.5090    56.8660    11.4640     8.2380    13.6980    24.6520   -37.0330     2.1180 
   71.0000    70.9860    -0.7910     0.5110    57.0740    11.6230     8.4100    14.3950    24.8560   -37.0790     2.1260 
   71.1250    71.1110    -0.7950     0.5130    61.7860    11.6860     8.5200    14.9490    25.1550   -37.1350     2.1340 
   71.2500    71.2360    -0.7980     0.5150    64.2130    11.6330     8.5470    14.9960    25.0190   -37.2230     2.1390 
   71.3750    71.3610    -0.8010     0.5170    64.4660    11.5050     8.5000    14.5750    24.5400   -37.3440     2.1400 
   71.5000    71.4860    -0.8040     0.5180    64.3200    11.3880     8.4240    14.1610    24.2080   -37.4460     2.1370 
   71.6250    71.6110    -0.8070     0.5200    65.3820    11.3810     8.3820    14.0040    24.0690   -37.5060     2.1360 
   71.7500    71.7360    -0.8100     0.5220    67.5380    11.4790     8.3980    13.8990    24.1620   -37.5780     2.1410 
   71.8750    71.8610    -0.8130     0.5240    69.4040    11.6220     8.4490    13.8680    24.3660   -37.6680     2.1530 
   72.0000    71.9860    -0.8160     0.5260    69.6400    11.7220     8.4870    13.9200    24.4570   -37.7590     2.1660 
   72.1250    72.1110    -0.8190     0.5280    67.1620    11.6930     8.4510    13.9580    24.4700   -37.8290     2.1750 
   72.2500    72.2360    -0.8230     0.5300    64.3790    11.5670     8.3500    14.0670    24.4710   -37.8780     2.1750 
   72.3750    72.3600    -0.8260     0.5320    61.7470    11.4150     8.2230    14.2540    24.5190   -37.9130     2.1680 
   72.5000    72.4850    -0.8290     0.5340    59.9380    11.3180     8.1180    14.3080    24.7100   -37.9670     2.1550 
   72.6250    72.6100    -0.8320     0.5360    59.8700    11.3330     8.0660    14.2560    24.9240   -38.0150     2.1390 
   72.7500    72.7350    -0.8350     0.5380    60.2110    11.4180     8.0530    14.1540    24.9210   -38.0070     2.1220 
   72.8750    72.8600    -0.8380     0.5390    59.7560    11.5280     8.0670    14.1650    24.8990   -37.9910     2.1090 
   73.0000    72.9850    -0.8410     0.5410    57.2270    11.6650     8.1280    14.1330    24.9370   -37.9920     2.1070 
   73.1250    73.1100    -0.8440     0.5430    54.6880    11.9160     8.3080    13.9840    24.9570   -37.9870     2.1210 
   73.2500    73.2350    -0.8470     0.5450    54.9080    12.3210     8.6290    14.1290    24.6220   -37.9650     2.1560 
   73.3750    73.3600    -0.8500     0.5470    57.7060    12.8340     9.0630    15.7710    24.2800   -37.9350     2.1980 
   73.5000    73.4850    -0.8540     0.5490    60.4550    13.2900     9.5070    20.4620    24.0540   -37.9080     2.2300 
   73.6250    73.6100    -0.8570     0.5510    61.1960    13.3690     9.7430    25.8400    23.9450   -37.9160     2.2370 
   73.7500    73.7350    -0.8600     0.5530    60.7460    12.9910     9.6630    22.7250    23.9340   -37.9820     2.2110 
   73.8750    73.8600    -0.8630     0.5550    58.3190    12.3170     9.3180    17.1800    23.9770   -38.0430     2.1710 
   74.0000    73.9850    -0.8660     0.5570    54.6060    11.6770     8.8940    15.3730    24.1780   -38.0610     2.1350 
   74.1250    74.1100    -0.8690     0.5580    52.5840    11.4370     8.6360    15.8310    24.4950   -38.0950     2.1170 
   74.2500    74.2350    -0.8720     0.5600    54.2430    11.6220     8.6270    16.2110    24.7540   -38.1570     2.1290 
   74.3750    74.3600    -0.8750     0.5620    58.4010    12.0950     8.8380    18.0530    24.9000   -38.2040     2.1600 
   74.5000    74.4850    -0.8780     0.5640    61.1920    12.5850     9.1450    23.2120    24.8810   -38.2150     2.1970 
   74.6250    74.6100    -0.8820     0.5660    59.7200    12.7230     9.3200    29.2960    24.7270   -38.1890     2.2240 
   74.7500    74.7340    -0.8850     0.5680    59.9840    12.4480     9.2510    25.9500    24.6030   -38.1240     2.2240 
   74.8750    74.8590    -0.8880     0.5700    64.0490    11.9140     8.9690    19.4980    24.7000   -38.0680     2.2040 
   75.0000    74.9840    -0.8910     0.5720    66.8670    11.3720     8.5990    16.4420    24.8370   -38.0450     2.1730 
   75.1250    75.1090    -0.8940     0.5740    64.5770    11.0530     8.2910    15.6820    24.9660   -37.9580     2.1430 
   75.2500    75.2340    -0.8970     0.5760    64.4300    10.9580     8.1090    15.3500    25.2090   -37.8040     2.1180 
   75.3750    75.3590    -0.9000     0.5770    66.4340    11.0020     8.0480    15.0400    25.7670   -37.6640     2.1000 
   75.5000    75.4840    -0.9030     0.5790    63.9460    11.0690     8.0550    14.8150    26.3660   -37.5450     2.0880 
   75.6250    75.6090    -0.9060     0.5810    57.2920    11.0640     8.0650    15.0310    26.8990   -37.4040     2.0840 
   75.7500    75.7340    -0.9090     0.5830    55.1860    10.9900     8.0460    15.1370    27.1510   -37.2440     2.0910 
   75.8750    75.8590    -0.9130     0.5850    57.7790    10.8720     8.0010    14.9880    27.2090   -37.0330     2.1020 
   76.0000    75.9840    -0.9160     0.5870    61.0770    10.7400     7.9460    14.6970    26.9420   -36.7710     2.1150 
   76.1250    76.1090    -0.9190     0.5890    62.5110    10.6320     7.9070    14.9830    26.2610   -36.5270     2.1230 
   76.2500    76.2340    -0.9220     0.5910    63.0420    10.5670     7.9010    15.6030    24.9210   -36.3350     2.1230 
   76.3750    76.3590    -0.9250     0.5930    61.7320    10.5500     7.9260    16.1720    24.5160   -36.1390     2.1140 
   76.5000    76.4840    -0.9280     0.5950    59.4430    10.5750     7.9670    16.4320    24.7510   -35.8930     2.1010 
   76.6250    76.6090    -0.9310     0.5970    58.7190    10.6200     8.0020    16.7810    25.3280   -35.6020     2.0870 
   76.7500    76.7340    -0.9340     0.5980    58.9060    10.6550     8.0160    17.0680    26.0580   -35.2860     2.0760 
   76.8750    76.8590    -0.9370     0.6000    58.0650    10.6720     8.0090    16.6890    26.6170   -34.9750     2.0700 
   77.0000    76.9830    -0.9410     0.6020    55.4900    10.6750     7.9890    15.9990    26.8270   -34.6490     2.0670 
   77.1250    77.1080    -0.9440     0.6040    55.9080    10.6620     7.9580    15.8150    26.6590   -34.2560     2.0650 
   77.2500    77.2330    -0.9470     0.6060    59.5090    10.6270     7.9180    16.3550    26.4920   -33.7680     2.0640 
   77.3750    77.3580    -0.9500     0.6080    60.2600    10.5770     7.8770    16.6860    26.4830   -33.2250     2.0640 
   77.5000    77.4830    -0.9530     0.6100    55.9310    10.5470     7.8530    15.9560    26.9730   -32.6480     2.0660 
   77.6250    77.6080    -0.9560     0.6120    53.7230    10.6090     7.8870    14.8850    27.4390   -32.0090     2.0680 
