~V
VERS. 2.00: Ver 2.00
~W
STRT.M 43.0000:
STOP.M 257.0000:
STEP.M 0.1250:
NULL. -999.2500:
UWI. FD10872:
~C
DEPT.M :
TVD. :
DX. :
DY. :
SP.MV :
GR.API :
RI. :
RML.OHMM :
RXO.OHMM :
DEN.GM/CC :
~A
# ...
  106.8750   106.0210     6.9050    -5.6810     0.8550    62.6890    18.5170    22.1110    17.6680     2.1000 
  107.0000   106.1410     6.9330    -5.7020     1.2250    63.3670    19.1550    22.7880    17.3040     2.1110 
  107.1250   106.2610     6.9610    -5.7240     1.2450    62.7430    19.8150    23.5190    17.9680     2.1270 
  107.2500   106.3810     6.9880    -5.7450     1.0060    62.3710    20.3480    24.1440    19.2030     2.1470 
  107.3750   106.5010     7.0160    -5.7660     0.6360    61.8650    20.6540    24.5060    27.5030     2.1640 
  107.5000   106.6210     7.0440    -5.7880     0.2810    59.3350    20.5330    24.3550    36.7060     2.1750 
  107.6250   106.7410     7.0720    -5.8090     0.0040    56.2940    19.7660    23.4170    30.5450     2.1740 
  107.7500   106.8610     7.0990    -5.8310    -0.2250    57.8790    18.4880    21.8740    19.8280     2.1630 
  107.8750   106.9810     7.1270    -5.8520    -0.4770    63.3290    16.9630    20.0240    15.3990     2.1460 
  108.0000   107.1010     7.1550    -5.8740    -0.7930    67.8370    15.5030    18.2740    13.3000     2.1320 
  108.1250   107.2200     7.1830    -5.8960    -1.1560    69.6900    14.4270    16.9950    11.9370     2.1260 
  108.2500   107.3400     7.2120    -5.9170    -1.4960    69.9540    13.8190    16.2900    11.1060     2.1280 
  108.3750   107.4600     7.2400    -5.9390    -1.7170    69.3500    13.7360    16.2090    11.1230     2.1340 
  108.5000   107.5800     7.2680    -5.9610    -1.7580    68.2980    14.1270    16.6700    11.4900     2.1400 
  108.6250   107.7000     7.2970    -5.9830    -1.5870    68.2390    14.7820    17.4660    12.6680     2.1430 
  108.7500   107.8190     7.3250    -6.0050    -1.2570    69.3080    15.6500    18.4850    14.1220     2.1420 
  108.8750   107.9390     7.3530    -6.0270    -0.8450    70.0710    16.5360    19.4770    13.8680     2.1380 
  109.0000   108.0590     7.3820    -6.0480    -0.4520    69.0480    17.3510    20.3570    13.4220     2.1330 
  109.1250   108.1780     7.4110    -6.0700    -0.1520    67.2590    18.0700    21.0840    15.5020     2.1270 
  109.2500   108.2980     7.4400    -6.0920     0.0430    65.9070    18.6590    21.6740    18.2860     2.1220 
  109.3750   108.4180     7.4690    -6.1140     0.1670    64.5120    19.1520    22.2050    18.6640     2.1190 
  109.5000   108.5370     7.4970    -6.1360     0.2950    62.1360    19.5710    22.6630    18.0020     2.1170 
  109.6250   108.6570     7.5270    -6.1580     0.5240    59.8160    19.7610    22.8900    17.5750     2.1150 
  109.7500   108.7760     7.5560    -6.1800     0.8950    59.3810    19.7230    22.8640    17.0260     2.1140 
  109.8750   108.8960     7.5850    -6.2020     1.3720    61.0920    19.5470    22.6700    18.0890     2.1120 
  110.0000   109.0160     7.6140    -6.2240     1.8130    64.1430    19.3340    22.3930    20.1530     2.1090 
  110.1250   109.1350     7.6440    -6.2460     2.0170    64.7770    19.2170    22.1870    20.5920     2.1060 
  110.2500   109.2540     7.6730    -6.2680     1.8470    63.0230    19.2560    22.1000    19.9350     2.1040 
  110.3750   109.3740     7.7030    -6.2890     1.2480    62.0660    19.3540    22.0350    19.8190     2.1030 
  110.5000   109.4930     7.7330    -6.3110     0.3520    63.3050    19.3960    21.9150    20.3970     2.1040 
  110.6250   109.6130     7.7620    -6.3330    -0.7100    63.1770    19.6090    22.0950    21.5280     2.1080 
  110.7500   109.7320     7.7920    -6.3550    -1.8030    61.5960    20.4760    23.2660    22.4460     2.1180 
  110.8750   109.8510     7.8220    -6.3770    -2.8970    62.0270    22.4080    25.8990    21.0260     2.1400 
  111.0000   109.9710     7.8520    -6.4000    -4.0270    63.9050    23.8730    27.8460    21.1040     2.1820 
  111.1250   110.0900     7.8820    -6.4220    -5.2180    63.9500    23.1300    27.0630    35.9840     2.2470 
  111.2500   110.2090     7.9120    -6.4440    -6.4400    63.2800    20.1660    23.3730    56.6600     2.3250 
  111.3750   110.3290     7.9420    -6.4660    -7.6130    65.7480    15.2490    17.3430    61.8240     2.3920 
  111.5000   110.4480     7.9720    -6.4880    -8.6440    72.0020    10.7240    11.9560    46.6970     2.4270 
  111.6250   110.5670     8.0030    -6.5100    -9.4300    80.4370     7.5160     8.2430    20.3230     2.4190 
  111.7500   110.6860     8.0330    -6.5320    -9.9170    87.1660     5.6300     6.1640     6.2680     2.3840 
  111.8750   110.8060     8.0640    -6.5540   -10.0240    91.2140     5.0710     5.6690     5.3460     2.3400 
  112.0000   110.9250     8.0940    -6.5770    -9.7470    93.0520     5.5190     6.3150     4.7850     2.3020 
  112.1250   111.0440     8.1250    -6.5990    -9.0580    90.3740     6.7500     7.9030     5.6880     2.2700 
  112.2500   111.1630     8.1560    -6.6210    -8.0670    81.7990     8.8660    10.5490     9.3780     2.2370 
  112.3750   111.2820     8.1860    -6.6430    -6.9130    71.2880    11.6570    13.9080    14.3000     2.2020 
  112.5000   111.4010     8.2170    -6.6660    -5.7940    63.5030    14.5280    17.1660    16.5840     2.1670 
  112.6250   111.5200     8.2480    -6.6880    -4.8780    59.2600    16.7870    19.6500    15.9350     2.1400 
  112.7500   111.6390     8.2790    -6.7100    -4.2090    57.5280    18.0260    20.9830    15.9650     2.1220 
  112.8750   111.7580     8.3100    -6.7330    -3.7780    59.6220    17.7550    20.6650    17.8610     2.1110 
  113.0000   111.8770     8.3410    -6.7550    -3.5570    63.4380    16.4550    19.1960    19.3740     2.1050 
  113.1250   111.9960     8.3730    -6.7770    -3.6390    66.3260    14.0880    16.4470    19.2510     2.1050 
  113.2500   112.1150     8.4040    -6.7990    -4.1250    67.3880    11.1320    12.9750    17.0610     2.1130 
  113.3750   112.2340     8.4350    -6.8220    -5.1320    69.4070     8.6930    10.1450    12.5110     2.1330 
  113.5000   112.3530     8.4670    -6.8440    -6.5430    73.5780     6.7670     7.9610     8.0470     2.1610 
  113.6250   112.4720     8.4980    -6.8660    -8.1150    79.3630     5.7390     6.8550     6.1660     2.1930 
  113.7500   112.5910     8.5300    -6.8890    -9.5080    84.8270     5.3400     6.5250     6.0790     2.2240 
  113.8750   112.7100     8.5610    -6.9110   -10.4340    88.2240     5.3720     6.7110     6.3110     2.2470 
  114.0000   112.8280     8.5930    -6.9330   -10.8440    87.7300     5.6320     7.1180     6.2870     2.2630 
  114.1250   112.9470     8.6250    -6.9550   -10.7840    84.4830     5.9610     7.5430     6.4150     2.2700 
  114.2500   113.0660     8.6570    -6.9780   -10.4620    81.5370     6.2780     7.9410     7.1590     2.2700 
  114.3750   113.1850     8.6890    -7.0000   -10.0400    82.2160     6.5480     8.2760     7.5080     2.2650 
  114.5000   113.3040     8.7210    -7.0220    -9.6540    84.4370     6.7320     8.4940     7.0780     2.2580 
  114.6250   113.4220     8.7530    -7.0440    -9.3990    84.2930     6.8010     8.5920     7.2060     2.2500 
  114.7500   113.5410     8.7850    -7.0660    -9.2980    82.2040     6.7790     8.5720     8.7050     2.2420 
  114.8750   113.6600     8.8180    -7.0880    -9.3500    80.7350     6.6770     8.4440    10.2710     2.2370 
  115.0000   113.7780     8.8500    -7.1100    -9.4950    80.7800     6.5670     8.3020     9.5650     2.2370 
  115.1250   113.8970     8.8820    -7.1330    -9.6790    82.4920     6.4100     8.0950     7.7430     2.2430 
  115.2500   114.0160     8.9150    -7.1550    -9.8580    84.1900     6.2650     7.9320     7.3780     2.2530 
  115.3750   114.1340     8.9470    -7.1770   -10.0130    84.5850     6.2020     7.8950     7.3890     2.2640 
  115.5000   114.2530     8.9800    -7.1990   -10.1510    83.7780     6.2330     7.9940     6.9130     2.2720 
  115.6250   114.3720     9.0130    -7.2210   -10.2660    84.4720     6.3420     8.1890     6.7730     2.2750 
  115.7500   114.4900     9.0460    -7.2440   -10.3340    85.8010     6.4650     8.4040     7.0650     2.2730 
  115.8750   114.6090     9.0780    -7.2660   -10.2960    84.5130     6.6240     8.6840     7.5470     2.2680 
