~V
VERS. 2.00: Ver 2.00
~W
STRT.M 40.0000:
STOP.M 276.0000:
STEP.M 0.1250:
NULL. -999.2500:
UWI. FD10882:
~C
DEPT.M :
TVD. :
DX. :
DY. :
SP.MV :
GR.API :
RI. :
RML.OHMM :
RXO.OHMM :
DEN.GM/CC :
~A
# ...
  249.8750   232.9230   -57.9670   -43.2070    -3.8530    81.6220     3.1000     3.7360     3.7600     2.3280 
  250.0000   233.0300   -58.0200   -43.2450    -2.8290    77.3970     2.6900     3.2190     3.0410     2.3240 
  250.1250   233.1370   -58.0720   -43.2830    -1.4620    73.8740     2.3790     2.8480     2.6220     2.3280 
  250.2500   233.2440   -58.1240   -43.3200    -0.1740    69.1520     2.2150     2.6720     2.4550     2.3290 
  250.3750   233.3510   -58.1770   -43.3580     0.5360    64.9540     2.1610     2.6370     2.4100     2.3230 
  250.5000   233.4580   -58.2290   -43.3960     0.6160    63.0230     2.2040     2.7240     2.5080     2.3080 
  250.6250   233.5650   -58.2820   -43.4330     0.4250    64.8380     2.3460     2.9250     2.8690     2.2960 
  250.7500   233.6720   -58.3340   -43.4710     0.0190    69.8270     2.5410     3.1760     3.3760     2.2910 
  250.8750   233.7790   -58.3870   -43.5080    -0.5840    75.1780     2.7410     3.4040     3.7250     2.2920 
  251.0000   233.8860   -58.4400   -43.5460    -1.3400    78.5560     2.8940     3.5460     3.7390     2.2950 
  251.1250   233.9930   -58.4930   -43.5830    -2.1930    78.6530     2.9750     3.5870     3.5590     2.2970 
  251.2500   234.1000   -58.5460   -43.6200    -2.6660    78.5540     3.0410     3.6050     3.5230     2.2980 
  251.3750   234.2070   -58.5990   -43.6570    -2.5730    78.7820     3.2130     3.7610     3.8420     2.3080 
  251.5000   234.3140   -58.6510   -43.6950    -2.4930    80.1260     3.4780     4.0550     4.4910     2.3250 
  251.6250   234.4210   -58.7040   -43.7320    -2.9710    81.4210     3.9480     4.6230     5.3350     2.3440 
  251.7500   234.5280   -58.7570   -43.7690    -3.9950    82.9590     4.5740     5.4150     6.1870     2.3650 
  251.8750   234.6350   -58.8100   -43.8070    -5.4350    84.6040     5.2700     6.2690     7.0140     2.3900 
  252.0000   234.7420   -58.8630   -43.8440    -6.8230    84.5580     5.8080     6.8960     7.6750     2.4100 
  252.1250   234.8490   -58.9160   -43.8820    -7.7950    83.9940     5.8420     6.8700     7.6280     2.4050 
  252.2500   234.9560   -58.9680   -43.9190    -8.1800    83.7320     5.4110     6.2680     6.6290     2.3780 
  252.3750   235.0620   -59.0210   -43.9570    -8.0020    86.3870     4.7100     5.3830     5.1470     2.3470 
  252.5000   235.1690   -59.0740   -43.9940    -7.4850    88.1400     4.0070     4.5420     4.0920     2.3300 
  252.6250   235.2760   -59.1270   -44.0320    -6.6840    89.0310     3.5680     4.0560     3.8630     2.3210 
  252.7500   235.3830   -59.1800   -44.0700    -5.8940    87.2830     3.3840     3.8870     4.0650     2.3060 
  252.8750   235.4900   -59.2330   -44.1070    -5.5380    85.7760     3.4840     4.0490     4.2580     2.2890 
  253.0000   235.5970   -59.2850   -44.1450    -5.7140    84.2830     3.8130     4.4610     4.4320     2.2830 
  253.1250   235.7040   -59.3380   -44.1820    -6.1280    84.3560     4.3560     5.1430     5.2390     2.3060 
  253.2500   235.8110   -59.3910   -44.2200    -6.3550    83.7660     4.9950     5.9210     7.2370     2.3580 
  253.3750   235.9180   -59.4440   -44.2570    -6.5320    82.3960     5.4460     6.4310     9.9430     2.4260 
  253.5000   236.0240   -59.4960   -44.2950    -6.6910    79.3200     5.5650     6.5080    11.5020     2.4740 
  253.6250   236.1310   -59.5490   -44.3330    -6.7200    77.3920     5.3150     6.1000    10.4990     2.4750 
  253.7500   236.2380   -59.6020   -44.3700    -6.6710    77.5980     4.8900     5.5130     8.3320     2.4390 
  253.8750   236.3450   -59.6540   -44.4080    -6.5620    79.6100     4.6900     5.2690     7.6380     2.4120 
  254.0000   236.4520   -59.7070   -44.4460    -6.5590    82.6310     4.8340     5.4900     9.1660     2.4230 
  254.1250   236.5590   -59.7600   -44.4830    -6.9490    85.5920     5.3090     6.1590    11.3260     2.4610 
  254.2500   236.6660   -59.8120   -44.5210    -7.7290    87.5320     5.9460     7.0100    12.0140     2.4820 
  254.3750   236.7730   -59.8650   -44.5580    -8.4320    87.1410     6.3310     7.4880    10.5430     2.4550 
  254.5000   236.8800   -59.9180   -44.5960    -8.8480    85.3530     6.3180     7.4280     8.0380     2.3930 
  254.6250   236.9870   -59.9700   -44.6330    -9.1880    84.2290     5.7830     6.6920     5.8620     2.3230 
  254.7500   237.0940   -60.0230   -44.6710    -9.5050    84.1780     5.1110     5.8230     4.7410     2.2840 
  254.8750   237.2010   -60.0750   -44.7090    -9.6780    84.0980     4.5840     5.1810     4.8610     2.2800 
  255.0000   237.3080   -60.1280   -44.7460    -9.6280    82.9400     4.4120     5.0110     5.9760     2.3100 
  255.1250   237.4150   -60.1800   -44.7840    -9.3990    81.6020     4.6060     5.3000     7.6450     2.3550 
  255.2500   237.5220   -60.2330   -44.8220    -9.1430    79.9650     4.9660     5.7580     8.9410     2.4030 
  255.3750   237.6290   -60.2860   -44.8590    -8.9240    77.4980     5.2880     6.1520     8.9830     2.4090 
  255.5000   237.7360   -60.3380   -44.8970    -8.7050    74.5240     5.3950     6.2690     7.7950     2.3710 
  255.6250   237.8430   -60.3910   -44.9350    -8.3460    74.0930     5.1410     5.9260     5.9530     2.3090 
  255.7500   237.9500   -60.4430   -44.9730    -7.7560    74.9570     4.5480     5.1830     4.2950     2.2660 
  255.8750   238.0560   -60.4960   -45.0110    -6.8660    77.3710     3.8900     4.3920     3.3410     2.2660 
  256.0000   238.1630   -60.5490   -45.0490    -5.6260    77.1140     3.3760     3.7890     3.0320     2.2880 
  256.1250   238.2700   -60.6010   -45.0870    -4.1380    76.4630     3.1430     3.5510     3.1390     2.3050 
  256.2500   238.3770   -60.6540   -45.1250    -2.9540    74.6610     3.1460     3.5960     3.4150     2.3000 
  256.3750   238.4840   -60.7060   -45.1630    -2.4730    76.7420     3.2820     3.7880     3.7200     2.2770 
  256.5000   238.5910   -60.7590   -45.2010    -2.6590    80.7070     3.4290     3.9720     3.9060     2.2580 
  256.6250   238.6980   -60.8120   -45.2380    -3.3900    84.6210     3.5310     4.0730     3.8590     2.2520 
  256.7500   238.8040   -60.8650   -45.2760    -4.2330    84.8950     3.5580     4.0700     3.6610     2.2600 
  256.8750   238.9110   -60.9180   -45.3130    -4.6770    84.2110     3.5210     3.9830     3.5200     2.2770 
  257.0000   239.0180   -60.9710   -45.3510    -4.2530    83.3950     3.4800     3.9080     3.5980     2.2910 
  257.1250   239.1250   -61.0240   -45.3880    -3.3700    85.1430     3.4960     3.9250     3.8670     2.2920 
  257.2500   239.2310   -61.0770   -45.4260    -2.7680    86.6110     3.5760     4.0180     4.1290     2.2820 
  257.3750   239.3380   -61.1300   -45.4630    -2.9480    88.9970     3.7260     4.1900     4.2810     2.2650 
  257.5000   239.4450   -61.1840   -45.5000    -3.7550    88.8700     3.9080     4.4050     4.3990     2.2570 
  257.6250   239.5520   -61.2370   -45.5370    -4.9940    88.4940     4.0840     4.6090     4.5620     2.2570 
  257.7500   239.6590   -61.2910   -45.5740    -6.1110    86.3950     4.2550     4.8200     4.8040     2.2680 
  257.8750   239.7650   -61.3440   -45.6110    -6.9830    85.2450     4.3900     4.9980     5.1640     2.2850 
  258.0000   239.8720   -61.3980   -45.6490    -7.7930    83.8340     4.4790     5.1190     5.4980     2.3010 
  258.1250   239.9790   -61.4510   -45.6860    -8.6610    83.2220     4.4850     5.1410     5.4570     2.3030 
  258.2500   240.0850   -61.5040   -45.7230    -9.2920    82.4000     4.4000     5.0400     4.9690     2.2960 
  258.3750   240.1920   -61.5580   -45.7600    -9.5260    82.1450     4.2560     4.8580     4.3730     2.2850 
  258.5000   240.2990   -61.6110   -45.7970    -9.3940    82.6130     4.1060     4.6690     4.0760     2.2710 
  258.6250   240.4060   -61.6650   -45.8340    -8.6120    83.3920     3.9960     4.5290     4.1270     2.2600 
  258.7500   240.5120   -61.7180   -45.8710    -7.7050    83.9230     3.9640     4.4830     4.2670     2.2570 
  258.8750   240.6190   -61.7720   -45.9090    -7.1080    84.1430     4.0070     4.5300     4.3920     2.2680 
