~V
VERS. 2.00: Ver 2.00
~W
STRT.M 64.0000:
STOP.M 246.0000:
STEP.M 0.1250:
NULL. -999.2500:
UWI. FD10853:
~C
DEPT.M :
TVD. :
DX. :
DY. :
SP.MV :
GR.API :
RI. :
RML.OHMM :
RXO.OHMM :
DEN.GM/CC :
~A
# ...
  155.2500   154.3800    -9.5190    -2.7720   -19.0120    57.6490    12.1490    12.6670    13.0910     2.5210 
  155.3750   154.5010    -9.5470    -2.7830   -18.9950    56.7510    12.8310    13.4300    13.6220     2.5270 
  155.5000   154.6230    -9.5750    -2.7930   -19.0560    56.9140    13.7150    14.4140    14.4740     2.5400 
  155.6250   154.7440    -9.6030    -2.8040   -19.0600    56.8070    14.3320    15.0860    14.6890     2.5490 
  155.7500   154.8650    -9.6310    -2.8140   -19.0730    57.2060    14.2470    14.9500    14.6330     2.5460 
  155.8750   154.9870    -9.6600    -2.8250   -19.0530    58.5410    13.6650    14.2560    14.1920     2.5390 
  156.0000   155.1080    -9.6880    -2.8350   -19.0050    59.5420    12.6840    13.1230    13.5850     2.5180 
  156.1250   155.2290    -9.7160    -2.8450   -19.0140    58.3840    11.8410    12.2140    13.1410     2.4930 
  156.2500   155.3510    -9.7450    -2.8560   -18.9950    57.2110    11.4780    11.9200    12.7540     2.4840 
  156.3750   155.4720    -9.7730    -2.8660   -18.9320    56.6930    11.5640    12.1560    12.4330     2.4970 
  156.5000   155.5930    -9.8020    -2.8760   -18.8220    57.8440    12.0490    12.8310    12.3750     2.5210 
  156.6250   155.7140    -9.8300    -2.8870   -18.7440    58.3040    12.6010    13.5080    12.4330     2.5300 
  156.7500   155.8360    -9.8590    -2.8970   -18.7030    59.5960    12.8090    13.6900    12.6750     2.5340 
  156.8750   155.9570    -9.8870    -2.9070   -18.6860    60.5770    12.6650    13.4470    13.0000     2.5350 
  157.0000   156.0780    -9.9160    -2.9180   -18.6390    62.2820    12.2580    12.9070    13.1700     2.5280 
  157.1250   156.1990    -9.9440    -2.9280   -18.5120    63.8720    11.9470    12.5140    13.2010     2.5090 
  157.2500   156.3210    -9.9730    -2.9380   -18.3340    66.4100    11.9160    12.4810    12.9510     2.4960 
  157.3750   156.4420   -10.0010    -2.9490   -18.1240    67.1760    12.3460    12.9980    12.5680     2.4990 
  157.5000   156.5630   -10.0300    -2.9590   -17.9440    66.5950    13.3130    14.1280    12.4140     2.5110 
  157.6250   156.6840   -10.0590    -2.9700   -17.8290    64.5140    14.3780    15.3560    12.8050     2.5180 
  157.7500   156.8060   -10.0870    -2.9800   -17.7470    63.6110    15.0730    16.1430    13.4820     2.5100 
  157.8750   156.9270   -10.1150    -2.9910   -17.7080    64.3270    14.9250    15.9420    13.9520     2.5000 
  158.0000   157.0480   -10.1440    -3.0020   -17.7440    65.6620    13.8700    14.6960    13.7510     2.4810 
  158.1250   157.1690   -10.1720    -3.0120   -17.7490    67.4650    12.5120    13.1490    13.2650     2.4660 
  158.2500   157.2910   -10.2010    -3.0230   -17.7710    69.1180    11.4190    11.9530    12.7830     2.4510 
  158.3750   157.4120   -10.2290    -3.0340   -17.7520    69.9790    10.8680    11.4410    12.4330     2.4440 
  158.5000   157.5330   -10.2580    -3.0450   -17.6900    71.9840    10.9750    11.7080    12.1590     2.4450 
  158.6250   157.6540   -10.2860    -3.0560   -17.5900    73.5930    11.5190    12.4480    12.0500     2.4480 
  158.7500   157.7760   -10.3150    -3.0670   -17.4690    76.1850    12.0940    13.0890    12.2250     2.4500 
  158.8750   157.8970   -10.3430    -3.0780   -17.3300    76.2640    12.3680    13.3090    12.6730     2.4420 
  159.0000   158.0180   -10.3710    -3.0890   -17.1880    74.7170    12.3500    13.1650    13.2140     2.4380 
  159.1250   158.1390   -10.4000    -3.1000   -17.0500    72.1190    12.1770    12.8580    13.8480     2.4340 
  159.2500   158.2600   -10.4280    -3.1110   -16.9980    69.9320    12.0850    12.7150    14.3000     2.4400 
  159.3750   158.3820   -10.4570    -3.1220   -17.0030    67.8890    12.2660    12.9310    14.6110     2.4430 
  159.5000   158.5030   -10.4860    -3.1320   -16.9710    67.3580    12.7680    13.5180    14.8020     2.4480 
  159.6250   158.6240   -10.5140    -3.1430   -16.9300    67.6960    13.3680    14.1940    14.7230     2.4610 
  159.7500   158.7450   -10.5430    -3.1540   -16.8550    70.0920    13.7710    14.6190    14.2420     2.4750 
  159.8750   158.8660   -10.5720    -3.1640   -16.7500    71.5840    13.7810    14.5960    13.6670     2.4790 
  160.0000   158.9880   -10.6010    -3.1750   -16.6520    73.5970    13.4560    14.1990    13.2630     2.4670 
  160.1250   159.1090   -10.6290    -3.1860   -16.6130    74.8280    13.0860    13.7700    12.8420     2.4550 
  160.2500   159.2300   -10.6580    -3.1970   -16.6150    75.6030    12.7680    13.4030    12.5430     2.4540 
  160.3750   159.3510   -10.6860    -3.2080   -16.6540    74.9850    12.4540    13.0550    12.3630     2.4640 
  160.5000   159.4720   -10.7150    -3.2190   -16.7100    74.4320    12.0700    12.6630    12.0900     2.4760 
  160.6250   159.5940   -10.7430    -3.2300   -16.8200    74.8740    11.6020    12.1830    11.7910     2.4820 
  160.7500   159.7150   -10.7720    -3.2410   -16.8760    73.7630    11.0820    11.6260    11.4850     2.4800 
  160.8750   159.8360   -10.8000    -3.2520   -16.8130    72.1100    10.4570    10.9450    11.0820     2.4690 
  161.0000   159.9570   -10.8290    -3.2640   -16.6620    70.9180     9.9190    10.3850    10.4470     2.4570 
  161.1250   160.0780   -10.8570    -3.2750   -16.5430    71.9360     9.5910    10.0690    10.1040     2.4530 
  161.2500   160.2000   -10.8860    -3.2870   -16.4660    72.7780     9.6120    10.1340     9.9340     2.4590 
  161.3750   160.3210   -10.9140    -3.2980   -16.4740    72.5080     9.8710    10.4470     9.9180     2.4700 
  161.5000   160.4420   -10.9430    -3.3100   -16.4720    70.8490    10.1310    10.7490    10.0570     2.4690 
  161.6250   160.5630   -10.9710    -3.3220   -16.4370    69.3260    10.2620    10.8920    10.2920     2.4620 
  161.7500   160.6840   -11.0000    -3.3330   -16.4820    69.1990    10.2230    10.8270    10.4620     2.4530 
  161.8750   160.8050   -11.0280    -3.3450   -16.5550    70.3570    10.0360    10.6170    10.4100     2.4510 
  162.0000   160.9260   -11.0570    -3.3570   -16.6220    73.8070     9.8940    10.4700    10.2950     2.4610 
  162.1250   161.0480   -11.0850    -3.3680   -16.6490    75.6970     9.9270    10.5460    10.0270     2.4810 
  162.2500   161.1690   -11.1140    -3.3800   -16.6450    75.2730    10.2520    10.9550    10.0260     2.5020 
  162.3750   161.2900   -11.1420    -3.3920   -16.6270    73.1350    10.7200    11.5070    10.3400     2.5000 
  162.5000   161.4110   -11.1710    -3.4030   -16.5570    72.1090    11.3000    12.1760    10.8650     2.4820 
  162.6250   161.5320   -11.2000    -3.4150   -16.5180    72.7670    11.7810    12.7080    11.4980     2.4670 
  162.7500   161.6530   -11.2280    -3.4260   -16.4760    73.2880    12.0600    13.0130    12.0080     2.4680 
  162.8750   161.7740   -11.2570    -3.4380   -16.3590    72.2590    12.2200    13.1810    12.3660     2.4690 
  163.0000   161.8950   -11.2860    -3.4490   -16.2650    72.2050    12.1990    13.1590    12.5870     2.4620 
  163.1250   162.0170   -11.3150    -3.4610   -16.2520    72.5300    12.0870    13.0460    12.5300     2.4530 
  163.2500   162.1380   -11.3440    -3.4720   -16.3200    74.0530    11.8410    12.7770    12.1320     2.4520 
  163.3750   162.2590   -11.3720    -3.4830   -16.4030    72.6550    11.4280    12.3090    11.7480     2.4570 
  163.5000   162.3800   -11.4010    -3.4950   -16.3910    69.9840    10.7030    11.5230    11.0550     2.4700 
  163.6250   162.5010   -11.4300    -3.5070   -16.3250    68.4520     9.8410    10.5810     9.7710     2.4790 
  163.7500   162.6220   -11.4580    -3.5180   -16.2180    69.6410     8.8810     9.5330     8.5080     2.4770 
  163.8750   162.7430   -11.4870    -3.5300   -16.1200    72.7920     8.0660     8.6680     8.0860     2.4600 
  164.0000   162.8640   -11.5160    -3.5410   -16.0480    74.0340     7.5270     8.0970     7.6600     2.4440 
  164.1250   162.9850   -11.5450    -3.5530   -16.0500    71.9080     7.2470     7.8200     7.2710     2.4410 
  164.2500   163.1060   -11.5730    -3.5640   -16.0860    66.9790     7.2010     7.7880     7.4240     2.4570 
