~V
VERS. 2.00: Ver 2.00
~W
STRT.M 33.0000:
STOP.M 287.0000:
STEP.M 0.1250:
NULL. -999.2500:
UWI. FD10889:
~C
DEPT.M :
TVD. :
DX. :
DY. :
SP.MV :
GR.API :
RI. :
RML.OHMM :
RXO.OHMM :
DEN.GM/CC :
~A
# ...
  197.2500   183.4090   -40.8750   -36.0920   -19.7250    67.1800     2.8480     3.6950     3.1290     2.2620 
  197.3750   183.5010   -40.9210   -36.1630   -19.6690    67.8640     2.8210     3.6720     3.2200     2.2730 
  197.5000   183.5940   -40.9670   -36.2330   -19.6200    66.9240     2.7980     3.6570     3.3800     2.2870 
  197.6250   183.6860   -41.0120   -36.3040   -19.3840    67.5230     2.7850     3.6560     3.2280     2.3020 
  197.7500   183.7780   -41.0580   -36.3750   -19.1090    70.4780     2.7880     3.6730     3.0910     2.3150 
  197.8750   183.8710   -41.1040   -36.4450   -18.9870    71.7820     2.8160     3.7190     3.2630     2.3280 
  198.0000   183.9630   -41.1490   -36.5160   -18.8580    69.6960     2.8830     3.8160     3.4410     2.3400 
  198.1250   184.0560   -41.1950   -36.5870   -18.7430    66.9480     3.0010     3.9840     3.4230     2.3480 
  198.2500   184.1480   -41.2400   -36.6580   -18.7010    69.3460     3.1550     4.2020     3.2670     2.3510 
  198.3750   184.2400   -41.2860   -36.7280   -18.8920    72.2330     3.3230     4.4450     3.2520     2.3480 
  198.5000   184.3320   -41.3330   -36.7990   -19.1870    72.0770     3.4490     4.6330     3.4540     2.3380 
  198.6250   184.4250   -41.3790   -36.8700   -19.5300    69.6910     3.5040     4.7210     3.6890     2.3230 
  198.7500   184.5170   -41.4250   -36.9400   -19.7820    67.4410     3.4690     4.6690     3.9700     2.3070 
  198.8750   184.6090   -41.4710   -37.0110   -19.8550    64.5890     3.3880     4.5410     4.5160     2.2950 
  199.0000   184.7020   -41.5170   -37.0810   -19.7860    62.1360     3.3440     4.4460     5.0450     2.2890 
  199.1250   184.7940   -41.5640   -37.1520   -19.7570    61.0880     3.4190     4.5000     4.9090     2.2880 
  199.2500   184.8860   -41.6100   -37.2220   -19.7540    62.2710     3.7540     4.9500     4.6100     2.2870 
  199.3750   184.9780   -41.6560   -37.2930   -19.6250    63.5090     4.2590     5.6630     5.1620     2.2880 
  199.5000   185.0700   -41.7020   -37.3640   -19.5430    62.0210     4.9500     6.5550     6.3120     2.2950 
  199.6250   185.1630   -41.7480   -37.4350   -19.6110    58.0780     5.7580     7.5770     6.8430     2.3110 
  199.7500   185.2550   -41.7940   -37.5050   -19.5400    55.6530     6.5700     8.5030     7.1270     2.3350 
  199.8750   185.3470   -41.8400   -37.5760   -19.3940    55.8480     7.3280     9.3370     8.3630     2.3490 
  200.0000   185.4390   -41.8850   -37.6470   -19.4230    56.3170     7.8330     9.8290     9.7060     2.3370 
  200.1250   185.5320   -41.9310   -37.7180   -19.5540    54.1330     8.1150    10.0070     9.3670     2.3000 
  200.2500   185.6240   -41.9770   -37.7890   -19.6820    51.7990     8.3150    10.1400     8.9570     2.2560 
  200.3750   185.7160   -42.0230   -37.8590   -19.7600    52.8010     8.6000    10.4890     9.6540     2.2190 
  200.5000   185.8080   -42.0690   -37.9300   -19.8690    56.6030     9.2770    11.3090    12.1490     2.1950 
  200.6250   185.9010   -42.1150   -38.0010   -20.1270    58.6170    10.3240    12.6790    13.8260     2.1790 
  200.7500   185.9930   -42.1610   -38.0720   -20.2990    57.7110    11.7520    14.4850    14.8320     2.1700 
  200.8750   186.0850   -42.2070   -38.1420   -20.1400    56.9300    13.4270    16.5460    14.1310     2.1640 
  201.0000   186.1770   -42.2530   -38.2130   -19.9130    60.3050    14.7110    18.0320    16.4850     2.1630 
  201.1250   186.2690   -42.2990   -38.2840   -19.7670    66.1170    15.2680    18.2810    21.2860     2.1690 
  201.2500   186.3610   -42.3450   -38.3550   -19.6010    70.1830    14.8380    17.3720    20.8650     2.1830 
  201.3750   186.4540   -42.3910   -38.4260   -19.4620    68.1540    13.5600    15.5990    17.8340     2.2010 
  201.5000   186.5460   -42.4370   -38.4970   -19.4820    64.6550    12.0010    13.7310    14.3500     2.2170 
  201.6250   186.6380   -42.4830   -38.5680   -19.4140    63.8490    10.6640    12.3300    11.8230     2.2280 
  201.7500   186.7300   -42.5280   -38.6390   -19.2480    63.0930     9.7630    11.3680    10.3050     2.2430 
  201.8750   186.8220   -42.5740   -38.7100   -19.1230    61.1570     9.2260    10.8420     9.2340     2.2690 
  202.0000   186.9140   -42.6200   -38.7810   -19.0470    62.4150     8.7880    10.4530     9.3160     2.3070 
  202.1250   187.0060   -42.6660   -38.8520   -18.8310    66.4830     8.2290     9.9080     9.1590     2.3440 
  202.2500   187.0980   -42.7120   -38.9230   -18.5550    70.5400     7.5770     9.1390     8.5690     2.3630 
  202.3750   187.1900   -42.7580   -38.9940   -18.2650    75.1280     6.9430     8.3680     8.0160     2.3620 
  202.5000   187.2820   -42.8040   -39.0650   -17.9020    78.7200     6.4160     7.6780     7.3250     2.3500 
  202.6250   187.3740   -42.8500   -39.1360   -17.5360    76.5770     6.0130     7.1740     7.7730     2.3340 
  202.7500   187.4660   -42.8960   -39.2070   -17.0950    72.6600     5.7480     6.8740     7.0810     2.3170 
  202.8750   187.5580   -42.9410   -39.2780   -16.7460    71.6320     5.5940     6.6960     6.1580     2.2960 
  203.0000   187.6500   -42.9870   -39.3500   -16.6970    72.8950     5.5130     6.5860     6.2390     2.2750 
  203.1250   187.7420   -43.0320   -39.4210   -16.7020    74.0590     5.5000     6.5470     6.3850     2.2600 
  203.2500   187.8340   -43.0780   -39.4920   -16.5800    75.4980     5.5560     6.6070     6.1300     2.2550 
  203.3750   187.9260   -43.1230   -39.5640   -16.4680    73.5990     5.7020     6.8040     6.0130     2.2560 
  203.5000   188.0180   -43.1680   -39.6360   -16.1970    67.2490     5.9980     7.1850     6.1110     2.2530 
  203.6250   188.1100   -43.2130   -39.7070   -16.0130    62.4400     6.4530     7.7630     6.3160     2.2420 
  203.7500   188.2020   -43.2580   -39.7790   -16.2780    61.8370     6.9520     8.3700     7.5920     2.2240 
  203.8750   188.2940   -43.3030   -39.8500   -16.6680    63.8310     7.3960     8.9180    12.3010     2.2080 
  204.0000   188.3860   -43.3490   -39.9220   -16.8750    64.7460     7.5970     9.2060    18.5690     2.2000 
  204.1250   188.4780   -43.3940   -39.9930   -17.0510    64.3300     7.5370     9.1820    19.0870     2.2030 
  204.2500   188.5700   -43.4390   -40.0650   -17.1460    62.7140     7.2480     8.8250    13.4220     2.2110 
  204.3750   188.6620   -43.4840   -40.1370   -17.1560    62.3510     6.8700     8.3700     8.6060     2.2180 
  204.5000   188.7540   -43.5290   -40.2090   -17.3410    61.0570     6.5760     8.0090     7.0250     2.2250 
  204.6250   188.8460   -43.5740   -40.2810   -17.4680    57.8100     6.4710     7.9120     6.7090     2.2380 
  204.7500   188.9380   -43.6190   -40.3530   -17.3870    58.1230     6.7260     8.3170     6.5120     2.2690 
  204.8750   189.0300   -43.6630   -40.4250   -17.3160    62.3760     7.2380     9.0450     6.8430     2.3190 
  205.0000   189.1210   -43.7080   -40.4970   -17.3660    64.1090     7.8830     9.9300     9.2610     2.3770 
  205.1250   189.2130   -43.7520   -40.5690   -17.4850    61.4400     8.3850    10.5950     9.3840     2.4190 
  205.2500   189.3050   -43.7960   -40.6420   -17.5310    59.4260     8.5140    10.7140     8.9150     2.4320 
  205.3750   189.3970   -43.8400   -40.7140   -17.5600    60.7610     8.3410    10.4130     8.5170     2.4270 
  205.5000   189.4890   -43.8840   -40.7860   -17.4820    62.7570     7.9960     9.8990    10.6630     2.4240 
  205.6250   189.5810   -43.9280   -40.8590   -17.4270    64.5580     7.7710     9.5810    11.4420     2.4400 
  205.7500   189.6720   -43.9720   -40.9320   -17.5500    66.4540     7.8570     9.7320     9.6360     2.4690 
  205.8750   189.7640   -44.0160   -41.0040   -17.7730    66.5390     8.2140    10.2810     8.6280     2.4890 
  206.0000   189.8560   -44.0600   -41.0770   -17.9720    63.1910     8.6660    10.9360     8.2360     2.4810 
  206.1250   189.9480   -44.1040   -41.1500   -18.2180    59.9330     8.8610    11.2770     8.9930     2.4440 
  206.2500   190.0390   -44.1470   -41.2230   -18.5040    59.5000     8.5050    10.8300    10.4740     2.3900 
