~V
VERS. 2.00: Ver 2.00
~W
STRT.M 40.0000:
STOP.M 276.0000:
STEP.M 0.1250:
NULL. -999.2500:
UWI. FD10882:
~C
DEPT.M :
TVD. :
DX. :
DY. :
SP.MV :
GR.API :
RI. :
RML.OHMM :
RXO.OHMM :
DEN.GM/CC :
~A
# ...
  240.7500   225.1040   -54.1450   -40.4650    -3.0530    88.0760     2.7010     3.7880     3.5610     2.3440 
  240.8750   225.2110   -54.1980   -40.5020    -3.1590    93.1670     2.7460     3.8490     3.8900     2.3540 
  241.0000   225.3180   -54.2500   -40.5400    -3.1070    97.5260     2.8060     3.9340     4.2210     2.3480 
  241.1250   225.4250   -54.3030   -40.5770    -3.0100    97.2510     2.8660     4.0170     4.4180     2.3320 
  241.2500   225.5320   -54.3550   -40.6140    -2.9200    93.9360     2.9370     4.1140     4.4400     2.3220 
  241.3750   225.6390   -54.4080   -40.6520    -2.9100    89.8100     3.0100     4.2100     4.3410     2.3220 
  241.5000   225.7470   -54.4600   -40.6890    -2.8700    88.2860     3.0760     4.3100     4.2290     2.3210 
  241.6250   225.8540   -54.5130   -40.7270    -2.7440    90.8350     3.1380     4.4390     4.1300     2.3170 
  241.7500   225.9610   -54.5650   -40.7640    -2.4690    95.3170     3.1890     4.5580     4.0590     2.3150 
  241.8750   226.0680   -54.6170   -40.8010    -1.9910    97.2670     3.1880     4.5980     4.3710     2.3190 
  242.0000   226.1750   -54.6700   -40.8390    -1.5130    94.6880     3.0960     4.4780     4.5900     2.3250 
  242.1250   226.2830   -54.7220   -40.8760    -1.1230    89.6760     2.8890     4.1700     4.1810     2.3340 
  242.2500   226.3900   -54.7740   -40.9140    -0.7160    85.4170     2.6270     3.7700     3.5950     2.3450 
  242.3750   226.4970   -54.8260   -40.9510    -0.3380    83.1010     2.3540     3.3540     3.1980     2.3550 
  242.5000   226.6040   -54.8780   -40.9890     0.0430    80.0690     2.1470     3.0410     3.1570     2.3590 
  242.6250   226.7110   -54.9310   -41.0260     0.3420    78.8800     2.0420     2.8850     3.2910     2.3490 
  242.7500   226.8190   -54.9830   -41.0640     0.2910    78.9200     2.0630     2.9260     3.4430     2.3360 
  242.8750   226.9260   -55.0350   -41.1010    -0.0080    80.6270     2.2530     3.2450     3.7430     2.3300 
  243.0000   227.0330   -55.0870   -41.1380    -0.1770    81.0370     2.5000     3.6670     4.8370     2.3420 
  243.1250   227.1400   -55.1400   -41.1750    -0.2670    81.9740     2.7430     4.0880     5.8680     2.3630 
  243.2500   227.2480   -55.1920   -41.2130    -0.5130    83.1950     2.8650     4.2980     5.8420     2.3750 
  243.3750   227.3550   -55.2440   -41.2500    -0.8640    83.9990     2.7230     4.0490     4.6050     2.3650 
  243.5000   227.4620   -55.2960   -41.2880    -0.8720    82.6880     2.4290     3.5500     3.1860     2.3450 
  243.6250   227.5700   -55.3480   -41.3250    -0.4210    81.6500     2.0600     2.9400     2.3820     2.3320 
  243.7500   227.6770   -55.4000   -41.3630     0.1520    80.9590     1.7840     2.5280     2.1530     2.3230 
  243.8750   227.7840   -55.4520   -41.4000     0.4470    80.8100     1.7250     2.4690     2.2780     2.3100 
  244.0000   227.8920   -55.5040   -41.4370     0.3010    80.1140     1.7800     2.5860     2.5990     2.2850 
  244.1250   227.9990   -55.5560   -41.4750    -0.0890    81.6730     1.9390     2.8440     3.0030     2.2600 
  244.2500   228.1060   -55.6080   -41.5120    -0.6280    84.5330     2.1630     3.1660     3.3450     2.2370 
  244.3750   228.2140   -55.6600   -41.5500    -1.2100    88.2130     2.3930     3.4790     3.5710     2.2290 
  244.5000   228.3210   -55.7120   -41.5870    -1.8760    88.5650     2.5720     3.7020     3.7310     2.2280 
  244.6250   228.4280   -55.7640   -41.6250    -2.6080    88.0500     2.6630     3.7980     3.8440     2.2430 
  244.7500   228.5350   -55.8160   -41.6620    -3.1580    86.0970     2.6780     3.7900     3.8500     2.2550 
  244.8750   228.6430   -55.8680   -41.7000    -3.3600    86.0090     2.6390     3.7190     3.6720     2.2650 
  245.0000   228.7500   -55.9200   -41.7380    -3.2320    86.3940     2.5580     3.5800     3.3510     2.2650 
  245.1250   228.8570   -55.9720   -41.7750    -2.8680    87.7970     2.3990     3.3350     2.9600     2.2670 
  245.2500   228.9640   -56.0250   -41.8130    -2.4250    87.5020     2.1910     3.0290     2.5680     2.2680 
  245.3750   229.0710   -56.0770   -41.8500    -1.9410    85.0230     1.9880     2.7310     2.2480     2.2710 
  245.5000   229.1780   -56.1290   -41.8880    -1.3610    83.3550     1.8320     2.5140     2.0860     2.2700 
  245.6250   229.2860   -56.1820   -41.9250    -0.7490    85.0570     1.7830     2.4590     2.1270     2.2630 
  245.7500   229.3930   -56.2340   -41.9630    -0.3710    87.9310     1.8090     2.5060     2.2860     2.2520 
  245.8750   229.5000   -56.2870   -42.0000    -0.4500    89.7970     1.9070     2.6600     2.4750     2.2430 
  246.0000   229.6070   -56.3390   -42.0380    -0.8960    87.5510     2.0820     2.9140     2.6770     2.2380 
  246.1250   229.7140   -56.3920   -42.0760    -1.5450    85.4390     2.2820     3.1870     2.9750     2.2370 
  246.2500   229.8210   -56.4440   -42.1130    -2.0590    83.8640     2.4320     3.3870     3.3330     2.2380 
  246.3750   229.9280   -56.4970   -42.1510    -2.3590    84.2240     2.4450     3.3650     3.4820     2.2460 
  246.5000   230.0350   -56.5490   -42.1890    -2.5980    83.4670     2.3440     3.1810     3.2570     2.2610 
  246.6250   230.1420   -56.6020   -42.2270    -2.6270    81.8230     2.1870     2.9250     2.8040     2.2780 
  246.7500   230.2490   -56.6540   -42.2640    -2.4320    80.6450     2.0640     2.7300     2.4810     2.2890 
  246.8750   230.3560   -56.7070   -42.3020    -2.0900    80.5150     2.0190     2.6610     2.4890     2.2870 
  247.0000   230.4620   -56.7600   -42.3400    -1.8960    81.0440     2.0660     2.7350     2.8100     2.2810 
  247.1250   230.5690   -56.8120   -42.3780    -2.1740    81.8580     2.2510     3.0090     3.4010     2.2740 
  247.2500   230.6760   -56.8650   -42.4150    -2.8390    82.7570     2.4880     3.3450     4.0420     2.2770 
  247.3750   230.7830   -56.9180   -42.4530    -3.7480    84.2320     2.7370     3.6780     4.3980     2.2800 
  247.5000   230.8900   -56.9700   -42.4910    -4.6900    85.9390     2.9210     3.8990     4.3440     2.2790 
  247.6250   230.9970   -57.0230   -42.5280    -5.1970    87.9650     2.9850     3.9580     4.0800     2.2710 
  247.7500   231.1040   -57.0760   -42.5660    -5.1580    88.3440     2.9730     3.9190     3.9500     2.2630 
  247.8750   231.2110   -57.1290   -42.6030    -4.8180    88.4470     2.8810     3.7930     3.9730     2.2640 
  248.0000   231.3180   -57.1810   -42.6410    -4.2430    87.9320     2.7480     3.6100     3.8740     2.2780 
  248.1250   231.4250   -57.2340   -42.6790    -3.4630    89.4370     2.5700     3.3740     3.5270     2.2930 
  248.2500   231.5320   -57.2860   -42.7160    -2.4930    90.5260     2.3850     3.1260     3.1130     2.3010 
  248.3750   231.6390   -57.3390   -42.7540    -1.5570    90.0520     2.2410     2.9380     2.8200     2.2950 
  248.5000   231.7460   -57.3910   -42.7920    -0.9880    87.0910     2.1570     2.8350     2.6830     2.2860 
  248.6250   231.8530   -57.4440   -42.8290    -0.8980    84.7340     2.1770     2.8650     2.7200     2.2770 
  248.7500   231.9600   -57.4960   -42.8670    -1.1910    84.7420     2.2970     3.0020     2.9130     2.2670 
  248.8750   232.0670   -57.5480   -42.9050    -1.8080    84.1580     2.4730     3.1960     3.2270     2.2600 
  249.0000   232.1740   -57.6010   -42.9420    -2.5810    82.7560     2.6890     3.4330     3.6000     2.2720 
  249.1250   232.2810   -57.6530   -42.9800    -3.3270    81.5040     2.9490     3.7240     3.9320     2.3020 
  249.2500   232.3880   -57.7060   -43.0180    -3.9440    82.8330     3.2240     4.0310     4.1440     2.3260 
  249.3750   232.4950   -57.7580   -43.0560    -4.4190    85.0010     3.5000     4.3410     4.2970     2.3290 
  249.5000   232.6020   -57.8100   -43.0940    -4.7750    87.1730     3.7260     4.5900     4.5150     2.3250 
  249.6250   232.7090   -57.8620   -43.1310    -4.8450    87.9960     3.7180     4.5480     4.6660     2.3270 
  249.7500   232.8160   -57.9150   -43.1690    -4.5480    85.1850     3.4940     4.2410     4.4360     2.3300 
