~V
VERS. 2.00: Ver 2.00
~W
STRT.M 65.0000:
STOP.M 248.0000:
STEP.M 0.1250:
NULL. -999.2500:
UWI. FD10900:
~C
DEPT.M :
TVD. :
DX. :
DY. :
SP.MV :
GR.API :
RI. :
RML.OHMM :
RXO.OHMM :
DEN.GM/CC :
~A
# ...
  110.6250   110.5150    -2.5060     0.8770   -17.0090    89.0450     4.0420     4.9980     4.8000     2.1590 
  110.7500   110.6390    -2.5200     0.8850   -17.2190    88.8050     4.1060     5.0660     4.9300     2.1620 
  110.8750   110.7620    -2.5340     0.8940   -17.4710    86.2080     4.1190     5.0640     4.7570     2.1840 
  111.0000   110.8860    -2.5480     0.9020   -17.7190    85.0170     4.0680     4.9720     4.3500     2.2200 
  111.1250   111.0100    -2.5620     0.9110   -17.8280    86.2150     3.9660     4.8250     4.1920     2.2560 
  111.2500   111.1340    -2.5760     0.9190   -17.8170    89.5650     3.8380     4.6610     4.5100     2.2800 
  111.3750   111.2580    -2.5900     0.9280   -17.7250    92.1080     3.7060     4.5100     4.7160     2.2880 
  111.5000   111.3820    -2.6040     0.9370   -17.5930    94.5050     3.5900     4.3890     4.3970     2.2820 
  111.6250   111.5060    -2.6190     0.9450   -17.4780    96.5790     3.5000     4.3010     4.0110     2.2740 
  111.7500   111.6300    -2.6330     0.9540   -17.4210    99.5490     3.4460     4.2450     3.9280     2.2710 
  111.8750   111.7540    -2.6470     0.9630   -17.3580   101.0720     3.4420     4.2430     3.9910     2.2690 
  112.0000   111.8780    -2.6610     0.9720   -17.3040   101.2530     3.5270     4.3520     4.0180     2.2630 
  112.1250   112.0010    -2.6750     0.9800   -17.2610    98.6410     3.7120     4.5940     4.0200     2.2550 
  112.2500   112.1250    -2.6900     0.9890   -17.2530    95.0060     3.9880     4.9590     4.2650     2.2520 
  112.3750   112.2490    -2.7040     0.9980   -17.2280    89.3900     4.2940     5.3590     4.9720     2.2560 
  112.5000   112.3730    -2.7180     1.0070   -17.2170    86.7200     4.5460     5.6680     5.7430     2.2630 
  112.6250   112.4970    -2.7330     1.0160   -17.2190    85.6100     4.6700     5.7900     5.8850     2.2640 
  112.7500   112.6210    -2.7470     1.0250   -17.2790    86.6250     4.6330     5.6940     5.4440     2.2550 
  112.8750   112.7450    -2.7620     1.0330   -17.3970    86.1150     4.4810     5.4630     5.0540     2.2410 
  113.0000   112.8680    -2.7760     1.0420   -17.5820    85.5930     4.2890     5.2070     4.9930     2.2250 
  113.1250   112.9920    -2.7910     1.0510   -17.8120    84.6900     4.1360     5.0190     5.1530     2.2130 
  113.2500   113.1160    -2.8060     1.0600   -18.0550    84.7050     4.0680     4.9430     5.3420     2.2110 
  113.3750   113.2400    -2.8200     1.0690   -18.2470    83.5440     4.0930     4.9850     5.3740     2.2180 
  113.5000   113.3640    -2.8350     1.0780   -18.3650    83.2100     4.2130     5.1470     5.2350     2.2270 
  113.6250   113.4870    -2.8500     1.0870   -18.4760    82.4550     4.3950     5.3890     5.1780     2.2310 
  113.7500   113.6110    -2.8640     1.0960   -18.5950    83.2070     4.6030     5.6630     5.4260     2.2300 
  113.8750   113.7350    -2.8790     1.1050   -18.7110    82.8040     4.7820     5.8870     5.8190     2.2300 
  114.0000   113.8590    -2.8940     1.1140   -18.8760    82.4130     4.8670     5.9640     6.0090     2.2370 
  114.1250   113.9830    -2.9080     1.1230   -19.0550    81.4540     4.8400     5.8760     5.9350     2.2450 
  114.2500   114.1060    -2.9230     1.1320   -19.1500    82.7490     4.7510     5.7110     5.7650     2.2430 
  114.3750   114.2300    -2.9380     1.1410   -19.1610    84.7630     4.7040     5.6240     5.5360     2.2270 
  114.5000   114.3540    -2.9530     1.1500   -19.0570    87.6490     4.7620     5.6950     5.4930     2.2020 
  114.6250   114.4780    -2.9670     1.1590   -18.9560    88.5750     4.8950     5.8630     6.3830     2.1800 
  114.7500   114.6020    -2.9820     1.1680   -18.8780    87.6100     5.0260     6.0020     7.8870     2.1720 
  114.8750   114.7250    -2.9970     1.1780   -18.8620    86.6520     5.0940     6.0340     8.0770     2.1770 
  115.0000   114.8490    -3.0120     1.1870   -18.8970    87.0600     5.0980     5.9790     6.5880     2.1850 
  115.1250   114.9730    -3.0270     1.1960   -18.9790    87.3750     5.0790     5.9190     5.2840     2.1830 
  115.2500   115.0970    -3.0420     1.2060   -19.0080    86.2790     5.0850     5.9260     5.0230     2.1710 
  115.3750   115.2200    -3.0560     1.2150   -18.9500    82.7930     5.1320     6.0020     5.2920     2.1610 
  115.5000   115.3440    -3.0710     1.2240   -18.8500    81.3690     5.1880     6.0800     5.6350     2.1640 
  115.6250   115.4680    -3.0860     1.2340   -18.7980    81.1750     5.1860     6.0660     5.7290     2.1820 
  115.7500   115.5920    -3.1010     1.2430   -18.8120    82.7470     5.0800     5.9190     5.4900     2.2050 
  115.8750   115.7150    -3.1160     1.2530   -18.8610    84.2790     4.9180     5.7140     5.1950     2.2230 
  116.0000   115.8390    -3.1310     1.2620   -18.7870    86.0790     4.7720     5.5420     5.0000     2.2270 
  116.1250   115.9630    -3.1460     1.2710   -18.5870    87.8090     4.6920     5.4490     4.8100     2.2210 
  116.2500   116.0870    -3.1620     1.2810   -18.3690    88.6270     4.7380     5.5000     4.6750     2.2120 
  116.3750   116.2100    -3.1770     1.2900   -18.2970    88.7070     4.9670     5.7650     4.7070     2.2070 
  116.5000   116.3340    -3.1920     1.3000   -18.3260    86.4620     5.4620     6.3600     4.9140     2.2180 
  116.6250   116.4580    -3.2070     1.3090   -18.3700    82.2740     6.2490     7.3400     5.5510     2.2520 
  116.7500   116.5810    -3.2220     1.3190   -18.3800    76.8720     7.3600     8.7460     7.3820     2.2990 
  116.8750   116.7050    -3.2370     1.3280   -18.3340    72.9150     8.6290    10.3390    10.1300     2.3310 
  117.0000   116.8290    -3.2530     1.3380   -18.2630    71.4310     9.6720    11.5970    11.8600     2.3140 
  117.1250   116.9530    -3.2680     1.3470   -18.2330    73.0770    10.1350    12.0870    11.4270     2.2560 
  117.2500   117.0760    -3.2830     1.3570   -18.2150    74.3840     9.8400    11.6240     9.9240     2.1920 
  117.3750   117.2000    -3.2990     1.3670   -18.2450    75.4740     9.0680    10.6070     8.8590     2.1510 
  117.5000   117.3240    -3.3140     1.3760   -18.2830    74.4490     8.2390     9.5720     8.3170     2.1360 
  117.6250   117.4470    -3.3290     1.3860   -18.2700    74.3330     7.6540     8.8700     7.9640     2.1350 
  117.7500   117.5710    -3.3440     1.3960   -18.2080    75.1720     7.4410     8.6320     7.8440     2.1390 
  117.8750   117.6950    -3.3600     1.4060   -18.0850    76.9740     7.6070     8.8590     7.9920     2.1420 
  118.0000   117.8180    -3.3750     1.4160   -17.9140    76.8020     8.2650     9.6810     8.9670     2.1380 
  118.1250   117.9420    -3.3900     1.4260   -17.6180    73.1180     9.4010    11.0750    11.3480     2.1260 
  118.2500   118.0660    -3.4060     1.4360   -17.2570    66.6060    10.9300    12.9030    14.3410     2.1120 
  118.3750   118.1890    -3.4210     1.4450   -16.6970    59.7890    12.5480    14.7570    16.4890     2.0990 
  118.5000   118.3130    -3.4360     1.4550   -16.0160    55.4460    13.7220    15.9890    17.4930     2.0840 
  118.6250   118.4370    -3.4520     1.4650   -15.3690    55.0920    14.0870    16.2260    17.6050     2.0610 
  118.7500   118.5600    -3.4670     1.4750   -14.8880    57.6160    13.5980    15.5010    16.9170     2.0330 
  118.8750   118.6840    -3.4820     1.4850   -14.6850    61.4290    12.6070    14.2620    15.6300     2.0170 
  119.0000   118.8080    -3.4980     1.4950   -14.8180    64.5760    11.3940    12.8260    13.6440     2.0310 
  119.1250   118.9310    -3.5130     1.5050   -15.2120    67.9080    10.1740    11.4120    11.9650     2.0680 
  119.2500   119.0550    -3.5290     1.5150   -15.8450    71.5350     9.0600    10.1390    11.5700     2.1120 
  119.3750   119.1780    -3.5440     1.5250   -16.6110    75.3310     8.1460     9.1070    10.9580     2.1450 
  119.5000   119.3020    -3.5600     1.5350   -17.3540    78.4570     7.5830     8.4920     9.0100     2.1640 
  119.6250   119.4260    -3.5750     1.5450   -17.8870    78.6800     7.3530     8.2600     7.3240     2.1680 
