~V
VERS. 2.00: Ver 2.00
~W
STRT.M 64.0000:
STOP.M 246.0000:
STEP.M 0.1250:
NULL. -999.2500:
UWI. FD10853:
~C
DEPT.M :
TVD. :
DX. :
DY. :
SP.MV :
GR.API :
RI. :
RML.OHMM :
RXO.OHMM :
DEN.GM/CC :
~A
# ...
  100.5000   100.4850    -0.5910    -0.4410    -1.0410    67.5660    21.8920    22.6830    23.1000     2.1210 
  100.6250   100.6100    -0.5980    -0.4420    -1.6660    69.0600    21.3330    22.1080    22.4360     2.1290 
  100.7500   100.7350    -0.6060    -0.4440    -2.2750    71.1090    20.9170    21.6640    21.7010     2.1360 
  100.8750   100.8600    -0.6140    -0.4450    -2.8210    71.2100    20.7450    21.4800    21.1190     2.1430 
  101.0000   100.9840    -0.6220    -0.4470    -3.3260    69.6440    20.9710    21.7150    20.5750     2.1460 
  101.1250   101.1090    -0.6300    -0.4480    -3.9160    67.9400    21.4930    22.2250    20.2850     2.1360 
  101.2500   101.2340    -0.6380    -0.4490    -4.5500    67.7770    22.0300    22.6450    20.1570     2.1190 
  101.3750   101.3590    -0.6460    -0.4510    -5.1320    68.9460    22.3250    22.7430    20.1220     2.1130 
  101.5000   101.4830    -0.6540    -0.4520    -5.6450    70.9970    22.4620    22.6300    20.4960     2.1380 
  101.6250   101.6080    -0.6620    -0.4540    -6.1470    72.2360    22.7970    22.7790    21.0760     2.2030 
  101.7500   101.7330    -0.6710    -0.4550    -6.7410    72.5920    23.6940    23.5530    21.8470     2.3150 
  101.8750   101.8570    -0.6790    -0.4560    -7.5870    70.6580    23.9710    23.6220    22.1010     2.4520 
  102.0000   101.9820    -0.6880    -0.4580    -8.5890    69.0770    23.0350    22.3870    20.5320     2.5570 
  102.1250   102.1070    -0.6960    -0.4590    -9.6240    68.0090    20.5150    19.5280    19.1830     2.5900 
  102.2500   102.2320    -0.7050    -0.4610   -10.6540    69.7190    16.8050    15.6130    17.8050     2.5390 
  102.3750   102.3560    -0.7140    -0.4620   -11.7120    73.8880    13.6190    12.4580    15.6620     2.4470 
  102.5000   102.4810    -0.7230    -0.4630   -12.7020    79.9820    11.1740    10.2060    13.4320     2.3460 
  102.6250   102.6060    -0.7320    -0.4650   -13.6000    86.5950     9.9410     9.2280    11.6080     2.2630 
  102.7500   102.7300    -0.7410    -0.4660   -14.2510    91.8250     9.5450     9.0210     9.9000     2.2080 
  102.8750   102.8550    -0.7500    -0.4680   -14.5820    93.9670     9.1420     8.7280     8.7500     2.1870 
  103.0000   102.9800    -0.7590    -0.4700   -14.5700    92.9350     8.4760     8.0790     8.1440     2.1950 
  103.1250   103.1040    -0.7680    -0.4710   -14.2840    91.3130     7.6490     7.2200     7.6310     2.2270 
  103.2500   103.2290    -0.7780    -0.4730   -13.8170    92.5560     7.1950     6.7450     6.0700     2.2540 
  103.3750   103.3530    -0.7870    -0.4750   -13.1970    94.9400     7.6710     7.2830     5.2470     2.2610 
  103.5000   103.4780    -0.7970    -0.4760   -12.5760    93.5360     9.1700     8.9360     7.3320     2.2400 
  103.6250   103.6030    -0.8060    -0.4780   -12.1030    87.0620    11.7890    11.7480    12.9430     2.2140 
  103.7500   103.7270    -0.8160    -0.4800   -11.5350    79.0410    15.4150    15.5100    18.6720     2.1910 
  103.8750   103.8520    -0.8260    -0.4820   -10.4940    73.5490    18.8750    18.9290    20.7220     2.1730 
  104.0000   103.9770    -0.8350    -0.4830    -9.0230    73.1630    21.1240    21.0150    21.2430     2.1560 
  104.1250   104.1010    -0.8450    -0.4850    -7.3680    74.9730    21.7200    21.4760    21.4880     2.1400 
  104.2500   104.2260    -0.8550    -0.4870    -5.9510    75.9360    20.9900    20.6990    21.3090     2.1260 
  104.3750   104.3500    -0.8650    -0.4880    -5.0760    74.6670    20.1300    19.9600    20.8710     2.1180 
  104.5000   104.4750    -0.8750    -0.4900    -4.5500    72.1590    19.7600    19.7980    20.6620     2.1130 
  104.6250   104.5990    -0.8860    -0.4910    -4.0690    69.5870    19.8830    20.1510    20.6780     2.1060 
  104.7500   104.7240    -0.8960    -0.4930    -3.5230    68.3930    20.3860    20.9210    21.1150     2.0970 
  104.8750   104.8490    -0.9060    -0.4950    -3.0020    67.7520    21.2720    22.1200    21.8070     2.0920 
  105.0000   104.9730    -0.9170    -0.4960    -2.5160    67.0680    22.3330    23.4910    22.6380     2.0930 
  105.1250   105.0980    -0.9270    -0.4980    -2.1000    65.2120    23.4090    24.8360    23.5690     2.0940 
  105.2500   105.2220    -0.9380    -0.5000    -1.7320    62.7160    24.1460    25.7070    24.5100     2.0920 
  105.3750   105.3470    -0.9480    -0.5010    -1.2950    61.6810    24.4160    25.9860    25.0200     2.0930 
  105.5000   105.4710    -0.9590    -0.5030    -0.8910    62.8770    24.2040    25.7030    25.0590     2.1000 
  105.6250   105.5960    -0.9700    -0.5050    -0.6300    65.5390    23.8760    25.3140    25.0590     2.1090 
  105.7500   105.7200    -0.9810    -0.5060    -0.6070    66.3910    23.7300    25.1460    25.0590     2.1130 
  105.8750   105.8450    -0.9920    -0.5080    -0.6000    65.7530    23.8790    25.3080    25.2140     2.1160 
  106.0000   105.9690    -1.0020    -0.5100    -0.6540    62.8110    24.4320    25.8940    26.1280     2.1170 
  106.1250   106.0940    -1.0130    -0.5120    -0.7510    60.7540    25.4540    26.9640    27.2310     2.1280 
  106.2500   106.2180    -1.0240    -0.5130    -0.8340    60.1880    26.8040    28.3600    28.4790     2.1600 
  106.3750   106.3430    -1.0360    -0.5150    -0.8630    61.2830    28.2260    29.8060    29.8850     2.2180 
  106.5000   106.4670    -1.0470    -0.5170    -0.7790    61.5940    29.2960    30.8570    29.9530     2.2590 
  106.6250   106.5920    -1.0580    -0.5190    -0.7100    62.3210    29.6580    31.1240    29.0020     2.2470 
  106.7500   106.7160    -1.0690    -0.5210    -0.7420    62.6630    29.2360    30.5360    28.2440     2.1880 
  106.8750   106.8410    -1.0810    -0.5220    -0.8590    63.3670    28.0860    29.1940    26.7690     2.1380 
  107.0000   106.9650    -1.0920    -0.5240    -1.0300    63.6680    26.4750    27.4300    24.8980     2.1190 
  107.1250   107.0900    -1.1040    -0.5260    -1.3120    63.7270    24.8910    25.7760    24.0400     2.1170 
  107.2500   107.2140    -1.1160    -0.5270    -1.6610    64.2160    23.6490    24.5410    23.8680     2.1170 
  107.3750   107.3390    -1.1270    -0.5290    -2.3660    64.4010    22.9560    23.8330    24.0650     2.1170 
  107.5000   107.4630    -1.1390    -0.5310    -3.2620    64.8350    22.7490    23.5380    24.7000     2.1130 
  107.6250   107.5870    -1.1510    -0.5320    -4.2280    64.2590    23.1660    23.8010    25.6280     2.1170 
  107.7500   107.7120    -1.1630    -0.5340    -5.1300    63.2460    24.9440    25.5160    27.2930     2.1650 
  107.8750   107.8360    -1.1750    -0.5360    -6.1590    61.6310    28.5270    29.3870    29.7910     2.2840 
  108.0000   107.9610    -1.1880    -0.5380    -7.3070    60.2790    34.1800    35.4940    32.2170     2.4540 
  108.1250   108.0850    -1.2000    -0.5400    -8.5190    59.5410    39.0860    39.9570    34.4630     2.6090 
  108.2500   108.2090    -1.2120    -0.5420    -9.8570    60.0210    38.3690    38.2270    31.1190     2.6740 
  108.3750   108.3340    -1.2250    -0.5440   -11.4170    63.0200    31.8560    30.6790    25.1870     2.6340 
  108.5000   108.4580    -1.2370    -0.5460   -13.0710    68.5920    22.3630    20.5660    19.6300     2.5020 
  108.6250   108.5820    -1.2500    -0.5480   -14.7020    77.2020    13.8080    12.4750    16.8540     2.3490 
  108.7500   108.7070    -1.2630    -0.5510   -16.2080    84.7170     9.5430     8.6780    11.9270     2.2420 
  108.8750   108.8310    -1.2750    -0.5530   -17.3280    90.1210     7.6830     7.1400     6.9490     2.2040 
  109.0000   108.9550    -1.2880    -0.5550   -18.2190    92.9720     6.7400     6.4380     6.4770     2.2180 
  109.1250   109.0800    -1.3010    -0.5570   -18.8750    94.9860     6.1860     6.0200     5.8390     2.2530 
  109.2500   109.2040    -1.3140    -0.5590   -19.3040    97.6620     5.7590     5.5940     5.2290     2.2930 
  109.3750   109.3280    -1.3270    -0.5620   -19.5000   100.5250     5.2540     5.0330     4.8340     2.3210 
  109.5000   109.4530    -1.3400    -0.5640   -19.6160   102.7510     4.8720     4.6060     4.5250     2.3240 
