~V
VERS. 2.00: Ver 2.00
~W
STRT.M 65.0000:
STOP.M 248.0000:
STEP.M 0.1250:
NULL. -999.2500:
UWI. FD10900:
~C
DEPT.M :
TVD. :
DX. :
DY. :
SP.MV :
GR.API :
RI. :
RML.OHMM :
RXO.OHMM :
DEN.GM/CC :
~A
# ...
  138.0000   137.5600    -6.0410     3.1850   -18.0380    69.3650    17.7510    19.8550    19.7760     2.0850 
  138.1250   137.6830    -6.0590     3.1970   -18.0220    71.9020    15.8920    17.7050    17.4390     2.1020 
  138.2500   137.8060    -6.0770     3.2100   -17.9620    75.4650    15.1150    16.9230    17.0640     2.1140 
  138.3750   137.9290    -6.0950     3.2220   -17.8610    75.6760    15.4470    17.4930    18.4410     2.1170 
  138.5000   138.0520    -6.1130     3.2350   -17.6880    74.6660    16.8650    19.3210    21.2620     2.1120 
  138.6250   138.1750    -6.1310     3.2470   -17.4180    71.5190    18.8990    21.7790    25.0350     2.1020 
  138.7500   138.2980    -6.1480     3.2600   -17.0740    70.5330    20.9240    24.0610    27.3110     2.0910 
  138.8750   138.4220    -6.1660     3.2720   -16.6870    70.4720    22.3600    25.5360    27.1390     2.0860 
  139.0000   138.5450    -6.1840     3.2850   -16.3410    70.3830    22.9310    25.9840    25.6570     2.0900 
  139.1250   138.6680    -6.2020     3.2980   -16.0060    69.3870    22.9170    25.8220    24.2100     2.0980 
  139.2500   138.7910    -6.2200     3.3100   -15.6760    68.4450    22.6830    25.5270    23.4350     2.1060 
  139.3750   138.9140    -6.2380     3.3230   -15.3870    69.0490    22.4660    25.3310    23.4670     2.1140 
  139.5000   139.0370    -6.2560     3.3360   -15.1840    69.5050    22.2040    25.1080    24.3390     2.1220 
  139.6250   139.1600    -6.2740     3.3490   -15.0120    69.7370    21.7570    24.6770    25.2190     2.1350 
  139.7500   139.2830    -6.2920     3.3620   -14.8810    69.0490    21.0700    23.9640    24.4560     2.1480 
  139.8750   139.4060    -6.3100     3.3750   -14.7930    69.4750    20.2020    23.0360    21.7700     2.1520 
  140.0000   139.5290    -6.3280     3.3870   -14.7210    70.1050    19.2500    22.0080    18.8970     2.1420 
  140.1250   139.6520    -6.3460     3.4000   -14.6790    70.0370    18.4540    21.1690    17.6080     2.1270 
  140.2500   139.7750    -6.3640     3.4130   -14.6590    68.9110    18.2210    21.0070    17.5660     2.1270 
  140.3750   139.8980    -6.3820     3.4260   -14.6630    67.4580    18.9120    21.9290    17.7390     2.1660 
  140.5000   140.0210    -6.4000     3.4390   -14.7370    66.6050    20.9270    24.4060    19.4410     2.2590 
  140.6250   140.1440    -6.4180     3.4520   -14.8850    65.9830    24.2040    28.4320    26.6530     2.3810 
  140.7500   140.2670    -6.4370     3.4650   -15.0620    63.8620    28.2860    33.4300    40.2270     2.4910 
  140.8750   140.3900    -6.4550     3.4780   -15.2560    61.1930    31.9270    37.7250    50.8480     2.5600 
  141.0000   140.5130    -6.4730     3.4910   -15.5300    58.9350    33.5530    39.3910    51.4680     2.5780 
  141.1250   140.6360    -6.4910     3.5050   -15.9530    57.8170    32.8010    38.1240    45.1720     2.5630 
  141.2500   140.7590    -6.5090     3.5180   -16.3700    56.5100    30.1700    34.7530    37.5630     2.5280 
  141.3750   140.8820    -6.5270     3.5310   -16.6860    55.7030    27.2010    31.2800    33.2370     2.4940 
  141.5000   141.0050    -6.5460     3.5440   -16.8630    56.1450    25.1610    29.1030    32.3960     2.4750 
  141.6250   141.1280    -6.5640     3.5580   -16.9520    57.4980    24.1810    28.1690    30.4410     2.4770 
  141.7500   141.2510    -6.5820     3.5710   -16.9490    57.4670    23.8780    27.9250    26.0440     2.4930 
  141.8750   141.3730    -6.6010     3.5850   -16.9500    56.5320    23.6200    27.6120    23.3800     2.5050 
  142.0000   141.4960    -6.6190     3.5980   -16.8860    55.4590    23.0130    26.7730    23.1150     2.4970 
  142.1250   141.6190    -6.6370     3.6120   -16.7720    55.2820    22.1190    25.5560    21.6600     2.4720 
  142.2500   141.7420    -6.6550     3.6260   -16.6690    53.9460    21.3650    24.5300    19.3190     2.4520 
  142.3750   141.8650    -6.6740     3.6390   -16.5630    53.9370    21.1070    24.1190    19.9080     2.4540 
  142.5000   141.9880    -6.6920     3.6530   -16.3820    55.8980    21.4670    24.4680    23.7240     2.4810 
  142.6250   142.1110    -6.7110     3.6670   -16.2180    58.4310    22.3370    25.4260    26.4820     2.5160 
  142.7500   142.2340    -6.7290     3.6810   -15.9920    58.2380    23.5120    26.7090    26.3860     2.5430 
  142.8750   142.3560    -6.7470     3.6940   -15.7750    57.2900    24.5830    27.8380    24.7810     2.5600 
  143.0000   142.4790    -6.7660     3.7080   -15.5170    56.6650    25.2050    28.4510    23.2120     2.5650 
  143.1250   142.6020    -6.7840     3.7220   -15.2920    58.5180    25.2530    28.4420    23.6290     2.5600 
  143.2500   142.7250    -6.8030     3.7360   -15.0380    58.9940    24.7490    27.8430    25.4120     2.5340 
  143.3750   142.8480    -6.8210     3.7500   -14.8560    59.4290    23.9710    26.9540    25.5010     2.4930 
  143.5000   142.9710    -6.8400     3.7640   -14.7000    58.1760    23.1040    25.9600    23.2430     2.4560 
  143.6250   143.0930    -6.8590     3.7780   -14.5420    56.7560    22.2660    25.0100    21.0680     2.4480 
  143.7500   143.2160    -6.8770     3.7920   -14.4120    54.5920    21.6540    24.3650    20.8910     2.4740 
  143.8750   143.3390    -6.8960     3.8060   -14.3160    54.4080    21.4770    24.2610    21.7770     2.5140 
  144.0000   143.4620    -6.9150     3.8200   -14.2330    54.6340    21.8400    24.7770    21.6520     2.5440 
  144.1250   143.5850    -6.9330     3.8340   -14.1710    54.4290    22.5170    25.6140    20.6990     2.5550 
  144.2500   143.7070    -6.9520     3.8480   -14.1450    52.7340    23.2220    26.4360    22.7810     2.5490 
  144.3750   143.8300    -6.9710     3.8620   -14.1760    51.6530    23.7670    27.0380    30.9600     2.5330 
  144.5000   143.9530    -6.9900     3.8760   -14.2440    52.0480    24.0760    27.3360    38.8830     2.5120 
  144.6250   144.0760    -7.0080     3.8900   -14.3100    52.8210    24.2000    27.4150    36.6440     2.4900 
  144.7500   144.1990    -7.0270     3.9040   -14.4460    55.4670    24.2800    27.4820    27.7840     2.4800 
  144.8750   144.3210    -7.0460     3.9180   -14.6500    57.7620    24.5250    27.8040    22.6500     2.4850 
  145.0000   144.4440    -7.0650     3.9320   -14.9460    58.5790    25.1390    28.6100    22.4950     2.4970 
  145.1250   144.5670    -7.0840     3.9460   -15.2340    57.0830    26.1080    29.8440    23.9400     2.5060 
  145.2500   144.6900    -7.1030     3.9600   -15.6150    55.3540    27.2880    31.2890    25.6670     2.5060 
  145.3750   144.8120    -7.1220     3.9740   -16.0800    55.2850    28.4640    32.6780    27.8600     2.5020 
  145.5000   144.9350    -7.1410     3.9890   -16.6010    55.5820    29.5180    33.8930    31.1170     2.5000 
  145.6250   145.0580    -7.1600     4.0030   -17.1260    56.4790    30.5330    35.0690    34.2420     2.5050 
  145.7500   145.1810    -7.1790     4.0170   -17.5570    56.0750    31.6560    36.4140    35.6690     2.5200 
  145.8750   145.3030    -7.1980     4.0310   -18.0160    56.0470    32.9340    37.9880    35.8370     2.5380 
  146.0000   145.4260    -7.2170     4.0450   -18.5030    55.3510    34.1820    39.5220    35.4520     2.5510 
  146.1250   145.5490    -7.2360     4.0600   -18.9800    55.8860    35.0550    40.5730    34.6580     2.5530 
  146.2500   145.6710    -7.2550     4.0740   -19.3980    57.4030    35.3400    40.8910    34.7280     2.5360 
  146.3750   145.7940    -7.2740     4.0880   -19.7680    58.6310    35.1270    40.6020    37.0230     2.5050 
  146.5000   145.9170    -7.2930     4.1030   -20.2790    58.8440    34.5330    39.8700    38.4930     2.4650 
  146.6250   146.0390    -7.3120     4.1170   -20.8710    56.5710    33.7310    38.9120    36.1510     2.4310 
  146.7500   146.1620    -7.3320     4.1320   -21.5580    54.2130    32.8190    37.8370    33.3150     2.4150 
  146.8750   146.2850    -7.3510     4.1460   -22.2830    52.3180    31.9380    36.7950    32.3560     2.4180 
  147.0000   146.4070    -7.3700     4.1610   -22.9480    52.6870    31.1150    35.7960    30.8560     2.4340 
