~V
VERS. 2.00: Ver 2.00
~W
STRT.M 15.0000:
STOP.M 236.0000:
STEP.M 0.1250:
NULL. -999.2500:
UWI. FD10614:
~C
DEPT.M :
TVD. :
DX. :
DY. :
DEN.GM/CC :
GR.API :
RML.OHMM :
RI. :
RXO.OHMM :
CALI.CM :
SP.MV :
~A
# ...
   89.2500    88.7130     4.9170     0.8750     2.3500    96.8440     6.1200     4.9710     5.5460    22.0760   -14.1890 
   89.3750    88.8360     4.9370     0.8840     2.3330    96.6250     6.2800     5.0340     5.7520    22.1090   -14.2120 
   89.5000    88.9580     4.9560     0.8930     2.3270    97.2710     6.5460     5.2180     5.8860    22.1110   -14.2520 
   89.6250    89.0810     4.9760     0.9020     2.3320    97.3330     6.8190     5.4480     6.0100    22.0290   -14.2860 
   89.7500    89.2040     4.9960     0.9110     2.3380    95.8860     7.0420     5.6590     6.2410    21.9290   -14.3190 
   89.8750    89.3270     5.0160     0.9200     2.3390    94.0090     7.2110     5.8430     6.3200    21.8760   -14.3690 
   90.0000    89.4500     5.0360     0.9290     2.3290    93.0090     7.3470     6.0110     6.2970    21.8850   -14.4570 
   90.1250    89.5680     5.0710     0.9480     2.3090    92.4580     7.4860     6.1800     6.5410    21.9580   -14.6540 
   90.2500    89.6870     5.1070     0.9670     2.2910    93.6110     7.6510     6.3560     6.8460    22.0430   -14.8230 
   90.3750    89.8050     5.1420     0.9860     2.2870    95.4190     7.8350     6.5230     6.8530    22.0280   -14.9660 
   90.5000    89.9230     5.1780     1.0060     2.3020    95.7790     7.9910     6.6460     6.6740    21.9550   -15.0350 
   90.6250    90.0410     5.2130     1.0250     2.3300    95.0610     8.0310     6.6610     6.8920    21.9150   -15.1230 
   90.7500    90.1590     5.2490     1.0440     2.3530    94.8810     7.9180     6.5530     7.5200    21.9640   -15.1580 
   90.8750    90.2780     5.2840     1.0630     2.3620    95.5750     7.6540     6.3270     7.8840    22.1110   -15.2200 
   91.0000    90.3960     5.3200     1.0820     2.3570    96.7260     7.2850     6.0150     7.0250    22.2640   -15.2530 
   91.1250    90.5140     5.3550     1.1010     2.3430    97.7470     6.8980     5.6680     6.3850    22.3520   -15.1860 
   91.2500    90.6320     5.3910     1.1210     2.3290    98.8110     6.6050     5.3660     6.0970    22.3950   -15.1020 
   91.3750    90.7510     5.4260     1.1400     2.3200    99.9180     6.5060     5.2010     5.8320    22.3930   -15.0010 
   91.5000    90.8690     5.4620     1.1590     2.3260   101.0590     6.6810     5.2570     5.5340    22.3460   -14.9640 
   91.6250    90.9870     5.4970     1.1780     2.3610   100.3470     7.1900     5.6080     5.7200    22.2410   -14.9100 
   91.7500    91.1050     5.5330     1.1970     2.4140    95.8120     7.8880     6.1670     7.0350    22.1260   -14.9260 
   91.8750    91.2230     5.5680     1.2160     2.4590    88.4720     8.5900     6.8180    10.2940    22.0630   -14.9470 
   92.0000    91.3420     5.6040     1.2360     2.4680    83.0170     9.0730     7.3750    13.8770    22.0530   -15.0350 
   92.1250    91.4600     5.6390     1.2550     2.4240    84.9240     9.1250     7.5910    10.5300    22.0560   -15.1670 
   92.2500    91.5780     5.6750     1.2740     2.3560    89.0080     8.8490     7.4910     7.5780    22.0580   -15.2850 
   92.3750    91.6960     5.7100     1.2930     2.2940    88.4460     8.4080     7.2020     6.7780    22.0590   -15.3240 
   92.5000    91.8140     5.7460     1.3120     2.2580    83.7280     7.9590     6.8640     6.8490    22.0740   -15.2820 
   92.6250    91.9330     5.7820     1.3310     2.2580    82.7130     7.5890     6.5760     6.5330    22.1150   -15.2040 
   92.7500    92.0510     5.8170     1.3500     2.2800    86.8840     7.2660     6.3290     6.3310    22.1640   -15.0630 
   92.8750    92.1690     5.8530     1.3700     2.3170    93.2200     6.9500     6.0750     6.0690    22.1870   -14.8060 
   93.0000    92.2870     5.8880     1.3890     2.3580    98.8700     6.6370     5.7840     5.7500    22.1960   -14.4430 
   93.1250    92.4060     5.9240     1.4080     2.3890   101.0240     6.3720     5.4970     5.4180    22.2480   -14.0640 
   93.2500    92.5240     5.9590     1.4270     2.4030    99.7640     6.1930     5.2690     5.2040    22.3570   -13.7520 
   93.3750    92.6420     5.9950     1.4460     2.4000    97.8120     6.1100     5.1240     5.0260    22.4670   -13.5400 
   93.5000    92.7600     6.0300     1.4650     2.3860    98.0140     6.1080     5.0660     5.0040    22.4900   -13.4560 
   93.6250    92.8780     6.0660     1.4850     2.3710    99.2730     6.1480     5.0740     5.3940    22.3540   -13.4190 
   93.7500    92.9970     6.1010     1.5040     2.3570    98.7000     6.1790     5.0880     5.7340    22.1800   -13.4140 
   93.8750    93.1150     6.1370     1.5230     2.3450    98.0090     6.2070     5.0970     5.7380    22.0830   -13.4720 
   94.0000    93.2330     6.1720     1.5420     2.3380    99.3940     6.3050     5.1440     5.6500    22.0630   -13.5620 
   94.1250    93.3510     6.2080     1.5610     2.3510   100.7300     6.6710     5.3680     5.7310    22.0900   -13.7270 
   94.2500    93.4700     6.2430     1.5800     2.3950    98.8990     7.4270     5.8770     6.2520    22.1270   -13.8680 
   94.3750    93.5880     6.2790     1.6000     2.4680    94.0190     8.6230     6.7480     7.7110    22.1120   -14.0780 
   94.5000    93.7060     6.3140     1.6190     2.5490    88.1720    10.1300     7.9640    10.9320    21.9990   -14.3440 
   94.6250    93.8240     6.3500     1.6380     2.5900    82.3570    11.5350     9.2910    15.2030    21.8800   -14.8620 
   94.7500    93.9420     6.3850     1.6570     2.5680    77.3600    12.3680    10.2500    17.0650    21.8210   -15.5780 
   94.8750    94.0610     6.4210     1.6760     2.4820    76.0070    12.4230    10.5200    16.0460    21.8420   -16.5310 
   95.0000    94.1790     6.4560     1.6950     2.3610    76.3490    11.8480    10.1480    12.2760    21.9720   -17.6640 
   95.1250    94.2970     6.4920     1.7150     2.2490    73.4520    11.0670     9.4990    10.2190    22.2580   -18.8560 
   95.2500    94.4150     6.5270     1.7340     2.1730    66.8110    10.5000     8.9760     9.3410    22.4810   -20.0370 
   95.3750    94.5330     6.5630     1.7530     2.1370    59.7940    10.2490     8.6980     9.0810    22.4490   -21.1330 
   95.5000    94.6520     6.5980     1.7720     2.1310    55.8650    10.2320     8.6430     9.1650    22.1530   -22.0840 
   95.6250    94.7700     6.6340     1.7910     2.1460    57.2880    10.2880     8.7180     9.3090    21.8260   -22.7790 
   95.7500    94.8880     6.6690     1.8100     2.1660    62.4110    10.2960     8.7980     9.3190    21.7150   -23.2090 
   95.8750    95.0060     6.7050     1.8300     2.1840    67.2190    10.2570     8.8470     9.3980    21.7420   -23.3900 
   96.0000    95.1250     6.7410     1.8490     2.1910    68.3260    10.2510     8.8920     9.6300    21.7720   -23.3320 
   96.1250    95.2430     6.7760     1.8680     2.1840    67.1930    10.4170     9.0280     9.6730    21.8310   -23.1000 
   96.2500    95.3610     6.8120     1.8870     2.1760    66.0130    10.7590     9.3080     9.2760    21.9980   -22.7860 
   96.3750    95.4790     6.8470     1.9060     2.1870    64.7950    11.1550     9.6830     9.1640    22.1640   -22.3450 
   96.5000    95.5970     6.8830     1.9250     2.2300    63.7090    11.3600     9.9670     9.6130    22.1770   -21.7180 
   96.6250    95.7160     6.9180     1.9450     2.3010    64.9720    11.0130     9.8150    11.1540    22.0590   -20.8910 
   96.7500    95.8340     6.9540     1.9640     2.3700    71.6460    10.1140     9.1370    13.0050    22.0160   -19.9770 
   96.8750    95.9520     6.9890     1.9830     2.4170    84.4620     8.8430     8.0590    11.4780    22.0480   -19.0200 
   97.0000    96.0700     7.0250     2.0020     2.4360   100.4290     7.5080     6.8700     7.3190    22.1260   -18.0590 
   97.1250    96.1880     7.0600     2.0210     2.4360   109.9690     6.4360     5.8710     5.6570    22.1490   -17.1270 
   97.2500    96.3070     7.0960     2.0400     2.4340   109.3630     5.7000     5.1430     5.2200    22.1380   -16.2930 
   97.3750    96.4250     7.1310     2.0600     2.4300   104.4060     5.2820     4.6860     5.2250    22.1180   -15.5870 
