~V
VERS. 2.00: Ver 2.00
~W
STRT.M 40.0000:
STOP.M 276.0000:
STEP.M 0.1250:
NULL. -999.2500:
UWI. FD10882:
~C
DEPT.M :
TVD. :
DX. :
DY. :
SP.MV :
GR.API :
RI. :
RML.OHMM :
RXO.OHMM :
DEN.GM/CC :
~A
# ...
  268.1250   248.5330   -65.6620   -48.7010    -6.8330    89.9830     3.9650     4.9780     4.8550     2.3380 
  268.2500   248.6400   -65.7150   -48.7390    -6.8330    89.9830     3.9120     4.9050     5.0060     2.3300 
  268.3750   248.7470   -65.7680   -48.7770    -6.8330    89.9830     3.9150     4.9030     5.2380     2.3210 
  268.5000   248.8530   -65.8200   -48.8140    -6.8330    89.9830     3.9750     4.9850     5.3890     2.3080 
  268.6250   248.9600   -65.8730   -48.8520    -6.8330    89.9830     4.0690     5.0980     5.4360     2.2860 
  268.7500   249.0670   -65.9250   -48.8900    -6.8330    89.9830     4.1680     5.2190     5.4400     2.2650 
  268.8750   249.1740   -65.9780   -48.9280    -6.8330    89.9830     4.2530     5.3300     5.3450     2.2640 
  269.0000   249.2810   -66.0310   -48.9660    -6.8330    89.9830     4.2920     5.3670     5.1820     2.2870 
  269.1250   249.3880   -66.0830   -49.0030    -6.8330    89.9830     4.3110     5.3910     5.1480     2.3070 
  269.2500   249.4950   -66.1360   -49.0410    -6.8330    89.9830     4.3210     5.3980     5.2850     2.3060 
  269.3750   249.6020   -66.1890   -49.0790    -6.8330    89.9830     4.3200     5.3900     5.4030     2.2890 
  269.5000   249.7090   -66.2410   -49.1170    -6.8330    89.9830     4.3190     5.3890     5.3720     2.2730 
  269.6250   249.8150   -66.2940   -49.1550    -6.8330    89.9830     4.3190     5.3890     5.2860     2.2660 
  269.7500   249.9220   -66.3470   -49.1920    -6.8330    89.9830     4.3190     5.3850     5.2640     2.2670 
  269.8750   250.0290   -66.3990   -49.2300    -6.8330    89.9830     4.3190     5.3810     5.2770     2.2770 
  270.0000   250.1360   -66.4520   -49.2680    -6.8330    89.9830     4.3190     5.3790     5.2440     2.2940 
  270.1250   250.2430   -66.5040   -49.3060    -6.8330    89.9830     4.3190     5.3790     5.1710     2.3070 
  270.2500   250.3500   -66.5570   -49.3440    -6.8330    89.9830     4.3180     5.3790     5.1540     2.3020 
  270.3750   250.4570   -66.6100   -49.3810    -6.8330    89.9830     4.3170     5.3790     5.2470     2.2830 
  270.5000   250.5640   -66.6620   -49.4190    -6.8330    89.9830     4.3170     5.3790     5.3470     2.2630 
  270.6250   250.6710   -66.7150   -49.4570    -6.8330    89.9830     4.3170     5.3790     5.3210     2.2610 
  270.7500   250.7770   -66.7680   -49.4950    -6.8330    89.9830     4.3170     5.3790     5.1890     2.2640 
  270.8750   250.8840   -66.8200   -49.5330    -6.8330    89.9830     4.3170     5.3790     5.0840     2.2620 
  271.0000   250.9910   -66.8730   -49.5700    -6.8330    89.9830     4.3170     5.3790     5.0550     2.2520 
  271.1250   251.0980   -66.9260   -49.6080    -6.8330    89.9830     4.3170     5.3790     5.0040     2.2500 
  271.2500   251.2050   -66.9780   -49.6460    -6.8330    89.9830     4.3170     5.3790     4.8720     2.2520 
  271.3750   251.3120   -67.0310   -49.6840    -6.8330    89.9830     4.3170     5.3790     4.7540     2.2540 
  271.5000   251.4190   -67.0840   -49.7220    -6.8330    89.9830     4.3170     5.3790     4.8050     2.2510 
  271.6250   251.5260   -67.1360   -49.7600    -6.8330    89.9830     4.3170     5.3790     5.0680     2.2430 
  271.7500   251.6320   -67.1890   -49.7970    -6.8330    89.9830     4.3170     5.3790     5.3870     2.2370 
  271.8750   251.7390   -67.2410   -49.8350    -6.8330    89.9830     4.3170     5.3790     5.5650     2.2340 
  272.0000   251.8460   -67.2940   -49.8730    -6.8330    89.9830     4.3170     5.3790     5.5760     2.2370 
  272.1250   251.9530   -67.3470   -49.9110    -6.8330    89.9830     4.3170     5.3790     5.5840     2.2390 
  272.2500   252.0600   -67.3990   -49.9490    -6.8330    89.9830     4.3170     5.3790     5.6850     2.2420 
  272.3750   252.1670   -67.4520   -49.9860    -6.8330    89.9830     4.3170     5.3790     5.6860     2.2480 
  272.5000   252.2740   -67.5050   -50.0240    -6.8330    89.9830     4.3170     5.3790     5.4050     2.2650 
  272.6250   252.3810   -67.5570   -50.0620    -6.8330    89.9830     4.3170     5.3790     4.9640     2.2840 
  272.7500   252.4880   -67.6100   -50.1000    -6.8330    89.9830     4.3170     5.3790     4.6500     2.3000 
  272.8750   252.5940   -67.6630   -50.1380    -6.8330    89.9830     4.3170     5.3790     4.5180     2.3060 
  273.0000   252.7010   -67.7150   -50.1750    -6.8330    89.9830     4.3170     5.3790     4.4290     2.2980 
  273.1250   252.8080   -67.7680   -50.2130    -6.8330    89.9830     4.3170     5.3790     4.3370     2.2770 
  273.2500   252.9150   -67.8210   -50.2510    -6.8330    89.9830     4.3170     5.3790     4.2730     2.2430 
  273.3750   253.0220   -67.8730   -50.2890    -6.8330    89.9830     4.3170     5.3790     4.2600     2.1980 
  273.5000   253.1290   -67.9260   -50.3270    -6.8330    89.9830     4.3170     5.3790     4.2820     2.1560 
  273.6250   253.2360   -67.9780   -50.3640    -6.8330    89.9830     4.3170     5.3790     4.3030     2.1410 
  273.7500   253.3430   -68.0310   -50.4020    -6.8330    89.9830     4.3170     5.3790     4.2810     2.1480 
  273.8750   253.4500   -68.0840   -50.4400    -6.8330    89.9830     4.3170     5.3790     4.2150     2.1500 
  274.0000   253.5560   -68.1360   -50.4780    -6.8330    89.9830     4.3170     5.3790     4.1500     2.1440 
  274.1250   253.6630   -68.1890   -50.5160    -6.8330    89.9830     4.3170     5.3790     4.1130     2.1340 
  274.2500   253.7700   -68.2420   -50.5530    -6.8330    89.9830     4.3170     5.3790     4.0940     2.1340 
  274.3750   253.8770   -68.2940   -50.5910    -6.8330    89.9830     4.3170     5.3790     4.0640     2.1360 
  274.5000   253.9840   -68.3470   -50.6290    -6.8330    89.9830     4.3170     5.3790     3.9730     2.1390 
  274.6250   254.0910   -68.4000   -50.6670    -6.8330    89.9830     4.3170     5.3790     3.7710     2.1370 
  274.7500   254.1980   -68.4520   -50.7050    -6.8330    89.9830     4.3170     5.3790     3.5010     2.1360 
  274.8750   254.3050   -68.5050   -50.7420    -6.8330    89.9830     4.3170     5.3790     3.2650     2.1370 
  275.0000   254.4120   -68.5570   -50.7800    -6.8330    89.9830     4.3170     5.3790     3.1270     2.1410 
  275.1250   254.5180   -68.6100   -50.8180    -6.8330    89.9830     4.3170     5.3790     3.0810     2.1430 
  275.2500   254.6250   -68.6630   -50.8560    -6.8330    89.9830     4.3170     5.3790     3.0730     2.1430 
  275.3750   254.7320   -68.7150   -50.8940    -6.8330    89.9830     4.3170     5.3790     3.0710     2.1380 
  275.5000   254.8390   -68.7680   -50.9310    -6.8330    89.9830     4.3170     5.3790     3.0700     2.1360 
  275.6250   254.9460   -68.8210   -50.9690    -6.8330    89.9830     4.3170     5.3790     3.0670     2.1380 
  275.7500   255.0530   -68.8730   -51.0070    -6.8330    89.9830     4.3170     5.3790     3.0630     2.1430 
  275.8750   255.1600   -68.9260   -51.0450    -6.8330    89.9830     4.3170     5.3790     3.0600     2.1460 
  276.0000   255.2670   -68.9790   -51.0830  -316.8100    89.9830     4.3170     5.3790     3.0580     2.1490 
