~V
VERS. 2.00: Ver 2.00
~W
STRT.M 64.0000:
STOP.M 246.0000:
STEP.M 0.1250:
NULL. -999.2500:
UWI. FD10853:
~C
DEPT.M :
TVD. :
DX. :
DY. :
SP.MV :
GR.API :
RI. :
RML.OHMM :
RXO.OHMM :
DEN.GM/CC :
~A
# ...
  137.0000   136.5640    -5.7570    -1.5610   -17.1810    81.2640    16.2410    18.9710    17.2160     2.1300 
  137.1250   136.6870    -5.7810    -1.5680   -17.0720    78.8380    17.0240    19.7540    18.0790     2.1280 
  137.2500   136.8090    -5.8060    -1.5750   -16.9500    75.6970    17.5600    20.1940    18.6640     2.1250 
  137.3750   136.9310    -5.8300    -1.5830   -16.8350    72.7740    17.7480    20.2230    19.3000     2.1270 
  137.5000   137.0540    -5.8550    -1.5900   -16.7640    71.1110    17.7660    20.1010    20.0720     2.1300 
  137.6250   137.1760    -5.8800    -1.5970   -16.6440    69.2340    17.9560    20.2400    20.6160     2.1380 
  137.7500   137.2980    -5.9040    -1.6040   -16.5130    69.3450    18.7320    21.1740    21.0980     2.1510 
  137.8750   137.4210    -5.9290    -1.6110   -16.3250    70.0020    20.4500    23.3090    21.8240     2.1630 
  138.0000   137.5430    -5.9540    -1.6180   -16.0960    71.1020    22.8760    26.3080    22.9630     2.1610 
  138.1250   137.6650    -5.9790    -1.6250   -15.9080    70.8360    24.9500    28.8120    25.3570     2.1480 
  138.2500   137.7880    -6.0030    -1.6320   -15.8280    71.4800    25.8610    29.7620    26.0710     2.1410 
  138.3750   137.9100    -6.0280    -1.6390   -15.7940    72.8690    25.3110    28.8560    25.4330     2.1500 
  138.5000   138.0320    -6.0530    -1.6460   -15.8080    75.3120    23.8970    26.8920    24.4780     2.1610 
  138.6250   138.1540    -6.0780    -1.6540   -15.7700    76.9030    22.5440    25.1150    24.0530     2.1530 
  138.7500   138.2770    -6.1020    -1.6610   -15.7700    76.2770    22.3430    24.8010    24.4420     2.1350 
  138.8750   138.3990    -6.1270    -1.6680   -15.8140    74.5920    23.5170    26.0170    26.3440     2.1300 
  139.0000   138.5210    -6.1520    -1.6760   -15.8990    71.7850    26.0980    28.7410    29.1150     2.1510 
  139.1250   138.6440    -6.1760    -1.6830   -15.8990    68.9960    29.4770    32.3440    31.5840     2.1800 
  139.2500   138.7660    -6.2010    -1.6910   -15.7870    65.3370    33.5540    36.7120    39.1020     2.2000 
  139.3750   138.8880    -6.2260    -1.6980   -15.6570    63.1980    37.7900    41.5340    49.1310     2.2120 
  139.5000   139.0110    -6.2500    -1.7060   -15.6040    62.8490    42.3200    47.0390    50.6600     2.2480 
  139.6250   139.1330    -6.2750    -1.7130   -15.6140    63.2270    44.4330    48.7430    42.9660     2.3360 
  139.7500   139.2550    -6.3000    -1.7210   -15.6450    63.2790    39.5740    42.8230    34.2290     2.4650 
  139.8750   139.3780    -6.3250    -1.7280   -15.7210    63.2280    31.3160    32.9240    25.9100     2.5570 
  140.0000   139.5000    -6.3490    -1.7360   -15.8650    65.6410    20.5730    20.6540    20.3000     2.5600 
  140.1250   139.6220    -6.3740    -1.7430   -16.0690    69.5320    13.0700    12.7580    15.7570     2.5180 
  140.2500   139.7440    -6.3990    -1.7500   -16.3200    75.4450     9.2130     8.8420    14.1550     2.4930 
  140.3750   139.8670    -6.4240    -1.7580   -16.6130    80.0680     7.1550     6.8590    10.9250     2.4920 
  140.5000   139.9890    -6.4490    -1.7650   -16.8010    85.6310     6.1390     5.9490     7.1480     2.4840 
  140.6250   140.1110    -6.4740    -1.7730   -16.9100    92.4430     5.6410     5.5030     6.1530     2.4600 
  140.7500   140.2330    -6.4990    -1.7800   -16.9640    98.2130     5.3650     5.1940     5.8640     2.4270 
  140.8750   140.3560    -6.5240    -1.7880   -16.9980   100.8570     5.1580     4.9180     5.7050     2.3950 
  141.0000   140.4780    -6.5490    -1.7950   -16.9200    98.9430     5.1640     4.8680     5.7930     2.3630 
  141.1250   140.6000    -6.5740    -1.8030   -16.7840    97.2310     5.5000     5.1550     6.2840     2.3280 
  141.2500   140.7220    -6.5990    -1.8100   -16.6420    96.9270     6.1230     5.7310     7.1860     2.2890 
  141.3750   140.8450    -6.6250    -1.8180   -16.5160    95.3950     7.0060     6.5710     8.3550     2.2510 
  141.5000   140.9670    -6.6500    -1.8250   -16.4110    91.2340     8.1450     7.6940     8.9980     2.2120 
  141.6250   141.0890    -6.6750    -1.8330   -16.3260    86.5770     9.4330     8.9460     9.6650     2.1860 
  141.7500   141.2110    -6.7000    -1.8400   -16.1870    85.2940     9.9640     9.4600    10.0030     2.1780 
  141.8750   141.3330    -6.7260    -1.8480   -16.0080    85.6860     9.9440     9.4720     9.9040     2.1950 
  142.0000   141.4550    -6.7510    -1.8560   -15.8110    85.9290     9.2720     8.8440     9.4890     2.2240 
  142.1250   141.5780    -6.7760    -1.8630   -15.6940    84.3660     8.6330     8.3260     9.2410     2.2570 
  142.2500   141.7000    -6.8020    -1.8710   -15.6620    82.8540     8.6000     8.4610     9.1110     2.3140 
  142.3750   141.8220    -6.8270    -1.8780   -15.6360    79.8940     9.0970     9.2300     9.8250     2.4230 
  142.5000   141.9440    -6.8530    -1.8860   -15.6250    75.5200    10.5920    11.1910    12.0620     2.5610 
  142.6250   142.0660    -6.8780    -1.8930   -15.6330    69.3860    13.1290    14.2680    14.0540     2.6610 
  142.7500   142.1880    -6.9040    -1.9010   -15.6690    64.6270    16.0530    17.6290    16.0570     2.6820 
  142.8750   142.3110    -6.9290    -1.9080   -15.6310    61.2260    18.4680    20.2430    18.4730     2.6650 
  143.0000   142.4330    -6.9550    -1.9160   -15.5300    59.4300    19.7540    21.5430    19.3200     2.6420 
  143.1250   142.5550    -6.9800    -1.9230   -15.3350    57.0870    20.4920    22.2430    20.5030     2.6150 
  143.2500   142.6770    -7.0060    -1.9310   -15.0520    56.4980    21.0180    22.6800    21.2280     2.5780 
  143.3750   142.7990    -7.0310    -1.9380   -14.7060    56.5880    20.9160    22.4070    21.8500     2.5680 
  143.5000   142.9210    -7.0560    -1.9460   -14.2780    58.1000    20.1380    21.4810    22.5920     2.5700 
  143.6250   143.0430    -7.0820    -1.9530   -13.8560    58.9560    19.1740    20.4240    23.0650     2.5400 
  143.7500   143.1660    -7.1070    -1.9610   -13.4100    60.0820    18.3560    19.5910    22.9280     2.4410 
  143.8750   143.2880    -7.1330    -1.9680   -13.0750    60.5190    18.1090    19.3880    24.1150     2.3460 
  144.0000   143.4100    -7.1580    -1.9750   -12.8270    61.1840    18.1260    19.4790    23.8780     2.3230 
  144.1250   143.5320    -7.1840    -1.9830   -12.6710    61.7850    18.2710    19.7230    22.9450     2.3930 
  144.2500   143.6540    -7.2090    -1.9910   -12.5390    62.4690    18.6370    20.2140    20.8530     2.5040 
  144.3750   143.7760    -7.2340    -1.9980   -12.4660    62.7430    19.1710    20.8320    20.2850     2.5700 
  144.5000   143.8990    -7.2600    -2.0060   -12.3590    63.4700    19.5080    21.1530    20.1140     2.5570 
  144.6250   144.0210    -7.2850    -2.0140   -12.2100    64.9490    19.5290    21.1170    20.2700     2.5160 
  144.7500   144.1430    -7.3100    -2.0220   -12.0540    66.2710    19.3020    20.7750    20.3110     2.5000 
  144.8750   144.2650    -7.3360    -2.0300   -11.9880    65.1460    18.8880    20.1850    19.9720     2.5010 
  145.0000   144.3870    -7.3610    -2.0380   -11.9450    61.7160    18.3030    19.4070    19.2660     2.4900 
  145.1250   144.5090    -7.3860    -2.0460   -11.9620    59.0700    17.7470    18.7030    18.4960     2.4820 
  145.2500   144.6310    -7.4120    -2.0540   -12.1120    57.8930    17.3730    18.2220    17.8180     2.4870 
  145.3750   144.7540    -7.4370    -2.0620   -12.2800    59.3650    17.4210    18.2380    17.2760     2.5040 
  145.5000   144.8760    -7.4620    -2.0700   -12.3490    61.7930    18.1170    18.9760    17.7190     2.5200 
  145.6250   144.9980    -7.4880    -2.0770   -12.3200    62.9250    19.3610    20.3040    19.3100     2.5510 
  145.7500   145.1200    -7.5130    -2.0850   -12.3250    61.5350    21.1530    22.3070    20.7190     2.5960 
  145.8750   145.2420    -7.5390    -2.0930   -12.3800    57.7840    23.0880    24.5640    22.4450     2.6370 
  146.0000   145.3640    -7.5640    -2.1010   -12.5190    55.2740    24.1910    25.7160    23.1170     2.6550 
