~V
VERS. 2.00: Ver 2.00
~W
STRT.M 50.0000:
STOP.M 219.0000:
STEP.M 0.1250:
NULL. -999.2500:
UWI. FD10804:
~C
DEPT.M :
TVD. :
DX. :
DY. :
SP.MV :
GR.API :
RI. :
RML.OHMM :
RXO.OHMM :
DEN.GM/CC :
~A
# ...
  104.7500   104.4980    -3.8200    -2.0560  -120.2940    69.4100     4.4320     4.7390     3.0190     2.0660 
  104.8750   104.6210    -3.8360    -2.0700  -120.2230    70.4200     4.5700     4.8750     2.9380     2.0710 
  105.0000   104.7440    -3.8530    -2.0830  -120.1520    69.8720     4.6940     4.9800     2.8750     2.0770 
  105.1250   104.8670    -3.8690    -2.0970  -120.0860    68.3680     4.7030     4.9870     2.8410     2.0800 
  105.2500   104.9900    -3.8860    -2.1100  -120.0350    66.3710     4.5810     4.8790     2.8190     2.0870 
  105.3750   105.1140    -3.9030    -2.1240  -120.0070    65.5330     4.3920     4.6910     2.8000     2.0930 
  105.5000   105.2370    -3.9200    -2.1380  -119.9960    65.8440     4.1950     4.4950     2.8270     2.0950 
  105.6250   105.3600    -3.9360    -2.1510  -119.9940    67.9960     4.0630     4.3560     2.9310     2.0900 
  105.7500   105.4830    -3.9530    -2.1650  -119.9960    69.8340     3.9910     4.3000     2.9880     2.0870 
  105.8750   105.6060    -3.9700    -2.1790  -120.0170    71.4700     4.0040     4.3440     2.9200     2.0810 
  106.0000   105.7290    -3.9870    -2.1930  -120.0870    71.2570     4.0920     4.4420     2.8300     2.0780 
  106.1250   105.8520    -4.0040    -2.2070  -120.2350    69.9960     4.1740     4.5240     2.7890     2.0710 
  106.2500   105.9750    -4.0210    -2.2210  -120.4730    68.4610     4.2040     4.5520     2.7780     2.0650 
  106.3750   106.0980    -4.0380    -2.2350  -120.8000    68.5040     4.1780     4.5500     2.7760     2.0500 
  106.5000   106.2210    -4.0550    -2.2490  -121.1850    69.5250     4.1970     4.5880     2.8010     2.0420 
  106.6250   106.3440    -4.0720    -2.2630  -121.5890    70.7520     4.2770     4.6790     2.8760     2.0720 
  106.7500   106.4670    -4.0890    -2.2780  -121.9690    70.4820     4.3790     4.7800     2.9780     2.1500 
  106.8750   106.5900    -4.1060    -2.2920  -122.2960    68.5830     4.4480     4.8490     3.0700     2.2290 
  107.0000   106.7130    -4.1230    -2.3060  -122.5690    65.1900     4.4940     4.8710     3.0680     2.2570 
  107.1250   106.8360    -4.1410    -2.3200  -122.7910    62.8220     4.4790     4.8350     2.9550     2.2310 
  107.2500   106.9590    -4.1580    -2.3350  -122.9650    62.3270     4.4200     4.7350     2.8900     2.2010 
  107.3750   107.0820    -4.1750    -2.3490  -123.0630    63.8190     4.2440     4.5460     2.9240     2.1980 
  107.5000   107.2050    -4.1930    -2.3640  -123.0540    65.7960     3.9710     4.2870     2.9330     2.2180 
  107.6250   107.3280    -4.2100    -2.3780  -122.9090    65.5890     3.6780     3.9910     2.8440     2.2370 
  107.7500   107.4510    -4.2280    -2.3930  -122.6540    63.3520     3.3670     3.6900     2.6940     2.2440 
  107.8750   107.5740    -4.2450    -2.4080  -122.3270    61.7560     3.0990     3.4100     2.6410     2.2350 
  108.0000   107.6970    -4.2630    -2.4230  -121.9750    62.4540     2.8410     3.1510     2.7750     2.2240 
  108.1250   107.8190    -4.2810    -2.4370  -121.6200    65.3520     2.5890     2.9070     2.9320     2.2080 
  108.2500   107.9420    -4.2980    -2.4520  -121.2700    67.8160     2.3500     2.6810     2.9720     2.1930 
  108.3750   108.0650    -4.3160    -2.4670  -120.9370    70.6360     2.1460     2.4760     2.8920     2.1830 
  108.5000   108.1880    -4.3340    -2.4820  -120.6660    73.8520     1.9600     2.2840     2.7440     2.1820 
  108.6250   108.3110    -4.3520    -2.4970  -120.5300    78.4310     1.7970     2.1140     2.7060     2.1900 
  108.7500   108.4330    -4.3700    -2.5120  -120.5780    83.0400     1.6740     1.9920     2.8130     2.1990 
  108.8750   108.5560    -4.3880    -2.5270  -120.8580    86.6620     1.6420     1.9600     2.8690     2.1960 
  109.0000   108.6790    -4.4060    -2.5430  -121.3430    87.7480     1.6900     2.0150     2.8880     2.1770 
  109.1250   108.8020    -4.4240    -2.5580  -121.9850    84.9120     1.8000     2.1400     3.1960     2.1460 
  109.2500   108.9240    -4.4420    -2.5730  -122.6750    80.4120     1.9400     2.3000     3.7060     2.1210 
  109.3750   109.0470    -4.4600    -2.5890  -123.2780    77.8800     2.1000     2.4600     3.8540     2.1120 
  109.5000   109.1700    -4.4780    -2.6040  -123.6760    77.6800     2.2180     2.5810     3.6630     2.1070 
  109.6250   109.2930    -4.4960    -2.6200  -123.7630    78.6150     2.2810     2.6410     4.4070     2.0980 
  109.7500   109.4150    -4.5150    -2.6350  -123.5510    77.8840     2.2850     2.6500     5.9290     2.0890 
  109.8750   109.5380    -4.5330    -2.6510  -123.0670    76.0870     2.2510     2.6180     5.7470     2.0870 
  110.0000   109.6600    -4.5520    -2.6670  -122.4020    75.4850     2.1830     2.5360     4.2360     2.0970 
  110.1250   109.7830    -4.5700    -2.6820  -121.6190    77.1130     2.0340     2.3690     3.6220     2.1180 
  110.2500   109.9060    -4.5890    -2.6980  -120.7810    81.6850     1.8220     2.1320     3.4240     2.1520 
  110.3750   110.0280    -4.6070    -2.7140  -119.9440    87.1730     1.5950     1.8810     2.8120     2.1890 
  110.5000   110.1510    -4.6260    -2.7300  -119.1890    93.7070     1.4230     1.6900     2.3720     2.2170 
  110.6250   110.2730    -4.6450    -2.7460  -118.6230    96.8490     1.3340     1.5950     2.3360     2.2270 
  110.7500   110.3960    -4.6640    -2.7620  -118.3090    97.4170     1.3070     1.5790     2.5030     2.2240 
  110.8750   110.5180    -4.6820    -2.7780  -118.3210    94.5120     1.3400     1.6270     2.6040     2.2060 
  111.0000   110.6410    -4.7010    -2.7940  -118.6400    91.5040     1.4070     1.7070     2.5160     2.1730 
  111.1250   110.7630    -4.7200    -2.8110  -119.2500    88.4630     1.4940     1.8110     2.5760     2.1290 
  111.2500   110.8860    -4.7390    -2.8270  -120.0690    85.5500     1.6200     1.9630     2.7710     2.0920 
  111.3750   111.0080    -4.7580    -2.8440  -121.0270    82.2870     1.8280     2.1930     2.8180     2.0830 
  111.5000   111.1310    -4.7770    -2.8600  -122.0130    79.7530     2.0900     2.4790     2.8680     2.1190 
  111.6250   111.2530    -4.7960    -2.8770  -122.9190    77.6490     2.3540     2.7740     3.0850     2.1970 
  111.7500   111.3760    -4.8150    -2.8930  -123.6670    74.9750     2.5880     3.0210     3.3460     2.2640 
  111.8750   111.4980    -4.8340    -2.9100  -124.1810    72.4220     2.7200     3.1460     3.6970     2.2620 
  112.0000   111.6200    -4.8530    -2.9270  -124.4540    72.0980     2.7180     3.1220     4.1090     2.1920 
  112.1250   111.7430    -4.8730    -2.9440  -124.4900    73.2640     2.5890     2.9650     4.4180     2.1180 
  112.2500   111.8650    -4.8920    -2.9600  -124.3600    73.3240     2.3860     2.7620     4.5040     2.0860 
  112.3750   111.9870    -4.9110    -2.9770  -124.1270    72.5850     2.2290     2.6370     4.2170     2.0970 
  112.5000   112.1100    -4.9310    -2.9940  -123.8550    71.9450     2.2350     2.7220     4.0220     2.1190 
  112.6250   112.2320    -4.9500    -3.0110  -123.5480    71.8250     2.5030     3.1190     4.3700     2.1410 
  112.7500   112.3540    -4.9690    -3.0280  -123.1620    69.2360     3.0880     3.8240     5.3490     2.1890 
  112.8750   112.4770    -4.9890    -3.0450  -122.6180    65.0030     4.0390     4.8520     8.8310     2.2860 
  113.0000   112.5990    -5.0080    -3.0620  -121.8870    60.7850     4.8840     5.7280    13.5210     2.4070 
  113.1250   112.7210    -5.0280    -3.0790  -120.9900    58.8530     5.0130     5.7870    14.0260     2.5100 
  113.2500   112.8440    -5.0470    -3.0960  -120.0450    60.5590     4.4010     4.9730    11.3620     2.5230 
  113.3750   112.9660    -5.0670    -3.1130  -119.1780    64.2100     3.2380     3.7020     8.1560     2.4270 
  113.5000   113.0880    -5.0860    -3.1300  -118.4900    68.8330     2.2630     2.7050     4.4030     2.2670 
  113.6250   113.2100    -5.1060    -3.1470  -118.0460    71.6830     1.7960     2.2380     2.4570     2.1640 
  113.7500   113.3330    -5.1260    -3.1650  -117.8070    73.3640     1.7370     2.1190     2.6050     2.1580 
