~V
VERS. 2.00: Ver 2.00
~W
STRT.M 24.0000:
STOP.M 269.0000:
STEP.M 0.1250:
NULL. -999.2500:
UWI. FD10666:
~C
DEPT.M :
TVD. :
DX. :
DY. :
GR.API :
RML.OHMM :
RI. :
RXO.OHMM :
CALI.CM :
DEN.GM/CC :
SP.MV :
~A
# ...
  230.2500   217.1150    58.1650    28.5840    72.5010    76.7660    76.5650    28.7280    19.9730     2.4490   -26.1530 
  230.3750   217.2230    58.2220    28.6090    68.0720    80.2160    79.2450    27.7760    19.9870     2.4410   -26.0640 
  230.5000   217.3310    58.2800    28.6340    62.9200    82.3810    81.2780    26.6060    20.0290     2.4350   -25.9620 
  230.6250   217.4400    58.3370    28.6600    58.9840    83.1890    81.8000    26.3140    20.1080     2.4470   -25.8250 
  230.7500   217.5480    58.3940    28.6850    57.0100    82.6640    80.8340    27.0400    20.2070     2.4820   -25.6920 
  230.8750   217.6560    58.4510    28.7100    57.5480    81.3940    78.7540    28.4170    20.2910     2.5290   -25.5480 
  231.0000   217.7640    58.5090    28.7350    60.3900    79.6110    76.2800    30.1800    20.3300     2.5690   -25.3710 
  231.1250   217.8720    58.5660    28.7610    63.4430    77.6590    74.3010    31.7530    20.3380     2.5780   -25.2040 
  231.2500   217.9810    58.6230    28.7860    64.0950    76.2570    73.2020    32.8570    20.3400     2.5660   -25.0520 
  231.3750   218.0890    58.6800    28.8110    62.5140    75.2660    72.9300    33.0410    20.3470     2.5570   -24.8950 
  231.5000   218.1970    58.7380    28.8370    60.0980    75.0530    73.1170    32.0750    20.3610     2.5700   -24.7430 
  231.6250   218.3050    58.7950    28.8620    55.5010    75.5940    73.3490    32.2550    20.3790     2.6080   -24.6040 
  231.7500   218.4130    58.8520    28.8870    52.0670    76.1080    73.7130    32.9940    20.3930     2.6410   -24.4410 
  231.8750   218.5220    58.9090    28.9130    53.7370    77.3460    74.9590    33.7200    20.3920     2.6380   -24.2680 
  232.0000   218.6300    58.9670    28.9380    57.6180    80.6980    78.3100    33.2860    20.3800     2.5880   -24.1210 
  232.1250   218.7380    59.0240    28.9630    57.8210    88.5580    85.8580    31.6810    20.3860     2.5050   -23.9930 
  232.2500   218.8460    59.0810    28.9890    54.9090   102.2770    97.9050    30.2990    20.4590     2.4200   -23.8800 
  232.3750   218.9540    59.1380    29.0140    51.2420   120.2130   114.1720    29.9470    20.6490     2.3480   -23.7680 
  232.5000   219.0630    59.1960    29.0390    47.8100   141.1000   133.2650    31.2300    20.9920     2.2930   -23.6250 
  232.6250   219.1710    59.2530    29.0640    45.9750   162.5340   152.7670    32.3750    21.4450     2.2520   -23.4580 
  232.7500   219.2790    59.3100    29.0900    46.7290   182.0900   170.4730    32.4910    21.8400     2.2180   -23.2890 
  232.8750   219.3870    59.3670    29.1150    47.4540   198.9820   185.9050    33.3750    22.0210     2.1990   -23.0960 
  233.0000   219.4950    59.4250    29.1400    47.1390   213.7620   199.9100    35.3400    21.9350     2.2030   -22.8690 
  233.1250   219.6040    59.4820    29.1660    46.2720   226.2930   212.9960    37.9950    21.6030     2.2490   -22.6200 
  233.2500   219.7120    59.5390    29.1910    44.8350   234.2180   223.2820    40.2020    21.1610     2.3300   -22.3550 
  233.3750   219.8200    59.5960    29.2160    44.2020   232.9010   226.4200    42.8910    20.7390     2.4340   -22.0770 
  233.5000   219.9280    59.6540    29.2420    46.8470   218.1510   217.7410    48.9440    20.4510     2.5360   -21.8060 
  233.6250   220.0360    59.7110    29.2670    51.7800   187.9360   193.3150    52.9180    20.3270     2.6070   -21.5660 
  233.7500   220.1450    59.7680    29.2920    54.3020   151.5280   159.8930    53.1210    20.2820     2.6420   -21.3830 
  233.8750   220.2530    59.8250    29.3180    55.1560   117.0770   124.9580    50.1480    20.2670     2.6510   -21.2700 
  234.0000   220.3610    59.8820    29.3430    57.7640    89.1910    94.6360    45.6870    20.2610     2.6470   -21.2060 
  234.1250   220.4690    59.9400    29.3680    61.6000    69.5230    72.6400    39.6950    20.2540     2.6370   -21.1680 
  234.2500   220.5770    59.9970    29.3940    62.3680    55.5240    57.1490    34.2130    20.2460     2.6260   -21.1370 
  234.3750   220.6860    60.0540    29.4190    59.9160    46.0110    46.7820    30.6300    20.2440     2.6130   -21.1200 
  234.5000   220.7940    60.1110    29.4440    58.3940    40.1620    40.3820    29.1580    20.2630     2.5960   -21.1250 
  234.6250   220.9020    60.1690    29.4690    60.0350    37.8990    37.6230    28.3210    20.3230     2.5760   -21.1330 
  234.7500   221.0100    60.2260    29.4950    61.4640    38.3380    37.5000    26.8810    20.4130     2.5590   -21.1190 
  234.8750   221.1180    60.2830    29.5200    61.1450    41.1980    39.7440    25.3440    20.5040     2.5510   -21.1010 
  235.0000   221.2260    60.3400    29.5450    61.7800    46.0490    44.0130    25.1440    20.5670     2.5530   -21.1050 
  235.1250   221.3350    60.3980    29.5710    64.7040    51.9720    49.5610    26.8480    20.5790     2.5600   -21.1360 
  235.2500   221.4430    60.4550    29.5960    63.0280    56.9000    54.3650    28.8160    20.5270     2.5680   -21.1970 
  235.3750   221.5510    60.5120    29.6210    54.2080    58.7450    56.3110    30.2410    20.3860     2.5760   -21.2920 
  235.5000   221.6590    60.5690    29.6470    44.7180    55.8360    53.6320    31.4180    20.1400     2.5880   -21.4300 
  235.6250   221.7670    60.6270    29.6720    43.1420    47.2390    45.2910    30.8360    19.8280     2.6040   -21.6110 
  235.7500   221.8760    60.6840    29.6970    46.6610    36.1210    34.6310    27.8200    19.5580     2.6150   -21.8420 
  235.8750   221.9840    60.7410    29.7230    52.0710    25.7300    24.9490    22.9140    19.4260     2.6090   -22.1040 
  236.0000   222.0920    60.7980    29.7480    58.4010    18.1720    18.1140    18.8500    19.4640     2.5770   -22.3780 
  236.1250   222.2000    60.8560    29.7730    65.9440    14.0790    14.5950    12.6350    19.6400     2.5240   -22.6570 
  236.2500   222.3080    60.9130    29.7980    72.8530    12.9850    13.1090    12.0020    19.8570     2.4710   -22.9330 
  236.3750   222.4170    60.9700    29.8240    77.4160    13.1820    12.8960    11.7500    20.0430     2.4320   -23.1870 
  236.5000   222.5250    61.0270    29.8490    79.1710    13.8080    13.2470    12.4780    20.1530     2.4100   -23.3840 
  236.6250   222.6330    61.0850    29.8740    79.1520    14.0000    13.4090    13.4360    20.1640     2.4020   -23.5010 
  236.7500   222.7410    61.1420    29.9000    79.8730    13.3730    12.8990    13.6120    20.0950     2.3960   -23.5320 
  236.8750   222.8490    61.1990    29.9250    79.7280    11.9830    11.6520    12.3580    19.9810     2.3840   -23.4860 
  237.0000   222.9580    61.2560    29.9500    75.4320    10.2490    10.0110     9.8230    19.8860     2.3660   -23.4010 
  237.1250   223.0660    61.3140    29.9760    68.7970     8.7780     8.5370     7.4580    19.8470     2.3490   -23.2980 
  237.2500   223.1740    61.3710    30.0010    65.4290     7.8320     7.5090     6.4010    19.8380     2.3360   -23.2220 
  237.3750   223.2820    61.4280    30.0260    65.6530     7.4080     6.9480     5.9910    19.8420     2.3300   -23.2220 
  237.5000   223.3900    61.4850    30.0520    67.2380     7.3910     6.7800     5.9070    19.8530     2.3270   -23.3400 
  237.6250   223.4990    61.5430    30.0770    70.7740     7.6660     6.9250     6.1550    19.8730     2.3230   -23.6080 
  237.7500   223.6070    61.6000    30.1020    76.6500     8.0630     7.2230     6.5940    19.8920     2.3180   -23.9760 
  237.8750   223.7150    61.6570    30.1270    80.0420     8.5040     7.5960     7.1280    19.9050     2.3160   -24.4170 
  238.0000   223.8230    61.7140    30.1530    78.4020     8.9440     7.9930     7.6180    19.9140     2.3170   -24.8930 
  238.1250   223.9310    61.7720    30.1780    75.4390     9.3430     8.3660     7.6740    19.9190     2.3220   -25.3200 
  238.2500   224.0400    61.8290    30.2030    74.7440     9.6670     8.6730     7.6430    19.9130     2.3280   -25.6390 
  238.3750   224.1480    61.8860    30.2290    75.8970     9.8710     8.8650     7.9160    19.8760     2.3320   -25.8230 
