~V
VERS. 2.00: Ver 2.00
~W
STRT.M 43.0000:
STOP.M 257.0000:
STEP.M 0.1250:
NULL. -999.2500:
UWI. FD10872:
~C
DEPT.M :
TVD. :
DX. :
DY. :
SP.MV :
GR.API :
RI. :
RML.OHMM :
RXO.OHMM :
DEN.GM/CC :
~A
# ...
  152.5000   148.6030    20.4330   -14.7500     2.7450    62.0410    30.1330    33.4450    51.8980     2.4930 
  152.6250   148.7190    20.4740   -14.7760     2.1870    61.2890    32.6400    36.4620    39.0120     2.5190 
  152.7500   148.8340    20.5150   -14.8020     1.7110    60.6970    32.3670    36.1510    34.5350     2.5310 
  152.8750   148.9490    20.5560   -14.8280     1.2520    60.1190    29.9860    33.4550    44.9680     2.5350 
  153.0000   149.0640    20.5970   -14.8550     0.7680    59.9430    27.2510    30.4810    49.7010     2.5330 
  153.1250   149.1790    20.6380   -14.8810     0.2410    60.0820    25.4350    28.5630    45.2840     2.5290 
  153.2500   149.2940    20.6790   -14.9070    -0.3330    59.9180    25.1710    28.2480    35.1110     2.5250 
  153.3750   149.4090    20.7200   -14.9340    -0.9450    59.1350    26.6410    29.9510    32.0720     2.5230 
  153.5000   149.5250    20.7610   -14.9600    -1.5690    57.1080    30.1200    34.0600    40.4130     2.5230 
  153.6250   149.6400    20.8020   -14.9870    -2.1860    55.2710    33.6100    37.6380    46.3030     2.5250 
  153.7500   149.7550    20.8430   -15.0130    -2.7900    54.6490    34.8790    38.7440    47.3190     2.5290 
  153.8750   149.8700    20.8840   -15.0390    -3.3840    55.4070    33.4000    36.6520    48.6880     2.5330 
  154.0000   149.9850    20.9250   -15.0660    -3.9690    56.9970    29.5950    32.0620    48.2880     2.5390 
  154.1250   150.1000    20.9660   -15.0920    -4.5070    59.2710    24.3080    26.2640    39.4450     2.5450 
  154.2500   150.2150    21.0070   -15.1190    -4.9290    64.1240    19.1010    20.4380    28.9940     2.5500 
  154.3750   150.3300    21.0480   -15.1450    -5.1250    70.3130    13.7670    14.4710    23.7940     2.5480 
  154.5000   150.4450    21.0890   -15.1710    -5.0650    73.6960     9.6090     9.9270    17.0190     2.5360 
  154.6250   150.5600    21.1300   -15.1980    -4.7840    73.7490     7.4130     7.5920     9.1760     2.5090 
  154.7500   150.6750    21.1720   -15.2240    -4.4320    74.9850     6.2110     6.3090     5.6410     2.4730 
  154.8750   150.7900    21.2130   -15.2500    -4.1690    78.5380     5.9150     6.0260     5.2670     2.4370 
  155.0000   150.9050    21.2550   -15.2760    -4.0810    78.9040     6.5120     6.7610     5.4420     2.4110 
  155.1250   151.0200    21.2970   -15.3020    -4.1630    74.5430     7.6400     8.0390     6.7850     2.4040 
  155.2500   151.1350    21.3380   -15.3280    -4.3110    69.2080     8.7930     9.3010    13.4590     2.4120 
  155.3750   151.2500    21.3800   -15.3530    -4.4210    66.0990     9.6900    10.2170    20.2640     2.4270 
  155.5000   151.3650    21.4220   -15.3790    -4.4290    65.2910    10.2910    10.7510    18.0310     2.4400 
  155.6250   151.4800    21.4640   -15.4050    -4.3320    65.8010    10.7510    11.1930    12.1340     2.4460 
  155.7500   151.5950    21.5050   -15.4310    -4.1980    64.8050    11.3570    11.9110    10.4460     2.4510 
  155.8750   151.7100    21.5470   -15.4570    -4.1070    63.2800    12.6890    13.6550    15.5790     2.4590 
  156.0000   151.8250    21.5890   -15.4830    -4.1160    61.5100    15.0140    16.5710    21.8090     2.4750 
  156.1250   151.9400    21.6310   -15.5090    -4.2690    59.7110    17.3820    19.5090    23.0360     2.4960 
  156.2500   152.0540    21.6730   -15.5350    -4.5470    57.3650    19.1200    21.6750    23.1480     2.5160 
  156.3750   152.1690    21.7150   -15.5610    -4.9140    56.2230    19.4570    22.2280    23.5560     2.5290 
  156.5000   152.2840    21.7570   -15.5870    -5.3170    56.0490    18.9020    21.8680    21.7760     2.5360 
  156.6250   152.3990    21.7990   -15.6130    -5.7190    54.9850    18.4720    21.7100    19.6260     2.5370 
  156.7500   152.5140    21.8410   -15.6390    -6.1070    53.1030    18.5030    22.1130    18.8850     2.5360 
  156.8750   152.6290    21.8830   -15.6650    -6.4990    51.6410    18.9890    22.9660    18.7060     2.5370 
  157.0000   152.7430    21.9250   -15.6910    -6.9150    50.8700    19.4930    23.7490    21.5570     2.5400 
  157.1250   152.8580    21.9670   -15.7170    -7.3720    50.9430    19.7830    24.1490    28.5850     2.5430 
  157.2500   152.9730    22.0080   -15.7430    -7.8390    52.0310    19.7900    24.1470    31.6610     2.5440 
  157.3750   153.0880    22.0500   -15.7700    -8.2420    53.3190    19.6050    23.8940    26.2970     2.5430 
  157.5000   153.2030    22.0920   -15.7960    -8.4840    53.1910    19.4830    23.7660    21.1170     2.5400 
  157.6250   153.3180    22.1340   -15.8220    -8.4680    51.8640    19.9120    24.3990    28.9470     2.5370 
  157.7500   153.4320    22.1760   -15.8480    -8.2190    51.5010    21.1340    26.0200    38.6380     2.5360 
  157.8750   153.5470    22.2180   -15.8750    -7.8330    51.6290    22.7020    28.0060    31.9420     2.5400 
  158.0000   153.6620    22.2600   -15.9010    -7.4860    50.9860    24.1010    29.6820    25.3010     2.5480 
  158.1250   153.7770    22.3020   -15.9270    -7.3310    49.3620    24.6950    30.2570    26.8270     2.5550 
  158.2500   153.8920    22.3430   -15.9540    -7.3940    48.0870    24.6610    30.0430    29.8250     2.5600 
  158.3750   154.0060    22.3850   -15.9800    -7.6030    48.9190    24.2960    29.4630    32.4890     2.5610 
  158.5000   154.1210    22.4270   -16.0060    -7.7950    51.7380    23.8700    28.8630    29.4350     2.5590 
  158.6250   154.2360    22.4690   -16.0330    -7.8240    54.5970    23.5470    28.4640    27.5210     2.5570 
  158.7500   154.3510    22.5110   -16.0590    -7.6570    54.9630    23.4310    28.3430    31.1110     2.5560 
  158.8750   154.4650    22.5530   -16.0860    -7.3400    53.5170    23.5870    28.4790    31.7220     2.5560 
  159.0000   154.5800    22.5950   -16.1120    -7.0040    53.6560    23.8220    28.6340    28.0750     2.5570 
  159.1250   154.6950    22.6370   -16.1390    -6.7580    55.0880    23.7220    28.3160    25.6610     2.5560 
  159.2500   154.8100    22.6790   -16.1650    -6.6500    55.3420    23.0960    27.4160    24.9890     2.5550 
  159.3750   154.9240    22.7200   -16.1920    -6.6970    53.1360    22.1230    26.2040    24.8640     2.5520 
  159.5000   155.0390    22.7620   -16.2190    -6.8530    51.7990    20.9870    24.8860    25.6300     2.5480 
  159.6250   155.1540    22.8040   -16.2450    -7.0800    52.7670    20.1220    23.9240    23.9370     2.5430 
  159.7500   155.2690    22.8460   -16.2720    -7.3370    54.4620    19.5820    23.3720    20.2260     2.5380 
  159.8750   155.3830    22.8870   -16.2990    -7.6000    55.7280    19.6130    23.5240    20.5320     2.5380 
  160.0000   155.4980    22.9290   -16.3250    -7.8580    56.5380    20.2050    24.3000    23.0580     2.5420 
  160.1250   155.6130    22.9710   -16.3520    -8.1210    57.6510    21.1860    25.4800    24.4640     2.5510 
  160.2500   155.7280    23.0120   -16.3790    -8.3950    58.4860    22.0710    26.4140    24.8950     2.5600 
  160.3750   155.8420    23.0540   -16.4060    -8.6550    58.0450    22.5390    26.8100    24.1730     2.5660 
  160.5000   155.9570    23.0950   -16.4330    -8.8460    56.6800    22.6910    26.8750    25.9590     2.5680 
  160.6250   156.0720    23.1370   -16.4600    -8.8690    55.5410    22.6390    26.6840    28.0880     2.5650 
  160.7500   156.1870    23.1790   -16.4870    -8.6560    55.3330    22.4990    26.3780    25.6210     2.5600 
  160.8750   156.3020    23.2200   -16.5140    -8.1800    56.2660    22.3350    26.0240    25.7850     2.5530 
  161.0000   156.4160    23.2620   -16.5410    -7.5530    56.8180    22.3420    25.8620    28.5840     2.5470 
  161.1250   156.5310    23.3040   -16.5670    -6.9440    55.8010    22.6510    26.0940    27.6680     2.5400 
  161.2500   156.6460    23.3450   -16.5940    -6.5290    53.0610    23.0970    26.4770    27.4550     2.5350 
  161.3750   156.7610    23.3870   -16.6210    -6.4240    51.6290    23.1750    26.5030    30.0460     2.5310 
  161.5000   156.8750    23.4290   -16.6480    -6.5620    53.0790    22.9020    26.2450    33.1300     2.5280 
