~V
VERS. 2.00: Ver 2.00
~W
STRT.M 1.0000:
STOP.M 198.0000:
STEP.M 0.1250:
NULL. -999.2500:
UWI. FD10802:
~C
DEPT.M :
TVD. :
DX. :
DY. :
SP.MV :
GR.API :
RI. :
RML.OHMM :
RXO.OHMM :
DEN.GM/CC :
~A
# ...
  119.6250   118.0050    -7.4520     9.6160   -16.2190    48.0300    17.9000    19.0150    20.7650     2.5260 
  119.7500   118.1230    -7.4810     9.6460   -16.2190    49.2270    17.6710    18.7610    19.9560     2.4990 
  119.8750   118.2410    -7.5100     9.6750   -16.2860    49.9970    17.4190    18.4570    19.7740     2.4780 
  120.0000   118.3590    -7.5400     9.7050   -16.3030    49.7760    17.2490    18.2590    18.5370     2.4730 
  120.1250   118.4770    -7.5690     9.7340   -16.2890    48.8330    17.2600    18.2740    18.3490     2.4730 
  120.2500   118.5940    -7.5980     9.7640   -16.2240    49.4490    17.3750    18.4820    19.7690     2.4740 
  120.3750   118.7120    -7.6280     9.7940   -16.1490    50.9760    17.4010    18.5140    20.4770     2.4590 
  120.5000   118.8300    -7.6570     9.8240   -16.1150    51.5910    17.3020    18.3560    20.2630     2.4240 
  120.6250   118.9480    -7.6870     9.8540   -16.0910    51.3950    17.1690    18.1620    19.3270     2.3950 
  120.7500   119.0650    -7.7170     9.8840   -16.0910    50.8510    17.0050    17.9390    17.4700     2.4010 
  120.8750   119.1830    -7.7460     9.9140   -16.1990    51.3910    16.7870    17.6930    17.5100     2.4310 
  121.0000   119.3000    -7.7760     9.9440   -16.3700    50.7760    16.5870    17.4110    20.0260     2.4400 
  121.1250   119.4180    -7.8060     9.9750   -16.3950    50.4580    16.2760    17.0110    20.4810     2.4240 
  121.2500   119.5350    -7.8360    10.0050   -16.3280    49.8110    15.8600    16.5070    18.0320     2.3910 
  121.3750   119.6530    -7.8650    10.0360   -16.1330    50.8230    15.3860    15.9710    16.2200     2.3910 
  121.5000   119.7700    -7.8950    10.0660   -15.9730    52.7840    14.9300    15.5320    14.9000     2.4060 
  121.6250   119.8880    -7.9260    10.0970   -15.8200    53.2720    14.6670    15.3210    14.3420     2.4200 
  121.7500   120.0050    -7.9560    10.1280   -15.6930    52.7180    14.6530    15.3820    15.7300     2.4160 
  121.8750   120.1220    -7.9860    10.1580   -15.6670    50.9960    14.8350    15.6350    16.4720     2.3990 
  122.0000   120.2400    -8.0160    10.1890   -15.6900    50.4390    15.1000    15.9610    17.0500     2.3840 
  122.1250   120.3570    -8.0460    10.2200   -15.6490    49.2790    15.3440    16.2070    17.5210     2.3740 
  122.2500   120.4740    -8.0760    10.2510   -15.6500    49.4490    15.3800    16.2050    16.9090     2.3620 
  122.3750   120.5910    -8.1070    10.2830   -15.7500    50.9640    15.1960    16.0040    16.6170     2.3370 
  122.5000   120.7090    -8.1370    10.3140   -15.7630    52.6770    15.0250    15.8090    16.1170     2.2840 
  122.6250   120.8260    -8.1680    10.3450   -15.7490    53.5580    14.9870    15.7710    16.1440     2.2140 
  122.7500   120.9430    -8.1980    10.3770   -15.6950    53.1120    15.1210    15.9580    17.0910     2.1890 
  122.8750   121.0600    -8.2290    10.4080   -15.6470    53.5340    15.4390    16.3500    17.9040     2.2380 
  123.0000   121.1770    -8.2590    10.4390   -15.6250    52.9730    15.8790    16.8400    18.3360     2.3290 
  123.1250   121.2940    -8.2900    10.4710   -15.6020    53.4480    16.2660    17.1290    17.1240     2.4000 
  123.2500   121.4110    -8.3210    10.5020   -15.6050    53.3740    16.3630    17.1830    15.5160     2.4370 
  123.3750   121.5280    -8.3520    10.5330   -15.6010    55.0570    16.1440    16.9770    15.8020     2.4460 
  123.5000   121.6450    -8.3830    10.5650   -15.6320    55.7550    15.6130    16.5020    16.7120     2.4240 
  123.6250   121.7620    -8.4130    10.5960   -15.6210    56.4710    15.1010    15.9940    16.5770     2.3840 
  123.7500   121.8790    -8.4440    10.6280   -15.5950    56.5330    14.6980    15.5960    15.6860     2.3530 
  123.8750   121.9960    -8.4750    10.6600   -15.6750    56.0910    14.5170    15.4820    15.3500     2.3540 
  124.0000   122.1130    -8.5060    10.6920   -15.9730    55.9830    14.8240    15.9360    16.2070     2.3880 
  124.1250   122.2290    -8.5370    10.7240   -16.2710    55.4520    15.7190    16.9670    17.0560     2.4350 
  124.2500   122.3460    -8.5680    10.7550   -16.4920    55.5190    16.8920    18.3020    17.8570     2.4720 
  124.3750   122.4630    -8.5990    10.7870   -16.6630    55.7600    18.0330    19.5570    20.5110     2.4660 
  124.5000   122.5800    -8.6300    10.8190   -16.7880    55.7000    18.8220    20.3660    23.2280     2.4270 
  124.6250   122.6970    -8.6610    10.8510   -16.9370    54.6460    19.0080    20.5440    21.8670     2.3850 
  124.7500   122.8130    -8.6920    10.8830   -17.0930    51.6980    18.6190    20.1400    19.5110     2.3810 
  124.8750   122.9300    -8.7230    10.9150   -17.2620    50.9820    17.9610    19.5380    19.7580     2.4140 
  125.0000   123.0470    -8.7540    10.9470   -17.4160    51.6680    17.2600    18.7950    19.6720     2.4640 
  125.1250   123.1640    -8.7850    10.9790   -17.5050    53.7320    16.6360    18.0780    19.1450     2.5100 
  125.2500   123.2810    -8.8160    11.0110   -17.5630    53.3500    16.1100    17.6230    19.6570     2.5230 
  125.3750   123.3970    -8.8480    11.0430   -17.6940    52.6940    15.5380    16.9950    20.0440     2.5080 
  125.5000   123.5140    -8.8790    11.0750   -17.8080    52.0950    15.1450    16.4970    19.5210     2.4700 
  125.6250   123.6310    -8.9100    11.1070   -17.8560    51.9700    15.1270    16.3270    18.5670     2.4410 
  125.7500   123.7470    -8.9420    11.1390   -17.8340    51.9580    15.4920    16.5670    17.9250     2.4270 
  125.8750   123.8640    -8.9730    11.1710   -17.7540    52.7310    16.1780    17.1350    18.1170     2.4300 
  126.0000   123.9810    -9.0040    11.2040   -17.6910    53.6420    16.9730    17.9590    20.5530     2.4480 
  126.1250   124.0970    -9.0360    11.2360   -17.5840    53.4040    17.9290    18.9670    23.3610     2.4730 
  126.2500   124.2140    -9.0670    11.2680   -17.4780    52.1670    18.7330    19.7700    22.8000     2.4840 
  126.3750   124.3310    -9.0990    11.3000   -17.3830    51.8870    18.5900    19.6920    20.5940     2.4670 
  126.5000   124.4470    -9.1310    11.3320   -17.4110    54.1440    16.8110    17.9800    20.2690     2.4210 
  126.6250   124.5640    -9.1620    11.3640   -17.4670    58.4900    13.7240    14.7190    21.2440     2.3530 
  126.7500   124.6800    -9.1940    11.3960   -17.5820    64.5700    10.0440    10.9880    19.1690     2.2880 
  126.8750   124.7970    -9.2260    11.4280   -17.7100    71.1010     7.1190     7.8180    12.9630     2.2410 
  127.0000   124.9130    -9.2570    11.4610   -17.8470    78.4180     5.2950     5.7340     7.0780     2.2210 
  127.1250   125.0300    -9.2890    11.4930   -17.9330    83.2690     4.2820     4.5850     4.7910     2.2120 
  127.2500   125.1460    -9.3210    11.5250   -17.8280    86.9330     4.0120     4.3000     4.6710     2.2130 
  127.3750   125.2630    -9.3530    11.5570   -17.5660    86.7380     4.4030     4.7720     4.6280     2.2290 
  127.5000   125.3790    -9.3850    11.5900   -17.2050    84.6880     5.5720     6.2140     5.0270     2.2680 
  127.6250   125.4960    -9.4170    11.6220   -16.8500    78.5750     7.8890     8.9460     8.7460     2.3150 
  127.7500   125.6120    -9.4490    11.6550   -16.5680    71.4760    11.6940    12.8300    16.5340     2.3610 
  127.8750   125.7280    -9.4810    11.6870   -16.3310    65.1820    14.8090    15.7700    22.8750     2.4000 
  128.0000   125.8450    -9.5130    11.7190   -16.0640    62.5560    15.1070    15.8990    25.6990     2.4150 
  128.1250   125.9610    -9.5450    11.7520   -15.8620    63.5080    13.0070    13.4240    24.1320     2.3950 
  128.2500   126.0770    -9.5780    11.7840   -15.7210    68.3920     8.9480     9.4540    15.5260     2.3460 
  128.3750   126.1940    -9.6100    11.8170   -15.6680    76.6130     5.9950     6.3460     6.7400     2.2970 
  128.5000   126.3100    -9.6420    11.8490   -15.7880    85.8080     4.5990     4.8600     3.9240     2.2580 
  128.6250   126.4260    -9.6750    11.8820   -15.9690    91.2480     4.1010     4.4480     4.1620     2.2420 
