~V
VERS. 2.00: Ver 2.00
~W
STRT.M 33.0000:
STOP.M 273.0000:
STEP.M 0.1250:
NULL. -999.2500:
UWI. FD10880:
~C
DEPT.M :
TVD. :
DX. :
DY. :
SP.MV :
GR.API :
RI. :
RML.OHMM :
RXO.OHMM :
DEN.GM/CC :
~A
# ...
  106.0000   104.4220    12.8490     2.7670   -16.9920   100.0190     3.5980     4.3910     5.1730     2.2350 
  106.1250   104.5380    12.8930     2.7740   -16.9950   102.4140     3.5410     4.3140     4.5020     2.2730 
  106.2500   104.6550    12.9370     2.7810   -17.1700   101.2480     3.5790     4.3870     7.0390     2.2980 
  106.3750   104.7720    12.9810     2.7870   -17.4160    97.0940     3.6670     4.5140    10.0260     2.3020 
  106.5000   104.8880    13.0250     2.7940   -17.7970    94.2030     3.7440     4.5820     7.9200     2.2860 
  106.6250   105.0050    13.0700     2.8010   -18.2500    94.7330     3.7820     4.5790     5.3680     2.2620 
  106.7500   105.1220    13.1140     2.8080   -18.4620    97.7390     3.9630     4.7820     5.4960     2.2440 
  106.8750   105.2380    13.1590     2.8140   -18.2870    98.6100     4.3500     5.2840     5.9440     2.2450 
  107.0000   105.3550    13.2040     2.8210   -17.7620    94.8710     4.8800     6.0140     6.8750     2.2750 
  107.1250   105.4710    13.2490     2.8280   -17.0830    90.6260     5.3920     6.7170     9.9200     2.3230 
  107.2500   105.5870    13.2940     2.8340   -16.7000    88.9060     5.6060     6.9840    14.1920     2.3580 
  107.3750   105.7040    13.3390     2.8410   -16.8390    88.8670     5.4760     6.7810    14.0080     2.3530 
  107.5000   105.8200    13.3850     2.8480   -17.3390    88.2560     5.1310     6.2890     9.2760     2.3100 
  107.6250   105.9360    13.4300     2.8550   -17.9450    87.0430     4.7110     5.7360     6.6370     2.2590 
  107.7500   106.0530    13.4760     2.8610   -18.4770    85.0690     4.4780     5.4730     6.4800     2.2250 
  107.8750   106.1690    13.5220     2.8690   -18.6060    82.3500     4.4710     5.5030     6.1670     2.2040 
  108.0000   106.2850    13.5670     2.8760   -18.2680    80.1770     4.6430     5.7330     6.3070     2.1880 
  108.1250   106.4010    13.6130     2.8830   -17.8530    79.4140     4.9090     6.0750     6.9740     2.1770 
  108.2500   106.5170    13.6590     2.8900   -17.5730    80.0310     5.1780     6.3620     7.4200     2.1740 
  108.3750   106.6330    13.7050     2.8980   -17.3410    81.8920     5.3770     6.5300     7.3230     2.1740 
  108.5000   106.7490    13.7510     2.9050   -17.2120    84.5320     5.4290     6.5090     7.3890     2.1680 
  108.6250   106.8650    13.7970     2.9130   -17.2530    85.6930     5.3830     6.3800     8.4450     2.1580 
  108.7500   106.9810    13.8430     2.9200   -17.3830    86.4790     5.2680     6.2060     8.8100     2.1520 
  108.8750   107.0970    13.8890     2.9280   -17.5070    88.7330     5.1210     6.0310     7.6650     2.1560 
  109.0000   107.2130    13.9360     2.9360   -17.6800    91.9410     4.8950     5.7870     6.9170     2.1640 
  109.1250   107.3280    13.9820     2.9430   -17.8230    93.3810     4.5960     5.4350     6.9790     2.1690 
  109.2500   107.4440    14.0280     2.9500   -17.9400    94.0040     4.2550     5.0330     6.7150     2.1750 
  109.3750   107.5600    14.0750     2.9580   -18.0770    96.3770     3.9410     4.6510     5.9880     2.1890 
  109.5000   107.6760    14.1210     2.9650   -18.2380   100.2020     3.6410     4.2750     5.3680     2.2100 
  109.6250   107.7920    14.1670     2.9720   -18.4290   102.4560     3.3940     3.9980     5.0420     2.2330 
  109.7500   107.9080    14.2140     2.9790   -18.6970   102.5920     3.2410     3.8390     4.8940     2.2500 
  109.8750   108.0230    14.2600     2.9870   -18.7450   101.4350     3.2580     3.8810     4.7460     2.2630 
  110.0000   108.1390    14.3070     2.9940   -18.2500   101.8510     3.4960     4.1780     4.6480     2.2710 
  110.1250   108.2550    14.3540     3.0010   -17.3440   101.8160     3.9080     4.6780     4.8450     2.2740 
  110.2500   108.3710    14.4000     3.0080   -16.3100    98.3180     4.4960     5.3850     6.0380     2.2660 
  110.3750   108.4860    14.4470     3.0150   -15.4560    91.3330     5.1600     6.1840    10.9360     2.2470 
  110.5000   108.6020    14.4940     3.0220   -15.1640    83.0030     5.9970     7.1810    15.5630     2.2210 
  110.6250   108.7180    14.5410     3.0290   -15.3610    76.7190     6.7670     8.0480    13.4140     2.1930 
  110.7500   108.8330    14.5880     3.0360   -15.7420    73.4690     7.3950     8.7830    10.5840     2.1660 
  110.8750   108.9490    14.6350     3.0430   -16.1170    71.1230     7.9190     9.3950    11.3150     2.1390 
  111.0000   109.0640    14.6820     3.0500   -16.1250    66.9710     8.2230     9.7510    12.3490     2.1120 
  111.1250   109.1800    14.7290     3.0580   -15.5410    63.1190     8.4560    10.0250    12.6400     2.0890 
  111.2500   109.2950    14.7770     3.0650   -14.6690    62.7640     8.5260    10.1030    12.1190     2.0730 
  111.3750   109.4110    14.8240     3.0720   -14.0350    64.7540     8.4430     9.9810    11.5370     2.0650 
  111.5000   109.5260    14.8720     3.0790   -13.6180    65.9200     8.3930     9.9320    11.6110     2.0640 
  111.6250   109.6410    14.9190     3.0860   -13.2350    66.0590     8.4480    10.0420    11.7050     2.0680 
  111.7500   109.7570    14.9670     3.0930   -13.0630    66.1240     8.6180    10.2810    11.5890     2.0720 
  111.8750   109.8720    15.0150     3.1000   -13.1130    65.7630     8.8720    10.6020    11.8010     2.0730 
  112.0000   109.9870    15.0630     3.1080   -13.3090    64.3220     9.1370    10.9200    12.7000     2.0700 
  112.1250   110.1020    15.1110     3.1150   -13.5430    62.1640     9.3720    11.1490    14.3040     2.0660 
  112.2500   110.2180    15.1590     3.1230   -13.6150    58.9940     9.4950    11.2390    15.4560     2.0640 
  112.3750   110.3330    15.2070     3.1300   -13.6180    55.3720     9.4430    11.0960    15.0620     2.0630 
  112.5000   110.4480    15.2550     3.1380   -13.7470    54.4350     9.2690    10.8030    14.0940     2.0630 
  112.6250   110.5630    15.3030     3.1450   -14.0320    56.4860     9.0860    10.4990    13.6520     2.0650 
  112.7500   110.6780    15.3520     3.1530   -14.3770    59.1270     9.0000    10.3120    13.3610     2.0700 
  112.8750   110.7930    15.4000     3.1610   -14.7810    59.4830     9.0390    10.3080    12.8230     2.0740 
  113.0000   110.9080    15.4490     3.1690   -15.1150    58.7270     9.2040    10.4890    12.6890     2.0740 
  113.1250   111.0230    15.4970     3.1760   -15.0420    59.1730     9.3430    10.5990    13.2510     2.0700 
  113.2500   111.1380    15.5460     3.1840   -14.4520    60.4460     9.0820    10.1500    13.6040     2.0680 
  113.3750   111.2530    15.5950     3.1910   -13.6620    62.9320     8.3010     9.0940    13.3500     2.0770 
  113.5000   111.3670    15.6430     3.1990   -13.0500    66.1110     7.0280     7.4930    14.2190     2.1040 
  113.6250   111.4820    15.6920     3.2060   -12.9500    70.9910     5.6860     5.9440    15.2990     2.1510 
  113.7500   111.5970    15.7410     3.2140   -13.4330    80.7320     4.7040     4.8940    11.8830     2.2080 
  113.8750   111.7120    15.7900     3.2220   -14.1400    92.6860     4.0780     4.2820     6.8050     2.2570 
  114.0000   111.8260    15.8390     3.2300   -14.8280   100.4220     3.8080     4.0700     5.3940     2.2820 
  114.1250   111.9410    15.8880     3.2380   -15.2220   101.1910     3.6800     4.0170     5.5170     2.2880 
  114.2500   112.0560    15.9370     3.2460   -15.0100    97.7970     3.6060     3.9970     5.0590     2.2890 
  114.3750   112.1700    15.9870     3.2540   -14.4320    95.0440     3.4740     3.8710     4.7310     2.2940 
  114.5000   112.2850    16.0360     3.2630   -13.9600    94.0890     3.2960     3.6760     4.6710     2.3010 
  114.6250   112.3990    16.0850     3.2710   -13.6150    94.3430     3.1240     3.4560     4.5840     2.3020 
  114.7500   112.5140    16.1350     3.2790   -13.2210    95.6220     3.0070     3.2880     4.4830     2.2960 
  114.8750   112.6280    16.1840     3.2880   -12.9130    97.0690     3.0430     3.2880     4.4430     2.2880 
  115.0000   112.7430    16.2340     3.2960   -12.7260    97.9340     3.4670     3.7300     4.4970     2.2910 
