~V
VERS. 2.00: Ver 2.00
~W
STRT.M 24.0000:
STOP.M 269.0000:
STEP.M 0.1250:
NULL. -999.2500:
UWI. FD10666:
~C
DEPT.M :
TVD. :
DX. :
DY. :
GR.API :
RML.OHMM :
RI. :
RXO.OHMM :
CALI.CM :
DEN.GM/CC :
SP.MV :
~A
# ...
  123.0000   120.4450    16.3520     9.0870    74.8790     6.0330     5.5640     5.1480    20.5610     2.3500    -9.4730 
  123.1250   120.5600    16.3950     9.1080    77.9390     5.9850     5.4910     5.2090    20.4920     2.3660    -9.5410 
  123.2500   120.6760    16.4380     9.1290    81.0170     6.0140     5.4820     5.3510    20.4890     2.3750    -9.6140 
  123.3750   120.7910    16.4820     9.1500    82.4510     6.1340     5.5530     5.3960    20.5060     2.3720    -9.6800 
  123.5000   120.9070    16.5250     9.1710    81.8690     6.3400     5.7060     5.5140    20.5260     2.3610    -9.7350 
  123.6250   121.0220    16.5680     9.1920    79.3670     6.6100     5.9390     5.7160    20.5390     2.3450    -9.7790 
  123.7500   121.1370    16.6120     9.2130    76.4080     6.8870     6.2100     5.9310    20.5440     2.3290    -9.8080 
  123.8750   121.2530    16.6550     9.2350    74.6560     7.1380     6.4880     6.1710    20.5430     2.3140    -9.8350 
  124.0000   121.3680    16.6980     9.2560    75.0170     7.3560     6.7550     6.4130    20.5420     2.3000    -9.8730 
  124.1250   121.4830    16.7410     9.2770    76.3150     7.5660     7.0090     6.3050    20.5410     2.2920    -9.9310 
  124.2500   121.5990    16.7850     9.2980    77.1850     7.7960     7.2550     6.1520    20.5460     2.2880    -9.9970 
  124.3750   121.7140    16.8280     9.3190    76.4190     8.0380     7.4870     6.3110    20.5570     2.2860   -10.0620 
  124.5000   121.8290    16.8710     9.3400    72.6760     8.2470     7.6770     6.8880    20.5760     2.2850   -10.1220 
  124.6250   121.9450    16.9150     9.3610    70.7460     8.3310     7.7650     7.4280    20.5960     2.2840   -10.1680 
  124.7500   122.0600    16.9580     9.3820    74.0470     8.2620     7.7280     7.5570    20.6110     2.2870   -10.2030 
  124.8750   122.1760    17.0010     9.4030    79.6120     8.0560     7.5730     7.2170    20.6150     2.2950   -10.2270 
  125.0000   122.2910    17.0440     9.4240    83.2090     7.7830     7.3430     6.8090    20.6160     2.3070   -10.2330 
  125.1250   122.4060    17.0880     9.4450    85.2490     7.5460     7.1200     6.6060    20.6190     2.3190   -10.2050 
  125.2500   122.5220    17.1310     9.4660    86.7820     7.4030     6.9640     6.5730    20.6270     2.3280   -10.1400 
  125.3750   122.6370    17.1740     9.4870    86.8000     7.3580     6.8920     6.6200    20.6430     2.3330   -10.0360 
  125.5000   122.7520    17.2170     9.5080    84.5600     7.3990     6.9020     6.7360    20.6630     2.3320    -9.8980 
  125.6250   122.8680    17.2610     9.5290    81.2340     7.5550     7.0160     6.8860    20.6780     2.3240    -9.7290 
  125.7500   122.9830    17.3040     9.5500    79.5380     7.8760     7.2620     7.0540    20.6820     2.3120    -9.5360 
  125.8750   123.0980    17.3470     9.5720    81.1520     8.4450     7.7050     7.1360    20.6840     2.2990    -9.3140 
  126.0000   123.2140    17.3910     9.5930    81.9140     9.3260     8.4050     7.1320    20.6910     2.2850    -9.0530 
  126.1250   123.3290    17.4340     9.6140    76.6630    10.5360     9.4070     7.3530    20.7120     2.2690    -8.7550 
  126.2500   123.4440    17.4770     9.6350    69.2380    11.8630    10.5660     7.8870    20.7510     2.2490    -8.4460 
  126.3750   123.5600    17.5200     9.6560    63.6610    13.0780    11.7060     8.6230    20.8020     2.2270    -8.1460 
  126.5000   123.6750    17.5640     9.6770    60.0330    13.9740    12.6340     9.1460    20.8550     2.2060    -7.8720 
  126.6250   123.7910    17.6070     9.6980    59.2210    14.4220    13.1870     8.7670    20.8980     2.1940    -7.6180 
  126.7500   123.9060    17.6500     9.7190    62.2440    14.6570    13.5040     8.2630    20.9310     2.1880    -7.3510 
  126.8750   124.0210    17.6940     9.7400    67.2460    14.9610    13.8050     8.3770    20.9530     2.1880    -7.0700 
  127.0000   124.1370    17.7370     9.7610    69.9630    15.5760    14.3070     8.9830    20.9560     2.1880    -6.7950 
  127.1250   124.2520    17.7800     9.7820    68.0640    16.6540    15.1810     9.9430    20.9370     2.1860    -6.5140 
  127.2500   124.3670    17.8230     9.8030    64.4840    18.0220    16.3340    11.0620    20.9020     2.1820    -6.2180 
  127.3750   124.4830    17.8670     9.8240    61.3300    19.5040    17.6450    12.1660    20.8620     2.1760    -5.8990 
  127.5000   124.5980    17.9100     9.8450    58.7600    20.9380    18.9790    14.1130    20.8350     2.1700    -5.5550 
  127.6250   124.7130    17.9530     9.8660    56.9550    22.1980    20.2140    14.6770    20.8350     2.1670    -5.2100 
  127.7500   124.8290    17.9970     9.8880    55.9060    23.2920    21.3250    14.7060    20.8510     2.1650    -4.9010 
  127.8750   124.9440    18.0400     9.9090    55.2150    24.2310    22.3120    14.5970    20.8780     2.1650    -4.6410 
  128.0000   125.0590    18.0830     9.9300    53.3700    25.0040    23.1640    14.6370    20.9120     2.1680    -4.4150 
  128.1250   125.1750    18.1260     9.9510    51.4450    25.5310    23.8060    14.8240    20.9630     2.1750    -4.2410 
  128.2500   125.2900    18.1700     9.9720    50.8230    25.8260    24.2270    15.0860    21.0290     2.1840    -4.1120 
  128.3750   125.4060    18.2130     9.9930    50.5380    25.9190    24.4390    15.2010    21.1020     2.1920    -4.0340 
  128.5000   125.5210    18.2560    10.0140    49.2810    25.8670    24.4870    14.7690    21.1620     2.1940    -4.0060 
  128.6250   125.6360    18.3000    10.0350    48.0750    25.7020    24.4070    13.8530    21.1930     2.1870    -4.0250 
  128.7500   125.7520    18.3430    10.0560    48.9680    25.4540    24.2350    13.1030    21.2130     2.1730    -4.0810 
  128.8750   125.8670    18.3860    10.0770    51.0430    25.1130    23.9510    12.7630    21.2240     2.1580    -4.1810 
  129.0000   125.9820    18.4290    10.0980    52.3180    24.6850    23.5200    12.6550    21.2170     2.1450    -4.3310 
  129.1250   126.0980    18.4730    10.1190    52.3710    24.2480    22.9160    12.4710    21.1880     2.1390    -4.5270 
  129.2500   126.2130    18.5160    10.1400    53.3010    23.7740    22.2200    12.4660    21.1420     2.1410    -4.7610 
  129.3750   126.3280    18.5590    10.1610    55.8220    23.2810    21.5150    12.9730    21.0840     2.1490    -5.0220 
  129.5000   126.4440    18.6030    10.1820    58.0920    22.8010    20.8900    13.9190    21.0220     2.1600    -5.2900 
  129.6250   126.5590    18.6460    10.2030    57.0210    22.1870    20.4310    14.6670    20.9780     2.1700    -5.5460 
  129.7500   126.6740    18.6890    10.2250    54.5680    21.8190    20.1370    14.6560    20.9620     2.1750    -5.7840 
  129.8750   126.7900    18.7320    10.2460    54.6150    21.5930    20.0020    14.3550    20.9590     2.1760    -5.9950 
  130.0000   126.9050    18.7760    10.2670    57.2420    21.4710    19.9990    14.1570    20.9580     2.1770    -6.1870 
  130.1250   127.0210    18.8190    10.2880    59.0750    21.3990    20.0870    14.0500    20.9560     2.1790    -6.3720 
  130.2500   127.1360    18.8620    10.3090    58.2840    21.2990    20.1800    14.2120    20.9560     2.1820    -6.5510 
  130.3750   127.2510    18.9060    10.3300    56.5220    21.1040    20.2010    14.4940    20.9610     2.1840    -6.7280 
  130.5000   127.3670    18.9490    10.3510    55.1890    20.7240    20.0590    14.4950    20.9720     2.1850    -6.9310 
  130.6250   127.4820    18.9920    10.3720    55.7680    20.0850    19.5890    13.8910    20.9980     2.1850    -7.1860 
  130.7500   127.5970    19.0350    10.3930    56.8260    19.1010    18.7480    12.7370    21.0320     2.1870    -7.4820 
  130.8750   127.7130    19.0790    10.4140    57.7150    17.8230    17.5460    11.5850    21.0640     2.1910    -7.8190 
  131.0000   127.8280    19.1220    10.4350    58.4960    16.5030    16.1100    11.2320    21.0780     2.1960    -8.1800 
  131.1250   127.9430    19.1650    10.4560    60.3300    14.9380    14.6900    10.9140    21.0450     2.2010    -8.5430 
