~V
VERS. 2.00: Ver 2.00
~W
STRT.M 25.0000:
STOP.M 295.0000:
STEP.M 0.1250:
NULL. -999.2500:
UWI. FD10906:
~C
DEPT.M :
TVD. :
DX. :
DY. :
SP.MV :
GR.API :
RI. :
RML.OHMM :
RXO.OHMM :
DEN.GM/CC :
~A
# ...
  234.8750   207.4440   -91.8810     5.6180   -21.9380    71.5550     6.7890     7.7470     7.2740     2.2940 
  235.0000   207.5430   -91.9560     5.6200   -21.9190    71.6030     7.4540     8.5550     8.2810     2.2880 
  235.1250   207.6430   -92.0320     5.6230   -21.8540    69.0460     8.2160     9.4470     9.4380     2.2870 
  235.2500   207.7420   -92.1080     5.6260   -21.7100    64.7050     8.9430    10.2730    10.2380     2.2860 
  235.3750   207.8420   -92.1830     5.6290   -21.5090    62.6400     9.5280    10.9260    10.9440     2.2800 
  235.5000   207.9410   -92.2590     5.6310   -21.3030    63.2310     9.9160    11.3670    11.7370     2.2730 
  235.6250   208.0410   -92.3350     5.6340   -21.1580    65.6160    10.1420    11.6560    12.3720     2.2700 
  235.7500   208.1400   -92.4110     5.6370   -21.0970    65.8260    10.2320    11.8250    12.7690     2.2720 
  235.8750   208.2390   -92.4860     5.6390   -21.0910    67.4380    10.2050    11.8770    13.0440     2.2780 
  236.0000   208.3390   -92.5620     5.6420   -21.1180    69.7160    10.0290    11.7480    13.1100     2.2890 
  236.1250   208.4380   -92.6380     5.6440   -21.1700    71.7040     9.7000    11.4140    13.1080     2.3040 
  236.2500   208.5380   -92.7140     5.6470   -21.2580    71.1900     9.2410    10.8920    13.2060     2.3160 
  236.3750   208.6370   -92.7890     5.6490   -21.3660    68.7610     8.7510    10.3140    12.8150     2.3210 
  236.5000   208.7360   -92.8650     5.6520   -21.4710    68.3830     8.3730     9.8780    11.3700     2.3250 
  236.6250   208.8360   -92.9410     5.6540   -21.5480    69.0620     8.2340     9.7670     9.7090     2.3390 
  236.7500   208.9350   -93.0160     5.6560   -21.5900    70.1050     8.4410    10.1160     8.7110     2.3700 
  236.8750   209.0350   -93.0920     5.6590   -21.6110    69.1870     8.9310    10.8180     8.5910     2.4030 
  237.0000   209.1340   -93.1680     5.6610   -21.6180    67.1400     9.5330    11.6080     9.9790     2.4120 
  237.1250   209.2340   -93.2440     5.6630   -21.6310    64.9080     9.9920    12.1470    12.3440     2.3860 
  237.2500   209.3330   -93.3190     5.6660   -21.6900    65.3350    10.1190    12.2110    13.7730     2.3410 
  237.3750   209.4320   -93.3950     5.6680   -21.8250    65.6240     9.9410    11.8790    13.6300     2.3050 
  237.5000   209.5320   -93.4710     5.6710   -22.0680    66.5490     9.5790    11.3550    12.6260     2.2900 
  237.6250   209.6310   -93.5470     5.6730   -22.3900    67.2180     9.2380    10.9240    11.4850     2.2880 
  237.7500   209.7310   -93.6220     5.6760   -22.7310    69.2830     9.0870    10.8090    10.8600     2.2960 
  237.8750   209.8300   -93.6980     5.6780   -23.0290    69.7500     9.1850    11.0520    10.9260     2.3090 
  238.0000   209.9300   -93.7740     5.6810   -23.2460    68.8920     9.5060    11.5910    11.1140     2.3220 
  238.1250   210.0290   -93.8490     5.6840   -23.3980    66.4980     9.8980    12.1950    11.3860     2.3270 
  238.2500   210.1280   -93.9250     5.6860   -23.5070    65.3920    10.1780    12.5980    12.3260     2.3210 
  238.3750   210.2280   -94.0010     5.6890   -23.5890    65.0680    10.2360    12.6510    13.4640     2.3120 
  238.5000   210.3270   -94.0760     5.6910   -23.6430    66.8660    10.0510    12.3310    13.9760     2.3050 
  238.6250   210.4270   -94.1520     5.6930   -23.6750    66.9870     9.7420    11.8160    13.7330     2.2990 
  238.7500   210.5260   -94.2280     5.6960   -23.6980    66.1130     9.4560    11.3350    12.6130     2.2910 
  238.8750   210.6260   -94.3040     5.6980   -23.7370    63.7260     9.3140    11.0880    11.0210     2.2860 
  239.0000   210.7250   -94.3790     5.7000   -23.8040    63.4760     9.3850    11.1780    10.0200     2.2900 
  239.1250   210.8250   -94.4550     5.7020   -23.8950    63.5570     9.6390    11.5340    10.1360     2.2970 
  239.2500   210.9240   -94.5310     5.7050   -23.9980    64.7870    10.0130    12.0620    10.7470     2.2930 
  239.3750   211.0230   -94.6060     5.7070   -24.0940    65.1910    10.3890    12.6070    11.0760     2.2750 
  239.5000   211.1230   -94.6820     5.7090   -24.1680    66.0700    10.6570    13.0070    11.5310     2.2530 
  239.6250   211.2220   -94.7580     5.7110   -24.2230    68.1420    10.7920    13.1920    12.6050     2.2410 
  239.7500   211.3220   -94.8330     5.7130   -24.2760    72.0570    10.8650    13.2230    13.7770     2.2450 
  239.8750   211.4210   -94.9090     5.7150   -24.3460    76.9010    11.0510    13.3580    14.0570     2.2600 
  240.0000   211.5210   -94.9850     5.7170   -24.4340    78.9000    11.6140    13.9980    13.1560     2.2800 
  240.1250   211.6200   -95.0610     5.7200   -24.5240    78.0930    12.7670    15.4430    13.1510     2.2980 
  240.2500   211.7200   -95.1360     5.7220   -24.6060    76.0210    14.7030    17.9300    16.4140     2.3020 
  240.3750   211.8190   -95.2120     5.7240   -24.6850    74.1180    17.1650    21.1190    20.9240     2.2900 
  240.5000   211.9180   -95.2880     5.7270   -24.7680    71.4870    19.4650    24.1420    23.5240     2.2800 
  240.6250   212.0180   -95.3640     5.7290   -24.8460    67.7560    20.7050    25.8490    24.6470     2.3020 
  240.7500   212.1170   -95.4390     5.7310   -24.8800    65.7730    20.0450    25.1260    27.3350     2.3770 
  240.8750   212.2170   -95.5150     5.7330   -24.8280    65.5030    17.5370    21.9760    32.8920     2.4860 
  241.0000   212.3160   -95.5910     5.7350   -24.6490    66.0840    13.7170    17.0790    35.5370     2.5820 
  241.1250   212.4150   -95.6670     5.7380   -24.3400    68.4190     9.6710    11.9040    29.2500     2.6250 
  241.2500   212.5150   -95.7420     5.7400   -23.9130    72.0640     6.3130     7.6520    18.4650     2.5970 
  241.3750   212.6140   -95.8180     5.7430   -23.4170    73.7520     4.0240     4.7860    11.2050     2.5230 
  241.5000   212.7140   -95.8940     5.7450   -22.9040    70.4560     2.8350     3.3340     7.4200     2.4440 
  241.6250   212.8130   -95.9700     5.7470   -22.4130    65.1800     2.3400     2.7840     4.6400     2.3940 
  241.7500   212.9120   -96.0460     5.7500   -21.9830    62.0280     2.2510     2.7440     3.2370     2.3810 
  241.8750   213.0120   -96.1210     5.7520   -21.6410    60.6190     2.3170     2.8750     2.9000     2.3870 
  242.0000   213.1110   -96.1970     5.7550   -21.4310    60.3760     2.4180     3.0070     2.8770     2.4000 
  242.1250   213.2100   -96.2730     5.7570   -21.3800    58.8260     2.4860     3.0620     2.8760     2.4150 
  242.2500   213.3100   -96.3490     5.7600   -21.5130    56.6800     2.5020     3.0350     2.9090     2.4320 
  242.3750   213.4090   -96.4250     5.7620   -21.7940    53.3280     2.4780     2.9650     2.9790     2.4460 
  242.5000   213.5080   -96.5000     5.7650   -22.1680    50.6880     2.4360     2.8890     2.9790     2.4520 
  242.6250   213.6080   -96.5760     5.7680   -22.5440    49.1830     2.3990     2.8380     2.8920     2.4450 
  242.7500   213.7070   -96.6520     5.7700   -22.8420    49.8080     2.3890     2.8440     2.9630     2.4240 
  242.8750   213.8060   -96.7280     5.7720   -23.0270    52.4430     2.4030     2.9000     3.1840     2.4000 
  243.0000   213.9060   -96.8040     5.7750   -23.0930    56.4140     2.4230     2.9780     3.2100     2.3830 
  243.1250   214.0050   -96.8800     5.7770   -23.0930    60.1070     2.4200     3.0310     3.0940     2.3740 
  243.2500   214.1040   -96.9560     5.7800   -23.0810    62.7100     2.3770     3.0230     3.1750     2.3680 
  243.3750   214.2040   -97.0310     5.7820   -23.0960    62.8230     2.2950     2.9510     3.4130     2.3580 
  243.5000   214.3030   -97.1070     5.7850   -23.1430    63.2610     2.1880     2.8290     3.4680     2.3470 
  243.6250   214.4020   -97.1830     5.7870   -23.2070    64.8530     2.0820     2.6990     3.2360     2.3330 
  243.7500   214.5020   -97.2590     5.7900   -23.2650    69.3340     2.0080     2.6180     2.9240     2.3170 
  243.8750   214.6010   -97.3350     5.7930   -23.3020    73.8890     1.9950     2.6340     2.7570     2.3050 
