~V
VERS. 2.00: Ver 2.00
~W
STRT.M 22.0000:
STOP.M 238.0000:
STEP.M 0.1250:
NULL. -999.2500:
UWI. FD10612:
~C
DEPT.M :
TVD. :
DX. :
DY. :
GR.API :
RML.OHMM :
RI. :
RXO.OHMM :
CALI.CM :
DEN.GM/CC :
SP.MV :
~A
   22.0000    22.0000     0.0750     0.1010    48.8400    25.6870     0.7510     1.8030    25.2570     2.3260   170.4550 
   22.1250    22.1250     0.0750     0.1020    51.4990    15.9810     0.4000     1.7350    25.2110     2.4860   166.0290 
   22.2500    22.2500     0.0750     0.1020    52.1930    13.4350     0.2680     1.7810    25.2620     2.6100   158.9920 
   22.3750    22.3750     0.0760     0.1030    55.1410    15.2860     0.3140     2.2220    25.5780     2.6400   148.1070 
   22.5000    22.5000     0.0760     0.1040    62.0560    20.8920     0.5400     3.1730    26.2270     2.5580   133.1450 
   22.6250    22.6250     0.0770     0.1040    68.7510    30.7620     1.0280     4.2780    26.9010     2.3930   114.9680 
   22.7500    22.7500     0.0770     0.1050    70.7380    42.7250     1.7670     5.2360    27.1980     2.2290    95.1570 
   22.8750    22.8750     0.0780     0.1050    69.1990    53.2960     2.6820     6.0420    27.1910     2.1120    74.3960 
   23.0000    23.0000     0.0780     0.1060    66.3800    59.0740     3.5730     6.3340    26.8200     2.0530    53.5930 
   23.1250    23.1250     0.0780     0.1060    63.8650    59.2720     4.1810     6.3970    26.1260     2.0390    34.0610 
   23.2500    23.2500     0.0790     0.1070    63.6590    58.3440     4.5270     6.4570    25.7060     2.0420    17.3670 
   23.3750    23.3750     0.0790     0.1080    66.8800    59.1440     4.6950     6.5390    25.7630     2.0520     4.9380 
   23.5000    23.5000     0.0800     0.1080    72.3860    61.9980     4.7420     6.6630    25.9240     2.0640    -2.9760 
   23.6250    23.6250     0.0800     0.1090    77.1170    65.1520     4.6940     6.6750    25.7370     2.0750    -7.3350 
   23.7500    23.7500     0.0810     0.1090    78.0250    66.8440     4.6250     6.5630    25.5620     2.0800   -10.0110 
   23.8750    23.8750     0.0810     0.1100    76.6330    66.8430     4.5910     6.4420    25.4660     2.0790   -11.6560 
   24.0000    24.0000     0.0810     0.1100    75.0110    66.0810     4.6130     6.3090    25.0770     2.0750   -12.6010 
   24.1250    24.1250     0.0820     0.1110    73.3270    65.9360     4.6670     6.2560    24.7670     2.0670   -12.9240 
   24.2500    24.2500     0.0820     0.1120    70.8430    66.4750     4.6940     6.2130    24.6540     2.0460   -12.9120 
   24.3750    24.3750     0.0830     0.1120    68.3560    66.7360     4.6670     5.8220    24.7880     2.0030   -12.6450 
   24.5000    24.5000     0.0830     0.1130    67.1950    65.7480     4.6000     4.8470    25.1760     1.9440   -12.1050 
   24.6250    24.6250     0.0840     0.1130    68.8690    63.3840     4.5510     3.7770    25.5050     1.9030   -11.0120 
   24.7500    24.7500     0.0840     0.1140    73.3830    61.0410     4.5670     3.5510    25.6210     1.9110    -9.4770 
   24.8750    24.8750     0.0840     0.1140    80.2550    59.8280     4.6590     3.9580    25.7930     1.9770    -7.6750 
   25.0000    25.0000     0.0850     0.1150    88.5700    60.0520     4.8000     4.4520    26.3330     2.0780    -5.9140 
   25.1250    25.1250     0.0850     0.1160    92.7320    61.0020     4.9410     4.7210    26.8540     2.1730    -4.3460 
   25.2500    25.2500     0.0860     0.1160    91.1310    61.4350     5.0360     4.8310    26.9890     2.2380    -3.1250 
   25.3750    25.3750     0.0860     0.1170    90.6060    60.9040     5.0670     4.8230    26.6980     2.2740    -2.2140 
   25.5000    25.5000     0.0860     0.1170    96.0780    59.5500     5.0310     4.7380    26.0860     2.2940    -1.6600 
   25.6250    25.6250     0.0870     0.1180   101.2290    57.6380     4.9140     4.8430    25.7530     2.3120    -1.4980 
   25.7500    25.7500     0.0870     0.1180   101.9390    55.5280     4.7270     5.1220    26.0090     2.3270    -1.5810 
   25.8750    25.8750     0.0880     0.1190   103.4350    53.5920     4.4980     5.2490    26.3950     2.3360    -1.9060 
   26.0000    26.0000     0.0880     0.1200   107.3260    52.4280     4.3140     5.1110    26.5490     2.3350    -2.3390 
   26.1250    26.1250     0.0890     0.1200   106.8570    53.2190     4.3690     4.9550    26.5260     2.3260    -2.9700 
   26.2500    26.2500     0.0890     0.1210   101.5940    56.8850     4.8130     5.0150    26.5740     2.3240    -3.6300 
   26.3750    26.3740     0.0890     0.1210    93.9160    64.8440     5.7910     5.9150    26.6700     2.3520    -4.3580 
   26.5000    26.4990     0.0900     0.1220    83.0250    77.9070     7.3690     9.3470    26.7270     2.4190    -5.2100 
   26.6250    26.6240     0.0900     0.1220    72.4420    93.1140     9.3390    20.4030    26.7010     2.5100    -6.2220 
   26.7500    26.7490     0.0910     0.1230    65.4740   102.1820    10.8410    31.3130    26.7150     2.5770    -7.4040 
   26.8750    26.8740     0.0910     0.1240    62.4660    99.6870    11.1000    26.1010    26.8910     2.5810    -8.6410 
   27.0000    26.9990     0.0920     0.1240    61.0730    87.2170    10.1010    13.9920    27.3640     2.5140    -9.9530 
   27.1250    27.1240     0.0920     0.1250    58.9930    72.8060     8.6320     8.3180    28.0150     2.4000   -11.2310 
   27.2500    27.2490     0.0920     0.1250    56.4370    63.2910     7.4780     6.9270    28.5820     2.2930   -12.4850 
   27.3750    27.3740     0.0930     0.1260    53.1870    59.4010     6.8260     6.9200    28.9690     2.2220   -13.7020 
   27.5000    27.4990     0.0930     0.1270    50.7750    59.1640     6.6140     6.9910    29.1960     2.1910   -14.8690 
   27.6250    27.6240     0.0940     0.1270    49.9620    59.9640     6.7130     6.9360    29.3070     2.1870   -15.8000 
   27.7500    27.7490     0.0940     0.1280    50.3150    59.7710     6.9080     6.9260    29.4480     2.1850   -16.4870 
   27.8750    27.8740     0.0950     0.1280    51.1460    58.1090     7.0990     6.7900    29.7410     2.1750   -16.8820 
   28.0000    27.9990     0.0950     0.1290    51.3840    55.3070     7.2340     6.4550    30.0730     2.1540   -17.0290 
   28.1250    28.1240     0.0950     0.1290    52.4060    51.9420     7.2640     6.3850    29.9090     2.1270   -16.9420 
   28.2500    28.2490     0.0960     0.1300    56.2300    48.5020     7.1800     6.3860    29.2430     2.1040   -16.6900 
   28.3750    28.3740     0.0960     0.1310    61.4010    45.1080     6.9830     6.2390    28.2290     2.0930   -16.2450 
   28.5000    28.4990     0.0970     0.1310    65.0790    41.8480     6.7050     5.8020    26.9100     2.0960   -15.4900 
   28.6250    28.6240     0.0970     0.1320    68.1400    38.8830     6.3890     5.4520    25.9630     2.1120   -14.7050 
   28.7500    28.7490     0.0980     0.1320    74.2570    36.1800     6.0790     5.2860    25.6460     2.1330   -13.8670 
   28.8750    28.8740     0.0980     0.1330    80.9550    33.5950     5.7830     5.0810    25.8180     2.1540   -13.0290 
   29.0000    28.9990     0.0980     0.1330    84.3820    30.9580     5.5040     4.9800    26.1020     2.1750   -12.2040 
   29.1250    29.1240     0.0990     0.1340    85.8280    28.2780     5.2510     4.8940    26.2150     2.1960   -11.4360 
   29.2500    29.2490     0.0990     0.1350    89.1390    25.8770     5.0470     4.7320    26.2350     2.2170   -10.8220 
   29.3750    29.3740     0.1000     0.1350    94.8080    24.1350     4.9260     4.5820    26.3180     2.2340   -10.3620 
   29.5000    29.4990     0.1000     0.1360    98.4940    23.2200     4.9230     4.6890    26.5740     2.2420   -10.1510 
   29.6250    29.6240     0.1000     0.1360    95.7100    22.8790     5.0680     5.0560    26.9110     2.2360    -9.9980 
   29.7500    29.7490     0.1010     0.1370    87.3300    22.3500     5.3030     5.3660    27.1590     2.2230    -9.9610 
   29.8750    29.8740     0.1010     0.1370    77.7360    21.1630     5.5630     5.4120    27.3600     2.2080   -10.0110 
   30.0000    29.9990     0.1020     0.1380    72.1100    19.2820     5.7690     5.4100    27.6310     2.2000   -10.0930 
   30.1250    30.1240     0.1050     0.1410    71.8640    17.1300     5.8320     5.3770    27.9370     2.1970   -10.3070 
