~V
VERS. 2.00: Ver 2.00
~W
STRT.M 63.0000:
STOP.M 266.0000:
STEP.M 0.1250:
NULL. -999.2500:
UWI. FD10888:
~C
DEPT.M :
TVD. :
DX. :
DY. :
SP.MV :
GR.API :
RI. :
RML.OHMM :
RXO.OHMM :
DEN.GM/CC :
~A
# ...
  227.2500   225.2120   -12.7440   -15.7740   -12.8510    77.8380    19.2400    20.0390    24.7750     2.5660 
  227.3750   225.3330   -12.7620   -15.7990   -12.5730    76.8270    18.8850    19.6370    25.9020     2.5540 
  227.5000   225.4540   -12.7800   -15.8240   -12.2960    73.6360    18.0660    18.7520    23.1010     2.5410 
  227.6250   225.5750   -12.7980   -15.8490   -12.0920    71.8610    17.0720    17.7480    19.4220     2.5350 
  227.7500   225.6960   -12.8160   -15.8740   -11.9320    73.8010    16.3030    17.0480    17.8390     2.5330 
  227.8750   225.8180   -12.8330   -15.8990   -11.7340    74.5960    15.8510    16.7060    17.7710     2.5320 
  228.0000   225.9390   -12.8510   -15.9240   -11.5430    72.6900    15.5620    16.5220    17.7090     2.5310 
  228.1250   226.0600   -12.8680   -15.9490   -11.4660    70.5950    15.2530    16.2650    18.3940     2.5330 
  228.2500   226.1810   -12.8860   -15.9740   -11.4800    71.4050    14.7400    15.7420    19.1420     2.5370 
  228.3750   226.3020   -12.9030   -15.9990   -11.5440    71.9540    14.1020    15.0570    18.8510     2.5410 
  228.5000   226.4240   -12.9210   -16.0240   -11.6550    71.4770    13.5520    14.4540    18.4770     2.5390 
  228.6250   226.5450   -12.9380   -16.0490   -11.6900    72.5320    13.2590    14.1250    17.2010     2.5300 
  228.7500   226.6660   -12.9560   -16.0740   -11.7280    75.5830    13.4530    14.3330    14.2370     2.5170 
  228.8750   226.7870   -12.9730   -16.0990   -11.8030    79.0390    14.3600    15.2860    12.0210     2.5110 
  229.0000   226.9090   -12.9910   -16.1230   -11.8890    81.3470    15.8950    16.9020    13.4210     2.5190 
  229.1250   227.0300   -13.0090   -16.1480   -11.9680    81.6830    18.1470    19.2810    23.5120     2.5390 
  229.2500   227.1510   -13.0270   -16.1730   -12.0460    81.2230    20.3290    21.2740    44.6550     2.5590 
  229.3750   227.2720   -13.0440   -16.1980   -12.1030    80.9130    20.3260    21.0130    61.2880     2.5650 
  229.5000   227.3930   -13.0620   -16.2220   -12.3120    77.7140    17.8650    18.5980    53.6240     2.5450 
  229.6250   227.5150   -13.0790   -16.2470   -12.5950    74.8090    13.5910    14.1440    30.5710     2.4950 
  229.7500   227.6360   -13.0970   -16.2720   -12.8430    76.0210     9.2920    10.0190    14.9110     2.4300 
  229.8750   227.7570   -13.1150   -16.2970   -13.0410    79.9820     6.7960     7.3450     9.0230     2.3730 
  230.0000   227.8780   -13.1320   -16.3220   -13.2990    81.2380     5.6040     5.9840     6.1390     2.3350 
  230.1250   228.0000   -13.1500   -16.3470   -13.5490    82.0240     5.1390     5.6160     5.0580     2.3140 
  230.2500   228.1210   -13.1670   -16.3710   -13.7040    85.5860     5.0600     5.6790     5.0360     2.2950 
  230.3750   228.2420   -13.1850   -16.3960   -13.7100    89.0930     5.1270     5.8240     5.0940     2.2770 
  230.5000   228.3630   -13.2020   -16.4210   -13.6040    87.9500     5.1510     5.8340     4.9490     2.2670 
  230.6250   228.4850   -13.2200   -16.4460   -13.3740    88.0740     5.1520     5.7780     4.6820     2.2740 
  230.7500   228.6060   -13.2370   -16.4710   -13.0560    90.7410     5.0900     5.6510     4.3990     2.2970 
  230.8750   228.7270   -13.2540   -16.4960   -12.6590    92.7910     4.9040     5.4110     4.3000     2.3250 
  231.0000   228.8480   -13.2720   -16.5210   -12.2680    94.1740     4.6020     5.0520     4.5400     2.3460 
  231.1250   228.9700   -13.2890   -16.5460   -11.9230    94.5530     4.1510     4.5330     4.6990     2.3540 
  231.2500   229.0910   -13.3060   -16.5700   -11.5610    89.7310     3.7160     4.0510     4.1870     2.3550 
  231.3750   229.2120   -13.3240   -16.5950   -11.3090    75.2500     3.4180     3.7490     3.4860     2.3560 
  231.5000   229.3340   -13.3410   -16.6200   -11.2270    57.9860     3.2740     3.6470     3.6410     2.3600 
  231.6250   229.4550   -13.3590   -16.6450   -11.2750    49.7600     3.3240     3.7820     4.5340     2.3580 
  231.7500   229.5760   -13.3760   -16.6700   -11.4320    54.3910     3.5060     4.0650     4.9250     2.3440 
  231.8750   229.6970   -13.3940   -16.6950   -11.6600    66.6220     3.7080     4.3290     4.3860     2.3190 
  232.0000   229.8180   -13.4110   -16.7200   -11.8340    76.6970     3.8110     4.4340     3.7380     2.2950 
  232.1250   229.9400   -13.4290   -16.7450   -11.8920    81.3250     3.7960     4.3900     3.4530     2.2820 
  232.2500   230.0610   -13.4460   -16.7700   -11.9270    82.8980     3.7310     4.3010     3.4890     2.2790 
  232.3750   230.1820   -13.4640   -16.7950   -12.0020    83.2400     3.6740     4.2490     3.9320     2.2820 
  232.5000   230.3030   -13.4810   -16.8200   -12.0640    83.3640     3.6470     4.2520     4.5090     2.2830 
  232.6250   230.4240   -13.4980   -16.8460   -12.0900    85.8260     3.6260     4.2630     4.7520     2.2820 
  232.7500   230.5460   -13.5150   -16.8710   -12.0250    87.8380     3.5790     4.2310     4.6190     2.2830 
  232.8750   230.6670   -13.5320   -16.8970   -11.8240    86.7140     3.5010     4.1550     4.2290     2.2920 
  233.0000   230.7880   -13.5490   -16.9220   -11.5750    84.3050     3.4130     4.0660     3.7560     2.3070 
  233.1250   230.9090   -13.5670   -16.9480   -11.4170    82.6980     3.3630     4.0360     3.4580     2.3240 
  233.2500   231.0300   -13.5840   -16.9730   -11.4620    83.1510     3.3680     4.0830     3.4220     2.3430 
  233.3750   231.1510   -13.6010   -16.9990   -11.6440    81.3090     3.4360     4.2130     3.6490     2.3600 
  233.5000   231.2730   -13.6190   -17.0240   -11.8700    76.5540     3.5530     4.3950     3.9210     2.3690 
  233.6250   231.3940   -13.6360   -17.0490   -12.1030    73.9580     3.6720     4.5510     3.7970     2.3590 
  233.7500   231.5150   -13.6530   -17.0750   -12.2040    75.4510     3.7430     4.6180     3.4370     2.3320 
  233.8750   231.6360   -13.6710   -17.1000   -12.0630    78.0180     3.7400     4.5730     3.4350     2.3010 
  234.0000   231.7570   -13.6880   -17.1250   -11.9040    77.9140     3.7090     4.4950     3.8440     2.2770 
  234.1250   231.8780   -13.7050   -17.1510   -11.8710    76.9780     3.7170     4.4840     4.2510     2.2660 
  234.2500   232.0000   -13.7220   -17.1760   -11.9190    76.2750     3.7970     4.5690     4.3620     2.2630 
  234.3750   232.1210   -13.7400   -17.2010   -12.0790    75.5160     3.9090     4.7030     4.3150     2.2630 
  234.5000   232.2420   -13.7570   -17.2260   -12.4290    77.1520     4.0220     4.8270     4.4370     2.2650 
  234.6250   232.3630   -13.7740   -17.2510   -12.7850    80.5970     4.1350     4.9530     4.7140     2.2700 
  234.7500   232.4850   -13.7910   -17.2760   -12.9360    82.7550     4.2280     5.0610     4.8120     2.2800 
  234.8750   232.6060   -13.8070   -17.3020   -12.9590    82.5510     4.2460     5.0590     4.6290     2.2930 
  235.0000   232.7270   -13.8240   -17.3270   -12.9650    81.3380     4.1760     4.9680     4.5800     2.3050 
  235.1250   232.8490   -13.8410   -17.3520   -12.9170    79.9740     4.0160     4.7690     4.8260     2.3120 
  235.2500   232.9700   -13.8570   -17.3770   -12.7190    79.0370     3.8190     4.5130     4.8630     2.3170 
  235.3750   233.0910   -13.8740   -17.4030   -12.3930    77.3520     3.6280     4.2670     4.4960     2.3200 
  235.5000   233.2120   -13.8900   -17.4280   -12.0870    74.2880     3.4650     4.0670     4.1820     2.3200 
  235.6250   233.3340   -13.9070   -17.4530   -11.9860    73.8790     3.3790     3.9910     4.1380     2.3150 
  235.7500   233.4550   -13.9230   -17.4790   -12.1970    75.6910     3.3990     4.0550     4.1970     2.3080 
  235.8750   233.5760   -13.9400   -17.5050   -12.7010    73.9530     3.5240     4.2300     4.2380     2.3020 
  236.0000   233.6970   -13.9570   -17.5300   -13.2360    69.1340     3.7440     4.4960     4.3310     2.2970 
  236.1250   233.8190   -13.9730   -17.5560   -13.7440    68.5040     4.0660     4.8780     4.5720     2.2890 
  236.2500   233.9400   -13.9900   -17.5820   -14.4010    73.5440     4.4740     5.3510     5.0670     2.2780 
