~V
VERS. 2.00: Ver 2.00
~W
STRT.M 20.0000:
STOP.M 282.0000:
STEP.M 0.1250:
NULL. -999.2500:
UWI. FD10228:
~C
DEPT.M :
TVD. :
DX. :
DY. :
GR.API :
RML.OHMM :
RI. :
RXO.OHMM :
CALI.CM :
SP.MV :
DEN.GM/CC :
~A
# ...
  176.7500   176.1240     6.2150     2.4190    68.6680   179.4650   152.8220    17.2620    18.2290   -20.5440     2.2120 
  176.8750   176.2460     6.2440     2.4230    75.2660   185.4090   158.8690    18.7980    18.2310   -20.5980     2.2160 
  177.0000   176.3670     6.2730     2.4270    79.8750   187.4880   161.4180    20.8460    18.2420   -20.6790     2.2270 
  177.1250   176.4890     6.3020     2.4310    82.5730   186.9760   160.9720    22.5440    18.3040   -20.7690     2.2410 
  177.2500   176.6100     6.3310     2.4350    82.8680   187.2780   160.6520    23.1890    18.3140   -20.8200     2.2560 
  177.3750   176.7320     6.3600     2.4400    78.9530   189.9380   162.2370    22.4440    18.3140   -20.8660     2.2680 
  177.5000   176.8530     6.3890     2.4440    73.3410   194.8420   166.0290    21.7800    18.3070   -20.9550     2.2790 
  177.6250   176.9750     6.4180     2.4480    70.4110   200.9790   171.5020    21.7830    18.2630   -20.9950     2.2860 
  177.7500   177.0960     6.4470     2.4520    68.2330   206.6690   177.1800    22.0550    18.2340   -20.9980     2.2890 
  177.8750   177.2180     6.4770     2.4560    63.3410   210.5900   181.7390    22.1590    18.2310   -21.0290     2.2820 
  178.0000   177.3390     6.5060     2.4610    57.6800   211.9120   184.1730    22.1300    18.2470   -21.0780     2.2660 
  178.1250   177.4610     6.5350     2.4650    55.7590   210.0780   183.7600    22.0090    18.2590   -21.0820     2.2440 
  178.2500   177.5820     6.5640     2.4690    57.3200   205.7370   181.1840    21.6100    18.3070   -21.0720     2.2240 
  178.3750   177.7040     6.5930     2.4730    59.6020   198.7250   176.5950    20.9400    18.3110   -21.0840     2.2100 
  178.5000   177.8250     6.6220     2.4770    59.6990   188.2640   169.5720    20.4340    18.2960   -21.0420     2.2030 
  178.6250   177.9470     6.6510     2.4820    57.2010   172.2480   158.1720    20.2390    18.2900   -20.9660     2.2000 
  178.7500   178.0680     6.6800     2.4860    56.1150   151.7210   142.3670    20.0910    18.3120   -20.9140     2.2010 
  178.8750   178.1900     6.7090     2.4900    58.0470   129.4750   123.8240    19.8950    18.3150   -20.8670     2.2070 
  179.0000   178.3110     6.7380     2.4940    62.0680   109.2110   105.6430    19.6890    18.3160   -20.7440     2.2200 
  179.1250   178.4330     6.7670     2.4980    64.0270    94.5730    91.3980    20.0010    18.3160   -20.6330     2.2410 
  179.2500   178.5540     6.7970     2.5030    63.0250    85.5350    81.9180    20.8480    18.3160   -20.5610     2.2620 
  179.3750   178.6760     6.8260     2.5070    62.0720    81.3260    77.0200    21.7360    18.3160   -20.4260     2.2760 
  179.5000   178.7970     6.8550     2.5110    63.6680    80.2140    75.4380    23.1280    18.3160   -20.2750     2.2770 
  179.6250   178.9190     6.8840     2.5150    66.4320    79.6230    74.9410    24.6100    18.3160   -20.1740     2.2690 
  179.7500   179.0400     6.9130     2.5190    66.2660    77.1590    73.0210    25.8530    18.3170   -20.0590     2.2600 
  179.8750   179.1620     6.9420     2.5230    62.8080    72.1160    68.6880    26.2940    18.3230   -19.8920     2.2580 
  180.0000   179.2830     6.9710     2.5280    60.8920    65.3600    62.4110    25.9100    18.3580   -19.7690     2.2670 
  180.1250   179.4050     7.0000     2.5320    63.6220    58.9940    55.9320    24.3360    18.3860   -19.6730     2.2820 
  180.2500   179.5260     7.0290     2.5360    67.2340    54.7290    51.0190    23.1460    18.3840   -19.5470     2.2970 
  180.3750   179.6480     7.0580     2.5400    69.1420    53.3540    48.5100    23.0180    18.3410   -19.4620     2.3030 
  180.5000   179.7690     7.0870     2.5440    68.8210    55.2060    48.7570    23.4160    18.3200   -19.4100     2.2980 
  180.6250   179.8910     7.1170     2.5490    67.0820    60.9930    52.4870    24.4400    18.3160   -19.3730     2.2830 
  180.7500   180.0120     7.1460     2.5530    66.4930    69.9230    59.2290    25.6680    18.3160   -19.3610     2.2650 
  180.8750   180.1330     7.1750     2.5570    67.6840    81.0790    68.4050    27.6280    18.3160   -19.3720     2.2510 
  181.0000   180.2550     7.2040     2.5610    67.7560    92.6850    78.5650    29.4280    18.3160   -19.3990     2.2470 
  181.1250   180.3760     7.2330     2.5650    64.1760   101.7250    87.0400    30.7100    18.3160   -19.4170     2.2540 
  181.2500   180.4980     7.2620     2.5700    61.0470   106.6420    92.0800    31.2940    18.3160   -19.4260     2.2660 
  181.3750   180.6190     7.2910     2.5740    62.0750   107.4540    93.2960    31.0000    18.3160   -19.4450     2.2760 
  181.5000   180.7410     7.3200     2.5780    64.5300   105.7860    91.7020    29.7720    18.3160   -19.4910     2.2780 
  181.6250   180.8620     7.3490     2.5820    63.1070   104.1920    89.2900    28.9020    18.3160   -19.4910     2.2730 
  181.7500   180.9830     7.3800     2.5870    60.1920   104.2710    87.8970    29.0070    18.3160   -19.4950     2.2660 
  181.8750   181.1040     7.4130     2.5910    59.9290   106.0320    87.9420    28.3330    18.3160   -19.5340     2.2600 
  182.0000   181.2240     7.4470     2.5960    62.5720   108.6700    89.0030    25.3850    18.3160   -19.5350     2.2560 
  182.1250   181.3450     7.4800     2.6000    63.9330   111.2770    90.4390    22.8970    18.3160   -19.5290     2.2520 
  182.2500   181.4650     7.5130     2.6050    62.7060   113.6990    91.9230    24.1560    18.3160   -19.5810     2.2460 
  182.3750   181.5850     7.5460     2.6100    62.2550   116.7510    93.8620    26.6150    18.3160   -19.6240     2.2420 
  182.5000   181.7060     7.5800     2.6140    62.3630   122.1190    97.3370    27.0650    18.3160   -19.6330     2.2370 
  182.6250   181.8260     7.6130     2.6190    59.5110   133.4550   105.3730    26.0710    18.3160   -19.6780     2.2320 
  182.7500   181.9470     7.6460     2.6240    54.8750   152.8430   120.8410    25.9330    18.3160   -19.7010     2.2210 
  182.8750   182.0670     7.6800     2.6280    52.2260   181.2240   146.0520    27.0670    18.3160   -19.6640     2.2080 
  183.0000   182.1870     7.7130     2.6330    53.0060   214.3420   178.7820    29.2500    18.3160   -19.6340     2.1910 
  183.1250   182.3080     7.7460     2.6380    54.8620   231.2710   202.6790    30.4950    18.3160   -19.6280     2.1730 
  183.2500   182.4280     7.7800     2.6420    56.4290   211.4540   195.6850    30.4380    18.3160   -19.5980     2.1560 
  183.3750   182.5490     7.8130     2.6470    56.3340   161.8970   156.2640    29.6520    18.3160   -19.5490     2.1490 
  183.5000   182.6690     7.8460     2.6520    54.4320   110.5230   107.6600    28.6940    18.3160   -19.5190     2.1580 
  183.6250   182.7890     7.8790     2.6560    54.3940    76.9520    73.2210    26.5140    18.3160   -19.4890     2.1850 
  183.7500   182.9100     7.9130     2.6610    58.1780    57.9090    53.4190    22.8470    18.3160   -19.4490     2.2240 
  183.8750   183.0300     7.9460     2.6660    63.1830    49.0780    43.8960    19.8950    18.3160   -19.4560     2.2560 
  184.0000   183.1500     7.9790     2.6700    67.0650    47.2180    41.0690    18.6260    18.3160   -19.5020     2.2690 
  184.1250   183.2710     8.0130     2.6750    68.9130    50.3140    43.3530    19.6110    18.3160   -19.5040     2.2590 
  184.2500   183.3910     8.0460     2.6800    69.4190    54.7410    47.9230    22.0440    18.3160   -19.5210     2.2350 
  184.3750   183.5120     8.0790     2.6840    67.6750    57.3470    52.0280    24.5710    18.3160   -19.5970     2.2110 
  184.5000   183.6320     8.1120     2.6890    65.5880    55.4870    52.5660    25.4700    18.3160   -19.6550     2.1980 
  184.6250   183.7520     8.1460     2.6930    64.8860    48.5000    47.6300    23.7160    18.3160   -19.6920     2.2000 
  184.7500   183.8730     8.1790     2.6980    67.0120    39.9950    40.2060    21.3480    18.3160   -19.7810     2.2230 
  184.8750   183.9930     8.2120     2.7030    72.5530    32.4660    32.9240    19.8030    18.3160   -19.8740     2.2570 
