~V
VERS. 2.00: Ver 2.00
~W
STRT.M 30.0000:
STOP.M 210.0000:
STEP.M 0.1250:
NULL. -999.2500:
UWI. FD10800:
~C
DEPT.M :
TVD. :
DX. :
DY. :
SP.MV :
GR.API :
RI. :
RML.OHMM :
RXO.OHMM :
DEN.GM/CC :
~A
# ...
  194.2500   182.3060   -48.6620     7.8550   -18.0530    82.3090     6.8850     7.9890    11.1070     2.3140 
  194.3750   182.4130   -48.7270     7.8570   -18.0370    83.5930     7.1540     8.1970     9.5710     2.3340 
  194.5000   182.5200   -48.7920     7.8580   -18.0300    84.7930     7.2940     8.2630     8.6400     2.3480 
  194.6250   182.6260   -48.8570     7.8600   -17.9990    83.5650     7.3650     8.2720     8.2040     2.3440 
  194.7500   182.7330   -48.9220     7.8610   -18.0130    82.3680     7.3760     8.2440     7.8850     2.3400 
  194.8750   182.8400   -48.9870     7.8620   -17.9180    82.0990     7.3350     8.1950     8.0060     2.3500 
  195.0000   182.9460   -49.0530     7.8640   -17.8600    82.4840     7.2890     8.1590     8.2100     2.3710 
  195.1250   183.0530   -49.1180     7.8650   -17.9010    82.3600     7.2340     8.1040     7.9410     2.3850 
  195.2500   183.1600   -49.1830     7.8670   -17.9040    81.5310     7.1150     7.9710     7.2680     2.3880 
  195.3750   183.2660   -49.2480     7.8690   -17.9040    80.2960     6.9730     7.8240     6.7870     2.3920 
  195.5000   183.3730   -49.3130     7.8700   -17.9040    78.7320     6.8550     7.6980     6.6860     2.3980 
  195.6250   183.4800   -49.3790     7.8720   -17.9040    78.4800     6.8050     7.6620     6.4370     2.3980 
  195.7500   183.5860   -49.4440     7.8740   -17.9040    79.6980     6.8360     7.6990     5.7800     2.3800 
  195.8750   183.6930   -49.5090     7.8760   -17.9040    81.3030     6.8830     7.7540     5.5530     2.3580 
  196.0000   183.8000   -49.5740     7.8780   -17.9040    81.2490     6.9170     7.8040     6.1060     2.3500 
  196.1250   183.9060   -49.6390     7.8800   -17.9040    80.0620     6.9070     7.8170     6.6220     2.3540 
  196.2500   184.0130   -49.7050     7.8820   -17.9040    79.3330     6.8530     7.7730     6.5600     2.3510 
  196.3750   184.1190   -49.7700     7.8850   -17.9040    79.9790     6.7410     7.6440     6.1990     2.3350 
  196.5000   184.2260   -49.8350     7.8870   -17.9040    80.3650     6.6020     7.4540     6.0780     2.3230 
  196.6250   184.3330   -49.9000     7.8900   -17.9040    81.3800     6.4770     7.2840     6.0480     2.3350 
  196.7500   184.4390   -49.9650     7.8920   -17.9040    80.7730     6.3940     7.1810     5.7850     2.3500 
  196.8750   184.5460   -50.0310     7.8950   -17.9040    80.1350     6.3710     7.1530     5.4140     2.3460 
  197.0000   184.6520   -50.0960     7.8970   -17.9040    77.7300     6.3650     7.1580     5.2770     2.3160 
  197.1250   184.7590   -50.1610     7.9000   -17.9040    75.1250     6.3640     7.1440     5.3780     2.2890 
  197.2500   184.8660   -50.2260     7.9030   -17.9040    72.4680     6.3460     7.1100     5.4600     2.2740 
  197.3750   184.9720   -50.2920     7.9050   -17.9040    70.7830     6.3060     7.0450     5.6650     2.2700 
  197.5000   185.0790   -50.3570     7.9080   -17.9040    70.4380     6.2030     6.9140     5.8210     2.2720 
  197.6250   185.1850   -50.4220     7.9110   -17.9040    69.6020     6.0900     6.7830     5.5450     2.2780 
  197.7500   185.2920   -50.4880     7.9130   -17.9040    68.2550     5.9800     6.6780     5.0670     2.2890 
  197.8750   185.3980   -50.5530     7.9160   -17.9040    66.4230     5.9050     6.6130     4.9670     2.3010 
  198.0000   185.5050   -50.6180     7.9190   -17.9040    65.6460     5.8460     6.5740     5.1800     2.3120 
  198.1250   185.6110   -50.6840     7.9210   -17.9040    65.5660     5.7530     6.4790     4.9570     2.3000 
  198.2500   185.7180   -50.7490     7.9240   -17.9040    65.3570     5.6750     6.3720     4.3790     2.2660 
  198.3750   185.8250   -50.8140     7.9270   -17.9040    65.4540     5.6090     6.2510     4.0620     2.2370 
  198.5000   185.9310   -50.8790     7.9290   -17.9040    66.2120     5.6330     6.1900     4.3520     2.2390 
  198.6250   186.0380   -50.9450     7.9320   -17.9040    67.9110     5.7360     6.3140     5.2470     2.2730 
  198.7500   186.1440   -51.0100     7.9350   -17.9040    68.2770     5.9240     6.5290     6.5240     2.3130 
  198.8750   186.2510   -51.0750     7.9370   -17.9040    66.6810     6.1200     6.8210     7.8910     2.3290 
  199.0000   186.3570   -51.1410     7.9400   -17.9040    64.7330     6.2850     7.0960     8.3050     2.3280 
  199.1250   186.4640   -51.2060     7.9430   -17.9040    64.4180     6.3170     7.1360     7.3710     2.3200 
  199.2500   186.5700   -51.2710     7.9450   -17.9040    65.1120     6.2540     7.0810     6.1400     2.3230 
  199.3750   186.6770   -51.3360     7.9480   -17.9040    65.8020     6.1230     6.9250     5.4820     2.3270 
  199.5000   186.7840   -51.4020     7.9510   -17.9040    65.8160     5.9890     6.7550     5.2680     2.3210 
  199.6250   186.8900   -51.4670     7.9530   -17.9040    66.1340     5.9110     6.7040     5.1490     2.3250 
  199.7500   186.9970   -51.5320     7.9560   -17.9040    66.1190     5.8850     6.7000     5.3790     2.3330 
  199.8750   187.1030   -51.5980     7.9580   -17.9040    66.7550     5.9030     6.7370     6.3140     2.3460 
  200.0000   187.2100   -51.6630     7.9610   -17.9040    67.8360     5.8820     6.7100     7.1900     2.3310 
  200.1250   187.3160   -51.7280     7.9640   -17.9040    69.0290     5.8640     6.6760     7.1870     2.2990 
  200.2500   187.4230   -51.7940     7.9660   -17.9040    68.7990     5.8360     6.6210     6.9540     2.2650 
  200.3750   187.5290   -51.8590     7.9690   -17.9040    67.3570     5.8670     6.6440     7.0270     2.2460 
  200.5000   187.6360   -51.9240     7.9710   -17.9040    65.2660     5.9660     6.7500     7.2360     2.2490 
  200.6250   187.7430   -51.9890     7.9740   -17.9040    63.3110     6.0890     6.8680     8.1520     2.2700 
  200.7500   187.8490   -52.0550     7.9760   -17.9040    62.1220     6.1990     6.9830     9.8320     2.3020 
  200.8750   187.9560   -52.1200     7.9780   -17.9040    61.3580     6.2640     7.0360    10.4680     2.3290 
  201.0000   188.0620   -52.1850     7.9810   -17.9040    61.4150     6.2880     7.0490     9.5580     2.3360 
  201.1250   188.1690   -52.2510     7.9830   -17.9040    61.8050     6.2990     7.0530     8.5410     2.3170 
  201.2500   188.2750   -52.3160     7.9850   -17.9040    63.6810     6.3070     7.0560     7.8260     2.2870 
  201.3750   188.3820   -52.3810     7.9880   -17.9040    65.1990     6.3080     7.0550     6.8990     2.2680 
  201.5000   188.4880   -52.4470     7.9900   -17.9040    66.3450     6.3080     7.0540     5.8810     2.2730 
  201.6250   188.5950   -52.5120     7.9930   -17.9040    66.1070     6.3090     7.0450     5.6270     2.2950 
  201.7500   188.7020   -52.5770     7.9950   -17.9040    65.8010     6.3090     7.0430     6.7120     2.3170 
  201.8750   188.8080   -52.6430     7.9970   -17.9040    65.4350     6.3090     7.0420     8.6920     2.3310 
  202.0000   188.9150   -52.7080     8.0000   -17.9040    65.3830     6.3090     7.0420    10.0620     2.3380 
  202.1250   189.0210   -52.7730     8.0020   -17.9040    65.3000     6.3090     7.0430     9.9040     2.3370 
  202.2500   189.1280   -52.8390     8.0040   -17.9040    65.2770     6.3090     7.0430     9.4540     2.3280 
  202.3750   189.2340   -52.9040     8.0070   -17.9040    65.2770     6.3080     7.0420     8.9570     2.3200 
  202.5000   189.3410   -52.9690     8.0090   -17.9040    65.2770     6.3010     7.0470     7.5560     2.3180 
  202.6250   189.4470   -53.0340     8.0110   -17.9040    65.2770     6.2920     7.0500     6.5020     2.3320 
  202.7500   189.5540   -53.1000     8.0140   -17.9040    65.2770     6.2860     7.0510     6.6020     2.3550 
  202.8750   189.6610   -53.1650     8.0160   -17.9040    65.2770     6.2840     7.0480     6.2840     2.3590 
  203.0000   189.7670   -53.2300     8.0180   -17.9040    65.2770     6.2840     7.0460     5.0540     2.3320 
  203.1250   189.8740   -53.2960     8.0210   -17.9040    65.2770     6.2870     7.0430     4.2880     2.2980 
  203.2500   189.9800   -53.3610     8.0230   -17.9040    65.2770     6.2870     7.0410     4.6790     2.2940 
