~V
VERS. 2.00: Ver 2.00
~W
STRT.M 44.0000:
STOP.M 206.0000:
STEP.M 0.1250:
NULL. -999.2500:
UWI. FD10808:
~C
DEPT.M :
TVD. :
DX. :
DY. :
SP.MV :
GR.API :
RI. :
RML.OHMM :
RXO.OHMM :
DEN.GM/CC :
~A
# ...
   98.7500    97.6950    -2.7420     8.2530    -6.2210    83.0770     5.5650     6.2460    10.1570     2.1800 
   98.8750    97.8140    -2.7600     8.2900    -6.5170    78.3520     6.0320     6.7590    12.3480     2.1430 
   99.0000    97.9320    -2.7780     8.3270    -6.7030    74.1200     6.7110     7.5340    15.4670     2.1130 
   99.1250    98.0500    -2.7960     8.3640    -6.7410    71.3350     7.7230     8.5420    14.8190     2.0960 
   99.2500    98.1680    -2.8150     8.4000    -6.6530    69.8180     8.6090     9.3280    15.7940     2.0890 
   99.3750    98.2860    -2.8330     8.4370    -6.2850    69.2910     8.6930     9.3280    15.9300     2.0880 
   99.5000    98.4040    -2.8510     8.4740    -5.7520    70.7980     7.9460     8.4900    13.4720     2.0950 
   99.6250    98.5220    -2.8700     8.5120    -5.3310    74.1920     6.5920     7.1000    11.5940     2.1150 
   99.7500    98.6390    -2.8880     8.5490    -4.9930    80.1040     5.2840     5.7270     8.8670     2.1400 
   99.8750    98.7570    -2.9070     8.5860    -4.8500    85.1570     4.3540     4.7530     5.4820     2.1500 
  100.0000    98.8750    -2.9250     8.6230    -4.7730    90.8910     3.8370     4.2230     3.9480     2.1470 
  100.1250    98.9930    -2.9440     8.6610    -4.8140    94.6370     3.6720     4.0850     3.9260     2.1420 
  100.2500    99.1110    -2.9630     8.6980    -4.9530    97.2240     3.7470     4.1570     4.2370     2.1510 
  100.3750    99.2280    -2.9810     8.7360    -5.0700    96.6410     3.8780     4.2690     4.3010     2.1670 
  100.5000    99.3460    -3.0000     8.7740    -5.1570    94.0470     3.9510     4.3120     4.1460     2.1820 
  100.6250    99.4640    -3.0190     8.8120    -5.2170    90.8400     3.9710     4.3150     4.0880     2.1960 
  100.7500    99.5810    -3.0380     8.8500    -5.1640    89.3540     4.0740     4.4000     4.0380     2.2110 
  100.8750    99.6990    -3.0570     8.8880    -4.9660    88.8350     4.3600     4.6540     4.0290     2.2350 
  101.0000    99.8160    -3.0760     8.9260    -4.7680    88.0570     4.7510     5.0240     4.4300     2.2780 
  101.1250    99.9340    -3.0940     8.9640    -4.5530    86.0220     5.1390     5.3770     6.1810     2.3260 
  101.2500   100.0510    -3.1130     9.0030    -4.4330    84.4960     5.3780     5.5630     8.8780     2.3390 
  101.3750   100.1690    -3.1320     9.0410    -4.4520    83.8420     5.3400     5.4790     9.2400     2.3010 
  101.5000   100.2860    -3.1510     9.0800    -4.6060    85.4790     5.0820     5.1970     6.7450     2.2390 
  101.6250   100.4030    -3.1710     9.1190    -4.7440    88.0490     4.7220     4.8390     4.8450     2.1990 
  101.7500   100.5210    -3.1900     9.1580    -4.9290    90.6980     4.3870     4.5400     4.3460     2.1860 
  101.8750   100.6380    -3.2090     9.1960    -5.2510    92.4860     4.2040     4.3790     4.0800     2.1920 
  102.0000   100.7550    -3.2280     9.2350    -5.6380    93.0490     4.1250     4.3140     3.9550     2.1960 
  102.1250   100.8720    -3.2480     9.2740    -6.1030    92.9010     4.0670     4.2970     3.9650     2.2050 
  102.2500   100.9890    -3.2670     9.3140    -6.6360    90.5670     4.0550     4.3290     4.1650     2.2160 
  102.3750   101.1060    -3.2870     9.3530    -7.2990    89.4480     4.1240     4.4190     4.3610     2.2240 
  102.5000   101.2230    -3.3060     9.3920    -7.9690    88.4590     4.1990     4.5160     4.2890     2.2120 
  102.6250   101.3400    -3.3260     9.4320    -8.6250    88.2060     4.2540     4.5800     4.8550     2.1900 
  102.7500   101.4570    -3.3450     9.4710    -9.1730    85.5060     4.3060     4.6550     6.0230     2.1700 
  102.8750   101.5740    -3.3650     9.5110    -9.5530    82.6750     4.5130     4.9390     6.1340     2.1670 
  103.0000   101.6910    -3.3850     9.5500    -9.5940    80.4090     5.1580     5.7090     7.1270     2.1960 
  103.1250   101.8080    -3.4040     9.5900    -9.4930    80.0690     6.4600     7.4730    11.1460     2.2870 
  103.2500   101.9250    -3.4240     9.6300    -9.5850    78.7830     9.0900    10.6520    19.8380     2.4190 
  103.3750   102.0420    -3.4440     9.6700    -9.9950    75.9630    13.2140    15.0540    36.5550     2.5340 
  103.5000   102.1580    -3.4640     9.7100   -10.7110    71.9940    17.1750    18.9860    53.0450     2.5670 
  103.6250   102.2750    -3.4840     9.7500   -11.6960    69.1200    18.7240    20.3850    65.6460     2.5030 
  103.7500   102.3920    -3.5040     9.7900   -12.8780    68.0560    17.4820    18.8230    68.3880     2.3830 
  103.8750   102.5080    -3.5240     9.8300   -13.9550    69.2280    13.8900    15.1950    45.6740     2.2560 
  104.0000   102.6250    -3.5440     9.8700   -15.0180    70.7610    10.3800    11.5910    18.1810     2.1630 
  104.1250   102.7410    -3.5650     9.9110   -15.9020    71.2150     8.4370     9.2780     8.8920     2.1100 
  104.2500   102.8580    -3.5850     9.9520   -16.5110    69.3450     7.3150     8.0700     8.1220     2.0950 
  104.3750   102.9740    -3.6050     9.9920   -16.9420    66.7970     6.9080     7.6200     7.4740     2.0950 
  104.5000   103.0910    -3.6250    10.0330   -17.2340    64.6900     6.8270     7.5270     6.9490     2.0900 
  104.6250   103.2070    -3.6460    10.0740   -17.3750    62.5090     6.8530     7.5650     6.8580     2.0640 
  104.7500   103.3230    -3.6660    10.1150   -17.4270    60.7570     6.9170     7.6370     6.8700     2.0390 
  104.8750   103.4390    -3.6870    10.1570   -17.4390    60.0700     7.0160     7.7350     6.7180     2.0310 
  105.0000   103.5560    -3.7070    10.1980   -17.3500    61.3840     7.1320     7.8520     6.6250     2.0430 
  105.1250   103.6720    -3.7280    10.2400   -17.1860    63.4380     7.2640     7.9870     6.7390     2.0570 
  105.2500   103.7880    -3.7490    10.2810   -17.0110    64.3870     7.3980     8.1150     6.8470     2.0630 
  105.3750   103.9040    -3.7690    10.3230   -16.8790    63.2920     7.4830     8.2130     6.9570     2.0540 
  105.5000   104.0200    -3.7900    10.3650   -16.7680    60.7390     7.5480     8.2900     7.2700     2.0360 
  105.6250   104.1360    -3.8110    10.4070   -16.8120    59.6910     7.5970     8.3740     7.6510     2.0210 
  105.7500   104.2510    -3.8320    10.4490   -17.0120    60.3310     7.6580     8.4990     7.9480     2.0180 
  105.8750   104.3670    -3.8530    10.4910   -17.3010    63.2970     7.7800     8.6830     8.0940     2.0360 
  106.0000   104.4830    -3.8740    10.5330   -17.6640    65.3850     7.9310     8.8980     8.0650     2.0650 
  106.1250   104.5990    -3.8950    10.5760   -18.1540    65.5330     8.0660     9.0870     8.1100     2.0960 
  106.2500   104.7140    -3.9160    10.6180   -18.6410    65.3280     8.1440     9.2060     8.6430     2.1110 
  106.3750   104.8300    -3.9370    10.6610   -18.9450    65.3390     8.1190     9.2110     9.1870     2.1040 
  106.5000   104.9450    -3.9580    10.7040   -19.2110    65.9820     7.9960     9.1050     8.8580     2.0840 
  106.6250   105.0610    -3.9790    10.7460   -19.3370    66.0890     7.7940     8.9180     8.1970     2.0650 
  106.7500   105.1760    -4.0000    10.7890   -19.4390    67.8790     7.5830     8.7120     7.8520     2.0540 
  106.8750   105.2920    -4.0220    10.8330   -19.4680    69.9290     7.4020     8.5390     7.6230     2.0470 
  107.0000   105.4070    -4.0430    10.8760   -19.4190    71.3060     7.2870     8.4220     7.4600     2.0460 
  107.1250   105.5220    -4.0640    10.9190   -19.2600    70.4170     7.2240     8.3510     7.4210     2.0520 
  107.2500   105.6380    -4.0860    10.9620   -18.9720    69.4230     7.1840     8.3030     7.5410     2.0610 
  107.3750   105.7530    -4.1080    11.0060   -18.6990    67.6930     7.1670     8.2690     7.7580     2.0650 
  107.5000   105.8680    -4.1290    11.0500   -18.4780    65.7040     7.1530     8.2430     7.7840     2.0640 
  107.6250   105.9830    -4.1510    11.0930   -18.2420    62.6340     7.1440     8.2170     7.7650     2.0610 
  107.7500   106.0980    -4.1730    11.1370   -17.9860    60.9140     7.1190     8.1660     7.9060     2.0550 
