~V
VERS. 2.00: Ver 2.00
~W
STRT.M 27.0000:
STOP.M 267.0000:
STEP.M 0.1250:
NULL. -999.2500:
UWI. FD10204:
~C
DEPT.M :
TVD. :
DX. :
DY. :
GR.API :
RML.OHMM :
RI. :
RXO.OHMM :
CALI.CM :
SP.MV :
DEN.GM/CC :
~A
# ...
  150.7500   147.6160    -7.1370   -19.5840    85.2580     5.5790     4.5540     6.1920    23.5260   -36.9860     2.3980 
  150.8750   147.7320    -7.1510   -19.6280    87.4900     5.5840     4.5440     6.1860    23.5230   -37.0310     2.3900 
  151.0000   147.8490    -7.1650   -19.6710    89.3050     5.5830     4.5330     6.2330    23.5220   -37.1440     2.3810 
  151.1250   147.9650    -7.1780   -19.7140    90.7400     5.5790     4.5220     6.2920    23.5270   -37.2520     2.3740 
  151.2500   148.0820    -7.1920   -19.7570    90.8540     5.5770     4.5100     6.3190    23.4970   -37.2620     2.3680 
  151.3750   148.1980    -7.2060   -19.8000    91.0910     5.5780     4.5000     6.3070    23.4020   -37.2220     2.3650 
  151.5000   148.3150    -7.2200   -19.8440    92.0660     5.5790     4.4950     6.2840    23.2750   -37.1730     2.3640 
  151.6250   148.4310    -7.2340   -19.8870    92.9890     5.5760     4.4960     6.2750    23.1910   -37.1120     2.3640 
  151.7500   148.5480    -7.2470   -19.9300    92.2080     5.5680     4.5020     6.3000    23.1640   -37.0200     2.3630 
  151.8750   148.6640    -7.2610   -19.9730    90.8600     5.5580     4.5110     6.2950    23.1630   -36.8780     2.3610 
  152.0000   148.7810    -7.2750   -20.0160    91.1780     5.5500     4.5200     6.2910    23.1670   -36.7140     2.3590 
  152.1250   148.8970    -7.2890   -20.0600    92.4530     5.5420     4.5260     6.2860    23.1690   -36.5780     2.3610 
  152.2500   149.0140    -7.3020   -20.1030    93.0640     5.5280     4.5260     6.2860    23.1660   -36.4660     2.3650 
  152.3750   149.1300    -7.3160   -20.1460    93.7090     5.5040     4.5170     6.2440    23.1640   -36.3360     2.3650 
  152.5000   149.2470    -7.3300   -20.1890    95.5660     5.4670     4.4980     6.1790    23.1650   -36.2000     2.3590 
  152.6250   149.3630    -7.3440   -20.2320    96.9930     5.4150     4.4680     6.0780    23.1680   -36.1110     2.3480 
  152.7500   149.4790    -7.3580   -20.2760    95.8940     5.3590     4.4370     5.9140    23.1700   -36.0620     2.3380 
  152.8750   149.5960    -7.3710   -20.3190    92.6910     5.3130     4.4140     5.7830    23.1720   -36.0090     2.3320 
  153.0000   149.7120    -7.3850   -20.3620    90.1450     5.2880     4.4080     5.7580    23.1740   -35.9000     2.3350 
  153.1250   149.8290    -7.3990   -20.4050    91.2920     5.2930     4.4220     5.7690    23.1700   -35.8020     2.3500 
  153.2500   149.9450    -7.4130   -20.4480    93.5310     5.3150     4.4470     5.6770    23.1660   -35.7710     2.3700 
  153.3750   150.0620    -7.4260   -20.4920    94.6470     5.3360     4.4710     5.6150    23.1600   -35.7590     2.3910 
  153.5000   150.1780    -7.4400   -20.5350    96.0160     5.3400     4.4820     5.5590    23.1410   -35.7580     2.4070 
  153.6250   150.2950    -7.4540   -20.5780    98.7320     5.3080     4.4690     5.5280    23.1150   -35.7980     2.4100 
  153.7500   150.4110    -7.4680   -20.6210    98.6960     5.2460     4.4380     5.5660    23.1010   -35.8650     2.4050 
  153.8750   150.5280    -7.4820   -20.6640    95.1970     5.1700     4.3990     5.7200    23.0990   -35.9360     2.3970 
  154.0000   150.6440    -7.4950   -20.7080    92.9490     5.1010     4.3620     5.9040    23.0960   -36.0140     2.3910 
  154.1250   150.7610    -7.5090   -20.7510    93.5790     5.0550     4.3370     5.9580    23.0960   -36.0770     2.3880 
  154.2500   150.8770    -7.5230   -20.7940    94.3420     5.0370     4.3310     5.9620    23.1020   -36.1110     2.3870 
  154.3750   150.9940    -7.5370   -20.8370    95.3150     5.0520     4.3540     5.8430    23.1030   -36.1670     2.3880 
  154.5000   151.1100    -7.5510   -20.8800    97.5400     5.1060     4.4100     5.6030    23.0970   -36.2380     2.3880 
  154.6250   151.2270    -7.5640   -20.9240    99.0470     5.2080     4.4920     5.4530    23.0990   -36.2330     2.3870 
  154.7500   151.3430    -7.5780   -20.9670    99.1920     5.3300     4.5740     5.4000    23.1180   -36.1550     2.3880 
  154.8750   151.4600    -7.5920   -21.0100    98.4310     5.4260     4.6250     5.5620    23.1430   -36.0770     2.3900 
  155.0000   151.5760    -7.6060   -21.0530    95.3730     5.4460     4.6200     5.8220    23.1610   -36.0540     2.3930 
  155.1250   151.6930    -7.6190   -21.0960    92.5020     5.3590     4.5490     5.9410    23.1640   -36.0460     2.3970 
  155.2500   151.8090    -7.6330   -21.1400    92.3950     5.2290     4.4520     5.6420    23.1630   -35.9710     2.3990 
  155.3750   151.9260    -7.6470   -21.1830    92.6670     5.1200     4.3640     5.3840    23.1660   -35.8500     2.4000 
  155.5000   152.0420    -7.6610   -21.2250    93.1550     5.0760     4.3160     5.2990    23.1720   -35.7170     2.3980 
  155.6250   152.1600    -7.6750   -21.2660    96.9630     5.1210     4.3290     5.3900    23.1720   -35.5690     2.3930 
  155.7500   152.2770    -7.6890   -21.3070   102.1130     5.2230     4.3900     5.6290    23.1670   -35.4300     2.3840 
  155.8750   152.3940    -7.7040   -21.3470   103.6900     5.3560     4.4860     5.8650    23.1650   -35.2950     2.3730 
  156.0000   152.5110    -7.7180   -21.3880   101.9240     5.5160     4.6090     6.0070    23.1680   -35.1730     2.3660 
  156.1250   152.6290    -7.7320   -21.4290   100.4700     5.7250     4.7720     5.7810    23.1710   -35.0780     2.3670 
  156.2500   152.7460    -7.7460   -21.4700    98.6790     5.9800     4.9740     5.8480    23.1680   -35.0380     2.3750 
  156.3750   152.8630    -7.7600   -21.5110    97.1380     6.2610     5.2050     6.0730    23.1440   -35.0160     2.3830 
  156.5000   152.9800    -7.7740   -21.5520    96.9810     6.5180     5.4310     6.3930    23.0930   -34.9760     2.3820 
  156.6250   153.0980    -7.7890   -21.5930    97.3620     6.6500     5.5720     6.7030    23.0410   -35.0170     2.3700 
  156.7500   153.2150    -7.8030   -21.6340    96.8220     6.6100     5.5750     7.0120    23.0230   -35.1220     2.3560 
  156.8750   153.3320    -7.8170   -21.6750    96.3500     6.4090     5.4350     6.8480    23.0120   -35.2180     2.3530 
  157.0000   153.4490    -7.8310   -21.7160    97.3290     6.1260     5.2090     6.4760    22.9540   -35.2980     2.3630 
  157.1250   153.5670    -7.8450   -21.7570    97.3580     5.8950     5.0010     6.2140    22.7950   -35.3850     2.3750 
  157.2500   153.6840    -7.8600   -21.7980    97.3660     5.8190     4.8990     6.0840    22.5650   -35.4600     2.3770 
  157.3750   153.8010    -7.8740   -21.8390    99.7960     5.9460     4.9470     6.1600    22.3450   -35.4930     2.3660 
  157.5000   153.9180    -7.8880   -21.8800   102.4840     6.2530     5.1380     6.5290    22.2080   -35.5170     2.3470 
  157.6250   154.0360    -7.9020   -21.9210    97.7590     6.6560     5.4270     6.8400    22.1500   -35.5500     2.3340 
  157.7500   154.1530    -7.9160   -21.9620    90.0010     7.0270     5.7180     7.3450    22.0870   -35.5990     2.3300 
  157.8750   154.2700    -7.9310   -22.0030    86.0040     7.2840     5.9560     7.9130    22.0560   -35.6930     2.3350 
  158.0000   154.3870    -7.9450   -22.0440    84.7930     7.4020     6.1130     8.3210    22.2230   -35.7600     2.3470 
  158.1250   154.5050    -7.9590   -22.0850    84.2590     7.4070     6.1910     8.5310    22.7230   -35.7350     2.3640 
  158.2500   154.6220    -7.9730   -22.1250    86.0210     7.3740     6.2240     8.9520    23.3490   -35.7040     2.3790 
  158.3750   154.7390    -7.9870   -22.1660    86.7100     7.3190     6.2160     9.0680    23.8730   -35.7290     2.3890 
  158.5000   154.8560    -8.0010   -22.2070    82.7600     7.2230     6.1500     8.1890    24.1750   -35.7830     2.3910 
  158.6250   154.9740    -8.0160   -22.2480    78.2910     7.0600     6.0100     7.7800    24.1240   -35.7360     2.3850 
  158.7500   155.0910    -8.0300   -22.2890    80.1660     6.8640     5.8330     7.8920    23.7550   -35.6000     2.3730 
  158.8750   155.2080    -8.0440   -22.3300    84.8880     6.6920     5.6650     8.0840    23.2890   -35.4540     2.3560 
