~V
VERS. 2.00: Ver 2.00
~W
STRT.M 65.0000:
STOP.M 248.0000:
STEP.M 0.1250:
NULL. -999.2500:
UWI. FD10900:
~C
DEPT.M :
TVD. :
DX. :
DY. :
SP.MV :
GR.API :
RI. :
RML.OHMM :
RXO.OHMM :
DEN.GM/CC :
~A
# ...
  192.7500   190.8600   -15.7970    10.8850   -15.5220    59.8950    11.3730    11.6430    59.2040     1.9560 
  192.8750   190.9810   -15.8220    10.9060   -15.6020    55.0530    11.7050    11.9590    32.0940     1.8670 
  193.0000   191.1020   -15.8470    10.9260   -15.6760    51.5370    11.5680    11.7760    17.0310     1.8250 
  193.1250   191.2230   -15.8720    10.9460   -15.7390    50.1440    11.1140    11.2710    13.5170     1.8330 
  193.2500   191.3430   -15.8970    10.9660   -15.8720    51.7340    10.5190    10.6430    12.1600     1.8840 
  193.3750   191.4640   -15.9220    10.9860   -15.9780    55.4800     9.9180    10.0210    10.9890     1.9600 
  193.5000   191.5850   -15.9470    11.0060   -16.0160    60.4570     9.3280     9.4090    10.7720     2.0430 
  193.6250   191.7060   -15.9720    11.0260   -16.0000    64.1540     8.7370     8.7860    12.1260     2.1130 
  193.7500   191.8270   -15.9970    11.0460   -15.9390    67.3950     8.1680     8.1780    13.2760     2.1580 
  193.8750   191.9470   -16.0220    11.0660   -15.8820    69.1500     7.7290     7.7180    12.1260     2.1890 
  194.0000   192.0680   -16.0470    11.0870   -15.7660    69.8990     7.6590     7.6730    10.6630     2.2180 
  194.1250   192.1890   -16.0720    11.1070   -15.6390    68.8430     8.0890     8.1870    10.8610     2.2450 
  194.2500   192.3100   -16.0970    11.1270   -15.4930    68.0380     9.0760     9.3230    14.9340     2.2530 
  194.3750   192.4310   -16.1220    11.1470   -15.4440    66.1050    10.4440    10.8710    26.5590     2.2380 
  194.5000   192.5520   -16.1470    11.1670   -15.4630    63.9250    11.8240    12.3920    38.1540     2.2010 
  194.6250   192.6720   -16.1720    11.1870   -15.5540    60.1590    12.7440    13.3480    36.2120     2.1490 
  194.7500   192.7930   -16.1970    11.2070   -15.6390    57.6700    12.8940    13.4180    26.1300     2.0910 
  194.8750   192.9140   -16.2230    11.2270   -15.7250    56.1700    12.3600    12.7570    20.8360     2.0410 
  195.0000   193.0350   -16.2480    11.2470   -15.7980    57.5690    11.4560    11.7700    19.8240     2.0110 
  195.1250   193.1560   -16.2730    11.2670   -15.8510    59.1640    10.6310    10.9400    20.2440     1.9970 
  195.2500   193.2760   -16.2980    11.2870   -15.8690    60.1380    10.1360    10.4990    21.7300     1.9910 
  195.3750   193.3970   -16.3230    11.3070   -15.8490    59.1750    10.0350    10.4590    23.0640     1.9960 
  195.5000   193.5180   -16.3480    11.3270   -15.8740    59.2440    10.3460    10.8040    23.8550     2.0310 
  195.6250   193.6390   -16.3730    11.3470   -16.0030    59.3500    10.9580    11.4170    23.6460     2.0970 
  195.7500   193.7600   -16.3980    11.3670   -16.1190    59.0670    11.7670    12.1870    22.2370     2.1780 
  195.8750   193.8800   -16.4230    11.3870   -16.1910    57.2910    12.6160    12.9730    21.1670     2.2450 
  196.0000   194.0010   -16.4480    11.4070   -16.2650    55.8260    13.3770    13.6990    21.9420     2.2890 
  196.1250   194.1220   -16.4730    11.4270   -16.3250    54.5940    13.9630    14.3270    23.8420     2.3250 
  196.2500   194.2430   -16.4980    11.4470   -16.3850    53.5440    14.2020    14.6920    25.4270     2.3630 
  196.3750   194.3640   -16.5230    11.4670   -16.3730    52.5930    13.7140    14.3170    25.3000     2.3860 
  196.5000   194.4840   -16.5490    11.4870   -16.4740    53.2300    12.0930    12.6640    23.0820     2.3610 
  196.6250   194.6050   -16.5740    11.5070   -16.5920    54.3180     9.7070    10.0890    19.2820     2.3000 
  196.7500   194.7260   -16.5990    11.5270   -16.6890    57.4320     7.1170     7.2430    15.3880     2.2480 
  196.8750   194.8470   -16.6240    11.5480   -16.7530    62.5700     4.9910     4.9490    12.4700     2.2430 
  197.0000   194.9680   -16.6490    11.5680   -16.8570    70.0980     3.6530     3.5920     8.5900     2.2780 
  197.1250   195.0880   -16.6740    11.5880   -17.0050    75.3600     2.8300     2.8340     4.8130     2.3160 
  197.2500   195.2090   -16.6990    11.6080   -17.1780    76.6320     2.4240     2.4930     3.5050     2.3310 
  197.3750   195.3300   -16.7240    11.6280   -17.3550    75.5000     2.3620     2.4570     3.5130     2.3230 
  197.5000   195.4510   -16.7490    11.6480   -17.4440    73.1050     2.5910     2.7020     3.6800     2.3050 
  197.6250   195.5720   -16.7740    11.6680   -17.4960    72.0470     2.9760     3.1310     3.9470     2.2890 
  197.7500   195.6930   -16.7990    11.6880   -17.5490    71.6320     3.4570     3.6900     4.5160     2.2800 
  197.8750   195.8130   -16.8240    11.7080   -17.5680    72.5950     4.0220     4.3410     5.4540     2.2710 
  198.0000   195.9340   -16.8490    11.7280   -17.5670    72.1420     4.6200     4.9850     6.3710     2.2590 
  198.1250   196.0550   -16.8740    11.7490   -17.6070    71.3860     5.1390     5.5110     6.8960     2.2450 
  198.2500   196.1760   -16.8990    11.7690   -17.7230    70.2460     5.4940     5.8650     7.5680     2.2320 
  198.3750   196.2970   -16.9240    11.7890   -17.8120    68.5220     5.6490     6.0400     9.3070     2.2240 
  198.5000   196.4170   -16.9490    11.8090   -17.8430    65.0020     5.6090     6.0490    12.1660     2.2240 
  198.6250   196.5380   -16.9740    11.8290   -17.9150    61.0140     5.4570     5.9550    15.1370     2.2300 
  198.7500   196.6590   -16.9990    11.8490   -18.0220    60.1090     5.2330     5.7710    17.0330     2.2380 
  198.8750   196.7800   -17.0240    11.8700   -18.2080    62.4430     5.0290     5.5910    16.5810     2.2460 
  199.0000   196.9000   -17.0490    11.8900   -18.4640    65.1710     5.0170     5.6300    13.8480     2.2540 
  199.1250   197.0210   -17.0750    11.9100   -18.8160    64.8270     5.3390     6.1130    11.7610     2.2750 
  199.2500   197.1420   -17.1000    11.9300   -19.0710    62.1090     6.1280     7.2690    13.9230     2.3330 
  199.3750   197.2630   -17.1250    11.9510   -19.0550    59.8350     7.3240     9.0350    23.2580     2.4320 
  199.5000   197.3840   -17.1500    11.9710   -19.1330    59.3080     8.9240    11.3960    38.0700     2.5530 
  199.6250   197.5040   -17.1750    11.9910   -19.2290    59.1450    10.4330    13.5370    45.6010     2.6600 
  199.7500   197.6250   -17.2000    12.0110   -19.5230    58.4220    10.6720    13.7770    37.6460     2.7360 
  199.8750   197.7460   -17.2250    12.0310   -20.0980    56.8990     9.2870    11.7930    25.1670     2.7770 
  200.0000   197.8670   -17.2500    12.0520   -20.5600    57.1260     6.6780     8.2340    17.0780     2.7560 
  200.1250   197.9880   -17.2750    12.0720   -20.8350    58.7540     3.9650     4.6900    10.9080     2.6590 
  200.2500   198.1080   -17.3000    12.0920   -20.7800    60.8310     2.2690     2.6220     5.5470     2.5100 
  200.3750   198.2290   -17.3250    12.1120   -20.3590    60.3260     1.5050     1.7660     2.7110     2.3810 
  200.5000   198.3500   -17.3500    12.1320   -19.6060    58.3960     1.2030     1.4870     2.0900     2.3120 
  200.6250   198.4710   -17.3750    12.1520   -18.8440    57.6820     1.0980     1.4630     2.0370     2.2750 
  200.7500   198.5910   -17.4000    12.1730   -18.3460    59.1910     1.1160     1.5710     2.0030     2.2250 
  200.8750   198.7120   -17.4260    12.1930   -18.0660    59.1330     1.1650     1.6740     1.9280     2.1550 
  201.0000   198.8330   -17.4510    12.2130   -17.8490    56.3750     1.1920     1.6930     1.9120     2.0980 
  201.1250   198.9540   -17.4760    12.2330   -17.5960    52.0010     1.1900     1.6460     1.9670     2.0880 
  201.2500   199.0750   -17.5010    12.2530   -17.4100    49.1490     1.1700     1.5780     1.9520     2.1320 
  201.3750   199.1950   -17.5250    12.2740   -17.2480    47.7360     1.1510     1.5280     1.9110     2.1990 
  201.5000   199.3160   -17.5500    12.2940   -17.1840    48.4040     1.1460     1.5180     2.0210     2.2530 
  201.6250   199.4370   -17.5750    12.3140   -17.2590    50.2090     1.1560     1.5410     2.2180     2.2840 
  201.7500   199.5580   -17.6000    12.3340   -17.3460    52.7510     1.1810     1.5930     2.3390     2.3020 
