~V
VERS. 2.00: Ver 2.00
~W
STRT.M 32.0000:
STOP.M 275.0000:
STEP.M 0.1250:
NULL. -999.2500:
UWI. FD10902:
~C
DEPT.M :
TVD. :
DX. :
DY. :
SP.MV :
GR.API :
RI. :
RML.OHMM :
RXO.OHMM :
DEN.GM/CC :
~A
# ...
  159.7500   154.9010    29.1900    -8.3200     0.1730    58.0690    19.0590    21.8680    21.0460     2.6460 
  159.8750   155.0130    29.2430    -8.3370    -0.1560    55.8470    19.2470    22.1180    17.9730     2.6270 
  160.0000   155.1250    29.2960    -8.3540    -0.4050    53.6270    18.7220    21.4410    17.4420     2.5800 
  160.1250   155.2370    29.3490    -8.3700    -0.6610    52.7960    17.5420    19.8980    18.0550     2.5170 
  160.2500   155.3490    29.4020    -8.3870    -0.8800    53.6640    16.1380    18.1050    16.9610     2.4740 
  160.3750   155.4610    29.4550    -8.4040    -1.0710    56.5960    15.0400    16.7040    14.7990     2.4550 
  160.5000   155.5730    29.5080    -8.4200    -1.1660    59.7190    14.6770    16.2650    14.2580     2.4470 
  160.6250   155.6850    29.5610    -8.4370    -1.1940    62.2420    15.1330    16.8290    16.2080     2.4260 
  160.7500   155.7970    29.6150    -8.4540    -1.1580    63.0320    16.1370    18.0990    19.6530     2.4000 
  160.8750   155.9090    29.6680    -8.4710    -1.1400    63.0350    17.4570    19.7250    23.1390     2.3740 
  161.0000   156.0200    29.7220    -8.4870    -1.1070    61.2730    18.5810    21.0060    24.3040     2.3620 
  161.1250   156.1320    29.7750    -8.5040    -1.0920    59.1690    19.1960    21.6230    22.6520     2.3640 
  161.2500   156.2440    29.8290    -8.5210    -1.0330    58.0180    19.2560    21.5700    21.2890     2.3960 
  161.3750   156.3550    29.8820    -8.5380    -0.9940    58.8880    19.2820    21.5610    21.2910     2.4390 
  161.5000   156.4670    29.9360    -8.5550    -1.0060    59.7220    19.8340    22.2940    21.9130     2.4720 
  161.6250   156.5790    29.9900    -8.5710    -0.9810    59.3050    20.7810    23.6320    25.0980     2.4920 
  161.7500   156.6900    30.0440    -8.5880    -0.9520    57.3160    21.8280    25.2410    29.9370     2.5000 
  161.8750   156.8020    30.0980    -8.6050    -0.9300    55.1500    22.3620    26.2770    30.9340     2.5030 
  162.0000   156.9130    30.1510    -8.6220    -0.9150    53.4850    22.1230    26.2970    26.5650     2.4850 
  162.1250   157.0250    30.2050    -8.6390    -0.8860    53.1380    21.2390    25.3540    21.2670     2.4750 
  162.2500   157.1360    30.2590    -8.6560    -0.9060    53.9640    20.1140    24.0290    18.7970     2.4980 
  162.3750   157.2480    30.3130    -8.6730    -0.9200    55.1220    19.0650    22.7940    18.5960     2.5580 
  162.5000   157.3590    30.3670    -8.6900    -0.9010    55.2220    18.4960    22.1690    18.1970     2.6060 
  162.6250   157.4710    30.4210    -8.7070    -0.8560    54.2340    18.3240    21.9400    17.0270     2.6150 
  162.7500   157.5820    30.4750    -8.7250    -0.8320    52.9160    18.3460    21.8200    16.2010     2.5700 
  162.8750   157.6940    30.5290    -8.7420    -0.8390    51.7390    18.4270    21.6380    15.9150     2.5060 
  163.0000   157.8050    30.5820    -8.7590    -0.8490    50.8250    18.5050    21.4110    15.7150     2.4460 
  163.1250   157.9160    30.6360    -8.7760    -0.7710    48.9800    18.5320    21.1500    15.4940     2.4270 
  163.2500   158.0280    30.6900    -8.7930    -0.6700    47.9800    18.2620    20.5950    15.8980     2.4480 
  163.3750   158.1390    30.7440    -8.8110    -0.6090    48.5550    17.4780    19.5440    16.6660     2.4870 
  163.5000   158.2510    30.7980    -8.8280    -0.6390    51.3290    16.0490    17.8340    16.1050     2.4990 
  163.6250   158.3620    30.8520    -8.8450    -0.7480    54.4490    14.1820    15.6370    13.8690     2.4830 
  163.7500   158.4740    30.9060    -8.8630    -0.8010    56.6180    12.3660    13.5620    10.9540     2.4450 
  163.8750   158.5850    30.9600    -8.8800    -0.8090    57.7010    11.0490    12.0950     8.8410     2.4080 
  164.0000   158.6960    31.0140    -8.8970    -0.7720    57.0470    10.3250    11.3350     8.4180     2.3900 
  164.1250   158.8080    31.0680    -8.9150    -0.8400    56.8640    10.1210    11.1750     9.1940     2.3910 
  164.2500   158.9190    31.1220    -8.9320    -0.9640    56.6360    10.2300    11.3170    10.0600     2.4030 
  164.3750   159.0300    31.1770    -8.9490    -1.1420    57.5100    10.5160    11.6230    10.6450     2.4190 
  164.5000   159.1420    31.2310    -8.9670    -1.2500    57.5510    10.9170    12.0170    10.8980     2.4410 
  164.6250   159.2530    31.2850    -8.9840    -1.2740    58.2440    11.3850    12.5090    11.5000     2.4590 
  164.7500   159.3640    31.3390    -9.0010    -1.1030    58.2360    11.9330    13.0880    12.5430     2.4600 
  164.8750   159.4760    31.3930    -9.0180    -0.6200    58.9690    12.3410    13.5190    12.8460     2.4390 
  165.0000   159.5870    31.4470    -9.0360    -0.0990    59.9660    12.5530    13.7250    12.3060     2.4160 
  165.1250   159.6980    31.5020    -9.0530     0.2990    61.8620    12.4510    13.5710    11.8060     2.4070 
  165.2500   159.8100    31.5560    -9.0700     0.6940    62.7630    12.1470    13.2310    11.4970     2.4140 
  165.3750   159.9210    31.6100    -9.0870     1.0040    63.2370    11.8370    12.9460    11.6830     2.4300 
  165.5000   160.0320    31.6640    -9.1040     1.1800    62.6140    11.7120    12.9250    12.2920     2.4440 
  165.6250   160.1440    31.7180    -9.1220     1.1900    61.0760    11.8140    13.1970    12.9100     2.4540 
  165.7500   160.2550    31.7730    -9.1390     1.1560    57.7860    12.1090    13.6910    13.7060     2.4560 
  165.8750   160.3660    31.8270    -9.1560     1.1460    55.6130    12.4360    14.1790    14.5160     2.4560 
  166.0000   160.4770    31.8810    -9.1740     1.0120    56.5910    12.5490    14.3670    15.5830     2.4510 
  166.1250   160.5890    31.9350    -9.1920     0.8510    58.5570    12.5340    14.3700    15.6560     2.4530 
  166.2500   160.7000    31.9890    -9.2090     0.7000    59.7070    12.4410    14.2180    13.9600     2.4630 
  166.3750   160.8110    32.0430    -9.2270     0.6440    59.5760    12.3290    14.0600    12.8730     2.4830 
  166.5000   160.9230    32.0980    -9.2440     0.5950    59.4230    12.4090    14.1480    13.3550     2.5050 
  166.6250   161.0340    32.1520    -9.2610     0.5900    58.7780    12.6490    14.4480    14.6280     2.5180 
  166.7500   161.1450    32.2060    -9.2790     0.5300    58.3480    13.3310    15.2900    16.0730     2.5120 
  166.8750   161.2560    32.2610    -9.2960     0.4710    59.0990    14.1710    16.2710    17.2540     2.5100 
  167.0000   161.3670    32.3150    -9.3130     0.4200    60.8320    15.0910    17.3430    18.6160     2.5150 
  167.1250   161.4790    32.3690    -9.3310     0.3760    62.1760    15.8650    18.2290    21.4920     2.5200 
  167.2500   161.5900    32.4240    -9.3480     0.2990    63.1970    16.3830    18.8070    23.8510     2.4980 
  167.3750   161.7010    32.4780    -9.3650     0.2230    64.0760    16.5580    18.9450    23.4230     2.4610 
  167.5000   161.8120    32.5330    -9.3820     0.1330    64.9210    16.4230    18.7260    20.3460     2.4210 
  167.6250   161.9230    32.5870    -9.4000     0.0640    64.3370    16.1530    18.3800    18.7540     2.4050 
  167.7500   162.0340    32.6420    -9.4170     0.0140    64.3180    15.9120    18.1190    18.4750     2.4110 
  167.8750   162.1460    32.6960    -9.4340    -0.0790    64.3710    15.8160    18.0420    18.1240     2.4340 
  168.0000   162.2570    32.7510    -9.4520    -0.1320    66.5570    15.6380    17.8580    17.6620     2.4580 
  168.1250   162.3680    32.8060    -9.4690    -0.1640    67.1370    15.3360    17.5030    17.3490     2.4620 
  168.2500   162.4790    32.8600    -9.4860    -0.1280    65.7760    14.8320    16.8740    17.0210     2.4540 
  168.3750   162.5900    32.9150    -9.5040    -0.0900    62.5080    14.3060    16.1930    16.5470     2.4440 
  168.5000   162.7010    32.9690    -9.5210    -0.0590    61.4240    13.8870    15.6410    16.2190     2.4470 
  168.6250   162.8120    33.0240    -9.5390    -0.1270    62.5950    13.7510    15.4790    15.7390     2.4520 
  168.7500   162.9230    33.0780    -9.5560    -0.2630    63.3550    14.0860    15.9290    15.6030     2.4470 
