~V
VERS. 2.00: Ver 2.00
~W
STRT.M 32.0000:
STOP.M 275.0000:
STEP.M 0.1250:
NULL. -999.2500:
UWI. FD10902:
~C
DEPT.M :
TVD. :
DX. :
DY. :
SP.MV :
GR.API :
RI. :
RML.OHMM :
RXO.OHMM :
DEN.GM/CC :
~A
# ...
  187.1250   179.1970    41.2080   -12.1500    -0.2160    54.0850     3.9160     4.9390     4.3540     2.3550 
  187.2500   179.3070    41.2640   -12.1680     0.1350    52.0270     3.9100     4.9300     4.3480     2.3570 
  187.3750   179.4170    41.3200   -12.1860     0.4750    49.8500     3.8860     4.8860     4.3030     2.3670 
  187.5000   179.5280    41.3760   -12.2030     0.5740    47.4280     3.8500     4.8300     4.2850     2.3860 
  187.6250   179.6380    41.4310   -12.2210     0.4210    47.2660     3.8270     4.7960     4.3240     2.3990 
  187.7500   179.7490    41.4870   -12.2390     0.1990    46.7090     3.8230     4.7860     4.3510     2.4030 
  187.8750   179.8590    41.5430   -12.2560     0.0170    47.6580     3.8280     4.8000     4.3600     2.3950 
  188.0000   179.9690    41.5990   -12.2740    -0.0790    48.8180     3.8400     4.8140     4.3360     2.3900 
  188.1250   180.0800    41.6550   -12.2920    -0.1050    51.2690     3.8500     4.8230     4.3390     2.3860 
  188.2500   180.1900    41.7110   -12.3090     0.1780    53.3040     3.8330     4.8020     4.4490     2.3840 
  188.3750   180.3010    41.7670   -12.3270     0.6580    54.1350     3.7970     4.7560     4.4550     2.3730 
  188.5000   180.4110    41.8220   -12.3450     1.1680    53.9030     3.7510     4.7080     4.2590     2.3620 
  188.6250   180.5220    41.8780   -12.3630     1.3090    52.8240     3.7030     4.6570     4.0970     2.3490 
  188.7500   180.6320    41.9340   -12.3810     1.3920    53.0070     3.6600     4.6100     4.0500     2.3420 
  188.8750   180.7420    41.9900   -12.3990     1.4210    52.5170     3.6070     4.5530     4.0590     2.3320 
  189.0000   180.8530    42.0460   -12.4170     1.3410    52.7890     3.5500     4.4940     4.0690     2.3290 
  189.1250   180.9630    42.1020   -12.4350     1.1730    52.8240     3.5000     4.4370     4.0000     2.3260 
  189.2500   181.0730    42.1580   -12.4520     0.9440    56.0570     3.4710     4.3970     3.9100     2.3300 
  189.3750   181.1840    42.2140   -12.4700     0.5960    60.5130     3.4660     4.3850     3.9120     2.3390 
  189.5000   181.2940    42.2700   -12.4880     0.2490    66.1450     3.5030     4.4260     4.0100     2.3590 
  189.6250   181.4040    42.3260   -12.5050    -0.0450    70.0840     3.5840     4.5280     4.1900     2.3820 
  189.7500   181.5150    42.3820   -12.5230    -0.2810    72.9460     3.7000     4.6720     4.3520     2.3890 
  189.8750   181.6250    42.4380   -12.5400    -0.4760    75.4640     3.8260     4.8180     4.4730     2.3780 
  190.0000   181.7350    42.4950   -12.5570    -0.5810    78.3290     3.9190     4.9160     4.6300     2.3600 
  190.1250   181.8450    42.5510   -12.5750    -0.5940    81.0860     3.9750     4.9650     4.8240     2.3530 
  190.2500   181.9560    42.6070   -12.5920    -0.6450    83.2120     3.9780     4.9490     4.9390     2.3560 
  190.3750   182.0660    42.6640   -12.6090    -0.7610    85.9460     3.9420     4.8860     4.8740     2.3590 
  190.5000   182.1760    42.7200   -12.6260    -0.9340    88.7690     3.8790     4.8000     4.7250     2.3530 
  190.6250   182.2860    42.7760   -12.6440    -1.1410    91.4830     3.8050     4.6990     4.6140     2.3420 
  190.7500   182.3970    42.8330   -12.6610    -1.3190    90.6200     3.7290     4.5970     4.4720     2.3310 
  190.8750   182.5070    42.8890   -12.6780    -1.3540    89.2810     3.6510     4.5030     4.3780     2.3250 
  191.0000   182.6170    42.9460   -12.6950    -1.4090    87.7690     3.5640     4.3860     4.3120     2.3280 
  191.1250   182.7270    43.0020   -12.7120    -1.5240    89.6560     3.4730     4.2620     4.2020     2.3270 
  191.2500   182.8370    43.0580   -12.7300    -1.7730    91.5400     3.4130     4.1750     4.2060     2.3260 
  191.3750   182.9480    43.1150   -12.7470    -2.1550    92.9620     3.4010     4.1470     4.2340     2.3220 
  191.5000   183.0580    43.1710   -12.7640    -2.5370    92.0560     3.4610     4.2070     4.2160     2.3100 
  191.6250   183.1680    43.2270   -12.7820    -2.8840    90.8090     3.5960     4.3550     4.4550     2.2830 
  191.7500   183.2790    43.2830   -12.7990    -3.1810    89.1140     3.8030     4.5850     4.9590     2.2610 
  191.8750   183.3890    43.3400   -12.8170    -3.2980    86.3840     4.0590     4.8780     5.1920     2.2610 
  192.0000   183.4990    43.3960   -12.8340    -2.9810    83.4630     4.3580     5.2230     5.1350     2.2890 
  192.1250   183.6090    43.4520   -12.8510    -2.4400    81.1150     4.6580     5.5680     5.3630     2.3260 
  192.2500   183.7200    43.5080   -12.8690    -1.8790    80.3510     4.9290     5.8660     5.8540     2.3550 
  192.3750   183.8300    43.5640   -12.8860    -1.6130    81.2100     5.1250     6.0780     6.1830     2.3750 
  192.5000   183.9400    43.6200   -12.9040    -1.4860    82.4430     5.2280     6.1790     6.2810     2.3880 
  192.6250   184.0510    43.6760   -12.9210    -1.4230    84.1140     5.2320     6.1710     6.2520     2.3960 
  192.7500   184.1610    43.7320   -12.9390    -1.3880    85.9890     5.1590     6.0760     6.2800     2.3970 
  192.8750   184.2710    43.7880   -12.9570    -1.4740    87.9320     5.0370     5.9350     6.3260     2.3850 
  193.0000   184.3820    43.8440   -12.9740    -1.5900    87.9710     4.8760     5.7420     6.0740     2.3610 
  193.1250   184.4920    43.9000   -12.9920    -1.6270    87.1350     4.7040     5.5330     5.6590     2.3380 
  193.2500   184.6020    43.9560   -13.0090    -1.5120    87.1280     4.5470     5.3430     5.3540     2.3240 
  193.3750   184.7130    44.0120   -13.0270    -1.2780    89.5900     4.4390     5.2160     5.2130     2.3240 
  193.5000   184.8230    44.0680   -13.0450    -1.0370    92.0720     4.3960     5.1820     5.2500     2.3260 
  193.6250   184.9330    44.1240   -13.0620    -0.8100    92.7200     4.4250     5.2260     5.4040     2.3260 
  193.7500   185.0440    44.1810   -13.0800    -0.6170    91.6150     4.5050     5.3300     5.6110     2.3290 
  193.8750   185.1540    44.2370   -13.0980    -0.4880    90.4480     4.5870     5.4180     5.6840     2.3380 
  194.0000   185.2640    44.2930   -13.1150    -0.4580    90.4830     4.6230     5.4390     5.5660     2.3600 
  194.1250   185.3750    44.3490   -13.1330    -0.5190    90.4710     4.6090     5.3990     5.4600     2.3730 
  194.2500   185.4850    44.4050   -13.1510    -0.6990    89.7770     4.5490     5.3120     5.3360     2.3820 
  194.3750   185.5950    44.4610   -13.1680    -0.8340    89.8490     4.4680     5.1970     5.1310     2.3790 
  194.5000   185.7060    44.5170   -13.1860    -0.9240    91.3760     4.4030     5.1170     5.0780     2.3760 
  194.6250   185.8160    44.5730   -13.2040    -1.0110    93.4750     4.3690     5.0640     5.0230     2.3670 
  194.7500   185.9260    44.6290   -13.2220    -1.1140    92.9700     4.3640     5.0360     5.0200     2.3550 
  194.8750   186.0370    44.6850   -13.2390    -1.2350    90.9670     4.3660     5.0210     5.0200     2.3530 
  195.0000   186.1470    44.7410   -13.2570    -1.4110    89.2370     4.3460     4.9990     5.0200     2.3610 
  195.1250   186.2570    44.7980   -13.2740    -1.4150    89.5320     4.3190     4.9760     5.0200     2.3740 
  195.2500   186.3670    44.8540   -13.2920    -1.2940    92.1680     4.2750     4.9230     5.0200     2.3780 
  195.3750   186.4780    44.9100   -13.3090    -1.1230    93.8340     4.2440     4.8760     5.0200     2.3740 
  195.5000   186.5880    44.9660   -13.3270    -0.9400    94.1350     4.2660     4.8860     5.0200     2.3650 
  195.6250   186.6980    45.0220   -13.3450    -0.6930    92.9480     4.3430     4.9550     5.0200     2.3590 
  195.7500   186.8090    45.0780   -13.3620    -0.4010    93.0290     4.4180     5.0240     5.0200     2.3590 
  195.8750   186.9190    45.1340   -13.3800    -0.1470    91.2230     4.4660     5.0530     5.0210     2.3550 
  196.0000   187.0290    45.1910   -13.3970     0.0360    87.9540     4.4260     4.9730     5.0660     2.3480 
  196.1250   187.1390    45.2470   -13.4150     0.1610    83.7170     4.3100     4.8060     5.0890     2.3410 
