~V
VERS. 2.00: Ver 2.00
~W
STRT.M 20.0000:
STOP.M 242.0000:
STEP.M 0.1250:
NULL. -999.2500:
UWI. FD10624:
~C
DEPT.M :
TVD. :
DX. :
DY. :
GR.API :
RML.OHMM :
RI. :
RXO.OHMM :
CALI.CM :
DEN.GM/CC :
SP.MV :
~A
# ...
   77.7500    77.5760     1.2880     2.3190    73.8850     8.0350     6.9860     6.9650    23.1430     2.2820   -11.1980 
   77.8750    77.7000     1.3000     2.3300    72.0450     8.4100     7.3200     7.3470    23.1750     2.2570   -11.1960 
   78.0000    77.8240     1.3120     2.3400    70.1560     8.7960     7.6870     8.3510    23.1610     2.2240   -11.3150 
   78.1250    77.9480     1.3230     2.3500    66.0380     9.0800     7.9770     8.9550    23.1340     2.1910   -11.4390 
   78.2500    78.0720     1.3350     2.3600    62.3060     9.2140     8.1260     8.9780    23.1210     2.1690   -11.6410 
   78.3750    78.1960     1.3470     2.3710    62.5230     9.2090     8.1140     8.8710    23.1180     2.1620   -11.9360 
   78.5000    78.3190     1.3590     2.3810    67.5580     9.1250     7.9800     8.6950    23.1200     2.1700   -12.1860 
   78.6250    78.4430     1.3710     2.3910    71.2990     9.0670     7.8160     8.5510    23.1210     2.1870   -12.4460 
   78.7500    78.5670     1.3830     2.4010    69.5110     9.1210     7.7310     8.5160    23.1210     2.2020   -12.6770 
   78.8750    78.6910     1.3940     2.4120    65.0980     9.3360     7.7910     8.7510    23.1210     2.2110   -12.7820 
   79.0000    78.8150     1.4060     2.4220    61.5400     9.7290     8.0200     9.1280    23.1210     2.2080   -12.8160 
   79.1250    78.9390     1.4180     2.4320    59.6270    10.2980     8.4260     9.7800    23.1210     2.1880   -12.8260 
   79.2500    79.0630     1.4300     2.4420    58.3620    10.9420     8.9250    10.5640    23.1210     2.1600   -12.8270 
   79.3750    79.1870     1.4420     2.4520    58.6260    11.5620     9.4380    11.0470    23.1220     2.1350   -12.8180 
   79.5000    79.3110     1.4540     2.4630    60.5080    12.0660     9.8850    11.2040    23.1310     2.1250   -12.8020 
   79.6250    79.4350     1.4650     2.4730    62.4990    12.3630    10.1750    11.2100    23.1450     2.1360   -12.7520 
   79.7500    79.5590     1.4770     2.4830    62.4990    12.4720    10.3070    11.2580    23.1530     2.1580   -12.6960 
   79.8750    79.6830     1.4890     2.4930    59.9690    12.4150    10.2950    11.3700    23.1580     2.1810   -12.6770 
   80.0000    79.8070     1.5010     2.5040    56.3590    12.2300    10.1790    11.4250    23.1740     2.1930   -12.6990 
   80.1250    79.9300     1.5130     2.5140    55.1150    11.9720    10.0230    11.1440    23.1850     2.1880   -12.7250 
   80.2500    80.0540     1.5250     2.5240    56.4570    11.7300     9.9030    10.8150    23.1890     2.1740   -12.6770 
   80.3750    80.1780     1.5360     2.5340    58.2300    11.5820     9.8730    10.7350    23.1890     2.1590   -12.6080 
   80.5000    80.3020     1.5480     2.5450    58.5920    11.5920     9.9780    10.8760    23.1890     2.1490   -12.5890 
   80.6250    80.4260     1.5600     2.5550    58.6060    11.8420    10.2670    11.3860    23.1890     2.1520   -12.5090 
   80.7500    80.5500     1.5720     2.5650    59.1530    12.2830    10.7060    11.8930    23.1890     2.1640   -12.4210 
   80.8750    80.6740     1.5840     2.5750    59.4580    12.8060    11.2280    11.9980    23.1890     2.1770   -12.3550 
   81.0000    80.7980     1.5960     2.5850    57.9960    13.1880    11.6680    12.3670    23.1900     2.1800   -12.2160 
   81.1250    80.9220     1.6070     2.5960    57.1260    13.0500    11.6600    12.7450    23.2020     2.1580   -12.0160 
   81.2500    81.0460     1.6190     2.6060    59.3430    12.3040    11.0610    12.6850    23.2240     2.1150   -11.8530 
   81.3750    81.1700     1.6310     2.6160    62.8700    11.0610     9.9660    12.1200    23.2460     2.0690   -11.7340 
   81.5000    81.2940     1.6430     2.6260    66.7940     9.6210     8.6790    10.5010    23.2350     2.0460   -11.5860 
   81.6250    81.4180     1.6550     2.6370    72.0160     8.3950     7.5710     8.2910    23.1630     2.0730   -11.5110 
   81.7500    81.5410     1.6670     2.6470    76.7170     7.6020     6.8100     6.9020    23.0600     2.1380   -11.4250 
   81.8750    81.6650     1.6780     2.6570    78.4780     7.3160     6.4430     7.2550    22.9980     2.2160   -11.2340 
   82.0000    81.7890     1.6900     2.6670    76.7900     7.5170     6.4540     7.8580    22.9720     2.2740   -11.0590 
   82.1250    81.9130     1.7020     2.6780    74.1410     8.1970     6.8690     8.0590    22.9730     2.2780   -10.9800 
   82.2500    82.0370     1.7140     2.6880    72.4280     9.1860     7.5950     8.2130    22.9560     2.2350   -10.8460 
   82.3750    82.1610     1.7260     2.6980    70.6840    10.3700     8.5840     9.6300    22.9370     2.1780   -10.6690 
   82.5000    82.2850     1.7380     2.7080    68.7830    11.5900     9.7430    13.6300    22.9270     2.1590   -10.5020 
   82.6250    82.4090     1.7490     2.7180    67.7810    12.5580    10.8560    23.9260    22.9290     2.2340   -10.3010 
   82.7500    82.5330     1.7610     2.7290    68.3490    13.0560    11.6390    37.3900    22.9300     2.3800   -10.1830 
   82.8750    82.6570     1.7730     2.7390    70.3120    12.9890    11.8850    40.4420    22.9320     2.5370   -10.1430 
   83.0000    82.7810     1.7850     2.7490    72.0240    12.4810    11.6050    28.0470    22.9330     2.6310   -10.0770 
   83.1250    82.9050     1.7970     2.7590    74.4060    11.8990    11.0860    15.1790    22.9500     2.5960   -10.0090 
   83.2500    83.0290     1.8090     2.7700    76.2190    11.6350    10.7520    10.9510    23.0070     2.4730    -9.9050 
   83.3750    83.1530     1.8200     2.7800    75.3760    11.8030    10.7790    10.4650    23.0840     2.3220    -9.7510 
   83.5000    83.2760     1.8320     2.7900    72.0290    12.2140    11.1040    11.2240    23.0850     2.2060    -9.5790 
   83.6250    83.4000     1.8440     2.8000    68.9770    12.3170    11.3190    13.0350    23.0060     2.1670    -9.3280 
   83.7500    83.5240     1.8560     2.8110    70.0040    11.6880    10.9180    15.5730    22.9670     2.1840    -9.0630 
   83.8750    83.6480     1.8680     2.8210    72.8320    10.3270     9.7510    14.9100    23.0100     2.2260    -8.9570 
   84.0000    83.7720     1.8800     2.8310    74.5250     8.6210     8.1410    10.3680    23.1420     2.2640    -8.9420 
   84.1250    83.8960     1.8910     2.8410    76.4760     7.1170     6.6540     6.8000    23.2190     2.2740    -8.9110 
   84.2500    84.0200     1.9030     2.8510    81.7360     6.1010     5.6050     5.3270    23.2480     2.2650    -8.9570 
   84.3750    84.1440     1.9150     2.8620    89.4770     5.6950     5.0780     5.3260    23.2420     2.2490    -9.0020 
   84.5000    84.2680     1.9270     2.8720    94.8160     5.9450     5.0800     5.7500    23.2120     2.2410    -8.9860 
   84.6250    84.3920     1.9390     2.8820    94.1700     6.8290     5.6450     6.5050    23.1530     2.2470    -8.9950 
   84.7500    84.5160     1.9510     2.8920    90.0870     7.9640     6.5600     8.1780    23.1210     2.2580    -8.9970 
   84.8750    84.6400     1.9620     2.9030    82.8330     9.0070     7.5660    10.2590    23.0760     2.2640    -8.8610 
   85.0000    84.7640     1.9740     2.9130    75.3860     9.6290     8.3050    10.5780    22.9640     2.2580    -8.7070 
   85.1250    84.8870     1.9860     2.9230    73.3630     9.5940     8.4360     9.2040    22.8160     2.2420    -8.6490 
   85.2500    85.0110     1.9980     2.9330    76.3370     9.1900     8.1590     7.8050    22.7690     2.2320    -8.6270 
   85.3750    85.1350     2.0100     2.9440    79.9300     8.7810     7.7960     7.2440    22.8410     2.2370    -8.6540 
   85.5000    85.2590     2.0220     2.9540    81.5790     8.7280     7.6580     7.3380    22.9300     2.2540    -8.7000 
   85.6250    85.3830     2.0330     2.9640    81.9770     9.3890     8.0570     7.9480    22.9200     2.2680    -8.7220 
   85.7500    85.5070     2.0450     2.9740    80.6920    10.7060     9.0170     9.7260    22.8520     2.2660    -8.7150 
   85.8750    85.6310     2.0570     2.9840    76.9260    12.5260    10.4890    12.7310    22.8070     2.2620    -8.6530 
