~V
VERS. 2.00: Ver 2.00
~W
STRT.M 24.0000:
STOP.M 309.0000:
STEP.M 0.1250:
NULL. -999.2500:
UWI. FD10911:
~C
DEPT.M :
TVD. :
DX. :
DY. :
SP.MV :
GR.API :
RI. :
RML.OHMM :
RXO.OHMM :
DEN.GM/CC :
~A
# ...
   78.7500    78.4590    -1.7310    -4.3970   -24.9870    68.8650     4.5350     5.3850     5.9190     2.1100 
   78.8750    78.5820    -1.7300    -4.4200   -25.0040    69.2110     4.5450     5.4140     6.0170     2.1120 
   79.0000    78.7050    -1.7280    -4.4420   -25.1000    69.9800     4.5780     5.4720     6.1790     2.1140 
   79.1250    78.8280    -1.7270    -4.4650   -25.2800    68.6010     4.6190     5.5450     6.3040     2.1150 
   79.2500    78.9510    -1.7250    -4.4870   -25.5140    65.5940     4.6460     5.5930     6.4010     2.1130 
   79.3750    79.0740    -1.7240    -4.5100   -25.7490    64.0470     4.6370     5.5870     6.5380     2.1100 
   79.5000    79.1970    -1.7220    -4.5330   -25.9260    65.1250     4.5800     5.5150     6.6110     2.1050 
   79.6250    79.3200    -1.7200    -4.5550   -26.0160    67.8590     4.4930     5.4080     6.4380     2.1000 
   79.7500    79.4430    -1.7190    -4.5780   -26.0090    70.6790     4.4070     5.3090     6.0870     2.0990 
   79.8750    79.5660    -1.7170    -4.6010   -25.9330    72.8360     4.3610     5.2620     5.8250     2.1040 
   80.0000    79.6890    -1.7150    -4.6240   -25.8390    74.2370     4.3800     5.2940     5.8340     2.1110 
   80.1250    79.8110    -1.7130    -4.6470   -25.7950    74.0380     4.4560     5.3910     6.1230     2.1170 
   80.2500    79.9340    -1.7110    -4.6700   -25.8720    74.2300     4.5650     5.5240     6.5930     2.1170 
   80.3750    80.0570    -1.7090    -4.6930   -26.0760    73.6980     4.6680     5.6410     6.9670     2.1140 
   80.5000    80.1800    -1.7060    -4.7160   -26.3650    73.1530     4.7250     5.6920     6.9530     2.1090 
   80.6250    80.3030    -1.7040    -4.7390   -26.6470    71.6560     4.7250     5.6730     6.6270     2.1050 
   80.7500    80.4260    -1.7020    -4.7630   -26.8390    71.5740     4.6790     5.6080     6.3270     2.1030 
   80.8750    80.5480    -1.6990    -4.7860   -26.9230    72.0620     4.6190     5.5410     6.2160     2.1030 
   81.0000    80.6710    -1.6970    -4.8090   -26.9050    73.2290     4.5650     5.4910     6.1980     2.1040 
   81.1250    80.7940    -1.6940    -4.8330   -26.8240    73.2820     4.5160     5.4480     6.2270     2.1060 
   81.2500    80.9170    -1.6920    -4.8560   -26.7080    73.5600     4.4610     5.4000     6.3070     2.1120 
   81.3750    81.0390    -1.6890    -4.8790   -26.5890    73.7900     4.3920     5.3400     6.2500     2.1170 
   81.5000    81.1620    -1.6860    -4.9030   -26.4890    74.5380     4.3050     5.2550     5.8860     2.1180 
   81.6250    81.2850    -1.6830    -4.9260   -26.4180    75.5170     4.2000     5.1380     5.4070     2.1140 
   81.7500    81.4080    -1.6800    -4.9500   -26.3740    75.1930     4.0890     5.0080     5.1740     2.1100 
   81.8750    81.5300    -1.6770    -4.9740   -26.3560    73.6540     4.0090     4.9180     5.2550     2.1120 
   82.0000    81.6530    -1.6740    -4.9970   -26.3770    71.2030     3.9960     4.9150     5.3870     2.1210 
   82.1250    81.7760    -1.6710    -5.0210   -26.4560    70.1660     4.0580     5.0040     5.5360     2.1340 
   82.2500    81.8980    -1.6680    -5.0450   -26.6250    69.2820     4.2080     5.1960     5.9230     2.1450 
   82.3750    82.0210    -1.6650    -5.0690   -26.8880    68.5380     4.4530     5.5080     6.3160     2.1480 
   82.5000    82.1440    -1.6620    -5.0930   -27.2320    66.7140     4.8000     5.9600     6.5070     2.1460 
   82.6250    82.2660    -1.6580    -5.1160   -27.5960    66.0940     5.1770     6.4600     7.8630     2.1510 
   82.7500    82.3890    -1.6550    -5.1400   -27.9020    68.1280     5.4850     6.8680    13.1240     2.1760 
   82.8750    82.5120    -1.6520    -5.1640   -28.1060    70.1530     5.6550     7.0810    19.4510     2.2190 
   83.0000    82.6340    -1.6480    -5.1880   -28.2230    70.5790     5.6340     7.0180    19.0350     2.2560 
   83.1250    82.7570    -1.6450    -5.2120   -28.3230    67.8100     5.4540     6.7410    12.7290     2.2570 
   83.2500    82.8790    -1.6410    -5.2370   -28.4760    65.9870     5.1880     6.3740     7.9240     2.2170 
   83.3750    83.0020    -1.6380    -5.2610   -28.6800    65.0400     4.9420     6.0660     6.5540     2.1690 
   83.5000    83.1250    -1.6340    -5.2850   -28.8730    66.0860     4.8070     5.9260     6.4490     2.1410 
   83.6250    83.2470    -1.6310    -5.3090   -28.9910    66.3670     4.7940     5.9380     6.4550     2.1340 
   83.7500    83.3700    -1.6270    -5.3340   -29.0040    69.0360     4.8390     6.0060     6.4160     2.1350 
   83.8750    83.4920    -1.6230    -5.3580   -28.9630    71.6060     4.8810     6.0550     6.3330     2.1370 
   84.0000    83.6150    -1.6190    -5.3820   -28.9120    72.4560     4.9080     6.0780     6.3260     2.1350 
   84.1250    83.7370    -1.6150    -5.4070   -28.8690    70.8840     4.9220     6.0890     6.3880     2.1280 
   84.2500    83.8600    -1.6110    -5.4310   -28.8080    69.0170     4.9070     6.0710     6.3790     2.1140 
   84.3750    83.9820    -1.6070    -5.4560   -28.6770    68.9390     4.8320     5.9790     6.2580     2.1010 
   84.5000    84.1050    -1.6030    -5.4800   -28.4400    68.8270     4.6830     5.7870     6.0900     2.0960 
   84.6250    84.2270    -1.5980    -5.5050   -28.0800    69.2770     4.4930     5.5330     5.8340     2.1020 
   84.7500    84.3500    -1.5940    -5.5290   -27.5910    70.6740     4.3080     5.2850     5.3620     2.1170 
   84.8750    84.4720    -1.5900    -5.5540   -27.0060    73.0820     4.1740     5.1170     4.9470     2.1360 
   85.0000    84.5950    -1.5850    -5.5790   -26.3790    74.8920     4.1220     5.0640     5.0420     2.1530 
   85.1250    84.7170    -1.5810    -5.6040   -25.8100    75.7080     4.1440     5.0950     5.4500     2.1630 
   85.2500    84.8400    -1.5760    -5.6280   -25.4020    74.7060     4.2080     5.1540     5.6920     2.1650 
   85.3750    84.9620    -1.5720    -5.6530   -25.1730    73.7850     4.2620     5.1790     5.7140     2.1650 
   85.5000    85.0840    -1.5670    -5.6780   -25.0640    73.5010     4.2880     5.1660     5.6270     2.1640 
   85.6250    85.2070    -1.5620    -5.7030   -24.9360    74.3460     4.3090     5.1660     5.4450     2.1650 
   85.7500    85.3290    -1.5570    -5.7280   -24.6660    75.9730     4.3530     5.2140     5.3490     2.1720 
   85.8750    85.4520    -1.5520    -5.7530   -24.2170    76.6810     4.3840     5.2580     5.8210     2.1900 
   86.0000    85.5740    -1.5470    -5.7780   -23.5910    76.4570     4.3320     5.1990     7.2610     2.2170 
   86.1250    85.6960    -1.5420    -5.8030   -22.8330    76.7830     4.1610     4.9850     8.4230     2.2440 
   86.2500    85.8190    -1.5360    -5.8280   -21.9590    77.5190     3.8750     4.6150     7.3880     2.2570 
   86.3750    85.9410    -1.5310    -5.8530   -21.0050    78.0270     3.5400     4.1790     5.1560     2.2520 
   86.5000    86.0630    -1.5260    -5.8790   -20.0230    78.9190     3.2230     3.7770     3.8910     2.2390 
   86.6250    86.1860    -1.5200    -5.9040   -19.1090    79.9830     2.9860     3.4920     3.5930     2.2330 
   86.7500    86.3080    -1.5150    -5.9290   -18.3750    81.2840     2.8720     3.3700     3.4710     2.2410 
   86.8750    86.4300    -1.5090    -5.9540   -17.8670    80.9300     2.8690     3.3790     3.7790     2.2580 
   87.0000    86.5520    -1.5030    -5.9800   -17.6080    82.2320     2.9590     3.4930     5.0980     2.2720 
   87.1250    86.6750    -1.4980    -6.0050   -17.5450    83.7870     3.1190     3.6790     6.2530     2.2720 
   87.2500    86.7970    -1.4920    -6.0300   -17.6680    83.8920     3.3360     3.9220     5.8070     2.2530 
   87.3750    86.9190    -1.4860    -6.0560   -17.9390    81.5670     3.5690     4.1790     4.7680     2.2220 
   87.5000    87.0410    -1.4800    -6.0810   -18.3390    77.8070     3.7700     4.3980     4.4100     2.1960 
   87.6250    87.1640    -1.4740    -6.1070   -18.8100    77.0010     3.8980     4.5280     4.5740     2.1890 
   87.7500    87.2860    -1.4680    -6.1330   -19.2880    78.7760     3.9380     4.5490     4.8210     2.2050 
