~V
VERS. 2.00: Ver 2.00
~W
STRT.M 24.0000:
STOP.M 309.0000:
STEP.M 0.1250:
NULL. -999.2500:
UWI. FD10911:
~C
DEPT.M :
TVD. :
DX. :
DY. :
SP.MV :
GR.API :
RI. :
RML.OHMM :
RXO.OHMM :
DEN.GM/CC :
~A
# ...
  170.0000   162.4350    13.2490   -34.6710   -23.0070    85.7280     7.5800     9.1430     9.9830     2.1610 
  170.1250   162.5410    13.2830   -34.7280   -23.0900    86.0390     7.4020     8.8550     9.8630     2.1560 
  170.2500   162.6470    13.3170   -34.7850   -23.2000    86.5670     7.1610     8.5200     9.1790     2.1680 
  170.3750   162.7530    13.3500   -34.8420   -23.3560    85.2240     6.9660     8.2900     8.5060     2.1860 
  170.5000   162.8590    13.3840   -34.8990   -23.5710    82.4170     6.8940     8.2490     8.0270     2.1920 
  170.6250   162.9650    13.4180   -34.9560   -23.8200    77.2820     6.9380     8.3470     7.7630     2.1820 
  170.7500   163.0710    13.4510   -35.0130   -24.0580    71.5310     7.0480     8.4850     7.8270     2.1630 
  170.8750   163.1770    13.4850   -35.0700   -24.2240    65.9710     7.1670     8.5860     8.0630     2.1490 
  171.0000   163.2830    13.5190   -35.1280   -24.2470    61.4480     7.2940     8.6670     8.3920     2.1450 
  171.1250   163.3880    13.5520   -35.1850   -24.1030    57.9280     7.4970     8.8350     8.8110     2.1540 
  171.2500   163.4940    13.5860   -35.2420   -23.7890    56.8240     7.9020     9.2620     9.5320     2.1850 
  171.3750   163.6000    13.6190   -35.2990   -23.3580    58.9070     8.6660    10.1450    11.0040     2.2450 
  171.5000   163.7060    13.6530   -35.3570   -22.8450    64.1820    10.0110    11.7490    13.3360     2.3300 
  171.6250   163.8120    13.6860   -35.4140   -22.2730    68.0710    11.8730    13.9980    15.7110     2.4090 
  171.7500   163.9180    13.7200   -35.4710   -21.6560    67.7150    14.0130    16.5880    17.8970     2.4540 
  171.8750   164.0240    13.7540   -35.5280   -21.0370    65.2210    15.6750    18.5080    19.9530     2.4690 
  172.0000   164.1300    13.7870   -35.5860   -20.4790    64.2190    15.8770    18.5070    22.8610     2.4800 
  172.1250   164.2360    13.8210   -35.6430   -20.0200    65.5230    14.4990    16.5400    27.5570     2.4950 
  172.2500   164.3420    13.8540   -35.7000   -19.6650    69.5490    11.8690    13.1260    29.1520     2.4980 
  172.3750   164.4480    13.8880   -35.7570   -19.3780    75.4070     9.0240     9.6480    23.7700     2.4720 
  172.5000   164.5540    13.9210   -35.8150   -19.1520    82.4050     6.8450     7.1790    14.6370     2.4190 
  172.6250   164.6600    13.9550   -35.8720   -18.9860    88.1870     5.5270     5.8030     7.7660     2.3580 
  172.7500   164.7650    13.9880   -35.9290   -18.9040    90.4860     4.9820     5.3190     5.2820     2.3120 
  172.8750   164.8710    14.0220   -35.9870   -18.9000    89.9700     4.9150     5.3300     5.0780     2.2900 
  173.0000   164.9770    14.0550   -36.0440   -18.9610    88.8240     5.1500     5.6120     5.6460     2.2870 
  173.1250   165.0830    14.0890   -36.1010   -19.0430    88.4460     5.5190     5.9970     6.3320     2.2930 
  173.2500   165.1890    14.1230   -36.1580   -19.1060    88.0000     5.8880     6.3670     6.5270     2.2980 
  173.3750   165.2950    14.1560   -36.2160   -19.1200    86.3580     6.1110     6.5730     6.7030     2.2990 
  173.5000   165.4010    14.1900   -36.2730   -19.0810    84.6400     6.0460     6.4560     8.8990     2.2980 
  173.6250   165.5070    14.2240   -36.3300   -19.0110    86.6080     5.7320     6.0660    12.2050     2.2980 
  173.7500   165.6130    14.2580   -36.3870   -18.9340    90.8980     5.3440     5.5990    12.1610     2.3020 
  173.8750   165.7190    14.2910   -36.4440   -18.8630    93.4140     5.1180     5.3400     8.5200     2.3100 
  174.0000   165.8250    14.3250   -36.5010   -18.8000    91.9160     5.3460     5.6510     5.5500     2.3290 
  174.1250   165.9300    14.3590   -36.5580   -18.7410    87.3680     6.1890     6.7160     6.1660     2.3620 
  174.2500   166.0360    14.3930   -36.6160   -18.6870    80.9700     7.7630     8.6330    10.7500     2.4000 
  174.3750   166.1420    14.4270   -36.6730   -18.6420    74.6990     9.8760    11.1330    15.7800     2.4340 
  174.5000   166.2480    14.4610   -36.7300   -18.6150    68.9830    12.1240    13.7240    18.5940     2.4640 
  174.6250   166.3540    14.4950   -36.7870   -18.6110    63.4220    13.9990    15.8090    21.4580     2.4980 
  174.7500   166.4600    14.5290   -36.8440   -18.6390    59.0570    14.9460    16.7560    23.6640     2.5280 
  174.8750   166.5660    14.5630   -36.9010   -18.7100    56.9590    14.8820    16.5240    22.1730     2.5380 
  175.0000   166.6720    14.5970   -36.9580   -18.8440    57.8420    14.0210    15.4230    21.9140     2.5240 
  175.1250   166.7780    14.6320   -37.0150   -19.0400    59.5950    12.8540    14.0630    29.2220     2.4980 
  175.2500   166.8840    14.6660   -37.0720   -19.2840    60.9110    11.8510    12.9910    35.1030     2.4700 
  175.3750   166.9890    14.7000   -37.1290   -19.5300    61.7740    11.2300    12.4170    28.1880     2.4450 
  175.5000   167.0950    14.7340   -37.1860   -19.7370    61.6790    11.0730    12.4060    16.5160     2.4270 
  175.6250   167.2010    14.7680   -37.2430   -19.8900    61.8800    11.3400    12.8800    12.2910     2.4210 
  175.7500   167.3070    14.8020   -37.3000   -19.9980    62.7610    11.9830    13.7510    14.0410     2.4220 
  175.8750   167.4130    14.8360   -37.3570   -20.0870    64.5170    12.8280    14.7890    15.5570     2.4260 
  176.0000   167.5190    14.8700   -37.4140   -20.1740    63.3570    13.6510    15.7180    15.3410     2.4350 
  176.1250   167.6250    14.9040   -37.4710   -20.2630    60.5090    14.2340    16.3040    15.1240     2.4520 
  176.2500   167.7310    14.9380   -37.5280   -20.3400    57.8310    14.4210    16.3780    15.5990     2.4710 
  176.3750   167.8360    14.9720   -37.5850   -20.3900    58.2860    14.2310    15.9910    15.7610     2.4820 
  176.5000   167.9420    15.0060   -37.6420   -20.3990    59.6750    13.8100    15.3600    14.9640     2.4720 
  176.6250   168.0480    15.0410   -37.6990   -20.3720    59.8970    13.4370    14.8390    13.6050     2.4490 
  176.7500   168.1540    15.0750   -37.7560   -20.3250    59.3180    13.3400    14.7150    12.2720     2.4290 
  176.8750   168.2600    15.1090   -37.8130   -20.2710    57.6250    13.6300    15.1000    11.8200     2.4300 
  177.0000   168.3660    15.1430   -37.8700   -20.2190    57.3920    14.2560    15.8790    13.4390     2.4580 
  177.1250   168.4720    15.1780   -37.9270   -20.1670    57.6590    14.8790    16.6100    16.4330     2.5010 
  177.2500   168.5770    15.2120   -37.9840   -20.1120    58.9090    15.1110    16.8270    18.4420     2.5400 
  177.3750   168.6830    15.2470   -38.0410   -20.0490    58.2410    14.7470    16.3240    18.6140     2.5590 
  177.5000   168.7890    15.2810   -38.0980   -19.9770    56.7840    13.8380    15.2120    17.8360     2.5500 
  177.6250   168.8950    15.3160   -38.1550   -19.9030    56.2300    12.7620    13.9600    16.1100     2.5230 
  177.7500   169.0010    15.3500   -38.2120   -19.8360    56.7420    11.8930    13.0000    13.2960     2.4870 
  177.8750   169.1070    15.3840   -38.2690   -19.7720    56.7230    11.4800    12.5970    11.3130     2.4550 
  178.0000   169.2120    15.4190   -38.3260   -19.6970    56.6240    11.7010    12.9410    11.1620     2.4390 
  178.1250   169.3180    15.4530   -38.3830   -19.6010    57.9940    12.4890    13.9310    12.1810     2.4460 
  178.2500   169.4240    15.4870   -38.4400   -19.4760    60.0520    13.6350    15.3020    14.5570     2.4730 
  178.3750   169.5300    15.5210   -38.4970   -19.3210    59.5810    14.7710    16.6050    17.5460     2.5070 
  178.5000   169.6360    15.5550   -38.5540   -19.1350    56.8520    15.5290    17.3910    20.1160     2.5320 
  178.6250   169.7410    15.5890   -38.6120   -18.9300    54.6080    15.7610    17.5160    22.0670     2.5440 
  178.7500   169.8470    15.6230   -38.6690   -18.7300    54.4780    15.5060    17.0830    21.6900     2.5420 
  178.8750   169.9530    15.6570   -38.7260   -18.5610    55.3450    15.0350    16.4680    18.5050     2.5360 
  179.0000   170.0590    15.6920   -38.7830   -18.4400    55.4370    14.6720    16.0770    15.7900     2.5370 
