~V
VERS. 2.00: Ver 2.00
~W
STRT.M 40.0000:
STOP.M 276.0000:
STEP.M 0.1250:
NULL. -999.2500:
UWI. FD10882:
~C
DEPT.M :
TVD. :
DX. :
DY. :
SP.MV :
GR.API :
RI. :
RML.OHMM :
RXO.OHMM :
DEN.GM/CC :
~A
   40.0000    40.0000     0.0000     0.0000    93.4180    45.6720     0.1310     0.2720     0.2780     2.3230 
   40.1250    40.1250    -0.0010     0.0000    93.7600    45.4290     0.1310     0.2690     0.2890     2.3270 
   40.2500    40.2500    -0.0020     0.0000    93.4540    45.3900     0.1320     0.2680     0.3090     2.3390 
   40.3750    40.3750    -0.0020     0.0000    91.6520    45.9900     0.1320     0.2660     0.3450     2.3450 
   40.5000    40.5000    -0.0030     0.0000    89.0890    45.7140     0.1330     0.2640     0.3990     2.3480 
   40.6250    40.6250    -0.0040     0.0000    86.9250    45.1310     0.1330     0.2620     0.4560     2.3460 
   40.7500    40.7500    -0.0050     0.0000    85.4830    43.5580     0.1320     0.2600     0.4980     2.3620 
   40.8750    40.8750    -0.0060     0.0000    84.7740    42.6290     0.1350     0.2580     0.5210     2.3830 
   41.0000    41.0000    -0.0070     0.0000    84.8960    41.8800     0.1470     0.2550     0.5410     2.3960 
   41.1250    41.1250    -0.0080     0.0000    85.8870    42.9830     0.1590     0.2530     0.5680     2.3840 
   41.2500    41.2500    -0.0090     0.0000    87.5120    43.5700     0.1730     0.2500     0.6080     2.3770 
   41.3750    41.3750    -0.0100     0.0000    89.7650    44.5430     0.1790     0.2460     0.6820     2.3860 
   41.5000    41.5000    -0.0100     0.0010    92.5160    44.3360     0.1810     0.2420     0.8060     2.4010 
   41.6250    41.6250    -0.0110     0.0010    95.4840    44.2310     0.1820     0.2380     0.9830     2.3970 
   41.7500    41.7500    -0.0120     0.0010    97.9810    44.2920     0.1810     0.2350     1.1570     2.3760 
   41.8750    41.8750    -0.0130     0.0010    98.4390    47.1160     0.1730     0.2340     1.2080     2.3430 
   42.0000    42.0000    -0.0140     0.0010    96.5180    51.6870     0.1590     0.2340     1.0800     2.3130 
   42.1250    42.1250    -0.0150     0.0010    93.2910    55.1870     0.1530     0.2380     0.8560     2.2900 
   42.2500    42.2500    -0.0160     0.0010    89.3960    56.1380     0.1510     0.2490     0.6940     2.2760 
   42.3750    42.3750    -0.0170     0.0010    85.5740    54.3090     0.1560     0.2640     0.6450     2.2630 
   42.5000    42.5000    -0.0180     0.0010    82.3320    53.5810     0.1480     0.2540     0.6500     2.2500 
   42.6250    42.6250    -0.0190     0.0010    79.2250    52.6220     0.1160     0.2140     0.6730     2.2470 
   42.7500    42.7500    -0.0200     0.0010    75.6230    50.5880     0.0760     0.1450     0.7110     2.2570 
   42.8750    42.8750    -0.0210     0.0010    71.2380    47.0640     0.0480     0.0760     0.7990     2.2790 
   43.0000    43.0000    -0.0220     0.0010    66.2570    43.3220     0.0450     0.0460     0.9960     2.3070 
   43.1250    43.1250    -0.0230     0.0010    60.6310    40.1740     0.1070     0.0820     1.4280     2.3560 
   43.2500    43.2500    -0.0250     0.0010    54.1570    39.5720     0.2720     0.2150     2.1840     2.4080 
   43.3750    43.3750    -0.0260     0.0010    46.3840    41.7580     0.6960     0.6130     3.2450     2.4190 
   43.5000    43.5000    -0.0270     0.0010    37.2050    47.3210     1.9760     2.5310     4.3630     2.3530 
   43.6250    43.6250    -0.0280     0.0010    27.3200    53.3030     4.0940     5.9250     5.3050     2.2450 
   43.7500    43.7500    -0.0290     0.0010    18.4830    59.5250     5.4510     7.1080     6.0350     2.1570 
   43.8750    43.8750    -0.0300     0.0010    12.1720    62.9640     6.2310     7.5920     6.5160     2.1160 
   44.0000    44.0000    -0.0310     0.0010     7.8240    64.1340     5.8180     5.3420     6.6700     2.1050 
   44.1250    44.1250    -0.0320     0.0010     4.7800    64.0400     5.3660     4.2980     6.4700     2.1090 
   44.2500    44.2500    -0.0330     0.0010     2.4210    64.2290     5.4280     4.2780     6.1420     2.1140 
   44.3750    44.3750    -0.0350     0.0020     0.6170    64.4800     5.5530     4.3450     5.9310     2.1200 
   44.5000    44.5000    -0.0360     0.0020    -0.7940    63.9280     5.6140     4.3720     5.8850     2.1240 
   44.6250    44.6250    -0.0370     0.0020    -1.8870    64.6350     5.6210     4.4060     5.9080     2.1270 
   44.7500    44.7500    -0.0380     0.0020    -2.7690    64.9360     5.6150     4.4480     5.9080     2.1250 
   44.8750    44.8750    -0.0390     0.0020    -3.4840    65.2860     5.5430     4.3710     5.8670     2.1220 
   45.0000    45.0000    -0.0400     0.0030    -4.0350    64.4390     5.3610     4.1910     5.7560     2.1190 
   45.1250    45.1250    -0.0410     0.0030    -4.3610    65.0060     5.1120     3.9510     5.4700     2.1170 
   45.2500    45.2500    -0.0430     0.0030    -4.4640    67.3970     4.9370     3.8810     5.0860     2.1300 
   45.3750    45.3750    -0.0440     0.0030    -4.3560    72.1840     4.9500     3.9740     5.0310     2.1630 
   45.5000    45.5000    -0.0450     0.0040    -4.1190    75.4840     5.1650     4.2710     5.6230     2.2020 
   45.6250    45.6250    -0.0460     0.0040    -3.9810    73.7360     5.5730     4.6590     6.5900     2.2200 
   45.7500    45.7500    -0.0470     0.0040    -4.0520    67.7080     6.0350     4.9850     7.1950     2.2090 
   45.8750    45.8750    -0.0490     0.0050    -4.3410    62.8500     6.2770     5.1930     7.0940     2.1800 
   46.0000    46.0000    -0.0500     0.0050    -4.6500    61.6060     6.1800     5.0770     6.6570     2.1460 
   46.1250    46.1250    -0.0510     0.0060    -4.8150    64.2600     5.6940     4.8140     6.1880     2.1290 
   46.2500    46.2500    -0.0520     0.0060    -4.8210    67.2760     5.1220     4.4620     5.6350     2.1290 
   46.3750    46.3750    -0.0530     0.0060    -4.6440    71.2160     4.7180     4.1830     4.9570     2.1630 
   46.5000    46.5000    -0.0550     0.0070    -4.2930    74.1740     4.4550     3.9840     4.4240     2.2130 
   46.6250    46.6250    -0.0560     0.0070    -3.8600    76.8000     4.3750     3.9210     4.2550     2.2590 
   46.7500    46.7500    -0.0570     0.0080    -3.4540    78.2170     4.3900     3.9720     4.2860     2.2690 
   46.8750    46.8750    -0.0580     0.0080    -3.0730    78.7880     4.5230     4.1300     4.3330     2.2550 
   47.0000    47.0000    -0.0600     0.0080    -2.7730    77.1360     4.9050     4.5380     4.4750     2.2390 
   47.1250    47.1250    -0.0610     0.0090    -2.6600    74.2160     5.4810     5.1780     5.0830     2.2610 
   47.2500    47.2500    -0.0620     0.0090    -2.7640    71.3330     6.1470     5.9770     6.3800     2.3140 
   47.3750    47.3750    -0.0630     0.0100    -3.0360    70.0190     6.7780     6.6040     8.0250     2.3940 
   47.5000    47.5000    -0.0640     0.0100    -3.4740    69.9940     7.1760     6.7830     8.9830     2.4590 
   47.6250    47.6250    -0.0660     0.0110    -4.0190    71.0760     7.3660     6.7760     8.5010     2.4870 
   47.7500    47.7500    -0.0670     0.0110    -4.6450    71.0710     7.3370     6.6780     7.2390     2.4600 
   47.8750    47.8750    -0.0680     0.0120    -5.3170    68.3400     7.1870     6.7030     6.2960     2.3970 
   48.0000    48.0000    -0.0690     0.0130    -5.9930    64.1140     7.0210     6.8270     6.1120     2.3240 
   48.1250    48.1250    -0.0710     0.0130    -6.6700    60.4180     6.8850     6.9320     6.3250     2.2540 
   48.2500    48.2500    -0.0720     0.0140    -7.3230    58.1220     6.7120     7.0020     6.4280     2.1900 
   48.3750    48.3750    -0.0730     0.0140    -7.9040    57.7270     6.4130     6.9790     6.3630     2.1380 
   48.5000    48.5000    -0.0740     0.0150    -8.4030    56.9980     6.0430     6.8810     6.3410     2.1050 
   48.6250    48.6250    -0.0760     0.0150    -8.8460    56.2290     5.7260     6.7940     6.4460     2.0960 
   48.7500    48.7500    -0.0770     0.0160    -9.2210    55.0450     5.6200     6.7710     6.5310     2.0950 
   48.8750    48.8750    -0.0780     0.0170    -9.5590    54.7790     5.6350     6.8650     6.5430     2.0950 
   49.0000    49.0000    -0.0800     0.0170    -9.8870    54.7470     5.6500     6.9740     6.5520     2.0900 
