~V
VERS. 2.00: Ver 2.00
~W
STRT.M 20.0000:
STOP.M 206.0000:
STEP.M 0.1250:
NULL. -999.2500:
UWI. FD10809:
~C
DEPT.M :
TVD. :
DX. :
DY. :
SP.MV :
GR.API :
RI. :
RML.OHMM :
DEN.GM/CC :
RXO.OHMM :
~A
# ...
   93.0000    90.2930     2.3010    15.4330   -17.5050    70.1400     5.0780     5.9490     2.1460     6.6100 
   93.1250    90.4020     2.3070    15.4940   -17.4470    69.8400     5.0100     5.8780     2.1490     6.8210 
   93.2500    90.5110     2.3130    15.5550   -17.6110    70.7020     4.9570     5.8270     2.1470     7.0350 
   93.3750    90.6190     2.3190    15.6160   -17.8970    70.3030     4.9160     5.7840     2.1450     6.8570 
   93.5000    90.7280     2.3250    15.6770   -18.3080    69.3570     4.8750     5.7470     2.1460     6.8380 
   93.6250    90.8370     2.3310    15.7380   -18.6680    68.5170     4.8430     5.7270     2.1500     7.0100 
   93.7500    90.9460     2.3370    15.8000   -18.8850    68.7350     4.8550     5.7650     2.1530     6.8660 
   93.8750    91.0540     2.3430    15.8610   -19.1960    68.1670     4.9460     5.8940     2.1530     6.6570 
   94.0000    91.1630     2.3490    15.9230   -19.6110    66.8990     5.1600     6.1180     2.1600     6.7970 
   94.1250    91.2720     2.3550    15.9850   -20.0930    65.9280     5.4100     6.3700     2.1870     7.2490 
   94.2500    91.3800     2.3600    16.0460   -20.6230    65.1940     5.5930     6.5360     2.2270     7.7700 
   94.3750    91.4880     2.3660    16.1080   -21.0750    64.3820     5.6020     6.5450     2.2450     7.9340 
   94.5000    91.5970     2.3720    16.1700   -21.2100    64.6440     5.4170     6.3740     2.2200     7.8030 
   94.6250    91.7050     2.3770    16.2330   -21.1210    66.5840     5.1460     6.0730     2.1730     7.6210 
   94.7500    91.8130     2.3830    16.2950   -20.9140    70.1000     4.9080     5.7700     2.1380     6.9530 
   94.8750    91.9210     2.3890    16.3570   -20.9570    71.8160     4.8410     5.6070     2.1170     6.0270 
   95.0000    92.0300     2.3940    16.4200   -21.4090    71.3580     4.8700     5.6300     2.1040     6.1460 
   95.1250    92.1380     2.4000    16.4830   -21.9940    69.6040     5.0270     5.7910     2.0970     7.0340 
   95.2500    92.2460     2.4050    16.5450   -22.3130    68.1720     5.1980     6.0220     2.1030     7.4460 
   95.3750    92.3530     2.4110    16.6080   -22.1860    67.5340     5.3410     6.2320     2.1190     7.3570 
   95.5000    92.4610     2.4160    16.6710   -21.6810    66.5780     5.4340     6.3610     2.1330     7.2510 
   95.6250    92.5690     2.4220    16.7340   -21.0250    66.7200     5.4550     6.3710     2.1370     7.3520 
   95.7500    92.6770     2.4270    16.7980   -20.2700    67.2660     5.3300     6.1760     2.1360     7.1910 
   95.8750    92.7840     2.4320    16.8610   -19.3520    69.2440     5.0570     5.7920     2.1440     6.2440 
   96.0000    92.8920     2.4370    16.9250   -18.2250    72.0730     4.6230     5.2900     2.1680     5.1870 
   96.1250    92.9990     2.4430    16.9880   -16.7940    77.5520     4.1860     4.7970     2.1930     4.6990 
   96.2500    93.1060     2.4480    17.0520   -15.1250    84.2420     3.8730     4.4690     2.1980     4.3160 
   96.3750    93.2140     2.4530    17.1160   -13.7510    89.7300     3.7530     4.3540     2.1860     4.0640 
   96.5000    93.3210     2.4580    17.1800   -13.1600    92.8130     3.8380     4.4770     2.1750     4.3190 
   96.6250    93.4280     2.4630    17.2450   -13.1320    92.1630     4.0370     4.6950     2.1740     4.8380 
   96.7500    93.5350     2.4680    17.3090   -13.1500    91.4960     4.2490     4.8260     2.1760     5.3060 
   96.8750    93.6420     2.4730    17.3730   -12.9480    90.4670     4.3230     4.8470     2.1790     5.3210 
   97.0000    93.7490     2.4780    17.4380   -12.5590    92.2060     4.1770     4.6930     2.1940     4.9780 
   97.1250    93.8560     2.4830    17.5030   -12.1260    95.1900     3.8620     4.3880     2.2220     4.6120 
   97.2500    93.9620     2.4880    17.5680   -11.6540    97.2400     3.5000     4.0100     2.2490     4.0760 
   97.3750    94.0690     2.4930    17.6330   -11.2630    96.1040     3.1730     3.6690     2.2650     3.6070 
   97.5000    94.1750     2.4980    17.6980   -11.0240    93.0290     2.9870     3.4720     2.2670     3.4440 
   97.6250    94.2820     2.5040    17.7640   -10.9470    92.1740     2.9200     3.4190     2.2700     3.3810 
   97.7500    94.3880     2.5090    17.8290   -11.0120    95.8690     2.9650     3.4790     2.2750     3.4220 
   97.8750    94.4950     2.5140    17.8950   -11.2440   101.3050     3.0610     3.6030     2.2770     3.7010 
   98.0000    94.6010     2.5190    17.9600   -11.7360   105.8160     3.2060     3.7960     2.2710     4.1470 
   98.1250    94.7070     2.5240    18.0260   -12.4060   105.5330     3.4490     4.0800     2.2620     4.2400 
   98.2500    94.8130     2.5290    18.0920   -13.2780   100.6970     3.7660     4.4650     2.2610     3.9950 
   98.3750    94.9190     2.5340    18.1580   -14.2520    93.9970     4.1320     4.8920     2.2610     4.2820 
   98.5000    95.0250     2.5390    18.2250   -15.2030    89.1960     4.4520     5.2490     2.2520     5.1570 
   98.6250    95.1310     2.5440    18.2910   -15.8990    86.2500     4.6290     5.4290     2.2380     6.0630 
   98.7500    95.2360     2.5490    18.3570   -16.1830    86.3970     4.6030     5.3710     2.2330     6.3370 
   98.8750    95.3420     2.5540    18.4240   -16.0640    86.9170     4.4120     5.1520     2.2320     5.5950 
   99.0000    95.4480     2.5590    18.4900   -15.8090    87.3830     4.1860     4.9110     2.2230     4.8260 
   99.1250    95.5530     2.5640    18.5570   -16.0010    85.7480     4.0350     4.7770     2.2010     4.7730 
   99.2500    95.6590     2.5680    18.6240   -16.6380    84.4330     4.0340     4.8020     2.1730     5.1240 
   99.3750    95.7640     2.5730    18.6910   -17.4110    82.5050     4.1140     4.9220     2.1490     5.5210 
   99.5000    95.8700     2.5780    18.7580   -18.0830    80.9110     4.2210     5.0710     2.1310     5.9290 
   99.6250    95.9750     2.5830    18.8250   -18.6770    78.3080     4.3210     5.1970     2.1220     6.2290 
   99.7500    96.0800     2.5880    18.8930   -19.1180    78.0870     4.3800     5.2700     2.1170     6.2240 
   99.8750    96.1850     2.5930    18.9600   -19.5540    78.9320     4.4060     5.2910     2.1180     6.0570 
  100.0000    96.2900     2.5980    19.0280   -19.9490    80.1710     4.4020     5.2710     2.1210     5.8150 
  100.1250    96.3950     2.6030    19.0950   -20.3430    79.6120     4.3830     5.2360     2.1260     5.7530 
  100.2500    96.5000     2.6080    19.1630   -20.6510    79.0900     4.3610     5.2070     2.1320     6.0330 
  100.3750    96.6050     2.6130    19.2310   -20.9150    79.6070     4.3420     5.1920     2.1370     6.2400 
  100.5000    96.7100     2.6170    19.2990   -21.0770    80.1480     4.3170     5.1900     2.1360     6.0870 
  100.6250    96.8140     2.6220    19.3670   -21.1920    79.6270     4.3010     5.2010     2.1300     5.9200 
  100.7500    96.9190     2.6270    19.4360   -21.3030    78.0690     4.2880     5.2240     2.1200     6.0480 
  100.8750    97.0230     2.6320    19.5040   -21.3220    76.9570     4.2770     5.2450     2.1140     6.1770 
  101.0000    97.1270     2.6370    19.5730   -21.2420    77.3920     4.2660     5.2360     2.1170     6.1730 
  101.1250    97.2320     2.6420    19.6420   -21.0640    78.0080     4.2250     5.1760     2.1270     6.2080 
  101.2500    97.3360     2.6470    19.7110   -20.8680    78.1760     4.1680     5.0940     2.1430     6.3200 
  101.3750    97.4400     2.6520    19.7800   -20.5870    77.4080     4.1930     5.1030     2.1740     6.4810 
  101.5000    97.5440     2.6560    19.8490   -20.2880    76.2420     4.4240     5.4210     2.2420     6.5550 
  101.6250    97.6480     2.6610    19.9190   -20.0710    73.3720     5.0710     6.1780     2.3480     6.5030 
  101.7500    97.7510     2.6660    19.9880   -20.0180    69.0470     6.0700     7.2750     2.4620     6.2710 
  101.8750    97.8550     2.6710    20.0580   -20.1580    64.0680     7.0330     8.3770     2.5300     7.5950 
  102.0000    97.9580     2.6760    20.1280   -20.3860    61.0660     7.7980     9.0680     2.5250    14.8520 
