~V
VERS. 2.00: Ver 2.00
~W
STRT.M 34.0000:
STOP.M 260.0000:
STEP.M 0.1250:
NULL. -999.2500:
UWI. FD10858:
~C
DEPT.M :
TVD. :
DX. :
DY. :
SP.MV :
GR.API :
RI. :
RML.OHMM :
RXO.OHMM :
DEN.GM/CC :
~A
# ...
  234.7500   217.3180   -50.1430   -54.6170    -5.5020    26.0360     1.1820     1.4980     1.8110     2.3420 
  234.8750   217.4270   -50.1830   -54.6610    -5.5060    26.7130     1.2060     1.5150     1.8190     2.3440 
  235.0000   217.5370   -50.2240   -54.7040    -5.5180    28.5620     1.2470     1.5550     1.8360     2.3440 
  235.1250   217.6470   -50.2650   -54.7480    -5.5140    30.5960     1.2760     1.6010     1.9280     2.3360 
  235.2500   217.7570   -50.3050   -54.7910    -5.4730    31.5380     1.3000     1.6350     2.0140     2.3210 
  235.3750   217.8670   -50.3460   -54.8350    -5.3690    31.8510     1.3090     1.6410     2.0090     2.3090 
  235.5000   217.9770   -50.3860   -54.8790    -5.1980    32.1010     1.2960     1.6300     1.9740     2.3060 
  235.6250   218.0870   -50.4270   -54.9220    -4.9700    32.7450     1.2790     1.6040     1.9610     2.3070 
  235.7500   218.1970   -50.4670   -54.9660    -4.7210    33.4090     1.2610     1.5820     1.9730     2.3070 
  235.8750   218.3070   -50.5070   -55.0100    -4.4940    33.3880     1.2410     1.5680     1.9760     2.3040 
  236.0000   218.4170   -50.5470   -55.0540    -4.3230    33.1780     1.2270     1.5540     1.9110     2.3000 
  236.1250   218.5270   -50.5870   -55.0980    -4.2350    33.7710     1.2140     1.5520     1.7790     2.2960 
  236.2500   218.6360   -50.6270   -55.1420    -4.2220    34.5430     1.2060     1.5570     1.7220     2.2960 
  236.3750   218.7460   -50.6670   -55.1860    -4.2640    34.8420     1.2030     1.5680     1.8340     2.2970 
  236.5000   218.8560   -50.7070   -55.2310    -4.3170    34.8480     1.2150     1.5820     1.9810     2.2970 
  236.6250   218.9660   -50.7470   -55.2750    -4.3350    35.0550     1.2310     1.5920     2.0320     2.2980 
  236.7500   219.0760   -50.7870   -55.3190    -4.2930    34.6030     1.2600     1.6200     2.0130     2.3080 
  236.8750   219.1860   -50.8270   -55.3630    -4.1800    32.5490     1.3290     1.7100     2.0340     2.3360 
  237.0000   219.2960   -50.8670   -55.4070    -4.0140    30.4580     1.4400     1.8510     2.1090     2.3740 
  237.1250   219.4060   -50.9070   -55.4510    -3.8180    29.9000     1.5820     2.0170     2.1480     2.4040 
  237.2500   219.5160   -50.9470   -55.4950    -3.6220    30.3740     1.7040     2.1450     2.6820     2.4100 
  237.3750   219.6260   -50.9870   -55.5390    -3.4530    30.9150     1.7590     2.1820     4.5390     2.3920 
  237.5000   219.7350   -51.0270   -55.5830    -3.3310    31.6790     1.7410     2.1370     5.4750     2.3610 
  237.6250   219.8450   -51.0680   -55.6270    -3.2750    32.2280     1.6640     2.0350     3.7410     2.3290 
  237.7500   219.9550   -51.1080   -55.6710    -3.2800    31.2030     1.5590     1.9100     2.2230     2.3000 
  237.8750   220.0650   -51.1490   -55.7150    -3.3340    29.7950     1.4510     1.8040     2.1480     2.2770 
  238.0000   220.1750   -51.1900   -55.7590    -3.4050    29.6550     1.3690     1.7240     2.5700     2.2620 
  238.1250   220.2840   -51.2300   -55.8020    -3.4580    29.7360     1.3010     1.6580     2.8890     2.2520 
  238.2500   220.3940   -51.2710   -55.8460    -3.4670    28.7020     1.2520     1.5960     2.5270     2.2450 
  238.3750   220.5040   -51.3120   -55.8900    -3.4140    27.3400     1.2170     1.5390     1.9770     2.2370 
  238.5000   220.6140   -51.3530   -55.9330    -3.3030    26.8030     1.1880     1.4940     1.7400     2.2280 
  238.6250   220.7240   -51.3940   -55.9770    -3.1440    26.6410     1.1770     1.4720     1.6890     2.2220 
  238.7500   220.8330   -51.4340   -56.0210    -2.9690    26.5520     1.1660     1.4690     1.6730     2.2220 
  238.8750   220.9430   -51.4750   -56.0640    -2.8110    26.5250     1.1740     1.4930     1.6590     2.2270 
  239.0000   221.0530   -51.5160   -56.1080    -2.6970    26.9380     1.2000     1.5310     1.6510     2.2370 
  239.1250   221.1630   -51.5570   -56.1520    -2.6430    27.8430     1.2430     1.5780     1.6520     2.2500 
  239.2500   221.2730   -51.5970   -56.1960    -2.6430    28.7880     1.2880     1.6250     1.6990     2.2650 
  239.3750   221.3820   -51.6380   -56.2400    -2.6820    28.7980     1.3170     1.6630     1.8080     2.2800 
  239.5000   221.4920   -51.6780   -56.2840    -2.7270    28.2100     1.3430     1.7130     1.9040     2.2930 
  239.6250   221.6020   -51.7190   -56.3270    -2.7430    28.0230     1.3560     1.7560     1.9070     2.3000 
  239.7500   221.7120   -51.7590   -56.3710    -2.7030    27.6990     1.3770     1.7900     1.8740     2.3030 
  239.8750   221.8220   -51.8000   -56.4150    -2.5930    26.0970     1.3910     1.8170     1.8940     2.3040 
  240.0000   221.9310   -51.8410   -56.4580    -2.4260    23.9560     1.3930     1.8180     1.9370     2.3050 
  240.1250   222.0410   -51.8820   -56.5020    -2.2210    23.0610     1.3810     1.8130     1.9690     2.3060 
  240.2500   222.1510   -51.9220   -56.5460    -2.0010    24.7510     1.3760     1.8040     1.9970     2.3020 
  240.3750   222.2610   -51.9630   -56.5890    -1.7700    27.1550     1.3900     1.8030     2.0160     2.2930 
  240.5000   222.3710   -52.0030   -56.6330    -1.5230    28.6070     1.4260     1.8190     2.0190     2.2820 
  240.6250   222.4810   -52.0440   -56.6770    -1.2530    29.6030     1.4890     1.8850     1.9990     2.2770 
  240.7500   222.5900   -52.0840   -56.7210    -0.9650    29.6380     1.5770     2.0020     1.9960     2.2820 
  240.8750   222.7000   -52.1240   -56.7650    -0.6740    29.3230     1.6830     2.1550     2.1180     2.2960 
  241.0000   222.8100   -52.1650   -56.8090    -0.4070    29.9790     1.8050     2.3200     2.2910     2.3100 
  241.1250   222.9200   -52.2050   -56.8530    -0.1960    31.7700     1.9140     2.4490     2.4650     2.3140 
  241.2500   223.0300   -52.2460   -56.8960    -0.0520    32.7730     1.9910     2.5350     2.9350     2.3030 
  241.3750   223.1400   -52.2860   -56.9400     0.0160    32.1220     2.0140     2.5530     3.5880     2.2830 
  241.5000   223.2500   -52.3270   -56.9840     0.0270    30.3750     1.9800     2.5110     3.7090     2.2610 
  241.6250   223.3600   -52.3680   -57.0270     0.0050    28.2200     1.9040     2.4250     3.2740     2.2450 
  241.7500   223.4700   -52.4090   -57.0700    -0.0170    26.6720     1.8080     2.3120     2.9600     2.2320 
  241.8750   223.5790   -52.4500   -57.1130    -0.0160    27.5640     1.7270     2.1950     2.7880     2.2220 
  242.0000   223.6890   -52.4910   -57.1570     0.0190    28.9310     1.6620     2.0920     2.4940     2.2130 
  242.1250   223.7990   -52.5320   -57.2000     0.0840    28.5170     1.6230     2.0140     2.2110     2.2060 
  242.2500   223.9090   -52.5730   -57.2430     0.1620    27.1480     1.6070     1.9760     2.0780     2.2030 
  242.3750   224.0190   -52.6130   -57.2860     0.2260    27.2910     1.6040     1.9730     2.0760     2.2060 
  242.5000   224.1290   -52.6540   -57.3300     0.2540    29.4540     1.6160     1.9910     2.1120     2.2150 
  242.6250   224.2390   -52.6950   -57.3730     0.2230    30.4320     1.6350     2.0300     2.1550     2.2270 
  242.7500   224.3490   -52.7360   -57.4160     0.1360    29.6670     1.6720     2.0840     2.2010     2.2420 
  242.8750   224.4590   -52.7770   -57.4590     0.0140    29.3550     1.7150     2.1380     2.2270     2.2580 
  243.0000   224.5690   -52.8180   -57.5030    -0.1060    29.9210     1.7620     2.1890     2.2650     2.2730 
  243.1250   224.6790   -52.8590   -57.5460    -0.1830    30.5410     1.8070     2.2280     2.3450     2.2870 
  243.2500   224.7880   -52.8990   -57.5900    -0.1970    30.3350     1.8410     2.2660     2.4220     2.2940 
  243.3750   224.8980   -52.9400   -57.6330    -0.1410    29.7620     1.8640     2.2890     2.4590     2.2920 
  243.5000   225.0080   -52.9800   -57.6770    -0.0370    28.9660     1.8680     2.2860     2.5010     2.2850 
  243.6250   225.1180   -53.0200   -57.7210     0.0880    27.1190     1.8560     2.2520     2.5500     2.2790 
  243.7500   225.2280   -53.0600   -57.7660     0.2000    24.8110     1.8280     2.1940     2.5210     2.2760 
