~V
VERS. 2.00: Ver 2.00
~W
STRT.M 27.0000:
STOP.M 267.0000:
STEP.M 0.1250:
NULL. -999.2500:
UWI. FD10204:
~C
DEPT.M :
TVD. :
DX. :
DY. :
GR.API :
RML.OHMM :
RI. :
RXO.OHMM :
CALI.CM :
SP.MV :
DEN.GM/CC :
~A
# ...
  101.2500   100.9070    -2.1570    -4.2280    72.0110     8.2490     7.2540     8.7310    21.6690   -28.5870     2.2330 
  101.3750   101.0280    -2.1680    -4.2550    72.3860     8.2490     7.2470     8.8060    21.6680   -28.5370     2.2290 
  101.5000   101.1500    -2.1790    -4.2830    70.4800     8.3430     7.3130     8.8810    21.6810   -28.4460     2.2270 
  101.6250   101.2710    -2.1900    -4.3100    66.4730     8.4890     7.4280     8.9940    21.7320   -28.3470     2.2270 
  101.7500   101.3930    -2.2010    -4.3380    62.6280     8.5870     7.5220     9.1210    21.8030   -28.2630     2.2310 
  101.8750   101.5140    -2.2120    -4.3650    61.3460     8.5620     7.5350     9.1570    21.8650   -28.1600     2.2340 
  102.0000   101.6360    -2.2230    -4.3930    63.3990     8.4080     7.4470     9.0060    21.8940   -28.0540     2.2360 
  102.1250   101.7570    -2.2340    -4.4210    65.5940     8.1990     7.2910     8.7920    21.8920   -27.9350     2.2330 
  102.2500   101.8780    -2.2450    -4.4480    64.5720     8.0530     7.1570     8.6350    21.9040   -27.8340     2.2260 
  102.3750   102.0000    -2.2560    -4.4760    61.0450     8.0270     7.0990     8.5600    21.9500   -27.7700     2.2180 
  102.5000   102.1210    -2.2670    -4.5030    59.2560     8.1190     7.1350     8.5020    22.0030   -27.7240     2.2130 
  102.6250   102.2430    -2.2780    -4.5310    60.7840     8.2790     7.2460     8.3140    22.0280   -27.6870     2.2170 
  102.7500   102.3640    -2.2890    -4.5580    60.7440     8.3970     7.3520     8.0900    22.0090   -27.6620     2.2260 
  102.8750   102.4850    -2.3000    -4.5860    58.5050     8.3930     7.3850     8.0230    21.9400   -27.6970     2.2370 
  103.0000   102.6070    -2.3110    -4.6140    58.2240     8.2210     7.2970     8.1890    21.8380   -27.7530     2.2450 
  103.1250   102.7280    -2.3220    -4.6410    63.3410     7.8770     7.0680     8.1750    21.7540   -27.8110     2.2480 
  103.2500   102.8500    -2.3330    -4.6690    68.8190     7.4770     6.7690     7.9120    21.6980   -27.8650     2.2520 
  103.3750   102.9710    -2.3440    -4.6960    71.1710     7.1290     6.4760     7.5380    21.6500   -27.9060     2.2630 
  103.5000   103.0920    -2.3550    -4.7240    71.7900     6.9190     6.2580     7.1060    21.6070   -27.9470     2.2800 
  103.6250   103.2140    -2.3660    -4.7510    71.1520     6.9060     6.1790     6.8100    21.5870   -27.9530     2.2890 
  103.7500   103.3350    -2.3770    -4.7790    68.5210     7.0450     6.2290     6.9820    21.6170   -27.8730     2.2800 
  103.8750   103.4570    -2.3880    -4.8070    63.8920     7.2890     6.3850     7.8070    21.7750   -27.7110     2.2490 
  104.0000   103.5780    -2.3990    -4.8340    60.6710     7.5770     6.6060     8.6760    22.0760   -27.5190     2.2070 
  104.1250   103.7000    -2.4100    -4.8620    61.6800     7.8350     6.8280     8.9400    22.3490   -27.3030     2.1720 
  104.2500   103.8210    -2.4210    -4.8890    62.8420     8.0070     6.9940     8.8920    22.4390   -27.0790     2.1580 
  104.3750   103.9420    -2.4320    -4.9170    62.8980     8.0630     7.0740     8.8430    22.3880   -26.8950     2.1650 
  104.5000   104.0640    -2.4430    -4.9440    61.9150     8.0090     7.0680     8.8390    22.3250   -26.7180     2.1840 
  104.6250   104.1850    -2.4540    -4.9720    60.4700     7.8740     6.9940     8.6950    22.3030   -26.5240     2.2000 
  104.7500   104.3070    -2.4650    -5.0000    58.3870     7.7310     6.9010     8.3490    22.3330   -26.4030     2.2020 
  104.8750   104.4280    -2.4760    -5.0270    57.3570     7.6400     6.8310     7.9920    22.4990   -26.3830     2.1920 
  105.0000   104.5490    -2.4870    -5.0550    58.8600     7.6480     6.8290     7.8360    22.7840   -26.4420     2.1780 
  105.1250   104.6710    -2.4980    -5.0820    58.8670     7.7930     6.9340     8.2570    22.7810   -26.4950     2.1700 
  105.2500   104.7920    -2.5090    -5.1100    57.5690     8.0150     7.1090     8.9560    22.3350   -26.5060     2.1710 
  105.3750   104.9140    -2.5200    -5.1370    58.0970     8.2300     7.2920    10.2100    21.7570   -26.5300     2.1800 
  105.5000   105.0350    -2.5310    -5.1650    62.7300     8.3370     7.4010    11.9350    21.4400   -26.5810     2.1990 
  105.6250   105.1560    -2.5420    -5.1930    68.8000     8.2350     7.3500    13.0410    21.4340   -26.6510     2.2220 
  105.7500   105.2780    -2.5530    -5.2200    71.2860     7.9820     7.1660    10.6100    21.4460   -26.7060     2.2410 
  105.8750   105.3990    -2.5640    -5.2480    71.1210     7.6740     6.9090     8.7180    21.4310   -26.7380     2.2510 
  106.0000   105.5210    -2.5750    -5.2750    69.7400     7.4160     6.6600     7.7980    21.4230   -26.7570     2.2500 
  106.1250   105.6420    -2.5860    -5.3030    67.8390     7.3010     6.5040     7.9100    21.4310   -26.7770     2.2380 
  106.2500   105.7640    -2.5970    -5.3300    64.9530     7.3150     6.4560     8.1180    21.4430   -26.7960     2.2250 
  106.3750   105.8850    -2.6080    -5.3580    63.9750     7.4250     6.5040     8.3320    21.4500   -26.7980     2.2170 
  106.5000   106.0060    -2.6190    -5.3850    67.0760     7.5800     6.6100     8.4470    21.4490   -26.8230     2.2150 
  106.6250   106.1280    -2.6300    -5.4130    70.1220     7.7230     6.7210     8.6130    21.4480   -26.9080     2.2140 
  106.7500   106.2490    -2.6410    -5.4410    69.5450     7.8160     6.7990     8.8570    21.4490   -26.9810     2.2120 
  106.8750   106.3710    -2.6520    -5.4680    66.4130     7.8480     6.8330     9.1400    21.4500   -27.0630     2.2080 
  107.0000   106.4920    -2.6630    -5.4960    63.7280     7.8290     6.8280     9.2240    21.4500   -27.1880     2.2020 
  107.1250   106.6130    -2.6740    -5.5230    62.3680     7.7930     6.8030     8.6970    21.4510   -27.3540     2.1940 
  107.2500   106.7350    -2.6850    -5.5510    61.2120     7.7820     6.7880     8.3820    21.4510   -27.5290     2.1870 
  107.3750   106.8560    -2.6960    -5.5780    59.9940     7.8200     6.8020     8.3690    21.4480   -27.7000     2.1830 
  107.5000   106.9780    -2.7070    -5.6060    58.8760     7.9090     6.8510     8.4840    21.4460   -27.8770     2.1840 
  107.6250   107.0990    -2.7180    -5.6340    58.7310     8.0400     6.9330     8.6080    21.4510   -28.0440     2.1890 
  107.7500   107.2200    -2.7290    -5.6610    59.7300     8.1830     7.0330     8.9480    21.4520   -28.1970     2.1970 
  107.8750   107.3420    -2.7400    -5.6890    60.6710     8.3220     7.1420     9.3900    21.4490   -28.3170     2.2030 
  108.0000   107.4630    -2.7510    -5.7160    59.4220     8.4450     7.2490     9.6200    21.4440   -28.3640     2.2080 
  108.1250   107.5850    -2.7620    -5.7440    57.3620     8.5360     7.3410     9.5880    21.4150   -28.4030     2.2090 
  108.2500   107.7060    -2.7730    -5.7710    56.8690     8.5810     7.3980     9.5140    21.3880   -28.4640     2.2080 
  108.3750   107.8280    -2.7840    -5.7990    58.6140     8.5580     7.3940     9.4270    21.3940   -28.5020     2.2070 
  108.5000   107.9490    -2.7950    -5.8270    61.0360     8.4550     7.3150     9.2780    21.4260   -28.5090     2.2060 
  108.6250   108.0700    -2.8060    -5.8540    63.1370     8.2820     7.1650     8.9840    21.4400   -28.5390     2.2050 
  108.7500   108.1920    -2.8170    -5.8820    65.7440     8.0900     6.9870     8.7510    21.4380   -28.6280     2.2050 
  108.8750   108.3130    -2.8280    -5.9090    66.1950     7.9140     6.8140     8.7500    21.4460   -28.7250     2.2060 
  109.0000   108.4350    -2.8390    -5.9370    63.1080     7.7720     6.6700     8.7480    21.4540   -28.8320     2.2080 
  109.1250   108.5560    -2.8500    -5.9640    60.4510     7.6710     6.5690     8.6400    21.4520   -28.9470     2.2080 
  109.2500   108.6770    -2.8610    -5.9920    60.9790     7.5990     6.5060     8.3260    21.4490   -29.0570     2.2080 
  109.3750   108.7980    -2.8730    -6.0240    63.1030     7.5640     6.4810     7.9940    21.4480   -29.1660     2.2060 
