~V
VERS. 2.00: Ver 2.00
~W
STRT.M 22.0000:
STOP.M 238.0000:
STEP.M 0.1250:
NULL. -999.2500:
UWI. FD10612:
~C
DEPT.M :
TVD. :
DX. :
DY. :
GR.API :
RML.OHMM :
RI. :
RXO.OHMM :
CALI.CM :
DEN.GM/CC :
SP.MV :
~A
# ...
  203.5000   187.8460    49.1390    32.5870    55.4400   262.4120   248.3010    25.5110    21.4220     2.2850   -15.1250 
  203.6250   187.9390    49.2070    32.6340    55.6990   250.0860   235.7470    28.9680    21.4850     2.2740   -14.9230 
  203.7500   188.0330    49.2750    32.6820    56.3790   233.5410   218.1740    31.6230    21.4360     2.2730   -14.7120 
  203.8750   188.1270    49.3420    32.7300    56.7960   218.5060   202.0040    29.3400    21.3820     2.2760   -14.6120 
  204.0000   188.2200    49.4100    32.7780    55.5830   208.4940   191.2300    25.8340    21.3630     2.2740   -14.6540 
  204.1250   188.3140    49.4780    32.8250    54.1740   204.8110   187.4790    24.3860    21.4090     2.2660   -14.7030 
  204.2500   188.4070    49.5450    32.8730    54.6440   204.4560   187.7030    25.0290    21.5300     2.2620   -14.8730 
  204.3750   188.5010    49.6130    32.9210    55.6870   204.7970   189.2420    27.2440    21.7000     2.2700   -15.2170 
  204.5000   188.5950    49.6810    32.9690    55.8230   203.8850   189.7420    32.0920    21.8740     2.2850   -15.3990 
  204.6250   188.6880    49.7480    33.0160    54.0320   201.6260   188.1370    36.2900    22.0530     2.2870   -15.4880 
  204.7500   188.7820    49.8160    33.0640    52.9240   198.9430   187.1910    36.6910    22.0910     2.2730   -15.7420 
  204.8750   188.8760    49.8840    33.1120    53.5880   192.0990   188.1740    32.8730    21.9250     2.2620   -15.9340 
  205.0000   188.9690    49.9510    33.1600    55.2130   172.8440   183.9550    28.0680    21.5720     2.2880   -16.0690 
  205.1250   189.0630    50.0190    33.2070    54.9940   134.6840   154.9040    25.4460    21.1720     2.3800   -16.1620 
  205.2500   189.1560    50.0870    33.2550    52.7910    90.2180   106.3310    23.3080    20.8390     2.5050   -16.1100 
  205.3750   189.2500    50.1540    33.3030    50.6320    52.7840    60.3300    21.7510    20.7260     2.6110   -16.1080 
  205.5000   189.3440    50.2220    33.3510    48.3070    28.4150    30.1680    17.2540    20.8910     2.6490   -16.3090 
  205.6250   189.4370    50.2900    33.3980    45.0170    15.9150    16.0210    10.0300    21.1200     2.5970   -16.4890 
  205.7500   189.5310    50.3570    33.4460    41.9270     9.1140     9.4210     5.9460    21.0940     2.5000   -16.6070 
  205.8750   189.6240    50.4250    33.4940    39.9500     5.8760     6.5190     4.3140    20.8680     2.4010   -16.7250 
  206.0000   189.7180    50.4930    33.5410    38.4100     4.7240     5.2420     3.9160    20.6730     2.3320   -16.7970 
  206.1250   189.8120    50.5600    33.5890    36.3890     4.4740     4.8110     3.8140    20.5740     2.3070   -16.8610 
  206.2500   189.9050    50.6280    33.6370    35.1300     4.4640     4.7410     3.7660    20.6420     2.3080   -16.9050 
  206.3750   189.9990    50.6960    33.6850    34.1150     4.5800     4.8360     3.7940    20.9480     2.3210   -16.8550 
  206.5000   190.0930    50.7630    33.7320    32.7540     4.7090     4.9690     3.7830    21.3240     2.3350   -16.6980 
  206.6250   190.1860    50.8310    33.7800    30.6430     4.8040     5.0750     3.8020    21.5460     2.3410   -16.5220 
  206.7500   190.2800    50.8990    33.8280    28.8420     4.8630     5.1460     3.8450    21.5880     2.3420   -16.3590 
  206.8750   190.3730    50.9660    33.8760    28.3750     4.8870     5.1730     3.8600    21.6060     2.3430   -16.2010 
  207.0000   190.4670    51.0340    33.9230    28.4090     4.8780     5.1560     3.8730    21.6780     2.3470   -15.9940 
  207.1250   190.5610    51.1020    33.9710    28.0350     4.8440     5.0920     3.9430    21.7280     2.3570   -15.8310 
  207.2500   190.6540    51.1690    34.0190    27.9670     4.8020     4.9990     4.0160    21.7000     2.3690   -15.7210 
  207.3750   190.7480    51.2370    34.0670    28.5690     4.7650     4.8880     4.1000    21.5790     2.3830   -15.6300 
  207.5000   190.8420    51.3050    34.1140    28.5890     4.7420     4.7720     4.0790    21.4050     2.4000   -15.6470 
  207.6250   190.9350    51.3720    34.1620    27.3960     4.7360     4.6650     4.0550    21.2780     2.4160   -15.6610 
  207.7500   191.0290    51.4400    34.2100    26.6980     4.7430     4.5730     4.0690    21.2250     2.4260   -15.4570 
  207.8750   191.1220    51.5080    34.2580    27.5420     4.7540     4.4980     4.0740    21.2550     2.4260   -15.1960 
  208.0000   191.2160    51.5750    34.3050    28.0580     4.7630     4.4380     4.0610    21.2890     2.4190   -15.0430 
  208.1250   191.3100    51.6430    34.3530    26.6350     4.7590     4.3900     4.1700    21.2590     2.4140   -14.8380 
  208.2500   191.4030    51.7110    34.4010    25.5950     4.7370     4.3430     4.3370    21.1820     2.4160   -14.6620 
  208.3750   191.4970    51.7780    34.4480    26.3160     4.6960     4.2870     4.4250    21.1200     2.4240   -14.4740 
  208.5000   191.5900    51.8460    34.4960    27.5090     4.6410     4.2220     4.1950    21.0970     2.4290   -14.2230 
  208.6250   191.6840    51.9140    34.5440    27.4680     4.5870     4.1530     4.0110    21.0960     2.4250   -14.1030 
  208.7500   191.7780    51.9810    34.5920    27.5840     4.5480     4.0870     3.9220    21.0910     2.4140   -14.1030 
  208.8750   191.8710    52.0490    34.6390    28.5760     4.5290     4.0310     3.9260    21.0900     2.4020   -14.1470 
  209.0000   191.9650    52.1170    34.6870    29.8750     4.5290     3.9900     3.9880    21.1090     2.3950   -14.2320 
  209.1250   192.0590    52.1850    34.7350    30.7440     4.5450     3.9670     4.0660    21.1840     2.3940   -14.3850 
  209.2500   192.1520    52.2520    34.7830    31.1120     4.5700     3.9580     3.9910    21.2170     2.3980   -14.5010 
  209.3750   192.2460    52.3200    34.8300    31.0420     4.5980     3.9610     3.9020    21.2360     2.4030   -14.5670 
  209.5000   192.3390    52.3880    34.8780    30.8570     4.6270     3.9690     3.8900    21.2750     2.4020   -14.5880 
  209.6250   192.4330    52.4550    34.9260    31.9030     4.6590     3.9780     3.9320    21.3510     2.3930   -14.4650 
  209.7500   192.5270    52.5230    34.9740    34.0920     4.6920     3.9840     3.9810    21.3880     2.3760   -14.3890 
  209.8750   192.6200    52.5910    35.0210    36.6070     4.7290     3.9890     4.0040    21.3720     2.3560   -14.3370 
  210.0000   192.7140    52.6580    35.0690    38.2300     4.7710     3.9940     4.0850    21.3380     2.3400   -14.1900 
  210.1250   192.8070    52.7250    35.1180    38.8590     4.8180     4.0060     4.1160    21.3080     2.3390   -14.0500 
  210.2500   192.9010    52.7920    35.1680    39.8190     4.8700     4.0270     4.0720    21.3210     2.3520   -14.0040 
  210.3750   192.9940    52.8590    35.2170    39.7340     4.9240     4.0580     4.0210    21.4090     2.3700   -14.0390 
  210.5000   193.0870    52.9260    35.2660    37.1940     4.9830     4.1010     4.0300    21.5910     2.3800   -14.1320 
  210.6250   193.1810    52.9930    35.3160    33.1160     5.0650     4.1690     4.0690    21.7300     2.3730   -14.3080 
  210.7500   193.2740    53.0600    35.3650    31.6160     5.1860     4.2780     4.0040    21.6160     2.3590   -14.4880 
  210.8750   193.3670    53.1270    35.4140    33.4480     5.3570     4.4320     3.9730    21.2590     2.3620   -14.7050 
  211.0000   193.4600    53.1940    35.4630    36.2320     5.5550     4.6160     4.0330    20.9600     2.4040   -14.9520 
  211.1250   193.5540    53.2610    35.5130    38.0620     5.7060     4.7700     4.0770    20.9080     2.4860   -15.1010 
  211.2500   193.6470    53.3280    35.5620    37.9420     5.7340     4.8280     4.0780    21.0150     2.5650   -15.1090 
  211.3750   193.7400    53.3950    35.6110    36.4960     5.6060     4.7510     4.0820    21.1920     2.6030   -15.0800 
  211.5000   193.8340    53.4620    35.6610    34.8380     5.3500     4.5490     4.1130    21.3780     2.5820   -15.0340 
  211.6250   193.9270    53.5290    35.7100    34.3000     5.0480     4.2780     4.0810    21.4660     2.5130   -14.9330 
