~V
VERS. 2.00: Ver 2.00
~W
STRT.M 62.0000:
STOP.M 282.0000:
STEP.M 0.1250:
NULL. -999.2500:
UWI. FD10887:
~C
DEPT.M :
TVD. :
DX. :
DY. :
SP.MV :
GR.API :
RI. :
RML.OHMM :
RXO.OHMM :
DEN.GM/CC :
~A
   62.0000    62.0000     0.0000     0.0000    48.5630    44.5530     0.2460     0.1360     0.4790     2.3270 
   62.1250    62.1250    -0.0020     0.0010    49.6310    41.8110     0.2620     0.1350     0.4590     2.3150 
   62.2500    62.2500    -0.0040     0.0030    50.9680    38.1380     0.2500     0.1310     0.4420     2.3020 
   62.3750    62.3750    -0.0060     0.0040    52.4540    35.8640     0.2490     0.1210     0.4390     2.2880 
   62.5000    62.5000    -0.0080     0.0050    53.8150    35.0650     0.1760     0.1020     0.4370     2.2760 
   62.6250    62.6250    -0.0100     0.0070    54.7220    35.4430     0.1240     0.0710     0.4360     2.2720 
   62.7500    62.7500    -0.0120     0.0080    55.0090    35.9370     0.0940     0.0440     0.4510     2.2760 
   62.8750    62.8750    -0.0140     0.0100    54.5820    36.3140     0.0550     0.0280     0.4300     2.2870 
   63.0000    63.0000    -0.0160     0.0110    53.5810    36.5880     0.0650     0.0310     1.0460     2.3040 
   63.1250    63.1250    -0.0180     0.0130    52.0920    37.3490     0.0900     0.0540     2.6800     2.3230 
   63.2500    63.2500    -0.0200     0.0140    50.2460    40.5840     0.1690     0.1150     3.7160     2.3380 
   63.3750    63.3750    -0.0220     0.0160    48.0890    46.2440     0.3550     0.2850     3.8230     2.3360 
   63.5000    63.5000    -0.0250     0.0170    45.7280    51.8850     0.7110     0.6290     4.3540     2.3080 
   63.6250    63.6250    -0.0270     0.0190    43.2520    55.2980     1.3920     1.3050     5.1380     2.2520 
   63.7500    63.7500    -0.0290     0.0210    40.7410    56.5840     2.2710     2.2540     5.4970     2.1880 
   63.8750    63.8750    -0.0310     0.0220    38.2040    57.3190     3.1570     3.1850     5.5550     2.1360 
   64.0000    64.0000    -0.0330     0.0240    35.6280    56.6640     3.9220     3.9000     5.5340     2.1090 
   64.1250    64.1250    -0.0350     0.0260    33.0280    54.3160     4.4000     4.2360     5.4710     2.1020 
   64.2500    64.2500    -0.0370     0.0270    30.4640    51.2770     4.7500     4.3460     5.4570     2.1020 
   64.3750    64.3740    -0.0390     0.0290    28.0190    50.5250     5.0480     4.4620     5.5220     2.1000 
   64.5000    64.4990    -0.0420     0.0310    25.7470    51.8400     5.2850     4.6420     5.6130     2.0940 
   64.6250    64.6240    -0.0440     0.0330    23.7080    53.2930     5.4420     4.8460     5.7010     2.0850 
   64.7500    64.7490    -0.0460     0.0350    21.9050    53.0010     5.5450     5.0270     5.7450     2.0790 
   64.8750    64.8740    -0.0480     0.0370    20.3510    51.1990     5.6250     5.1500     5.7410     2.0780 
   65.0000    64.9990    -0.0510     0.0390    18.9970    50.3340     5.6360     5.2330     5.6970     2.0790 
   65.1250    65.1240    -0.0530     0.0410    17.8220    51.9820     5.6830     5.2700     5.6000     2.0790 
   65.2500    65.2490    -0.0550     0.0430    16.7820    53.5700     5.7040     5.3290     5.5120     2.0760 
   65.3750    65.3740    -0.0580     0.0450    15.8600    52.6120     5.7410     5.4110     5.5280     2.0700 
   65.5000    65.4990    -0.0600     0.0470    15.0230    51.3370     5.8130     5.5200     5.5690     2.0650 
   65.6250    65.6240    -0.0630     0.0490    14.2590    53.6460     5.8670     5.6470     5.5270     2.0660 
   65.7500    65.7490    -0.0650     0.0520    13.5580    58.1660     5.9330     5.7280     5.4720     2.0750 
   65.8750    65.8740    -0.0680     0.0540    12.9340    60.6670     6.0230     5.7790     5.4280     2.0880 
   66.0000    65.9990    -0.0700     0.0560    12.3860    59.9850     6.0650     5.8160     5.3730     2.0970 
   66.1250    66.1240    -0.0720     0.0590    11.9040    59.4260     6.0480     5.8360     5.4370     2.1010 
   66.2500    66.2490    -0.0750     0.0610    11.4560    61.1780     6.0370     5.8470     6.4900     2.1040 
   66.3750    66.3740    -0.0780     0.0640    11.0230    62.6210     5.9910     5.8370     7.8020     2.1090 
   66.5000    66.4990    -0.0800     0.0660    10.6040    61.2990     5.9520     5.8250     7.1990     2.1160 
   66.6250    66.6240    -0.0830     0.0690    10.2170    59.5600     5.8800     5.8130     5.7830     2.1210 
   66.7500    66.7490    -0.0850     0.0710     9.8690    61.5740     5.7890     5.8250     5.2210     2.1250 
   66.8750    66.8740    -0.0880     0.0740     9.5620    63.9300     5.6680     5.8790     5.0880     2.1330 
   67.0000    66.9990    -0.0900     0.0770     9.2870    63.5470     5.6660     5.9710     5.1050     2.1430 
   67.1250    67.1230    -0.0930     0.0800     9.0490    61.5120     5.7130     6.0810     5.1680     2.1490 
   67.2500    67.2480    -0.0960     0.0820     8.8590    60.9060     5.8610     6.1540     5.1850     2.1440 
   67.3750    67.3730    -0.0980     0.0850     8.7230    60.8390     5.9960     6.1440     5.1800     2.1310 
   67.5000    67.4980    -0.1010     0.0880     8.6180    59.7810     6.1360     6.1130     5.2470     2.1210 
   67.6250    67.6230    -0.1040     0.0910     8.5050    58.6460     6.2690     6.1210     5.4860     2.1170 
   67.7500    67.7480    -0.1060     0.0940     8.3470    58.5760     6.3940     6.2410     5.7220     2.1170 
   67.8750    67.8730    -0.1090     0.0970     8.1130    60.1710     6.5470     6.4520     5.7600     2.1180 
   68.0000    67.9980    -0.1120     0.1000     7.7960    61.2670     6.6100     6.6850     5.3390     2.1160 
   68.1250    68.1230    -0.1140     0.1030     7.3830    61.1990     6.7480     6.9440     4.7770     2.1080 
   68.2500    68.2480    -0.1170     0.1060     6.8920    61.5540     6.8220     7.1070     4.9750     2.0960 
   68.3750    68.3730    -0.1200     0.1090     6.3470    63.6940     6.6450     7.0260     5.6380     2.0890 
   68.5000    68.4980    -0.1230     0.1120     5.7960    64.7140     6.3530     6.6220     5.9780     2.0950 
   68.6250    68.6230    -0.1250     0.1150     5.2790    63.2750     5.7070     5.9580     5.6240     2.1120 
   68.7500    68.7480    -0.1280     0.1190     4.8140    62.5460     5.0610     5.3000     4.5390     2.1320 
   68.8750    68.8730    -0.1310     0.1220     4.4120    66.5530     4.6530     4.9140     3.5550     2.1490 
   69.0000    68.9970    -0.1340     0.1250     4.0870    73.0390     4.3300     4.8470     3.5740     2.1630 
   69.1250    69.1220    -0.1370     0.1290     3.8820    75.9710     4.4080     5.1000     4.1690     2.1750 
   69.2500    69.2470    -0.1390     0.1320     3.8160    72.9480     4.7640     5.6230     4.5180     2.1790 
   69.3750    69.3720    -0.1420     0.1350     3.8930    67.7630     5.1450     6.2100     4.8450     2.1700 
   69.5000    69.4970    -0.1450     0.1390     4.0490    64.9180     5.6460     6.7280     5.2110     2.1530 
   69.6250    69.6220    -0.1480     0.1420     4.2200    65.4020     5.9900     7.0190     5.3410     2.1350 
   69.7500    69.7470    -0.1510     0.1460     4.3680    65.7150     6.0710     7.1420     5.4060     2.1240 
   69.8750    69.8720    -0.1540     0.1500     4.4920    63.9110     6.1990     7.2260     5.5010     2.1170 
   70.0000    69.9970    -0.1570     0.1530     4.6160    61.8070     6.2690     7.3100     5.6290     2.1130 
   70.1250    70.1220    -0.1600     0.1570     4.7600    60.5550     6.2480     7.4310     5.8550     2.1110 
   70.2500    70.2470    -0.1630     0.1610     4.9220    60.7250     6.3570     7.5740     5.9880     2.1120 
   70.3750    70.3720    -0.1650     0.1650     5.0910    60.9330     6.4170     7.6580     6.0570     2.1180 
   70.5000    70.4960    -0.1680     0.1690     5.2470    61.3530     6.3260     7.6580     6.2220     2.1260 
   70.6250    70.6210    -0.1710     0.1730     5.3560    61.5400     6.2540     7.5380     6.2540     2.1300 
   70.7500    70.7460    -0.1740     0.1770     5.3810    61.6200     6.1320     7.3350     6.1610     2.1310 
   70.8750    70.8710    -0.1770     0.1810     5.2790    61.3920     5.9310     7.0540     6.0120     2.1310 
   71.0000    70.9960    -0.1800     0.1850     5.0480    61.0990     5.7620     6.8790     5.7590     2.1320 
