~V
VERS. 2.00: Ver 2.00
~W
STRT.M 15.0000:
STOP.M 282.0000:
STEP.M 0.1250:
NULL. -999.2500:
UWI. FD10218:
~C
DEPT.M :
TVD. :
DX. :
DY. :
DEN.GM/CC :
GR.API :
RML.OHMM :
RI. :
RXO.OHMM :
CALI.CM :
SP.MV :
~A
# ...
  204.7500   201.2430    18.9930    18.0180     2.5030    75.4080    13.9580     9.2060    11.5910    22.5780   -38.0130 
  204.8750   201.3600    19.0220    18.0480     2.5600    72.8220    17.0590    11.1540    15.2930    22.5450   -37.1150 
  205.0000   201.4780    19.0510    18.0780     2.6100    72.8950    21.1640    14.0250    18.7140    22.5360   -36.0490 
  205.1250   201.5960    19.0800    18.1070     2.6520    71.7380    25.7070    17.9950    21.6520    22.4890   -34.8510 
  205.2500   201.7140    19.1100    18.1370     2.6910    69.4580    29.0170    21.9760    23.7650    22.4020   -33.6250 
  205.3750   201.8320    19.1390    18.1660     2.7240    70.9590    29.3470    23.8730    25.0500    22.3440   -32.4590 
  205.5000   201.9500    19.1680    18.1960     2.7370    78.3900    25.9330    21.8110    25.4280    22.3200   -31.3840 
  205.6250   202.0680    19.1980    18.2260     2.7050    85.2530    19.7430    16.4970    27.2310    22.3270   -30.4770 
  205.7500   202.1860    19.2270    18.2550     2.6270    85.9760    13.6950    11.3170    24.8390    22.4000   -29.6310 
  205.8750   202.3030    19.2560    18.2850     2.5210    82.3150     9.2850     7.5520    17.5150    22.4230   -28.7940 
  206.0000   202.4210    19.2860    18.3140     2.4230    79.0650     6.7630     5.2480    11.0450    21.9700   -27.8600 
  206.1250   202.5390    19.3150    18.3440     2.3730    76.9160     5.7850     4.1470     9.4010    20.5520   -26.7330 
  206.2500   202.6570    19.3440    18.3740     2.3660    75.2770     5.5230     3.6970     9.2880    18.8630   -25.4300 
  206.3750   202.7750    19.3730    18.4030     2.3760    73.3540     5.6200     3.6670     9.1600    17.6210   -23.8740 
  206.5000   202.8930    19.4030    18.4330     2.3690    71.5520     5.8310     3.8570     8.7960    16.8180   -22.1390 
  206.6250   203.0110    19.4320    18.4620     2.3200    76.1820     5.9600     4.0650     8.5570    16.5960   -20.2780 
  206.7500   203.1280    19.4610    18.4920     2.2450    85.9080     5.9420     4.1530     8.5750    16.9430   -18.5150 
  206.8750   203.2460    19.4910    18.5220     2.1690    93.7780     5.8040     4.1120     8.4630    18.0910   -16.8530 
  207.0000   203.3640    19.5200    18.5510     2.1190    96.4950     5.6190     4.0010     8.4410    20.0200   -15.3550 
  207.1250   203.4820    19.5490    18.5810     2.1150    95.6600     5.4700     3.8980     8.2590    22.2350   -14.0590 
  207.2500   203.6000    19.5790    18.6100     2.1480    93.5280     5.3920     3.8490     8.1670    23.7140   -12.9710 
  207.3750   203.7180    19.6080    18.6400     2.2060    89.9720     5.3900     3.8620     8.2590    24.3510   -12.1520 
  207.5000   203.8360    19.6370    18.6700     2.2720    86.7520     5.4440     3.9170     8.7290    24.5220   -11.6110 
  207.6250   203.9530    19.6660    18.6990     2.3260    84.7440     5.5310     3.9810     9.1650    24.6270   -11.2670 
  207.7500   204.0710    19.6960    18.7290     2.3590    82.2370     5.6230     4.0290     9.1250    24.7220   -11.0000 
  207.8750   204.1890    19.7250    18.7580     2.3740    82.3840     5.7120     4.0570     8.7440    24.7700   -10.7960 
  208.0000   204.3070    19.7540    18.7880     2.3790    86.6120     5.7960     4.0720     8.6790    24.7670   -10.6750 
  208.1250   204.4250    19.7840    18.8180     2.3810    92.9940     5.8670     4.0800     8.9830    24.6800   -10.6650 
  208.2500   204.5430    19.8130    18.8470     2.3860    96.8260     5.9160     4.0770     9.7990    24.4610   -10.7810 
  208.3750   204.6610    19.8420    18.8770     2.3900    96.2810     5.9360     4.0520    10.4350    24.2190   -10.9600 
  208.5000   204.7780    19.8710    18.9060     2.3910    91.9160     5.9310     4.0000    10.4100    24.0990   -11.1240 
  208.6250   204.8960    19.9010    18.9360     2.3900    86.9070     5.9240     3.9360     9.8800    24.3310   -11.2990 
  208.7500   205.0140    19.9300    18.9660     2.3890    85.8380     5.9480     3.8880     9.6540    24.6170   -11.4440 
  208.8750   205.1320    19.9600    18.9950     2.3890    90.3930     6.0360     3.8830     9.5490    24.7940   -11.5830 
  209.0000   205.2490    19.9900    19.0250     2.3870    96.5970     6.2200     3.9460     9.6800    24.9110   -11.6960 
  209.1250   205.3670    20.0200    19.0550     2.3810    97.6790     6.5630     4.1280    10.2030    24.8930   -11.8100 
  209.2500   205.4850    20.0500    19.0850     2.3710    94.0910     7.0770     4.4440    11.1510    24.8480   -11.7770 
  209.3750   205.6020    20.0800    19.1150     2.3580    90.7580     7.7840     4.9230    11.8590    24.7840   -11.6710 
  209.5000   205.7200    20.1100    19.1450     2.3450    88.9640     8.6800     5.5810    12.3900    24.6950   -11.5160 
  209.6250   205.8370    20.1400    19.1750     2.3340    86.7720     9.7370     6.4260    13.3990    24.5800   -11.3370 
  209.7500   205.9550    20.1700    19.2040     2.3270    84.5820    10.8380     7.3640    14.8470    24.3940   -11.1580 
  209.8750   206.0730    20.2000    19.2340     2.3250    84.4630    11.8620     8.2990    16.2560    24.1330   -11.0070 
  210.0000   206.1900    20.2290    19.2640     2.3260    85.7740    12.6800     9.1090    17.7320    23.8670   -10.9040 
  210.1250   206.3080    20.2590    19.2940     2.3280    86.8070    13.1130     9.6080    17.3880    23.6090   -10.8540 
  210.2500   206.4260    20.2890    19.3240     2.3280    87.0930    13.1930     9.7640    16.5230    23.3690   -10.9390 
  210.3750   206.5430    20.3190    19.3540     2.3300    86.6750    13.0330     9.6240    16.2250    23.0750   -11.1020 
  210.5000   206.6610    20.3490    19.3840     2.3350    84.7300    12.8710     9.3460    16.4050    22.7470   -11.3410 
  210.6250   206.7790    20.3790    19.4130     2.3450    83.3250    13.1470     9.2170    15.4940    22.4520   -11.6540 
  210.7500   206.8960    20.4090    19.4430     2.3550    84.3480    14.1990     9.5150    14.2990    22.2560   -12.0110 
  210.8750   207.0140    20.4390    19.4730     2.3590    86.3670    16.3420    10.5020    14.1270    22.0910   -12.4040 
  211.0000   207.1320    20.4690    19.5030     2.3550    86.6790    19.8160    12.4670    15.7890    21.9070   -12.8400 
  211.1250   207.2490    20.4990    19.5330     2.3400    84.9530    24.9480    15.9750    18.2800    21.7860   -13.2990 
  211.2500   207.3670    20.5290    19.5630     2.3170    80.7460    31.2410    20.9560    20.2110    21.7210   -13.8000 
  211.3750   207.4840    20.5590    19.5930     2.2910    74.5790    38.0410    27.0240    21.7940    21.6780   -14.3150 
  211.5000   207.6020    20.5890    19.6220     2.2660    70.7460    44.4420    33.2080    22.8050    21.6390   -14.8580 
  211.6250   207.7200    20.6180    19.6520     2.2450    72.2260    49.4130    38.1750    23.0320    21.6240   -15.3740 
  211.7500   207.8370    20.6480    19.6820     2.2300    73.1660    53.0030    41.7430    22.4750    21.6140   -15.8670 
  211.8750   207.9550    20.6780    19.7120     2.2190    72.8230    55.6340    44.3080    21.5960    21.5990   -16.2670 
  212.0000   208.0730    20.7080    19.7420     2.2130    73.9370    57.8590    46.4060    21.2640    21.5760   -16.6010 
  212.1250   208.1900    20.7380    19.7720     2.2100    75.2210    60.0950    48.4100    22.0580    21.5500   -16.8670 
  212.2500   208.3080    20.7680    19.8020     2.2080    72.4280    62.5310    50.4810    22.8200    21.5350   -17.0270 
  212.3750   208.4250    20.7980    19.8310     2.2120    68.2820    65.2780    52.7430    22.8700    21.5500   -17.1410 
  212.5000   208.5430    20.8280    19.8610     2.2300    67.1850    68.3790    55.3940    22.3450    21.5470   -17.1660 
  212.6250   208.6610    20.8580    19.8910     2.2680    68.6330    71.3230    58.5330    21.7660    21.5380   -17.1180 
  212.7500   208.7780    20.8880    19.9210     2.3140    69.0720    72.6930    61.1650    21.6330    21.5130   -16.9450 
  212.8750   208.8960    20.9180    19.9510     2.3520    68.1120    70.8600    61.5050    22.2280    21.4960   -16.7310 
