~V
VERS. 2.00: Ver 2.00
~W
STRT.M 30.0000:
STOP.M 210.0000:
STEP.M 0.1250:
NULL. -999.2500:
UWI. FD10800:
~C
DEPT.M :
TVD. :
DX. :
DY. :
SP.MV :
GR.API :
RI. :
RML.OHMM :
RXO.OHMM :
DEN.GM/CC :
~A
# ...
   66.5000    66.4930    -0.6270    -0.2190   -37.0870    77.9080     3.3260     5.7040     4.5100     2.1160 
   66.6250    66.6180    -0.6300    -0.2180   -36.8580    80.2820     3.2390     5.4980     4.2580     2.1150 
   66.7500    66.7430    -0.6330    -0.2170   -36.7110    83.4460     3.1790     5.3120     3.7510     2.1240 
   66.8750    66.8680    -0.6360    -0.2150   -36.6620    83.8760     3.1810     5.2640     3.5030     2.1220 
   67.0000    66.9930    -0.6390    -0.2140   -36.8300    81.0180     3.2540     5.3770     3.8530     2.1060 
   67.1250    67.1180    -0.6420    -0.2130   -37.0820    76.6250     3.3930     5.6090     4.0810     2.0900 
   67.2500    67.2420    -0.6450    -0.2120   -37.1210    73.5600     3.5280     5.8090     4.1020     2.0850 
   67.3750    67.3670    -0.6490    -0.2100   -36.5960    73.0220     3.5860     5.8770     4.6080     2.0960 
   67.5000    67.4920    -0.6520    -0.2090   -35.5680    74.4860     3.6160     5.8790     4.9460     2.1180 
   67.6250    67.6170    -0.6550    -0.2070   -34.1290    79.4240     3.5150     5.5970     4.5290     2.1630 
   67.7500    67.7420    -0.6580    -0.2060   -32.4110    87.3880     3.3940     5.3170     4.6770     2.2210 
   67.8750    67.8670    -0.6620    -0.2040   -30.8770    97.3360     3.2420     5.0420     4.8870     2.2660 
   68.0000    67.9920    -0.6650    -0.2020   -29.6580   103.1070     3.0880     4.8460     3.8050     2.2750 
   68.1250    68.1170    -0.6680    -0.2000   -28.8610   103.5280     2.9470     4.7060     3.0010     2.2580 
   68.2500    68.2420    -0.6710    -0.1990   -28.4980   101.1710     2.8330     4.6180     3.0080     2.2520 
   68.3750    68.3670    -0.6750    -0.1970   -28.4440   100.7930     2.7320     4.4400     3.0850     2.2660 
   68.5000    68.4920    -0.6780    -0.1940   -28.5420   103.4270     2.6400     4.2430     3.1620     2.2800 
   68.6250    68.6170    -0.6820    -0.1920   -28.9140   103.4850     2.8140     4.5110     3.0960     2.2710 
   68.7500    68.7420    -0.6850    -0.1900   -29.5900   100.2650     3.2720     5.3320     3.3480     2.2650 
   68.8750    68.8670    -0.6890    -0.1880   -30.5520    92.9680     4.1330     6.9030    12.3710     2.2760 
   69.0000    68.9920    -0.6920    -0.1850   -31.7810    84.7290     5.2260     8.9910    29.8220     2.2920 
   69.1250    69.1170    -0.6960    -0.1830   -33.1350    75.5680     6.2850    10.9750    33.5720     2.2820 
   69.2500    69.2410    -0.6990    -0.1800   -34.5270    66.1220     6.6390    11.4290    20.0710     2.2280 
   69.3750    69.3660    -0.7030    -0.1770   -35.5530    61.6490     6.0840    10.1440     8.6150     2.1550 
   69.5000    69.4910    -0.7060    -0.1750   -36.0630    63.1850     5.0640     8.0060     5.2820     2.1100 
   69.6250    69.6160    -0.7100    -0.1720   -35.9720    70.5610     4.1660     6.2750     4.4110     2.1290 
   69.7500    69.7410    -0.7130    -0.1690   -35.5890    77.6220     4.0730     6.2020     3.9650     2.2140 
   69.8750    69.8660    -0.7170    -0.1660   -35.2870    79.7920     4.5790     7.2470    11.7150     2.3060 
   70.0000    69.9910    -0.7200    -0.1620   -35.5850    77.1640     5.2520     8.6350    29.4870     2.3380 
   70.1250    70.1160    -0.7240    -0.1590   -36.5800    70.5680     5.7900     9.6840    35.5610     2.2630 
   70.2500    70.2410    -0.7280    -0.1560   -37.9110    65.0230     5.8500     9.7410    21.7970     2.1460 
   70.3750    70.3660    -0.7310    -0.1520   -39.0960    62.8010     5.4800     8.9610     8.7910     2.0670 
   70.5000    70.4910    -0.7350    -0.1490   -39.8810    63.8620     4.8850     7.7690     5.6020     2.0460 
   70.6250    70.6150    -0.7380    -0.1450   -40.3630    65.7640     4.3500     6.8870     5.7960     2.0590 
   70.7500    70.7400    -0.7420    -0.1410   -40.6950    66.4250     4.1090     6.5890     5.9640     2.0710 
   70.8750    70.8650    -0.7460    -0.1380   -40.9310    66.8620     4.1060     6.7050     5.8670     2.0680 
   71.0000    70.9900    -0.7490    -0.1340   -41.0340    66.4110     4.1350     6.8420     5.6690     2.0640 
   71.1250    71.1150    -0.7530    -0.1300   -41.1070    66.1590     4.1860     6.9320     5.5780     2.0660 
   71.2500    71.2400    -0.7570    -0.1260   -41.2240    65.4650     4.3120     7.1880     5.5950     2.0900 
   71.3750    71.3650    -0.7610    -0.1220   -41.3850    66.5120     4.4510     7.4580     6.1510     2.1340 
   71.5000    71.4900    -0.7650    -0.1180   -41.5730    68.1380     4.5670     7.7030     8.2560     2.1800 
   71.6250    71.6150    -0.7690    -0.1140   -41.7430    68.5800     4.6150     7.7790     9.3620     2.1980 
   71.7500    71.7390    -0.7730    -0.1090   -41.9190    67.9670     4.5820     7.6890     7.1940     2.1770 
   71.8750    71.8640    -0.7770    -0.1050   -42.0480    66.7980     4.5120     7.5230     5.4280     2.1610 
   72.0000    71.9890    -0.7810    -0.1010   -42.1770    66.6850     4.4530     7.4150     5.4200     2.1840 
   72.1250    72.1140    -0.7850    -0.0960   -42.2800    66.6340     4.4160     7.3730     5.5550     2.2710 
   72.2500    72.2390    -0.7900    -0.0920   -42.3430    66.2840     4.4200     7.4720     5.5410     2.3770 
   72.3750    72.3640    -0.7940    -0.0880   -42.3720    65.9760     4.4130     7.5140     5.3210     2.4290 
   72.5000    72.4880    -0.7980    -0.0830   -42.4310    66.1540     4.3460     7.3650     5.4000     2.3800 
   72.6250    72.6130    -0.8030    -0.0790   -42.5420    66.1500     4.4080     7.4650     5.8280     2.2710 
   72.7500    72.7380    -0.8080    -0.0740   -42.7130    65.7420     4.8400     8.2430     5.9970     2.2120 
   72.8750    72.8630    -0.8120    -0.0690   -42.7600    63.2320     5.4550     9.4410    22.8320     2.2640 
   73.0000    72.9880    -0.8170    -0.0650   -42.6350    60.0020     6.0920    10.6770    67.0570     2.3620 
   73.1250    73.1130    -0.8220    -0.0600   -42.4300    57.4740     6.4580    11.4140    79.8920     2.4020 
   73.2500    73.2370    -0.8270    -0.0550   -42.2350    57.7310     6.3670    11.1830    38.1440     2.3360 
   73.3750    73.3620    -0.8320    -0.0500   -42.1310    60.8050     5.8250    10.0160     8.5430     2.2230 
   73.5000    73.4870    -0.8370    -0.0460   -42.0820    64.2720     5.1030     8.6200     6.1050     2.1400 
   73.6250    73.6120    -0.8420    -0.0410   -42.1080    66.6270     4.4130     7.4080     5.9780     2.1170 
   73.7500    73.7370    -0.8480    -0.0360   -42.1260    66.6890     4.0110     6.8350     5.8300     2.1130 
   73.8750    73.8610    -0.8530    -0.0310   -42.1690    66.0920     3.9720     6.8890     5.6910     2.1000 
   74.0000    73.9860    -0.8590    -0.0260   -42.2040    66.1240     3.9890     6.9440     5.6800     2.0750 
   74.1250    74.1110    -0.8640    -0.0210   -42.1820    67.6120     3.9900     6.9120     5.7050     2.0570 
   74.2500    74.2360    -0.8700    -0.0160   -42.0960    69.3340     3.9760     6.8750     5.6460     2.0500 
   74.3750    74.3600    -0.8760    -0.0110   -41.8960    70.2470     3.9500     6.7040     5.5800     2.0580 
   74.5000    74.4850    -0.8820    -0.0060   -41.6310    69.5390     3.9200     6.4310     5.6110     2.0670 
   74.6250    74.6100    -0.8880    -0.0010   -41.3530    67.9650     3.9080     6.1390     5.6950     2.0700 
   74.7500    74.7350    -0.8940     0.0050   -41.0920    66.8560     3.9390     5.8600     5.7660     2.0670 
   74.8750    74.8590    -0.9000     0.0100   -40.8000    67.5810     4.0110     5.7080     5.8340     2.0660 
   75.0000    74.9840    -0.9060     0.0150   -40.4410    68.5130     4.0980     5.6310     5.8810     2.0660 
   75.1250    75.1090    -0.9130     0.0210   -39.9100    66.5430     4.1840     5.5620     5.7780     2.0640 
   75.2500    75.2340    -0.9190     0.0270   -39.2410    63.0240     4.2590     5.5290     5.5460     2.0490 
   75.3750    75.3580    -0.9260     0.0320   -38.3880    61.1650     4.2930     5.4820     5.4490     2.0400 
   75.5000    75.4830    -0.9320     0.0380   -37.3520    64.1690     4.2530     5.3670     5.5620     2.0490 
