~V
VERS. 2.00: Ver 2.00
~W
STRT.M 65.0000:
STOP.M 248.0000:
STEP.M 0.1250:
NULL. -999.2500:
UWI. FD10900:
~C
DEPT.M :
TVD. :
DX. :
DY. :
SP.MV :
GR.API :
RI. :
RML.OHMM :
RXO.OHMM :
DEN.GM/CC :
~A
# ...
   74.1250    74.1230    -0.2010    -0.0310   -20.7690    65.5420     5.3450     7.6900     6.8540     2.1250 
   74.2500    74.2480    -0.2040    -0.0310   -20.4970    65.7510     5.4900     7.8910     6.9070     2.1380 
   74.3750    74.3730    -0.2080    -0.0310   -20.1470    67.8150     5.5530     7.8740     7.1820     2.1600 
   74.5000    74.4980    -0.2110    -0.0320   -19.6170    71.0210     5.3510     7.4610     7.6650     2.1920 
   74.6250    74.6230    -0.2140    -0.0320   -18.9610    74.2580     4.8920     6.7030     7.2980     2.2260 
   74.7500    74.7480    -0.2170    -0.0330   -18.1840    78.2790     4.3190     5.8110     5.5640     2.2490 
   74.8750    74.8720    -0.2210    -0.0330   -17.3380    82.8180     3.8290     5.0720     4.0010     2.2590 
   75.0000    74.9970    -0.2240    -0.0330   -16.4860    88.0680     3.5590     4.6700     3.6090     2.2620 
   75.1250    75.1220    -0.2270    -0.0340   -15.7190    90.8950     3.5000     4.6100     3.7700     2.2640 
   75.2500    75.2470    -0.2300    -0.0340   -15.1720    92.1510     3.6190     4.8350     4.1400     2.2650 
   75.3750    75.3720    -0.2340    -0.0350   -14.9000    90.1690     3.8270     5.1830     4.6120     2.2620 
   75.5000    75.4970    -0.2370    -0.0350   -14.8970    86.3070     4.0340     5.4850     4.8900     2.2540 
   75.6250    75.6220    -0.2410    -0.0350   -15.0130    82.8810     4.1860     5.6440     4.9680     2.2450 
   75.7500    75.7470    -0.2440    -0.0360   -15.1320    83.3330     4.2490     5.6260     4.9700     2.2390 
   75.8750    75.8720    -0.2470    -0.0360   -15.1970    88.3840     4.2000     5.4550     4.7890     2.2370 
   76.0000    75.9970    -0.2510    -0.0360   -15.1330    93.8940     4.0200     5.1850     4.3360     2.2350 
   76.1250    76.1220    -0.2540    -0.0370   -14.9990    98.4560     3.7770     4.9170     3.8780     2.2330 
   76.2500    76.2470    -0.2580    -0.0370   -14.7260    98.8370     3.5620     4.7280     3.7740     2.2370 
   76.3750    76.3720    -0.2610    -0.0370   -14.4270    97.3080     3.4250     4.6220     3.9140     2.2470 
   76.5000    76.4970    -0.2650    -0.0380   -14.2160    96.2710     3.3760     4.5670     3.9910     2.2570 
   76.6250    76.6220    -0.2680    -0.0380   -14.1670    95.7690     3.4060     4.5700     4.0220     2.2680 
   76.7500    76.7470    -0.2720    -0.0380   -14.2350    94.3630     3.5910     4.7740     4.0310     2.2980 
   76.8750    76.8720    -0.2750    -0.0390   -14.3450    89.3830     4.0880     5.4320     4.4740     2.3610 
   77.0000    76.9970    -0.2790    -0.0390   -14.5060    82.7870     5.2880     7.1000     7.9890     2.4510 
   77.1250    77.1220    -0.2820    -0.0390   -14.7330    76.4120     7.7160    10.4300    16.7540     2.5400 
   77.2500    77.2470    -0.2860    -0.0390   -14.9400    71.6770    11.8450    15.9050    28.5870     2.6040 
   77.3750    77.3710    -0.2890    -0.0400   -15.1370    68.2550    16.8760    22.2830    37.3280     2.6370 
   77.5000    77.4960    -0.2930    -0.0400   -15.4090    65.2460    21.2680    27.4310    40.1090     2.6440 
   77.6250    77.6210    -0.2970    -0.0400   -15.7900    62.2280    23.5750    29.6500    40.7580     2.6360 
   77.7500    77.7460    -0.3000    -0.0410   -16.1990    60.7630    22.8820    28.0860    41.6890     2.6160 
   77.8750    77.8710    -0.3040    -0.0410   -16.5510    60.1740    19.9750    24.0340    39.5070     2.5770 
   78.0000    77.9960    -0.3080    -0.0410   -16.9850    61.9940    15.9720    18.9940    31.4970     2.5100 
   78.1250    78.1210    -0.3120    -0.0410   -17.4740    65.6890    12.0480    14.2430    21.5010     2.4150 
   78.2500    78.2460    -0.3150    -0.0420   -17.9800    70.8960     9.0060    10.6550    13.6710     2.3110 
   78.3750    78.3710    -0.3190    -0.0420   -18.4590    75.5720     7.0340     8.4090     9.1280     2.2250 
   78.5000    78.4960    -0.3230    -0.0420   -18.9800    78.2370     6.0070     7.3480     7.3270     2.1710 
   78.6250    78.6210    -0.3270    -0.0430   -19.4540    78.5550     5.5700     7.0150     6.7790     2.1440 
   78.7500    78.7460    -0.3310    -0.0430   -19.8920    76.8280     5.5080     7.0980     6.7680     2.1360 
   78.8750    78.8710    -0.3350    -0.0430   -20.3130    73.7630     5.5900     7.2980     6.7760     2.1370 
   79.0000    78.9960    -0.3380    -0.0430   -20.7050    73.0250     5.7020     7.4790     6.6550     2.1380 
   79.1250    79.1210    -0.3420    -0.0440   -21.0260    72.8400     5.8030     7.6090     6.7840     2.1340 
   79.2500    79.2460    -0.3460    -0.0440   -21.2490    72.6640     5.9040     7.7200     7.2850     2.1240 
   79.3750    79.3710    -0.3500    -0.0440   -21.3700    70.4650     6.0120     7.8310     7.7030     2.1150 
   79.5000    79.4960    -0.3540    -0.0440   -21.4880    68.1570     6.0870     7.9190     7.8140     2.1140 
   79.6250    79.6200    -0.3580    -0.0450   -21.6560    66.9660     6.0990     7.9440     7.7810     2.1190 
   79.7500    79.7450    -0.3620    -0.0450   -21.8110    68.5830     6.0410     7.8750     7.8140     2.1260 
   79.8750    79.8700    -0.3660    -0.0450   -21.8810    71.3580     5.9470     7.7490     8.0220     2.1310 
   80.0000    79.9950    -0.3700    -0.0450   -21.9020    75.2830     5.8700     7.6400     8.1740     2.1300 
   80.1250    80.1200    -0.3750    -0.0460   -21.8660    77.8640     5.8360     7.6100     7.9610     2.1240 
   80.2500    80.2450    -0.3790    -0.0460   -21.8510    78.2190     5.8410     7.7080     7.4220     2.1180 
   80.3750    80.3700    -0.3830    -0.0460   -21.9420    76.1020     5.8530     7.9230     6.9180     2.1170 
   80.5000    80.4950    -0.3870    -0.0460   -22.1140    73.5840     5.8540     8.1960     6.7360     2.1220 
   80.6250    80.6200    -0.3910    -0.0460   -22.3160    72.8570     5.8450     8.4240     6.9600     2.1270 
   80.7500    80.7450    -0.3960    -0.0460   -22.5460    71.0070     5.8360     8.5030     7.6110     2.1270 
   80.8750    80.8700    -0.4000    -0.0460   -22.7040    70.1470     5.8310     8.4260     8.3940     2.1230 
   81.0000    80.9950    -0.4040    -0.0470   -22.8280    70.4600     5.8160     8.2470     8.6950     2.1170 
   81.1250    81.1200    -0.4080    -0.0470   -22.9290    73.2440     5.7950     8.0470     8.1910     2.1150 
   81.2500    81.2450    -0.4130    -0.0470   -23.0110    74.2580     5.8040     7.9390     7.3410     2.1190 
   81.3750    81.3690    -0.4170    -0.0470   -23.0860    72.9300     5.8870     7.9880     6.9510     2.1300 
   81.5000    81.4940    -0.4220    -0.0470   -23.1410    70.9860     6.0430     8.1710     7.1080     2.1450 
   81.6250    81.6190    -0.4260    -0.0470   -23.1890    70.4470     6.1920     8.3440     7.2080     2.1570 
   81.7500    81.7440    -0.4300    -0.0470   -23.1970    70.9340     6.2450     8.3380     6.9460     2.1520 
   81.8750    81.8690    -0.4350    -0.0470   -23.1400    70.7890     6.1420     8.1060     6.5990     2.1270 
   82.0000    81.9940    -0.4390    -0.0470   -23.0150    69.9440     5.8790     7.7110     6.3310     2.0910 
   82.1250    82.1190    -0.4440    -0.0480   -22.8700    68.9420     5.5450     7.3300     6.0200     2.0640 
   82.2500    82.2440    -0.4490    -0.0480   -22.7370    68.5990     5.2350     7.0760     5.8080     2.0570 
   82.3750    82.3690    -0.4530    -0.0480   -22.6270    68.3610     5.0330     6.9630     5.9570     2.0610 
   82.5000    82.4940    -0.4580    -0.0480   -22.4990    69.4230     4.9730     6.9820     6.4790     2.0700 
   82.6250    82.6190    -0.4620    -0.0480   -22.3500    71.3630     5.0090     7.0570     7.0480     2.0790 
   82.7500    82.7440    -0.4670    -0.0480   -22.1660    72.6310     5.0850     7.1230     7.2160     2.0880 
   82.8750    82.8680    -0.4720    -0.0480   -21.9920    72.2490     5.1580     7.1580     7.0360     2.0950 
   83.0000    82.9930    -0.4770    -0.0480   -21.8220    71.3780     5.2100     7.1630     6.9540     2.1000 
   83.1250    83.1180    -0.4810    -0.0480   -21.7050    70.0210     5.2390     7.1460     6.9820     2.1030 
