~V
VERS. 2.00: Ver 2.00
~W
STRT.M 20.0000:
STOP.M 242.0000:
STEP.M 0.1250:
NULL. -999.2500:
UWI. FD10624:
~C
DEPT.M :
TVD. :
DX. :
DY. :
GR.API :
RML.OHMM :
RI. :
RXO.OHMM :
CALI.CM :
DEN.GM/CC :
SP.MV :
~A
# ...
   44.7500    44.7390    -0.2880     0.4510    61.4840    10.7400     9.3450     7.5600    27.9280     2.2860   -15.3140 
   44.8750    44.8640    -0.2880     0.4540    61.3290     9.3010     7.7690     7.5170    28.1790     2.2060   -16.2550 
   45.0000    44.9890    -0.2890     0.4580    61.3920     8.6340     6.8550     7.5890    28.3640     2.1500   -17.0860 
   45.1250    45.1140    -0.2900     0.4610    60.7190     8.4800     6.4970     7.5550    28.6510     2.0910   -17.8900 
   45.2500    45.2390    -0.2910     0.4650    59.1990     8.5280     6.4280     7.3320    28.9240     2.0130   -18.6280 
   45.3750    45.3640    -0.2920     0.4680    58.0910     8.6280     6.5030     7.0170    28.8590     1.9290   -19.1790 
   45.5000    45.4890    -0.2930     0.4710    58.5650     8.6710     6.6120     6.9690    28.5510     1.8750   -19.6500 
   45.6250    45.6140    -0.2940     0.4750    59.9410     8.5890     6.6830     7.0910    28.1780     1.8850   -20.0010 
   45.7500    45.7380    -0.2940     0.4780    60.3290     8.4240     6.7100     7.3080    27.9740     1.9440   -20.1330 
   45.8750    45.8630    -0.2950     0.4820    60.4800     8.2420     6.6980     7.4920    27.9090     2.0200   -20.1940 
   46.0000    45.9880    -0.2960     0.4850    62.0300     8.1060     6.6650     7.5520    27.9670     2.0830   -20.2650 
   46.1250    46.1130    -0.2970     0.4890    65.0060     8.0500     6.6390     7.4850    28.0900     2.1110   -20.2300 
   46.2500    46.2380    -0.2980     0.4920    67.2330     8.0500     6.6400     7.3180    28.1760     2.1140   -20.1480 
   46.3750    46.3630    -0.2990     0.4950    66.8860     8.0860     6.6650     7.2350    28.1810     2.1040   -20.0870 
   46.5000    46.4880    -0.3000     0.4990    63.9700     8.1480     6.6900     7.2930    28.1520     2.0940   -19.9430 
   46.6250    46.6130    -0.3000     0.5020    61.6440     8.2180     6.6600     7.4480    28.1790     2.0960   -19.7820 
   46.7500    46.7380    -0.3010     0.5060    60.8640     8.2490     6.5470     7.5220    28.2660     2.1070   -19.6240 
   46.8750    46.8630    -0.3020     0.5090    60.8520     8.1890     6.3460     7.3930    28.3910     2.1180   -19.4230 
   47.0000    46.9880    -0.3030     0.5120    60.0150     8.0060     6.0730     6.9380    28.6010     2.1110   -19.1660 
   47.1250    47.1130    -0.3040     0.5160    59.9390     7.6990     5.7670     6.3470    28.9150     2.0670   -18.8460 
   47.2500    47.2370    -0.3050     0.5190    62.4030     7.3510     5.4850     6.0080    29.0550     2.0020   -18.4850 
   47.3750    47.3620    -0.3060     0.5230    65.8760     7.0430     5.2720     5.7660    28.8670     1.9470   -18.1410 
   47.5000    47.4870    -0.3060     0.5260    68.2290     6.8590     5.1660     5.6200    28.5060     1.9340   -17.8630 
   47.6250    47.6120    -0.3070     0.5290    68.5260     6.9040     5.2100     5.6770    28.2990     1.9830   -17.7290 
   47.7500    47.7370    -0.3080     0.5330    67.7560     7.1660     5.3880     6.3490    28.2950     2.0570   -17.8520 
   47.8750    47.8620    -0.3090     0.5360    65.8310     7.5910     5.6820     7.3560    28.3920     2.1200   -18.2110 
   48.0000    47.9870    -0.3100     0.5400    61.1300     8.0760     6.0560     7.9010    28.4920     2.1470   -18.6900 
   48.1250    48.1120    -0.3110     0.5430    57.0380     8.4700     6.4380     8.0480    28.5510     2.1390   -19.3720 
   48.2500    48.2370    -0.3120     0.5460    56.8670     8.7000     6.7450     8.1070    28.5690     2.1210   -20.1550 
   48.3750    48.3620    -0.3120     0.5500    59.6890     8.7740     6.9240     8.0990    28.5630     2.1080   -20.8620 
   48.5000    48.4870    -0.3130     0.5530    62.2460     8.7630     6.9650     8.0090    28.5330     2.1020   -21.5250 
   48.6250    48.6110    -0.3140     0.5570    63.1870     8.7580     6.8940     7.9750    28.4750     2.0960   -22.0740 
   48.7500    48.7360    -0.3150     0.5600    64.4850     8.7930     6.7860     7.8810    28.4080     2.0860   -22.3890 
   48.8750    48.8610    -0.3160     0.5630    66.5190     8.8430     6.6770     7.6870    28.3350     2.0720   -22.5230 
   49.0000    48.9860    -0.3170     0.5670    67.8720     8.8660     6.5830     7.5550    28.2500     2.0560   -22.6530 
   49.1250    49.1110    -0.3180     0.5700    66.4060     8.8360     6.5180     7.6930    28.1680     2.0450   -22.6560 
   49.2500    49.2360    -0.3180     0.5740    64.9660     8.7990     6.4820     7.8000    28.0990     2.0450   -22.5360 
   49.3750    49.3610    -0.3190     0.5770    64.0880     8.8110     6.4810     7.5670    28.0600     2.0560   -22.4480 
   49.5000    49.4860    -0.3200     0.5810    61.2740     8.8970     6.5150     7.2840    28.0470     2.0760   -22.3300 
   49.6250    49.6110    -0.3210     0.5840    59.0160     9.0200     6.5820     7.4820    28.0470     2.0960   -22.1690 
   49.7500    49.7360    -0.3220     0.5870    60.7210     9.0960     6.6600     7.8990    28.0490     2.1080   -22.0890 
   49.8750    49.8610    -0.3230     0.5910    64.1490     9.0750     6.7290     8.2220    28.0490     2.1100   -22.0520 
   50.0000    49.9860    -0.3240     0.5940    64.5730     8.9640     6.7710     8.2790    28.0500     2.1040   -22.0080 
   50.1250    50.1100    -0.3240     0.5980    59.9100     8.8200     6.7820     8.0860    28.0510     2.0960   -22.0010 
   50.2500    50.2350    -0.3250     0.6010    55.6760     8.7190     6.7830     7.8770    28.0500     2.0880   -22.0490 
   50.3750    50.3600    -0.3260     0.6040    55.4900     8.6910     6.7930     7.8260    28.0470     2.0820   -22.1180 
   50.5000    50.4850    -0.3270     0.6080    59.0630     8.7210     6.8200     7.8610    28.0460     2.0740   -22.1690 
   50.6250    50.6100    -0.3280     0.6110    61.2450     8.7680     6.8560     7.8760    28.0460     2.0660   -22.1900 
   50.7500    50.7350    -0.3290     0.6150    59.8590     8.7870     6.8760     7.9660    28.0430     2.0620   -22.1440 
   50.8750    50.8600    -0.3300     0.6180    58.5750     8.7610     6.8610     8.0110    28.0310     2.0630   -21.9770 
   51.0000    50.9850    -0.3300     0.6210    59.8020     8.6950     6.8040     7.8990    28.0050     2.0700   -21.7010 
   51.1250    51.1100    -0.3310     0.6250    62.7070     8.5940     6.6970     7.8110    27.9910     2.0780   -21.3930 
   51.2500    51.2350    -0.3320     0.6280    65.0410     8.4600     6.5490     7.7480    27.9870     2.0810   -21.0120 
   51.3750    51.3600    -0.3330     0.6320    65.4840     8.2860     6.3730     7.5670    27.9850     2.0750   -20.5160 
   51.5000    51.4840    -0.3340     0.6350    65.2200     8.0790     6.1910     7.2060    27.9700     2.0640   -20.0670 
   51.6250    51.6090    -0.3350     0.6380    65.8330     7.8800     6.0350     6.8660    27.9060     2.0570   -19.6130 
   51.7500    51.7340    -0.3360     0.6420    66.0130     7.7340     5.9190     6.9030    27.7990     2.0600   -19.1330 
   51.8750    51.8590    -0.3360     0.6450    65.0420     7.6560     5.8440     7.3930    27.7090     2.0780   -18.7750 
   52.0000    51.9840    -0.3370     0.6490    64.9180     7.6360     5.8010     7.8420    27.6740     2.1050   -18.5000 
   52.1250    52.1090    -0.3380     0.6520    67.6560     7.6840     5.7970     8.0630    27.6850     2.1240   -18.2690 
   52.2500    52.2340    -0.3390     0.6550    70.2810     7.8370     5.8680     8.1190    27.7080     2.1180   -18.1740 
   52.3750    52.3590    -0.3400     0.6590    68.8370     8.1690     6.0730     8.1230    27.7060     2.0830   -18.2270 
   52.5000    52.4840    -0.3410     0.6620    62.6370     8.7320     6.4510     8.4650    27.6370     2.0390   -18.2800 
   52.6250    52.6090    -0.3420     0.6660    58.1180     9.5090     7.0030    11.1330    27.3700     2.0410   -18.4340 
   52.7500    52.7340    -0.3420     0.6690    59.2590    10.2450     7.5790    18.4440    26.9300     2.1140   -18.6980 
   52.8750    52.8590    -0.3430     0.6730    63.5450    10.6590     7.9970    26.6360    26.4630     2.2420   -18.9670 
