~V
VERS. 2.00: Ver 2.00
~W
STRT.M 12.0000:
STOP.M 226.0000:
STEP.M 0.1250:
NULL. -999.2500:
UWI. FD10605:
~C
DEPT.M :
TVD. :
DX. :
DY. :
GR.API :
RML.OHMM :
RI. :
RXO.OHMM :
CALI.CM :
DEN.GM/CC :
SP.MV :
~A
# ...
  135.7500   131.2380    25.0360    11.7650    53.0890    21.0320    18.3900    15.2560    21.1930     2.6120    -4.9020 
  135.8750   131.3490    25.0880    11.7920    56.5320    21.4960    18.8930    15.8170    21.0990     2.5780    -5.1540 
  136.0000   131.4590    25.1400    11.8200    57.9500    22.0170    19.4580    15.8900    21.3320     2.5390    -5.3120 
  136.1250   131.5700    25.1910    11.8470    55.9710    22.5690    20.0600    16.4440    21.9630     2.4950    -5.4170 
  136.2500   131.6800    25.2430    11.8740    53.0370    23.0420    20.6080    17.4540    22.7150     2.4580    -5.5130 
  136.3750   131.7910    25.2940    11.9010    51.6680    23.2860    20.9600    18.4340    23.2020     2.4360    -5.5640 
  136.5000   131.9010    25.3460    11.9290    51.5470    23.1570    20.9700    19.0380    23.2720     2.4370    -5.6210 
  136.6250   132.0110    25.3970    11.9560    51.7030    22.5100    20.4800    18.3390    22.8110     2.4590    -5.6660 
  136.7500   132.1220    25.4490    11.9830    54.6260    21.4980    19.6120    17.3660    22.1110     2.4840    -5.6910 
  136.8750   132.2320    25.5010    12.0100    59.1200    20.3100    18.5280    16.2220    21.6410     2.5010    -5.6610 
  137.0000   132.3430    25.5520    12.0380    60.4390    19.1620    17.4400    14.8290    21.5410     2.5040    -5.6810 
  137.1250   132.4530    25.6040    12.0650    58.0650    18.2550    16.5460    14.1310    21.6980     2.4940    -5.7010 
  137.2500   132.5640    25.6550    12.0920    57.6100    17.5820    15.8580    13.6570    21.8520     2.4820    -5.7050 
  137.3750   132.6740    25.7070    12.1190    60.0290    17.0730    15.3290    13.2740    21.7890     2.4720    -5.6930 
  137.5000   132.7850    25.7590    12.1470    62.0110    16.6440    14.8930    13.3430    21.5720     2.4680    -5.6210 
  137.6250   132.8950    25.8100    12.1740    61.5760    16.2850    14.5270    13.7510    21.2690     2.4720    -5.4730 
  137.7500   133.0050    25.8620    12.2010    59.9170    16.0720    14.2790    13.0590    21.0050     2.4820    -5.3150 
  137.8750   133.1160    25.9130    12.2290    57.6450    16.1250    14.2550    12.2080    20.8880     2.4970    -5.1420 
  138.0000   133.2260    25.9650    12.2560    56.6800    16.5220    14.5290    12.0860    20.8920     2.5140    -4.9220 
  138.1250   133.3370    26.0170    12.2830    56.9600    17.2570    15.1260    13.5520    20.9820     2.5280    -4.7190 
  138.2500   133.4470    26.0680    12.3100    58.0940    18.0760    15.8540    15.6380    21.0750     2.5370    -4.5800 
  138.3750   133.5580    26.1200    12.3380    59.2810    18.7340    16.4960    16.5930    21.0750     2.5390    -4.5110 
  138.5000   133.6680    26.1710    12.3650    58.8850    19.0340    16.8330    15.4260    20.8530     2.5350    -4.4660 
  138.6250   133.7790    26.2230    12.3920    57.6700    18.8610    16.7060    13.9320    20.5710     2.5290    -4.4760 
  138.7500   133.8890    26.2750    12.4190    57.8640    18.4150    16.2890    13.5300    20.3570     2.5270    -4.4590 
  138.8750   133.9990    26.3260    12.4470    57.7070    17.8800    15.7540    13.7210    20.2850     2.5280    -4.4730 
  139.0000   134.1100    26.3780    12.4740    56.8460    17.4160    15.2520    13.5560    20.3830     2.5280    -4.4660 
  139.1250   134.2200    26.4290    12.5010    58.2970    17.1640    14.9120    12.9120    20.6170     2.5250    -4.4540 
  139.2500   134.3310    26.4810    12.5280    61.5240    17.1540    14.7690    12.0460    20.8250     2.5200    -4.3850 
  139.3750   134.4410    26.5320    12.5560    62.3400    17.4180    14.8570    11.6550    20.9080     2.5150    -4.2660 
  139.5000   134.5520    26.5840    12.5830    60.2420    17.9640    15.1950    11.8040    20.9040     2.5150    -4.1570 
  139.6250   134.6620    26.6360    12.6100    59.5610    18.7840    15.8030    12.5080    20.8560     2.5220    -3.9920 
  139.7500   134.7730    26.6870    12.6370    59.4190    19.7360    16.5720    13.4010    20.8200     2.5330    -3.8410 
  139.8750   134.8830    26.7390    12.6650    57.4220    20.6980    17.4110    15.1250    20.8480     2.5440    -3.7050 
  140.0000   134.9930    26.7900    12.6920    54.9420    21.5600    18.2230    17.3600    20.9520     2.5510    -3.6130 
  140.1250   135.1040    26.8420    12.7190    54.1190    22.2130    18.8900    17.7140    21.0340     2.5490    -3.4840 
  140.2500   135.2140    26.8940    12.7460    53.3090    22.6590    19.3790    18.3930    21.0700     2.5390    -3.3980 
  140.3750   135.3250    26.9450    12.7740    51.7270    22.8980    19.6710    19.6110    21.0340     2.5230    -3.3380 
  140.5000   135.4350    26.9970    12.8010    50.8670    22.9400    19.7610    19.3930    21.0340     2.5070    -3.2980 
  140.6250   135.5460    27.0480    12.8280    51.8140    22.7590    19.6360    17.3110    21.1580     2.4980    -3.3210 
  140.7500   135.6560    27.1000    12.8550    52.6280    22.3930    19.3440    16.0910    21.2870     2.5000    -3.3650 
  140.8750   135.7670    27.1520    12.8830    52.2710    21.8440    18.8890    16.8620    21.3310     2.5090    -3.3630 
  141.0000   135.8770    27.2030    12.9100    51.5560    21.1260    18.2760    18.1840    21.3880     2.5160    -3.3650 
  141.1250   135.9880    27.2550    12.9370    52.9890    20.2660    17.5180    18.0180    21.4960     2.5110    -3.4000 
  141.2500   136.0980    27.3060    12.9640    56.0240    19.3730    16.7100    16.8260    21.5740     2.4920    -3.4150 
  141.3750   136.2080    27.3580    12.9920    58.2650    18.5660    15.9510    14.8090    21.6630     2.4660    -3.4350 
  141.5000   136.3190    27.4100    13.0190    57.2490    17.9850    15.3680    13.3360    21.8330     2.4440    -3.4590 
  141.6250   136.4290    27.4610    13.0460    54.3010    17.8380    15.1450    13.3330    22.0050     2.4410    -3.4620 
  141.7500   136.5400    27.5130    13.0740    52.9260    18.1420    15.3130    14.1180    22.0600     2.4570    -3.4150 
  141.8750   136.6500    27.5640    13.1010    53.1110    18.8820    15.8810    15.4550    22.0710     2.4840    -3.4130 
  142.0000   136.7610    27.6160    13.1280    53.3290    19.9630    16.7930    17.3790    22.1070     2.5100    -3.4180 
  142.1250   136.8710    27.6670    13.1550    53.3000    21.2160    17.9330    18.8820    22.1830     2.5170    -3.4820 
  142.2500   136.9820    27.7190    13.1830    53.3260    22.3720    19.0510    19.4910    22.2710     2.5070    -3.5730 
  142.3750   137.0920    27.7710    13.2100    53.1830    23.2280    19.9450    19.6130    22.3390     2.4890    -3.5830 
  142.5000   137.2020    27.8220    13.2370    52.7240    23.6310    20.4470    20.0080    22.3410     2.4760    -3.5460 
  142.6250   137.3130    27.8740    13.2640    53.7180    23.4460    20.3970    20.6140    22.2420     2.4780    -3.5170 
  142.7500   137.4230    27.9250    13.2920    55.7040    22.8450    19.9460    20.6050    22.1320     2.4880    -3.5590 
  142.8750   137.5340    27.9770    13.3190    56.3060    21.9890    19.2420    19.7160    22.1760     2.4960    -3.6010 
  143.0000   137.6440    28.0290    13.3460    54.9860    21.0520    18.4350    18.3360    22.3300     2.4940    -3.6530 
  143.1250   137.7550    28.0800    13.3730    53.4230    20.1930    17.6660    16.5440    22.3990     2.4750    -3.6320 
  143.2500   137.8650    28.1320    13.4010    52.8480    19.4550    16.9920    15.8590    22.3610     2.4510    -3.5860 
  143.3750   137.9760    28.1830    13.4280    52.7000    18.8190    16.4060    15.1160    22.2110     2.4340    -3.6060 
  143.5000   138.0860    28.2350    13.4550    52.8110    18.2510    15.8830    14.0130    21.9130     2.4350    -3.6200 
  143.6250   138.1960    28.2870    13.4820    53.4960    17.7590    15.4370    13.4030    21.4340     2.4600    -3.5850 
  143.7500   138.3070    28.3380    13.5100    54.5120    17.3800    15.0930    13.1180    21.0020     2.4960    -3.5190 
  143.8750   138.4170    28.3900    13.5370    55.4140    17.1770    14.8960    12.6610    20.7570     2.5290    -3.4690 
