~V
VERS. 2.00: Ver 2.00
~W
STRT.M 55.0000:
STOP.M 289.0000:
STEP.M 0.1250:
NULL. -999.2500:
UWI. FD10909:
~C
DEPT.M :
TVD. :
DX. :
DY. :
SP.MV :
GR.API :
RI. :
RML.OHMM :
RXO.OHMM :
DEN.GM/CC :
~A
# ...
  237.5000   230.7910    42.4500     8.8550   -11.0550    66.3520    63.4440    68.2350    67.7010     2.1960 
  237.6250   230.9090    42.4910     8.8650   -11.2060    67.5370    65.1660    70.0780    68.3160     2.1820 
  237.7500   231.0270    42.5320     8.8750   -11.3740    68.0620    66.7690    71.7930    66.5000     2.1770 
  237.8750   231.1440    42.5730     8.8860   -11.5290    67.0310    68.9820    74.1610    66.3770     2.1690 
  238.0000   231.2620    42.6130     8.8960   -11.6620    64.6070    72.6650    78.5350    72.7580     2.1590 
  238.1250   231.3800    42.6540     8.9060   -11.7760    62.0330    78.1220    84.1870    82.1410     2.1530 
  238.2500   231.4970    42.6950     8.9170   -11.8520    61.6720    85.0180    89.3470    88.1530     2.1530 
  238.3750   231.6150    42.7360     8.9270   -11.9070    60.8780    92.1160    95.4120    90.4760     2.1570 
  238.5000   231.7330    42.7760     8.9370   -11.9490    59.4890    97.9030   100.9220    90.1760     2.1600 
  238.6250   231.8510    42.8170     8.9480   -11.9980    57.7160   101.6440   104.1820    88.1370     2.1600 
  238.7500   231.9680    42.8580     8.9580   -12.0550    57.6440   103.2010   105.1740    87.5440     2.1580 
  238.8750   232.0860    42.8990     8.9680   -12.0930    58.4020   103.4180   104.9020    91.1830     2.1570 
  239.0000   232.2040    42.9390     8.9790   -12.0920    58.4730   103.5270   104.7980    96.1940     2.1600 
  239.1250   232.3210    42.9800     8.9890   -12.0420    58.9910   105.0140   106.4650    99.0950     2.1650 
  239.2500   232.4390    43.0210     8.9990   -11.9490    60.0550   109.2610   111.3280   100.1660     2.1670 
  239.3750   232.5570    43.0620     9.0100   -11.8290    62.1240   116.4990   119.5080    99.3130     2.1640 
  239.5000   232.6750    43.1020     9.0200   -11.7080    63.7640   126.4030   130.5270    94.2860     2.1540 
  239.6250   232.7920    43.1430     9.0300   -11.6090    64.0170   137.4600   142.6110    87.4050     2.1430 
  239.7500   232.9100    43.1840     9.0410   -11.5450    62.7120   148.2260   154.2060    86.0860     2.1360 
  239.8750   233.0280    43.2240     9.0510   -11.5330    61.3420   158.2650   165.1370    91.2690     2.1390 
  240.0000   233.1460    43.2650     9.0610   -11.5870    61.6360   168.5770   176.7490    95.7970     2.1650 
  240.1250   233.2630    43.3060     9.0710   -11.7140    63.2440   181.0620   191.1730    96.4090     2.2230 
  240.2500   233.3810    43.3460     9.0820   -11.9170    63.4290   200.0220   213.1870    95.3620     2.3150 
  240.3750   233.4990    43.3870     9.0920   -12.1730    61.5860   229.1510   246.6680   109.5910     2.4250 
  240.5000   233.6170    43.4280     9.1020   -12.4650    58.4490   268.2600   290.7530   208.7960     2.5280 
  240.6250   233.7340    43.4680     9.1120   -12.7760    54.9240   307.3190   333.6590   413.9990     2.5960 
  240.7500   233.8520    43.5090     9.1230   -13.0550    52.3720   330.1280   357.5060   596.6790     2.5990 
  240.8750   233.9700    43.5500     9.1330   -13.2190    50.3630   328.2070   354.0090   618.4420     2.5290 
  241.0000   234.0880    43.5910     9.1430   -13.2110    50.3430   303.3360   327.1130   467.5850     2.4040 
  241.1250   234.2050    43.6310     9.1530   -13.0220    51.9640   269.5080   295.0850   254.7490     2.2780 
  241.2500   234.3230    43.6720     9.1630   -12.6990    54.6550   239.8090   269.3570   112.2260     2.2000 
  241.3750   234.4410    43.7130     9.1740   -12.3390    57.4870   220.0230   249.9810    77.7350     2.1700 
  241.5000   234.5590    43.7530     9.1840   -11.9760    59.7630   210.8690   239.5120    89.8060     2.1620 
  241.6250   234.6760    43.7940     9.1940   -11.6490    61.2420   208.8600   236.1550    94.8240     2.1510 
  241.7500   234.7940    43.8350     9.2040   -11.2720    62.3900   210.8480   236.2180    91.1860     2.1370 
  241.8750   234.9120    43.8750     9.2140   -10.9960    62.6520   213.8150   236.4690    88.2770     2.1290 
  242.0000   235.0300    43.9160     9.2240   -10.7730    61.7000   215.7600   234.8740    88.6100     2.1310 
  242.1250   235.1470    43.9570     9.2340   -10.5250    59.5870   215.4620   230.5210    89.4080     2.1390 
  242.2500   235.2650    43.9970     9.2450   -10.2820    57.3830   212.5410   223.5350    88.0410     2.1490 
  242.3750   235.3830    44.0380     9.2550   -10.0600    56.3900   207.3450   214.5250    83.9630     2.1560 
  242.5000   235.5010    44.0790     9.2650    -9.8570    55.7810   196.7600   200.3600    80.4920     2.1600 
  242.6250   235.6180    44.1200     9.2750    -9.6650    55.7280   176.1300   177.6480    81.3800     2.1660 
  242.7500   235.7360    44.1610     9.2850    -9.4710    56.2540   144.6290   145.4720    86.5750     2.1780 
  242.8750   235.8540    44.2010     9.2950    -9.2600    57.6840   109.4550   109.4180    90.5380     2.1960 
  243.0000   235.9720    44.2420     9.3050    -9.0340    60.9850    80.2020    80.3710    85.9550     2.2130 
  243.1250   236.0890    44.2830     9.3150    -8.8430    63.5500    62.9310    64.1800    74.4900     2.2200 
  243.2500   236.2070    44.3240     9.3250    -8.7680    64.9690    57.4720    59.8650    63.3290     2.2150 
  243.3750   236.3250    44.3640     9.3350    -8.8820    63.7640    59.8770    63.6770    58.4000     2.2020 
  243.5000   236.4430    44.4050     9.3460    -9.2090    63.6510    69.9400    75.7850    64.2330     2.1860 
  243.6250   236.5600    44.4460     9.3560    -9.6650    63.1070    86.5510    93.4940    78.2460     2.1710 
  243.7500   236.6780    44.4870     9.3660   -10.1290    63.8020   107.9460   113.7270    90.9140     2.1600 
  243.8750   236.7960    44.5270     9.3760   -10.5180    63.0540   129.9130   135.7980    96.0590     2.1540 
  244.0000   236.9130    44.5680     9.3870   -10.7750    62.3810   147.9750   155.8190    95.3280     2.1490 
  244.1250   237.0310    44.6090     9.3970   -11.2360    60.8620   159.3220   169.0170    95.3740     2.1450 
  244.2500   237.1490    44.6500     9.4070   -11.5530    60.3860   163.1670   174.4040   102.1590     2.1420 
  244.3750   237.2670    44.6900     9.4180   -11.8820    60.6700   162.2060   174.7650   113.1010     2.1440 
  244.5000   237.3840    44.7310     9.4280   -12.2260    60.5320   158.5020   172.1430   119.8490     2.1500 
  244.6250   237.5020    44.7720     9.4390   -12.5510    59.5250   153.7500   168.1160   118.7410     2.1570 
  244.7500   237.6200    44.8120     9.4490   -12.8280    57.2190   148.0440   162.3690   111.8030     2.1630 
  244.8750   237.7370    44.8530     9.4600   -13.0730    55.4890   140.5560   153.8330   103.2450     2.1710 
  245.0000   237.8550    44.8940     9.4700   -13.3110    53.8770   130.2990   141.5980    95.9950     2.1810 
  245.1250   237.9730    44.9340     9.4810   -13.6000    53.9990   117.8220   126.7970    91.2570     2.1900 
  245.2500   238.0910    44.9750     9.4910   -13.8790    54.2840   104.0370   110.8520    88.8940     2.1940 
  245.3750   238.2080    45.0160     9.5020   -14.1250    56.9090    90.6510    95.7150    86.2190     2.1940 
  245.5000   238.3260    45.0560     9.5120   -14.3100    59.8220    79.1460    82.9100    79.1000     2.1930 
  245.6250   238.4440    45.0970     9.5230   -14.4600    63.3970    70.1130    72.9750    69.6460     2.1960 
  245.7500   238.5620    45.1380     9.5330   -14.6080    64.7390    64.1480    66.5700    64.4620     2.2050 
  245.8750   238.6790    45.1780     9.5430   -14.7480    64.8740    60.6840    62.9610    63.7760     2.2170 
  246.0000   238.7970    45.2190     9.5540   -14.8240    63.0260    59.2250    61.4750    63.8260     2.2250 
  246.1250   238.9150    45.2590     9.5640   -14.8560    62.4940    59.1450    61.4480    63.1350     2.2230 
  246.2500   239.0330    45.3000     9.5750   -14.8670    62.4590    60.8670    63.4480    62.1450     2.2120 
  246.3750   239.1500    45.3410     9.5850   -14.9110    64.0540    64.9980    68.1490    62.9930     2.1990 
  246.5000   239.2680    45.3810     9.5950   -14.9840    63.4380    72.1850    75.5640    67.5940     2.1850 
