~V
VERS. 2.00: Ver 2.00
~W
STRT.M 30.0000:
STOP.M 210.0000:
STEP.M 0.1250:
NULL. -999.2500:
UWI. FD10800:
~C
DEPT.M :
TVD. :
DX. :
DY. :
SP.MV :
GR.API :
RI. :
RML.OHMM :
RXO.OHMM :
DEN.GM/CC :
~A
# ...
  103.0000   102.3750    -5.6010     2.6520   -26.9720    86.1290     6.4610     7.3490    24.0380     2.4370 
  103.1250   102.4940    -5.6390     2.6670   -27.7350    85.6590     7.4580     8.5160    23.6220     2.3660 
  103.2500   102.6120    -5.6760     2.6810   -28.6480    86.9670     7.6960     8.6990    14.6290     2.2560 
  103.3750   102.7300    -5.7140     2.6960   -29.4870    89.2960     7.2530     8.0710     8.3270     2.1820 
  103.5000   102.8490    -5.7520     2.7100   -30.2210    91.0810     6.4210     7.0110     6.5060     2.1640 
  103.6250   102.9670    -5.7890     2.7250   -30.7940    89.6090     5.7010     6.1940     6.7380     2.1710 
  103.7500   103.0850    -5.8270     2.7390   -31.2650    85.9340     5.3670     5.8650     7.1320     2.1630 
  103.8750   103.2030    -5.8660     2.7540   -31.5700    82.6010     5.3050     5.8320     7.4750     2.1260 
  104.0000   103.3210    -5.9040     2.7690   -31.8010    80.4210     5.2840     5.8160     7.6660     2.0720 
  104.1250   103.4390    -5.9420     2.7830   -32.0600    77.7590     5.2400     5.7820     7.6200     2.0330 
  104.2500   103.5570    -5.9810     2.7980   -32.3670    73.6060     5.1750     5.7120     7.2580     2.0130 
  104.3750   103.6750    -6.0200     2.8130   -32.7180    71.5080     5.0870     5.6220     6.7150     2.0080 
  104.5000   103.7930    -6.0590     2.8280   -33.0660    71.2730     4.9870     5.5080     6.4520     2.0010 
  104.6250   103.9110    -6.0980     2.8430   -33.4340    71.8110     4.8760     5.3780     6.6910     2.0030 
  104.7500   104.0290    -6.1370     2.8580   -33.7100    71.1090     4.7650     5.2520     6.8930     2.0110 
  104.8750   104.1460    -6.1760     2.8730   -33.9390    70.0990     4.6860     5.1650     6.6540     2.0240 
  105.0000   104.2640    -6.2160     2.8880   -34.0970    69.7970     4.6380     5.1220     6.3530     2.0380 
  105.1250   104.3820    -6.2550     2.9030   -34.2310    70.2380     4.6060     5.0910     6.3140     2.0600 
  105.2500   104.4990    -6.2950     2.9180   -34.3580    69.7110     4.5930     5.0840     6.2540     2.0840 
  105.3750   104.6170    -6.3350     2.9330   -34.4850    68.0840     4.5820     5.0650     5.9110     2.0940 
  105.5000   104.7340    -6.3750     2.9490   -34.6120    66.3180     4.5730     5.0500     5.6080     2.0830 
  105.6250   104.8510    -6.4150     2.9640   -34.7000    67.2230     4.5530     5.0310     5.6750     2.0610 
  105.7500   104.9690    -6.4550     2.9790   -34.7270    69.4980     4.5120     4.9910     5.9430     2.0420 
  105.8750   105.0860    -6.4960     2.9950   -34.7610    71.0230     4.4530     4.9390     6.1760     2.0320 
  106.0000   105.2030    -6.5360     3.0110   -34.7680    70.7880     4.3880     4.8700     6.2390     2.0280 
  106.1250   105.3200    -6.5770     3.0260   -34.7970    70.0740     4.3370     4.8020     6.0210     2.0230 
  106.2500   105.4370    -6.6180     3.0420   -34.8770    70.0200     4.2880     4.7260     5.6970     2.0200 
  106.3750   105.5540    -6.6590     3.0580   -34.8730    71.5090     4.2640     4.6780     5.5020     2.0220 
  106.5000   105.6710    -6.7000     3.0740   -34.9100    72.8690     4.2810     4.6670     5.4820     2.0320 
  106.6250   105.7880    -6.7410     3.0900   -34.9290    72.9640     4.3250     4.6700     5.5870     2.0380 
  106.7500   105.9050    -6.7820     3.1050   -34.9100    73.0030     4.3770     4.6830     5.6630     2.0450 
  106.8750   106.0220    -6.8240     3.1210   -34.8660    72.2600     4.4140     4.6930     5.7100     2.0470 
  107.0000   106.1390    -6.8650     3.1370   -34.7170    71.7170     4.4420     4.7200     5.8160     2.0480 
  107.1250   106.2560    -6.9070     3.1530   -34.4700    69.0220     4.4690     4.7530     5.8970     2.0420 
  107.2500   106.3720    -6.9490     3.1680   -34.1640    66.9850     4.4940     4.7960     5.8480     2.0410 
  107.3750   106.4890    -6.9910     3.1840   -33.8630    64.2340     4.5100     4.8270     5.7310     2.0440 
  107.5000   106.6060    -7.0330     3.2000   -33.5510    62.8590     4.5020     4.8270     5.6840     2.0490 
  107.6250   106.7220    -7.0760     3.2160   -33.3000    63.1850     4.4530     4.7720     5.6650     2.0500 
  107.7500   106.8390    -7.1180     3.2320   -32.9950    65.9190     4.3560     4.6500     5.6170     2.0480 
  107.8750   106.9550    -7.1610     3.2480   -32.6100    67.5150     4.2340     4.5000     5.6470     2.0420 
  108.0000   107.0710    -7.2030     3.2640   -32.0830    66.7420     4.1430     4.3900     5.6480     2.0380 
  108.1250   107.1880    -7.2460     3.2800   -31.3250    65.4980     4.2950     4.6050     5.5700     2.0650 
  108.2500   107.3040    -7.2890     3.2960   -30.3840    64.8170     4.8290     5.3120     5.6920     2.1500 
  108.3750   107.4200    -7.3330     3.3120   -29.1680    64.7290     5.9500     6.7890     8.1290     2.2990 
  108.5000   107.5360    -7.3760     3.3280   -27.7290    63.6880     6.9910     8.1580    19.4310     2.4510 
  108.6250   107.6520    -7.4190     3.3440   -26.2880    64.7660     7.4120     8.6970    39.2220     2.5130 
  108.7500   107.7680    -7.4630     3.3600   -25.1040    69.9380     6.8460     7.9040    47.7820     2.4600 
  108.8750   107.8840    -7.5070     3.3760   -24.2280    78.0600     5.5340     6.2080    32.0360     2.3310 
  109.0000   108.0000    -7.5500     3.3930   -23.7480    85.9180     4.2590     4.5790    11.1360     2.2250 
  109.1250   108.1160    -7.5940     3.4100   -23.5830    90.4090     3.3870     3.5690     3.7990     2.1750 
  109.2500   108.2320    -7.6380     3.4270   -23.7070    91.5310     3.0530     3.2610     3.8660     2.1680 
  109.3750   108.3480    -7.6820     3.4440   -24.0120    90.9710     3.0890     3.3510     3.8500     2.1850 
  109.5000   108.4640    -7.7260     3.4610   -24.4430    89.3550     3.2820     3.5890     3.9700     2.2090 
  109.6250   108.5790    -7.7700     3.4780   -24.8190    89.2280     3.5090     3.8260     4.8700     2.2150 
  109.7500   108.6950    -7.8150     3.4940   -24.8840    89.7440     3.6460     3.9240     5.5100     2.2010 
  109.8750   108.8110    -7.8590     3.5110   -24.5430    91.1400     3.6440     3.8630     4.8210     2.1810 
  110.0000   108.9260    -7.9040     3.5270   -24.0260    92.1920     3.5600     3.7330     4.1390     2.1690 
  110.1250   109.0420    -7.9490     3.5430   -23.3950    93.6610     3.4180     3.5550     3.8740     2.1540 
  110.2500   109.1570    -7.9940     3.5600   -22.7030    94.8500     3.2730     3.4130     3.6440     2.1430 
  110.3750   109.2720    -8.0390     3.5760   -22.1470    96.2990     3.1500     3.2990     3.6040     2.1490 
  110.5000   109.3880    -8.0840     3.5930   -21.6560    97.2500     3.0330     3.2010     3.5930     2.1730 
  110.6250   109.5030    -8.1290     3.6090   -21.2500    97.9000     2.9110     3.1040     3.5230     2.1960 
  110.7500   109.6180    -8.1750     3.6260   -21.0180    98.0640     2.7970     3.0230     3.2830     2.2050 
  110.8750   109.7340    -8.2200     3.6420   -21.0910    98.1370     2.6860     2.9550     3.1280     2.2070 
  111.0000   109.8490    -8.2660     3.6590   -21.5200    98.7920     2.5880     2.8810     3.3260     2.2100 
  111.1250   109.9640    -8.3110     3.6760   -22.1540    98.0800     2.5180     2.8200     3.4580     2.2260 
  111.2500   110.0790    -8.3570     3.6920   -22.7880    95.3640     2.5270     2.8350     3.4010     2.2550 
  111.3750   110.1940    -8.4030     3.7090   -23.5490    91.3500     2.6690     3.0060     3.3370     2.3000 
  111.5000   110.3090    -8.4490     3.7260   -24.5580    86.9630     2.9420     3.3490     3.3180     2.3200 
  111.6250   110.4240    -8.4950     3.7430   -25.7960    82.3100     3.3550     3.8720     4.1790     2.2740 
  111.7500   110.5390    -8.5410     3.7600   -27.1930    75.6970     3.8650     4.5090     7.5890     2.1700 
  111.8750   110.6540    -8.5870     3.7770   -28.3470    70.0140     4.2980     5.0150    10.5040     2.0750 
  112.0000   110.7690    -8.6330     3.7940   -29.1930    65.9900     4.5370     5.2550     8.8580     2.0330 
