~V
VERS. 2.00: Ver 2.00
~W
STRT.M 25.0000:
STOP.M 295.0000:
STEP.M 0.1250:
NULL. -999.2500:
UWI. FD10906:
~C
DEPT.M :
TVD. :
DX. :
DY. :
SP.MV :
GR.API :
RI. :
RML.OHMM :
RXO.OHMM :
DEN.GM/CC :
~A
# ...
  161.8750   150.7680   -45.9730     3.3520   -19.1920    69.6210    18.9980    22.6500    19.7940     2.1210 
  162.0000   150.8670   -46.0490     3.3500   -18.8480    70.1910    18.9530    22.6230    20.3390     2.1240 
  162.1250   150.9660   -46.1260     3.3480   -18.5450    68.6420    18.9560    22.5950    20.9700     2.1310 
  162.2500   151.0640   -46.2030     3.3460   -18.3260    67.5150    19.0050    22.5560    21.2050     2.1370 
  162.3750   151.1630   -46.2800     3.3440   -18.1970    67.7170    19.0850    22.5370    21.6650     2.1370 
  162.5000   151.2620   -46.3560     3.3420   -18.1410    68.4730    19.1980    22.5850    23.3230     2.1290 
  162.6250   151.3600   -46.4330     3.3410   -18.1220    68.1670    19.3700    22.7450    24.9460     2.1200 
  162.7500   151.4590   -46.5100     3.3390   -18.1230    67.5490    19.6480    23.0560    24.8700     2.1180 
  162.8750   151.5570   -46.5870     3.3380   -18.1320    66.9130    20.0130    23.4660    23.9170     2.1240 
  163.0000   151.6560   -46.6640     3.3360   -18.1450    66.3640    20.3180    23.7990    23.2180     2.1320 
  163.1250   151.7540   -46.7410     3.3340   -18.1530    65.5240    20.3030    23.7580    22.7930     2.1390 
  163.2500   151.8520   -46.8180     3.3330   -18.1200    64.6990    19.6540    22.9620    22.4510     2.1480 
  163.3750   151.9510   -46.8960     3.3310   -18.0050    65.7770    18.3360    21.3630    21.9660     2.1680 
  163.5000   152.0490   -46.9730     3.3300   -17.7430    66.6900    16.5070    19.1560    20.4310     2.2050 
  163.6250   152.1470   -47.0500     3.3280   -17.3010    66.3090    14.5820    16.8420    17.8210     2.2550 
  163.7500   152.2450   -47.1270     3.3270   -16.6570    64.7830    12.9380    14.8750    15.4500     2.3030 
  163.8750   152.3430   -47.2050     3.3260   -15.8620    65.1690    11.7440    13.4560    13.4720     2.3390 
  164.0000   152.4420   -47.2820     3.3240   -14.9950    66.9870    11.0190    12.5880    12.7650     2.3580 
  164.1250   152.5400   -47.3600     3.3230   -14.1650    68.9990    10.5860    12.0440    13.5990     2.3680 
  164.2500   152.6380   -47.4370     3.3220   -13.4860    70.1260    10.3260    11.6820    13.9720     2.3740 
  164.3750   152.7360   -47.5150     3.3210   -13.0120    70.8160    10.1870    11.4560    12.8820     2.3760 
  164.5000   152.8340   -47.5930     3.3200   -12.7640    71.4440    10.2370    11.4710    11.6850     2.3690 
  164.6250   152.9310   -47.6700     3.3190   -12.6690    70.8060    10.5290    11.7970    11.3960     2.3580 
  164.7500   153.0290   -47.7480     3.3180   -12.6440    69.8560    11.0510    12.4220    11.7580     2.3540 
  164.8750   153.1270   -47.8260     3.3170   -12.6180    67.9010    11.6060    13.1080    12.7180     2.3620 
  165.0000   153.2250   -47.9040     3.3160   -12.5720    66.1090    11.9090    13.5030    14.4600     2.3780 
  165.1250   153.3220   -47.9820     3.3150   -12.5310    64.1460    11.8220    13.4300    17.7710     2.3900 
  165.2500   153.4200   -48.0600     3.3140   -12.5160    64.1990    11.4490    13.0160    23.7560     2.3860 
  165.3750   153.5170   -48.1380     3.3140   -12.5390    64.9120    11.1600    12.7400    27.7060     2.3690 
  165.5000   153.6150   -48.2170     3.3130   -12.6110    67.3730    11.3890    13.1800    23.7120     2.3510 
  165.6250   153.7120   -48.2950     3.3120   -12.7200    68.7020    12.3650    14.6230    17.6500     2.3480 
  165.7500   153.8100   -48.3730     3.3120   -12.8410    68.1480    14.1670    17.0940    19.3870     2.3680 
  165.8750   153.9070   -48.4520     3.3110   -12.9340    65.3530    16.4260    20.0380    27.7930     2.3960 
  166.0000   154.0040   -48.5300     3.3110   -12.9630    62.3750    18.5520    22.6670    34.9100     2.4160 
  166.1250   154.1020   -48.6090     3.3110   -12.9340    60.1720    19.9810    24.3120    36.8390     2.4230 
  166.2500   154.1990   -48.6880     3.3100   -12.8610    58.4410    20.4410    24.7000    34.0540     2.4250 
  166.3750   154.2960   -48.7660     3.3100   -12.7620    56.6860    20.2800    24.3410    29.1850     2.4260 
  166.5000   154.3930   -48.8450     3.3100   -12.6420    54.8130    20.0150    23.9200    25.5930     2.4230 
  166.6250   154.4900   -48.9240     3.3100   -12.5100    53.6510    20.0930    24.0110    24.2060     2.4200 
  166.7500   154.5870   -49.0030     3.3100   -12.3790    54.3200    20.7340    24.9020    23.3570     2.4260 
  166.8750   154.6840   -49.0820     3.3100   -12.2640    56.0000    21.7760    26.3480    22.4370     2.4530 
  167.0000   154.7810   -49.1610     3.3100   -12.1680    57.9560    22.7320    27.6460    22.6350     2.4970 
  167.1250   154.8780   -49.2400     3.3110   -12.0950    59.1390    22.9010    27.8320    25.2230     2.5360 
  167.2500   154.9740   -49.3190     3.3110   -12.0430    60.8260    21.7500    26.2190    29.4820     2.5430 
  167.3750   155.0710   -49.3980     3.3110   -12.0150    62.5250    19.6110    23.3090    32.2570     2.5130 
  167.5000   155.1680   -49.4770     3.3110   -12.0360    64.7770    17.2230    20.1420    32.0460     2.4640 
  167.6250   155.2640   -49.5570     3.3120   -12.1200    65.9320    15.4090    17.8140    28.7640     2.4280 
  167.7500   155.3610   -49.6360     3.3130   -12.2740    65.5500    14.7370    17.0260    23.3250     2.4280 
  167.8750   155.4570   -49.7150     3.3130   -12.4580    63.7380    15.2620    17.7660    20.4960     2.4560 
  168.0000   155.5540   -49.7950     3.3140   -12.6250    62.0020    17.0480    20.0220    22.5980     2.4940 
  168.1250   155.6500   -49.8740     3.3140   -12.7620    61.6180    19.7930    23.3320    26.1310     2.5280 
  168.2500   155.7470   -49.9540     3.3150   -12.8970    61.9310    23.0590    27.0760    28.7810     2.5550 
  168.3750   155.8430   -50.0330     3.3160   -13.0680    61.5840    26.1420    30.4310    30.9040     2.5760 
  168.5000   155.9390   -50.1130     3.3170   -13.2790    61.8760    28.3810    32.6980    32.7170     2.5950 
  168.6250   156.0360   -50.1930     3.3180   -13.4930    62.4470    29.5000    33.6830    33.9600     2.6130 
  168.7500   156.1320   -50.2730     3.3190   -13.6540    63.6170    29.3800    33.3620    35.1050     2.6240 
  168.8750   156.2280   -50.3520     3.3200   -13.7340    63.2440    28.3340    32.1390    35.7350     2.6190 
  169.0000   156.3240   -50.4320     3.3210   -13.7170    62.8270    26.6780    30.3800    33.8030     2.5920 
  169.1250   156.4200   -50.5120     3.3220   -13.6230    62.4830    24.8820    28.5490    30.2670     2.5580 
  169.2500   156.5170   -50.5920     3.3230   -13.4700    63.6050    23.3990    27.0750    27.4970     2.5290 
  169.3750   156.6130   -50.6720     3.3240   -13.2990    62.4040    22.5040    26.2110    25.2430     2.5140 
  169.5000   156.7090   -50.7520     3.3250   -13.1550    60.9210    22.3210    26.0850    23.2420     2.5150 
  169.6250   156.8050   -50.8320     3.3260   -13.0760    57.4840    22.6760    26.5360    22.9580     2.5290 
  169.7500   156.9000   -50.9120     3.3270   -13.0970    55.4870    23.3960    27.3680    24.8920     2.5530 
  169.8750   156.9960   -50.9930     3.3280   -13.2110    53.9910    24.2840    28.3340    27.6210     2.5780 
  170.0000   157.0920   -51.0730     3.3290   -13.4000    54.8390    25.2820    29.3750    30.8320     2.5930 
  170.1250   157.1880   -51.1530     3.3310   -13.6250    56.4200    26.4110    30.5590    33.6370     2.5950 
  170.2500   157.2840   -51.2330     3.3320   -13.8350    56.7640    27.7040    31.9650    33.2820     2.5910 
  170.3750   157.3800   -51.3140     3.3330   -13.9920    56.6590    29.0080    33.4270    30.9000     2.5880 
  170.5000   157.4750   -51.3940     3.3340   -14.0720    55.8810    29.9530    34.5080    30.5750     2.5910 
  170.6250   157.5710   -51.4740     3.3350   -14.0940    55.7170    30.2100    34.7730    32.9750     2.5880 
  170.7500   157.6670   -51.5550     3.3370   -14.0910    55.4660    29.5870    33.9420    35.7250     2.5690 
  170.8750   157.7620   -51.6350     3.3380   -14.0930    56.5690    28.3510    32.3370    36.0710     2.5340 
