~V
VERS. 2.00: Ver 2.00
~W
STRT.M 63.0000:
STOP.M 266.0000:
STEP.M 0.1250:
NULL. -999.2500:
UWI. FD10888:
~C
DEPT.M :
TVD. :
DX. :
DY. :
SP.MV :
GR.API :
RI. :
RML.OHMM :
RXO.OHMM :
DEN.GM/CC :
~A
# ...
  136.0000   135.9670    -1.3300    -1.2260   -20.8350    77.0320    12.1490    13.0960    13.6290     2.1390 
  136.1250   136.0910    -1.3370    -1.2340   -20.0180    73.9810    12.7000    13.8220    14.3150     2.1300 
  136.2500   136.2160    -1.3440    -1.2420   -19.2700    71.1140    12.8720    14.0890    13.9470     2.1240 
  136.3750   136.3410    -1.3510    -1.2510   -18.6500    72.9100    12.7910    14.0730    13.1250     2.1270 
  136.5000   136.4650    -1.3580    -1.2590   -18.0030    75.4700    12.6770    14.0370    12.8770     2.1380 
  136.6250   136.5900    -1.3650    -1.2680   -17.1820    76.7110    12.8780    14.3990    13.5500     2.1420 
  136.7500   136.7140    -1.3720    -1.2760   -16.2520    76.7040    13.6750    15.5100    15.3990     2.1330 
  136.8750   136.8390    -1.3790    -1.2850   -15.3000    72.6840    15.1910    17.5090    17.6880     2.1150 
  137.0000   136.9630    -1.3860    -1.2940   -14.3610    67.0430    17.3460    20.2320    18.6790     2.1010 
  137.1250   137.0880    -1.3930    -1.3030   -13.7130    62.4090    19.2660    22.5350    19.1890     2.0960 
  137.2500   137.2120    -1.4000    -1.3110   -13.2810    61.6010    20.1810    23.4990    20.1910     2.1000 
  137.3750   137.3370    -1.4080    -1.3200   -12.9790    62.3410    19.7260    22.7230    19.4140     2.1110 
  137.5000   137.4610    -1.4150    -1.3290   -12.8390    62.6210    18.4020    20.9470    15.9050     2.1340 
  137.6250   137.5850    -1.4220    -1.3380   -12.9240    64.4750    17.2080    19.4820    12.8690     2.1720 
  137.7500   137.7100    -1.4290    -1.3470   -12.9390    66.3310    16.7040    19.0290    13.5190     2.2120 
  137.8750   137.8340    -1.4360    -1.3560   -12.5170    65.9040    17.0380    19.6950    17.3820     2.2330 
  138.0000   137.9590    -1.4440    -1.3650   -11.6750    63.1040    17.8950    20.9650    20.4170     2.2210 
  138.1250   138.0830    -1.4510    -1.3750   -10.6880    62.7210    19.0350    22.4510    20.2150     2.1820 
  138.2500   138.2080    -1.4580    -1.3840    -9.7850    64.5560    20.2150    23.9500    18.8240     2.1380 
  138.3750   138.3320    -1.4660    -1.3930    -9.0040    64.7550    21.3900    25.4540    18.7380     2.1070 
  138.5000   138.4570    -1.4730    -1.4030    -8.1760    62.9920    22.7220    27.1790    21.3010     2.0840 
  138.6250   138.5810    -1.4800    -1.4120    -7.3460    61.7510    24.3580    29.3240    26.0140     2.0650 
  138.7500   138.7050    -1.4880    -1.4220    -6.5800    61.2620    26.0220    31.4340    29.8040     2.0490 
  138.8750   138.8300    -1.4950    -1.4310    -6.0230    61.5380    27.1910    32.9000    31.3460     2.0470 
  139.0000   138.9540    -1.5030    -1.4410    -5.7410    64.1570    27.7400    33.5580    31.2960     2.0640 
  139.1250   139.0790    -1.5100    -1.4510    -5.7350    67.8500    27.7440    33.5450    30.0470     2.0930 
  139.2500   139.2030    -1.5180    -1.4600    -5.8950    66.3250    27.5550    33.3960    29.2170     2.1160 
  139.3750   139.3270    -1.5260    -1.4700    -6.2050    60.9720    27.4190    33.4650    30.4770     2.1210 
  139.5000   139.4520    -1.5340    -1.4800    -6.5550    57.5000    27.3400    33.6060    34.6010     2.1070 
  139.6250   139.5760    -1.5410    -1.4900    -6.9960    58.1770    27.2630    33.5680    39.5030     2.0850 
  139.7500   139.7000    -1.5490    -1.5000    -7.6180    58.1690    27.1120    33.2930    39.3170     2.0690 
  139.8750   139.8250    -1.5570    -1.5090    -8.4290    57.0000    26.7770    32.6980    34.9310     2.0690 
  140.0000   139.9490    -1.5650    -1.5190    -9.3620    56.7410    26.3770    32.0180    33.3420     2.0820 
  140.1250   140.0730    -1.5740    -1.5290   -10.3820    59.0110    26.1580    31.5220    34.1030     2.0920 
  140.2500   140.1980    -1.5820    -1.5400   -11.5310    60.0660    26.1930    31.2170    33.7170     2.0870 
  140.3750   140.3220    -1.5900    -1.5500   -12.8690    57.3990    26.3810    31.1340    32.6970     2.0720 
  140.5000   140.4460    -1.5980    -1.5600   -14.4550    54.8260    26.9010    31.6220    31.7890     2.0780 
  140.6250   140.5710    -1.6060    -1.5700   -16.3410    55.4880    28.0450    33.0480    31.1240     2.1360 
  140.7500   140.6950    -1.6150    -1.5810   -18.5120    56.7530    29.2730    34.2690    32.6300     2.2450 
  140.8750   140.8190    -1.6230    -1.5910   -20.8970    56.0810    28.4450    32.4910    36.2660     2.3770 
  141.0000   140.9440    -1.6320    -1.6020   -23.3970    56.7160    24.0410    27.1670    37.3860     2.4850 
  141.1250   141.0680    -1.6400    -1.6120   -25.7900    62.7880    17.5280    19.3170    34.4630     2.5340 
  141.2500   141.1920    -1.6490    -1.6230   -27.8670    70.6910    10.8890    11.9880    28.4650     2.5270 
  141.3750   141.3160    -1.6570    -1.6340   -29.4720    80.5500     6.7120     7.4260    18.3640     2.4770 
  141.5000   141.4410    -1.6660    -1.6440   -30.6600    91.9010     4.8270     5.1140     8.7100     2.4130 
  141.6250   141.5650    -1.6750    -1.6550   -31.4110   100.3760     4.0420     4.2500     4.6500     2.3520 
  141.7500   141.6890    -1.6840    -1.6660   -31.9460   102.3950     3.9140     4.1180     4.1990     2.3090 
  141.8750   141.8130    -1.6930    -1.6770   -32.3290    99.7940     4.1890     4.4040     4.5810     2.2970 
  142.0000   141.9370    -1.7020    -1.6880   -32.5480    95.5760     4.5790     4.7800     4.9310     2.3150 
  142.1250   142.0620    -1.7110    -1.6990   -32.5640    92.6540     4.9110     5.0800     5.0920     2.3490 
  142.2500   142.1860    -1.7200    -1.7090   -32.5430    91.6800     5.1130     5.2410     4.9730     2.3780 
  142.3750   142.3100    -1.7290    -1.7200   -32.5810    90.8580     5.1580     5.2330     4.6090     2.3840 
  142.5000   142.4340    -1.7380    -1.7320   -32.6330    89.6810     5.0930     5.1200     4.2570     2.3660 
  142.6250   142.5580    -1.7480    -1.7430   -32.6840    88.8880     4.9670     4.9590     4.0860     2.3330 
  142.7500   142.6820    -1.7570    -1.7540   -32.6440    87.8620     4.7930     4.7950     4.0570     2.3030 
  142.8750   142.8070    -1.7670    -1.7650   -32.4030    86.6960     4.5510     4.6260     4.1370     2.2870 
  143.0000   142.9310    -1.7760    -1.7760   -32.0560    87.1390     4.2870     4.4620     4.2350     2.2820 
  143.1250   143.0550    -1.7860    -1.7880   -31.6470    89.4070     4.0860     4.3680     4.1780     2.2780 
  143.2500   143.1790    -1.7950    -1.7990   -31.1830    93.2750     4.0950     4.5740     4.0000     2.2730 
  143.3750   143.3030    -1.8050    -1.8110   -30.4610    98.0760     4.4620     5.2200     4.1720     2.2810 
  143.5000   143.4270    -1.8150    -1.8220   -29.6040   100.0330     5.5150     6.4710     5.8150     2.3170 
  143.6250   143.5510    -1.8240    -1.8340   -28.5960    93.7870     7.4840     8.8120    11.2120     2.3780 
  143.7500   143.6750    -1.8340    -1.8450   -27.3990    82.5640    10.1880    12.1550    19.9010     2.4340 
  143.8750   143.7990    -1.8440    -1.8570   -25.9920    70.7720    13.4550    16.2380    25.8800     2.4410 
  144.0000   143.9230    -1.8540    -1.8690   -24.3990    65.8320    15.9930    19.4810    24.1220     2.3870 
  144.1250   144.0470    -1.8630    -1.8810   -22.6720    72.4590    17.0780    20.6350    18.2040     2.2910 
  144.2500   144.1710    -1.8730    -1.8930   -20.9830    81.9720    16.9440    20.2090    15.1130     2.1960 
  144.3750   144.2960    -1.8830    -1.9050   -19.5270    82.3370    16.3230    19.3560    15.5950     2.1290 
  144.5000   144.4200    -1.8930    -1.9170   -18.3190    75.5870    16.2450    19.4060    17.3200     2.0890 
  144.6250   144.5440    -1.9030    -1.9290   -17.2380    70.2010    16.9370    20.5210    19.5920     2.0690 
  144.7500   144.6680    -1.9120    -1.9410   -16.2630    68.4180    17.8920    21.9570    22.0140     2.0620 
  144.8750   144.7920    -1.9220    -1.9530   -15.5310    65.1590    18.6830    23.1030    24.0500     2.0660 
  145.0000   144.9160    -1.9320    -1.9650   -15.0470    61.4020    19.2200    23.8140    26.0450     2.0760 
