~V
VERS. 2.00: Ver 2.00
~W
STRT.M 34.0000:
STOP.M 260.0000:
STEP.M 0.1250:
NULL. -999.2500:
UWI. FD10858:
~C
DEPT.M :
TVD. :
DX. :
DY. :
SP.MV :
GR.API :
RI. :
RML.OHMM :
RXO.OHMM :
DEN.GM/CC :
~A
# ...
  180.0000   169.3160   -32.5410   -35.0340   -10.9290    59.8410     9.7690    10.5920     9.9730     2.2390 
  180.1250   169.4250   -32.5810   -35.0790   -10.9410    60.5190     9.9380    10.6990    10.2710     2.2290 
  180.2500   169.5350   -32.6210   -35.1240   -10.9530    62.6840    10.0100    10.6970    10.4440     2.2190 
  180.3750   169.6450   -32.6610   -35.1680   -10.9730    63.6720    10.0580    10.6670    10.3690     2.2130 
  180.5000   169.7540   -32.7020   -35.2130   -11.0040    63.5480    10.1210    10.6760    10.4420     2.2110 
  180.6250   169.8640   -32.7420   -35.2580   -11.0450    64.3540    10.2340    10.7630    10.4720     2.2110 
  180.7500   169.9730   -32.7820   -35.3020   -11.0910    65.3410    10.3950    10.9150    10.5330     2.2150 
  180.8750   170.0830   -32.8220   -35.3470   -11.1390    64.6550    10.5500    11.0690    11.0640     2.2240 
  181.0000   170.1930   -32.8630   -35.3910   -11.1860    62.0720    10.6980    11.1980    11.6530     2.2330 
  181.1250   170.3020   -32.9030   -35.4360   -11.2330    60.6340    10.8520    11.3810    11.7620     2.2390 
  181.2500   170.4120   -32.9430   -35.4800   -11.2820    61.5430    10.9960    11.5840    11.7720     2.2410 
  181.3750   170.5220   -32.9840   -35.5240   -11.3390    63.4660    11.0390    11.6920    12.6440     2.2430 
  181.5000   170.6310   -33.0240   -35.5690   -11.4170    65.4340    10.9470    11.6330    13.4390     2.2520 
  181.6250   170.7410   -33.0640   -35.6130   -11.5380    66.3960    10.7260    11.3970    12.9410     2.2770 
  181.7500   170.8510   -33.1040   -35.6580   -11.7150    65.3300    10.5480    11.1960    12.3680     2.3230 
  181.8750   170.9600   -33.1440   -35.7030   -11.9600    62.1930    10.6540    11.3490    12.4090     2.3850 
  182.0000   171.0700   -33.1840   -35.7470   -12.2600    60.4750    11.2930    12.1500    11.9670     2.4360 
  182.1250   171.1800   -33.2240   -35.7920   -12.6000    60.0730    12.9490    14.1340    11.7770     2.4340 
  182.2500   171.2900   -33.2640   -35.8360   -12.9500    57.5940    15.2830    16.8230    14.0730     2.3680 
  182.3750   171.3990   -33.3040   -35.8810   -13.2750    53.9200    18.1210    19.9890    19.2120     2.2670 
  182.5000   171.5090   -33.3440   -35.9260   -13.5460    51.9650    20.7920    22.8070    24.8030     2.1860 
  182.6250   171.6190   -33.3840   -35.9700   -13.7370    51.5850    22.4620    24.4510    28.0370     2.1550 
  182.7500   171.7280   -33.4240   -36.0150   -13.8490    50.9060    23.2140    25.0990    27.3410     2.1680 
  182.8750   171.8380   -33.4640   -36.0600   -13.8860    50.8010    22.7630    24.4940    24.5690     2.2170 
  183.0000   171.9480   -33.5040   -36.1050   -13.8750    52.1490    21.2320    22.8520    26.9220     2.2900 
  183.1250   172.0570   -33.5440   -36.1490   -13.8430    53.8970    19.1730    20.6560    33.2460     2.3710 
  183.2500   172.1670   -33.5840   -36.1940   -13.8230    54.2300    16.9600    18.3030    34.9460     2.4290 
  183.3750   172.2770   -33.6240   -36.2380   -13.8490    53.7870    15.0000    16.2460    30.5310     2.4310 
  183.5000   172.3870   -33.6640   -36.2830   -13.9400    53.2760    13.6980    14.8820    22.7900     2.3870 
  183.6250   172.4960   -33.7040   -36.3270   -14.0990    54.4560    12.6690    13.8290    16.7820     2.3260 
  183.7500   172.6060   -33.7440   -36.3720   -14.2940    56.6060    11.7800    12.9180    14.8940     2.2830 
  183.8750   172.7160   -33.7840   -36.4160   -14.4710    56.8970    10.8460    11.8970    14.2020     2.2690 
  184.0000   172.8260   -33.8230   -36.4610   -14.5770    56.8200     9.8760    10.7950    14.8720     2.2730 
  184.1250   172.9350   -33.8630   -36.5060   -14.5640    59.0510     8.9830     9.7450    17.3540     2.2820 
  184.2500   173.0450   -33.9030   -36.5500   -14.4290    62.7240     8.3050     8.9140    16.7060     2.2890 
  184.3750   173.1550   -33.9430   -36.5950   -14.1770    64.3280     7.8430     8.3500    11.7140     2.2920 
  184.5000   173.2650   -33.9830   -36.6390   -13.8470    63.3300     7.5760     8.0400     9.0210     2.2920 
  184.6250   173.3740   -34.0230   -36.6840   -13.4740    61.4550     7.4770     7.9210    10.4640     2.2920 
  184.7500   173.4840   -34.0630   -36.7280   -13.1010    60.4130     7.5650     8.0050    11.3610     2.2960 
  184.8750   173.5940   -34.1030   -36.7730   -12.7620    61.0690     7.7810     8.2520    11.2120     2.3090 
  185.0000   173.7040   -34.1430   -36.8170   -12.4690    62.1490     8.0260     8.5710    11.7490     2.3270 
  185.1250   173.8130   -34.1830   -36.8620   -12.2190    60.6400     8.2190     8.8320    11.5470     2.3420 
  185.2500   173.9230   -34.2230   -36.9070   -11.9920    57.8080     8.2020     8.8210     9.9210     2.3450 
  185.3750   174.0330   -34.2630   -36.9510   -11.7730    57.2910     7.9610     8.5080     8.5810     2.3370 
  185.5000   174.1430   -34.3030   -36.9960   -11.5610    58.8030     7.5720     7.9950     7.9910     2.3250 
  185.6250   174.2520   -34.3430   -37.0410   -11.3700    59.7930     7.1390     7.4700     8.2040     2.3150 
  185.7500   174.3620   -34.3820   -37.0850   -11.2120    59.9540     6.8070     7.1300     9.3770     2.3080 
  185.8750   174.4720   -34.4220   -37.1300   -11.0990    60.1150     6.6750     7.0840     9.3640     2.3050 
  186.0000   174.5820   -34.4620   -37.1750   -11.0250    61.1030     6.7420     7.2660     7.8540     2.3090 
  186.1250   174.6910   -34.5020   -37.2190   -10.9850    62.5750     7.0180     7.6550     7.5200     2.3210 
  186.2500   174.8010   -34.5420   -37.2640   -10.9650    63.3700     7.3950     8.1090     8.6700     2.3390 
  186.3750   174.9110   -34.5820   -37.3080   -10.9570    62.4950     7.7040     8.4790     9.6100     2.3580 
  186.5000   175.0210   -34.6220   -37.3530   -10.9580    59.9050     7.8590     8.6810     9.8080     2.3680 
  186.6250   175.1300   -34.6620   -37.3970   -10.9790    57.2500     7.8180     8.6670     9.7680     2.3640 
  186.7500   175.2400   -34.7020   -37.4410   -11.0310    55.4120     7.7040     8.5300     9.4010     2.3530 
  186.8750   175.3500   -34.7420   -37.4860   -11.1230    56.0150     7.6460     8.4410     8.7250     2.3440 
  187.0000   175.4600   -34.7820   -37.5300   -11.2480    58.2950     7.8570     8.6700     8.6280     2.3430 
  187.1250   175.5690   -34.8230   -37.5750   -11.3980    59.5220     8.3700     9.2530     9.4690     2.3490 
  187.2500   175.6790   -34.8630   -37.6190   -11.5560    57.7300     9.0870    10.0900    10.4600     2.3580 
  187.3750   175.7890   -34.9030   -37.6640   -11.7150    54.2750     9.9810    11.1410    11.2140     2.3610 
  187.5000   175.8980   -34.9420   -37.7080   -11.8680    51.8330    10.9580    12.2760    13.0180     2.3570 
  187.6250   176.0080   -34.9820   -37.7530   -12.0030    52.1450    11.9480    13.4120    15.6280     2.3430 
  187.7500   176.1180   -35.0220   -37.7980   -12.1100    52.2920    12.8270    14.4100    17.2080     2.3280 
  187.8750   176.2280   -35.0620   -37.8420   -12.1780    51.2880    13.2970    14.9150    17.6760     2.3200 
  188.0000   176.3370   -35.1020   -37.8870   -12.2090    51.0200    13.2830    14.8670    17.7060     2.3270 
  188.1250   176.4470   -35.1420   -37.9310   -12.2100    52.1710    12.9680    14.4550    18.0980     2.3530 
  188.2500   176.5570   -35.1820   -37.9760   -12.1980    51.9810    12.4510    13.7950    17.6750     2.3900 
  188.3750   176.6670   -35.2210   -38.0210   -12.1920    50.4560    11.8620    13.0760    15.5930     2.4190 
  188.5000   176.7760   -35.2610   -38.0650   -12.2120    50.0220    11.3300    12.4200    14.5070     2.4240 
  188.6250   176.8860   -35.3010   -38.1100   -12.2810    51.8380    10.9330    11.8980    16.2050     2.3930 
  188.7500   176.9960   -35.3410   -38.1540   -12.4060    54.0290    10.7010    11.5590    17.6750     2.3390 
  188.8750   177.1060   -35.3810   -38.1990   -12.5910    55.0850    10.6430    11.4310    15.3060     2.2830 
  189.0000   177.2150   -35.4210   -38.2430   -12.8130    54.9580    10.6410    11.4180    12.3070     2.2440 
