~V
VERS. 2.00: Ver 2.00
~W
STRT.M 24.0000:
STOP.M 269.0000:
STEP.M 0.1250:
NULL. -999.2500:
UWI. FD10666:
~C
DEPT.M :
TVD. :
DX. :
DY. :
GR.API :
RML.OHMM :
RI. :
RXO.OHMM :
CALI.CM :
DEN.GM/CC :
SP.MV :
~A
# ...
  197.2500   188.2210    43.6460    22.0880    49.1410    46.4820    41.9800    23.0890    21.5040     2.2580   -14.5330 
  197.3750   188.3320    43.6970    22.1110    48.6470    46.9610    42.8150    24.9420    21.5820     2.2530   -14.5030 
  197.5000   188.4430    43.7490    22.1350    46.9300    46.8900    43.2160    26.2640    21.6200     2.2500   -14.4490 
  197.6250   188.5550    43.8000    22.1580    47.0650    46.3890    43.2580    25.3510    21.6380     2.2510   -14.3670 
  197.7500   188.6660    43.8510    22.1820    49.9420    45.6220    43.0460    24.0840    21.6620     2.2570   -14.2770 
  197.8750   188.7780    43.9030    22.2050    52.0320    44.5410    42.5120    23.8620    21.7060     2.2650   -14.1850 
  198.0000   188.8890    43.9540    22.2290    51.2670    42.9850    41.4860    25.0410    21.7860     2.2750   -14.0880 
  198.1250   189.0010    44.0060    22.2520    49.5440    40.6350    39.6260    27.1160    21.9400     2.2840   -13.9790 
  198.2500   189.1120    44.0570    22.2760    49.0970    37.5400    36.9450    29.3420    22.2030     2.2920   -13.8510 
  198.3750   189.2240    44.1080    22.2990    49.4470    33.8310    33.5340    31.2680    22.5760     2.2950   -13.7070 
  198.5000   189.3350    44.1600    22.3230    49.3870    29.7580    29.6240    32.7930    22.9710     2.2890   -13.5490 
  198.6250   189.4460    44.2110    22.3460    50.4420    25.6310    25.5220    31.5090    23.1890     2.2720   -13.3860 
  198.7500   189.5580    44.2630    22.3700    52.4970    21.7510    21.5940    28.2270    23.1130     2.2540   -13.2170 
  198.8750   189.6690    44.3140    22.3930    52.6250    18.3550    18.1150    23.9600    22.7580     2.2460   -13.0460 
  199.0000   189.7810    44.3660    22.4160    51.7850    15.6580    15.3180    19.8110    22.2880     2.2590   -12.8800 
  199.1250   189.8920    44.4170    22.4400    54.7490    13.9690    13.4920    15.7200    21.9450     2.2940   -12.7400 
  199.2500   190.0040    44.4680    22.4630    60.7890    13.1750    12.5190    12.3180    21.8870     2.3340   -12.6260 
  199.3750   190.1150    44.5200    22.4870    65.3320    13.1980    12.3320    11.2970    22.0460     2.3610   -12.5370 
  199.5000   190.2260    44.5710    22.5100    64.7530    13.9120    12.8350    11.9190    22.2810     2.3660   -12.4730 
  199.6250   190.3380    44.6230    22.5340    60.2370    15.2550    13.9990    13.9560    22.4240     2.3500   -12.4360 
  199.7500   190.4490    44.6740    22.5570    56.1330    17.0030    15.6000    15.8110    22.3680     2.3290   -12.4310 
  199.8750   190.5610    44.7260    22.5810    54.2770    19.0550    17.5260    15.9750    22.1290     2.3110   -12.4650 
  200.0000   190.6720    44.7770    22.6040    54.7980    21.2910    19.6480    16.2620    21.8170     2.3010   -12.5230 
  200.1250   190.7840    44.8280    22.6280    54.0490    23.4850    21.7580    19.3270    21.6300     2.2990   -12.5930 
  200.2500   190.8950    44.8800    22.6510    51.7900    25.3270    23.5630    24.6170    21.6930     2.2980   -12.6710 
  200.3750   191.0070    44.9310    22.6750    50.7780    26.5580    24.7860    27.5430    21.9550     2.2940   -12.7560 
  200.5000   191.1180    44.9830    22.6980    52.3650    27.0690    25.2610    27.2420    22.2630     2.2860   -12.8480 
  200.6250   191.2290    45.0340    22.7220    54.2000    26.9620    25.0030    25.6470    22.4690     2.2730   -12.9380 
  200.7500   191.3410    45.0860    22.7450    54.0310    26.7540    24.5210    24.6960    22.4840     2.2630   -13.0120 
  200.8750   191.4520    45.1370    22.7690    53.0660    26.8160    24.2040    23.9310    22.2920     2.2610   -13.0720 
  201.0000   191.5640    45.1880    22.7920    52.0310    27.3460    24.2910    23.0710    21.9760     2.2720   -13.1290 
  201.1250   191.6750    45.2400    22.8160    50.7510    28.3770    24.8810    24.1450    21.7310     2.2890   -13.1860 
  201.2500   191.7870    45.2910    22.8390    50.7620    29.6260    25.7560    27.0230    21.6740     2.3020   -13.2370 
  201.3750   191.8980    45.3430    22.8630    52.3730    30.8600    26.7180    29.3940    21.7910     2.3010   -13.2780 
  201.5000   192.0090    45.3940    22.8860    53.7740    31.8750    27.5700    29.4790    21.9740     2.2870   -13.3080 
  201.6250   192.1210    45.4450    22.9100    53.9610    32.4800    28.1230    27.9720    22.0720     2.2670   -13.3240 
  201.7500   192.2320    45.4970    22.9330    54.0250    32.7100    28.3750    27.0100    22.0130     2.2510   -13.3290 
  201.8750   192.3440    45.5480    22.9570    53.3610    32.5880    28.3480    26.3580    21.8000     2.2460   -13.3230 
  202.0000   192.4550    45.6000    22.9800    52.1050    32.1430    28.0690    25.5090    21.4870     2.2520   -13.3040 
  202.1250   192.5670    45.6510    23.0040    50.9150    31.3780    27.5330    24.7140    21.2030     2.2690   -13.2790 
  202.2500   192.6780    45.7030    23.0270    50.5260    30.4410    26.8380    25.1550    21.0620     2.2870   -13.2730 
  202.3750   192.7900    45.7540    23.0510    52.2400    29.4760    26.0790    26.2440    21.0920     2.3010   -13.2900 
  202.5000   192.9010    45.8050    23.0740    54.0800    28.6590    25.3860    25.9280    21.2470     2.3050   -13.3270 
  202.6250   193.0120    45.8570    23.0980    53.1950    28.2360    24.9650    23.8460    21.4280     2.2990   -13.3910 
  202.7500   193.1240    45.9080    23.1210    52.0040    28.2840    24.9160    22.4440    21.5240     2.2880   -13.4830 
  202.8750   193.2350    45.9600    23.1450    53.8660    28.8350    25.2970    22.1020    21.5090     2.2760   -13.5950 
  203.0000   193.3470    46.0110    23.1680    57.7440    29.8040    26.0700    22.0810    21.4000     2.2640   -13.7280 
  203.1250   193.4580    46.0630    23.1920    59.0210    30.9120    27.0360    22.1090    21.2180     2.2550   -13.8770 
  203.2500   193.5700    46.1140    23.2150    57.3660    31.6900    27.7890    22.2510    21.0160     2.2480   -14.0120 
  203.3750   193.6810    46.1650    23.2390    54.1760    31.7870    27.9980    23.0030    20.8110     2.2470   -14.1250 
  203.5000   193.7920    46.2170    23.2620    51.3820    31.1040    27.5150    24.2260    20.6340     2.2550   -14.2300 
  203.6250   193.9040    46.2680    23.2860    52.6990    29.9180    26.4970    24.3040    20.5420     2.2710   -14.3460 
  203.7500   194.0150    46.3200    23.3090    56.0360    28.9940    25.5820    22.4090    20.5050     2.2880   -14.4690 
  203.8750   194.1270    46.3710    23.3330    56.8200    28.9110    25.2750    19.0490    20.4950     2.2940   -14.5940 
  204.0000   194.2380    46.4230    23.3560    54.7260    29.9080    25.8400    16.3190    20.4880     2.2860   -14.7230 
  204.1250   194.3500    46.4740    23.3800    53.3440    31.7890    27.2580    16.5510    20.4740     2.2640   -14.8440 
  204.2500   194.4610    46.5250    23.4030    54.1480    33.6990    28.9090    18.6510    20.4540     2.2430   -14.9680 
  204.3750   194.5720    46.5770    23.4270    55.5450    34.9950    30.2480    20.6450    20.4350     2.2330   -15.1100 
  204.5000   194.6840    46.6280    23.4500    56.0390    35.3590    30.8900    22.1190    20.4290     2.2380   -15.2600 
  204.6250   194.7950    46.6800    23.4730    55.6140    34.9210    30.7620    22.7000    20.4340     2.2540   -15.3910 
  204.7500   194.9070    46.7310    23.4970    55.8620    34.4580    30.4570    21.6700    20.4340     2.2710   -15.5110 
  204.8750   195.0180    46.7820    23.5200    56.6560    34.4850    30.4530    18.5070    20.4090     2.2790   -15.6250 
  205.0000   195.1300    46.8340    23.5440    55.9470    35.1370    30.9640    16.1370    20.3380     2.2780   -15.7270 
  205.1250   195.2410    46.8850    23.5670    51.9190    36.1360    31.8840    15.9310    20.2000     2.2730   -15.8210 
  205.2500   195.3530    46.9370    23.5910    47.5840    36.9340    32.7740    16.7980    20.0300     2.2720   -15.9130 
  205.3750   195.4640    46.9880    23.6140    45.1960    37.2210    33.3260    17.7520    19.8830     2.2760   -15.9950 
