~V
VERS. 2.00: Ver 2.00
~W
STRT.M 62.0000:
STOP.M 282.0000:
STEP.M 0.1250:
NULL. -999.2500:
UWI. FD10887:
~C
DEPT.M :
TVD. :
DX. :
DY. :
SP.MV :
GR.API :
RI. :
RML.OHMM :
RXO.OHMM :
DEN.GM/CC :
~A
# ...
  244.5000   231.4510    -1.1650    59.6260   -10.5220    79.9530     6.6350     8.4300    10.4590     2.3000 
  244.6250   231.5590    -1.1640    59.6890   -10.3190    80.6280     6.7180     8.6880     9.4890     2.2990 
  244.7500   231.6670    -1.1630    59.7510   -10.1030    82.1450     6.8770     9.0080     8.8760     2.2950 
  244.8750   231.7760    -1.1620    59.8140    -9.8880    83.7520     7.0350     9.2660     8.8520     2.2930 
  245.0000   231.8840    -1.1620    59.8770    -9.6710    83.6050     7.0270     9.3110     9.8570     2.2950 
  245.1250   231.9920    -1.1610    59.9390    -9.4300    81.0160     6.7500     8.9990    11.7600     2.3020 
  245.2500   232.1000    -1.1600    60.0020    -9.1470    77.1220     6.2220     8.2870    11.6330     2.3110 
  245.3750   232.2080    -1.1590    60.0650    -8.8150    73.3340     5.4890     7.2770     8.5500     2.3150 
  245.5000   232.3160    -1.1580    60.1270    -8.4390    71.7320     4.7680     6.2630     5.6720     2.3090 
  245.6250   232.4250    -1.1580    60.1900    -8.0170    72.0250     4.1120     5.3170     4.6810     2.2950 
  245.7500   232.5330    -1.1570    60.2530    -7.5570    71.6150     3.6620     4.6890     4.4490     2.2790 
  245.8750   232.6410    -1.1560    60.3150    -7.0810    70.1220     3.5100     4.4510     4.1920     2.2690 
  246.0000   232.7490    -1.1550    60.3780    -6.6290    69.9180     3.5050     4.4540     4.1020     2.2620 
  246.1250   232.8570    -1.1540    60.4400    -6.2510    71.7640     3.5880     4.5960     4.4170     2.2550 
  246.2500   232.9650    -1.1530    60.5030    -5.9820    74.4520     3.6770     4.7520     4.9930     2.2490 
  246.3750   233.0740    -1.1530    60.5660    -5.8630    77.4340     3.6950     4.8120     5.2590     2.2440 
  246.5000   233.1820    -1.1520    60.6280    -5.8980    79.9820     3.6400     4.6900     4.9100     2.2460 
  246.6250   233.2900    -1.1510    60.6910    -6.0830    79.9790     3.5020     4.4580     4.5120     2.2540 
  246.7500   233.3980    -1.1500    60.7530    -6.3590    76.5810     3.3460     4.2080     4.1570     2.2640 
  246.8750   233.5060    -1.1490    60.8160    -6.6590    72.6830     3.2390     4.0510     3.8880     2.2730 
  247.0000   233.6150    -1.1480    60.8780    -6.9210    71.2010     3.2170     4.0310     3.9970     2.2780 
  247.1250   233.7230    -1.1470    60.9410    -7.1150    72.2230     3.2710     4.1070     4.2420     2.2780 
  247.2500   233.8310    -1.1460    61.0040    -7.2490    73.0050     3.3740     4.2510     4.3540     2.2740 
  247.3750   233.9390    -1.1460    61.0660    -7.3370    73.9650     3.5210     4.4360     4.4970     2.2640 
  247.5000   234.0480    -1.1450    61.1290    -7.3990    76.3600     3.7330     4.7060     4.9430     2.2500 
  247.6250   234.1560    -1.1440    61.1910    -7.4500    80.8750     4.0260     5.1000     5.4110     2.2360 
  247.7500   234.2640    -1.1430    61.2540    -7.5110    84.8530     4.3140     5.4780     5.5780     2.2270 
  247.8750   234.3720    -1.1420    61.3160    -7.6000    85.7450     4.4770     5.6880     5.7790     2.2260 
  248.0000   234.4800    -1.1410    61.3790    -7.7120    83.5490     4.4510     5.6260     5.9600     2.2320 
  248.1250   234.5890    -1.1410    61.4420    -7.8070    80.7150     4.2000     5.2510     5.5020     2.2400 
  248.2500   234.6970    -1.1400    61.5040    -7.8340    79.9550     3.8610     4.7610     4.6730     2.2450 
  248.3750   234.8050    -1.1390    61.5670    -7.7450    79.9250     3.5500     4.3280     4.2080     2.2430 
  248.5000   234.9130    -1.1380    61.6290    -7.5510    79.1280     3.3620     4.0720     4.1560     2.2350 
  248.6250   235.0210    -1.1370    61.6920    -7.2850    78.0290     3.3470     4.0450     4.3690     2.2240 
  248.7500   235.1290    -1.1360    61.7550    -7.0020    78.6730     3.4420     4.1600     4.8760     2.2160 
  248.8750   235.2380    -1.1350    61.8180    -6.7510    79.9280     3.6260     4.3880     5.2400     2.2130 
  249.0000   235.3460    -1.1340    61.8800    -6.5640    80.3230     3.8550     4.6740     5.0990     2.2180 
  249.1250   235.4540    -1.1330    61.9430    -6.4710    80.6080     4.0430     4.9020     4.9630     2.2250 
  249.2500   235.5620    -1.1310    62.0060    -6.4690    80.8090     4.1090     4.9560     5.1360     2.2330 
  249.3750   235.6700    -1.1300    62.0690    -6.5470    80.7800     4.0210     4.7670     5.2150     2.2380 
  249.5000   235.7780    -1.1290    62.1320    -6.6700    80.7050     3.7980     4.3970     4.5830     2.2420 
  249.6250   235.8860    -1.1280    62.1950    -6.8100    79.1120     3.5510     4.0120     3.6440     2.2470 
  249.7500   235.9940    -1.1270    62.2570    -6.9500    76.3420     3.3530     3.7160     3.3830     2.2500 
  249.8750   236.1020    -1.1260    62.3200    -7.0840    73.7430     3.2430     3.5820     3.5810     2.2520 
  250.0000   236.2100    -1.1250    62.3830    -7.2110    73.1490     3.2740     3.6600     3.8360     2.2510 
  250.1250   236.3180    -1.1240    62.4460    -7.3310    74.0600     3.4560     3.9440     4.3310     2.2510 
  250.2500   236.4260    -1.1230    62.5090    -7.4490    75.2210     3.7200     4.3330     4.8660     2.2520 
  250.3750   236.5340    -1.1220    62.5720    -7.5720    76.5680     3.9820     4.6860     5.2770     2.2530 
  250.5000   236.6420    -1.1210    62.6350    -7.7010    77.3590     4.2050     4.9580     5.7070     2.2530 
  250.6250   236.7500    -1.1200    62.6980    -7.8190    78.7840     4.3420     5.0830     5.7250     2.2500 
  250.7500   236.8580    -1.1180    62.7610    -7.8990    80.7970     4.3680     5.0350     5.3990     2.2460 
  250.8750   236.9660    -1.1170    62.8240    -7.9150    82.8230     4.4760     5.0450     5.5070     2.2450 
  251.0000   237.0740    -1.1160    62.8870    -7.8720    82.8660     4.6930     5.1930     5.7430     2.2510 
  251.1250   237.1820    -1.1150    62.9500    -7.7910    80.3310     5.0200     5.5070     6.8140     2.2680 
  251.2500   237.2900    -1.1140    63.0130    -7.7030    77.9810     5.4400     6.0360     9.9430     2.2920 
  251.3750   237.3980    -1.1130    63.0760    -7.6280    77.6570     6.0410     6.8470    11.7120     2.3160 
  251.5000   237.5060    -1.1120    63.1390    -7.5700    78.7350     6.6560     7.6420     9.9500     2.3280 
  251.6250   237.6140    -1.1100    63.2020    -7.5280    79.6550     7.1440     8.2570     8.8020     2.3250 
  251.7500   237.7210    -1.1090    63.2650    -7.4930    80.7770     7.4950     8.6640     9.5850     2.3170 
  251.8750   237.8290    -1.1080    63.3280    -7.4510    81.4650     7.5880     8.6780    10.4470     2.3100 
  252.0000   237.9370    -1.1070    63.3910    -7.3800    81.0280     7.5970     8.5710    10.9220     2.3050 
  252.1250   238.0450    -1.1060    63.4540    -7.2570    80.3030     7.5130     8.4070    10.1020     2.2950 
  252.2500   238.1530    -1.1050    63.5170    -7.0800    79.6070     7.1990     8.0420     8.9030     2.2790 
  252.3750   238.2610    -1.1050    63.5800    -6.8620    79.3430     6.6790     7.5350     8.7830     2.2640 
  252.5000   238.3690    -1.1040    63.6430    -6.6380    79.5510     6.2650     7.2080     8.6120     2.2560 
  252.6250   238.4770    -1.1030    63.7060    -6.4420    79.9460     6.0620     7.0510     7.5590     2.2570 
  252.7500   238.5850    -1.1020    63.7690    -6.3010    79.0770     6.1230     7.1800     7.0490     2.2620 
  252.8750   238.6930    -1.1010    63.8320    -6.2470    76.6520     6.3910     7.4300     8.1830     2.2690 
  253.0000   238.8010    -1.1000    63.8950    -6.2810    75.6650     6.6900     7.6430     9.9080     2.2760 
  253.1250   238.9090    -1.0990    63.9580    -6.3890    75.7560     6.8180     7.6720    10.6320     2.2830 
  253.2500   239.0170    -1.0980    64.0210    -6.5160    75.4720     6.7040     7.4960     9.5610     2.2900 
  253.3750   239.1250    -1.0970    64.0840    -6.5960    74.4840     6.3240     7.1640     7.9620     2.2890 
  253.5000   239.2330    -1.0960    64.1470    -6.5900    75.2290     5.8070     6.6710     7.3080     2.2760 
