~V
VERS. 2.00: Ver 2.00
~W
STRT.M 22.0000:
STOP.M 238.0000:
STEP.M 0.1250:
NULL. -999.2500:
UWI. FD10612:
~C
DEPT.M :
TVD. :
DX. :
DY. :
GR.API :
RML.OHMM :
RI. :
RXO.OHMM :
CALI.CM :
DEN.GM/CC :
SP.MV :
~A
# ...
   88.0000    87.6420     4.1430     3.5370    93.6100     6.9830     6.0180     5.5900    22.7610     2.3550   -23.9320 
   88.1250    87.7660     4.1570     3.5490    93.5240     7.5370     6.3650     5.3540    22.6460     2.3780   -23.8980 
   88.2500    87.8890     4.1710     3.5600    90.6450     8.4110     6.9810     6.3410    22.5790     2.4180   -23.8980 
   88.3750    88.0130     4.1860     3.5720    84.7470     9.3920     7.7650     9.1720    22.5640     2.4510   -23.8860 
   88.5000    88.1360     4.2000     3.5830    75.6730    10.1310     8.4620    11.6270    22.5850     2.4500   -23.8650 
   88.6250    88.2600     4.2140     3.5950    68.4580    10.1760     8.6520    10.5690    22.6050     2.4060   -23.8380 
   88.7500    88.3840     4.2280     3.6060    67.5850     9.5700     8.2740     8.3440    22.5860     2.3470   -23.8320 
   88.8750    88.5070     4.2420     3.6180    73.4590     8.5690     7.5130     6.6460    22.4930     2.3040   -23.8320 
   89.0000    88.6310     4.2570     3.6290    81.6590     7.5390     6.6740     5.6880    22.3970     2.2900   -23.8820 
   89.1250    88.7540     4.2710     3.6400    86.0310     6.8120     6.0360     5.3640    22.3270     2.3070   -24.1120 
   89.2500    88.8780     4.2850     3.6520    86.7670     6.4090     5.6440     5.5550    22.3050     2.3360   -24.3870 
   89.3750    89.0010     4.2990     3.6630    87.1430     6.2420     5.4500     5.7220    22.3000     2.3620   -24.6060 
   89.5000    89.1250     4.3140     3.6750    88.2910     6.1920     5.3770     5.6870    22.3060     2.3770   -24.6760 
   89.6250    89.2480     4.3280     3.6860    89.3850     6.1620     5.3550     5.6790    22.3240     2.3770   -24.7570 
   89.7500    89.3720     4.3420     3.6980    92.0770     6.1150     5.3360     5.6070    22.3290     2.3680   -24.9290 
   89.8750    89.4950     4.3560     3.7090    96.5500     6.0680     5.3230     5.3660    22.2770     2.3550   -25.1250 
   90.0000    89.6190     4.3700     3.7210    99.0000     6.0540     5.3370     5.1250    22.1800     2.3390   -25.2640 
   90.1250    89.7390     4.3980     3.7410    97.5400     6.1080     5.3990     5.2490    22.1220     2.3230   -25.1170 
   90.2500    89.8590     4.4250     3.7620    96.2200     6.2250     5.5010     5.6560    22.1020     2.3090   -24.7800 
   90.3750    89.9790     4.4520     3.7820    94.9300     6.3860     5.6360     6.0160    22.1000     2.3050   -24.4610 
   90.5000    90.1000     4.4800     3.8030    91.5160     6.5630     5.7850     6.2420    22.0990     2.3150   -24.2630 
   90.6250    90.2200     4.5070     3.8230    88.1320     6.7080     5.9110     6.1970    22.1020     2.3370   -24.0560 
   90.7500    90.3400     4.5340     3.8440    89.0770     6.7800     5.9760     6.1650    22.1030     2.3580   -23.6870 
   90.8750    90.4600     4.5620     3.8640    92.7830     6.7610     5.9550     6.5390    22.1010     2.3690   -23.3000 
   91.0000    90.5800     4.5890     3.8850    95.3060     6.6650     5.8500     6.6530    22.0980     2.3700   -22.9880 
   91.1250    90.7000     4.6160     3.9050    94.1890     6.5620     5.7070     6.1220    22.0990     2.3640   -22.8140 
   91.2500    90.8200     4.6440     3.9260    92.7460     6.5550     5.6290     5.7650    22.1020     2.3600   -22.8020 
   91.3750    90.9410     4.6710     3.9470    93.2090     6.7140     5.6940     5.9210    22.1030     2.3630   -22.8330 
   91.5000    91.0610     4.6980     3.9670    93.3450     7.0500     5.9300     6.4660    22.1030     2.3810   -22.8310 
   91.6250    91.1810     4.7250     3.9880    90.4060     7.5020     6.3200     7.5340    22.0980     2.4130   -22.7500 
   91.7500    91.3010     4.7530     4.0080    86.4780     7.9080     6.7300     9.1080    22.0820     2.4430   -22.6980 
   91.8750    91.4210     4.7800     4.0290    83.1520     8.1410     7.0270    10.1230    22.0560     2.4530   -22.6840 
   92.0000    91.5410     4.8070     4.0490    81.5710     8.1420     7.1150     7.8680    22.0390     2.4360   -22.7070 
   92.1250    91.6620     4.8350     4.0700    82.8160     7.9180     6.9720     6.9990    22.0350     2.3990   -22.8510 
   92.2500    91.7820     4.8620     4.0900    86.2850     7.6070     6.7230     7.6630    22.0380     2.3640   -23.0830 
   92.3750    91.9020     4.8890     4.1110    88.6510     7.3050     6.4590     8.6600    22.0540     2.3430   -23.4760 
   92.5000    92.0220     4.9170     4.1310    89.1910     7.0730     6.2450     7.4610    22.0910     2.3380   -23.9320 
   92.6250    92.1420     4.9440     4.1520    89.9230     6.9530     6.1360     6.4730    22.1520     2.3380   -24.2790 
   92.7500    92.2620     4.9710     4.1720    89.7230     6.9180     6.1100     6.0080    22.1850     2.3330   -24.5980 
   92.8750    92.3830     4.9980     4.1930    89.1770     6.9340     6.1420     6.0270    22.1840     2.3220   -24.8050 
   93.0000    92.5030     5.0260     4.2140    90.9440     6.9620     6.2020     6.1370    22.1550     2.3070   -24.8500 
   93.1250    92.6230     5.0530     4.2340    93.0190     6.9610     6.2550     6.4170    22.1620     2.2990   -24.7240 
   93.2500    92.7430     5.0800     4.2550    92.6230     6.9270     6.2780     6.3840    22.1680     2.3050   -24.4530 
   93.3750    92.8630     5.1080     4.2750    92.4070     6.8850     6.2760     6.0900    22.1690     2.3220   -24.0200 
   93.5000    92.9830     5.1350     4.2960    94.8780     6.8630     6.2650     6.0790    22.1650     2.3420   -23.6000 
   93.6250    93.1030     5.1620     4.3160    95.2830     6.8680     6.2460     6.4990    22.1630     2.3520   -23.3980 
   93.7500    93.2240     5.1900     4.3370    91.7180     6.8590     6.1960     6.9450    22.1640     2.3490   -23.2110 
   93.8750    93.3440     5.2170     4.3570    88.4070     6.7990     6.0970     7.1130    22.1660     2.3420   -23.1250 
   94.0000    93.4640     5.2440     4.3780    90.3270     6.6700     5.9460     6.3510    22.1700     2.3380   -23.1780 
   94.1250    93.5840     5.2720     4.3980    98.1510     6.5000     5.7640     5.7250    22.1710     2.3410   -23.2800 
   94.2500    93.7040     5.2990     4.4190   104.0290     6.3840     5.6120     5.8270    22.1700     2.3410   -23.4720 
   94.3750    93.8240     5.3260     4.4400   101.6560     6.4480     5.5750     6.4580    22.1670     2.3310   -23.6270 
   94.5000    93.9450     5.3530     4.4600    92.9170     6.8440     5.7730     6.7870    22.1650     2.3140   -23.6670 
   94.6250    94.0650     5.3810     4.4810    84.0950     7.8610     6.4360     7.0120    22.1490     2.3200   -23.5980 
   94.7500    94.1850     5.4080     4.5010    76.9740     9.5840     7.6700     7.5160    22.0710     2.3710   -23.4310 
   94.8750    94.3050     5.4350     4.5220    68.6540    12.0260     9.5850    10.0780    21.9020     2.4640   -23.1510 
   95.0000    94.4250     5.4630     4.5420    60.3590    14.8900    12.1040    17.7670    21.7080     2.5650   -22.7310 
   95.1250    94.5450     5.4900     4.5630    57.2920    17.2880    14.5980    26.4200    21.6320     2.6080   -22.2350 
   95.2500    94.6660     5.5170     4.5830    59.3910    18.3880    16.0030    25.1380    21.6710     2.5710   -21.7010 
   95.3750    94.7860     5.5450     4.6040    63.0980    17.9530    15.8340    17.0940    21.9400     2.4660   -21.2980 
   95.5000    94.9060     5.5720     4.6240    65.3530    16.4680    14.5650    10.9530    22.4300     2.3370   -21.0760 
   95.6250    95.0260     5.5990     4.6450    66.8460    14.8670    13.1590     9.4710    22.7400     2.2330   -21.0160 
   95.7500    95.1460     5.6270     4.6650    68.2990    13.8090    12.2250     9.5690    22.6760     2.1710   -21.0930 
   95.8750    95.2660     5.6540     4.6860    66.8320    13.3820    11.8500    10.1630    22.5180     2.1450   -21.0950 
   96.0000    95.3870     5.6810     4.7070    61.8520    13.3910    11.9040    10.8640    22.4380     2.1410   -21.0510 
   96.1250    95.5070     5.7080     4.7270    58.5800    13.5280    12.1580    11.7220    22.4260     2.1480   -20.8980 
