~V
VERS. 2.00: Ver 2.00
~W
STRT.M 30.0000:
STOP.M 262.0000:
STEP.M 0.1250:
NULL. -999.2500:
UWI. FD10852:
~C
DEPT.M :
TVD. :
DX. :
DY. :
SP.MV :
GR.API :
RI. :
RML.OHMM :
RXO.OHMM :
DEN.GM/CC :
~A
   30.0000    30.0000     0.0000     0.0000    84.7390    39.2270     0.0410     0.0340     0.6760     2.2760 
   30.1250    30.1250    -0.0030     0.0000    78.2260    40.8150     0.0450     0.0320     0.6750     2.2840 
   30.2500    30.2500    -0.0060     0.0010    70.3330    40.3020     0.0800     0.0590     0.6650     2.3430 
   30.3750    30.3750    -0.0090     0.0020    58.8780    39.1020     0.1800     0.1470     0.6620     2.4170 
   30.5000    30.5000    -0.0110     0.0020    42.4890    40.8690     0.4720     0.3990     1.6240     2.4080 
   30.6250    30.6250    -0.0140     0.0030    22.9750    45.4250     1.0550     0.9540     4.3280     2.3070 
   30.7500    30.7500    -0.0170     0.0030     6.2750    50.3000     2.2830     2.5450     6.9700     2.1920 
   30.8750    30.8750    -0.0200     0.0040    -2.8590    55.4870     3.6780     4.2030     7.7320     2.1130 
   31.0000    31.0000    -0.0230     0.0050    -5.5540    60.2960     4.9170     5.4120     7.6070     2.0500 
   31.1250    31.1250    -0.0260     0.0060    -6.3060    63.9560     5.9800     6.2090     7.9090     2.0170 
   31.2500    31.2500    -0.0300     0.0060    -7.6330    65.2150     6.6260     6.1350     8.3620     2.0770 
   31.3750    31.3750    -0.0330     0.0070    -9.5690    64.0770     7.3900     6.5770     8.6440     2.2320 
   31.5000    31.5000    -0.0360     0.0080   -11.2420    62.2630     8.0160     7.1130     8.8490     2.4100 
   31.6250    31.6250    -0.0390     0.0090   -12.2690    61.0840     8.2310     7.3700     8.9520     2.4950 
   31.7500    31.7490    -0.0420     0.0100   -12.7300    61.1910     7.9940     7.1550     9.2050     2.4130 
   31.8750    31.8740    -0.0460     0.0110   -13.0070    61.6030     7.5900     6.6980     9.4620     2.2360 
   32.0000    31.9990    -0.0490     0.0120   -13.4690    61.7450     7.2130     6.2820     9.0740     2.0910 
   32.1250    32.1240    -0.0520     0.0130   -14.2470    61.9930     7.0090     6.0560     8.5520     2.0430 
   32.2500    32.2490    -0.0560     0.0140   -15.2430    60.3050     6.9970     6.0770     8.5030     2.0520 
   32.3750    32.3740    -0.0590     0.0150   -16.1890    58.0980     7.0430     6.2440     8.5150     2.0580 
   32.5000    32.4990    -0.0630     0.0160   -16.7740    57.0840     7.1370     6.4070     8.2420     2.0520 
   32.6250    32.6240    -0.0670     0.0170   -16.7150    58.4330     7.2570     6.6430     7.7900     2.0540 
   32.7500    32.7490    -0.0700     0.0180   -15.9920    61.7830     7.3340     6.6750     7.5760     2.0680 
   32.8750    32.8740    -0.0740     0.0190   -15.0980    64.6150     7.2510     6.5090     7.8220     2.0760 
   33.0000    32.9990    -0.0770     0.0210   -14.2500    68.2400     6.8810     5.9970     8.0320     2.0700 
   33.1250    33.1240    -0.0810     0.0220   -13.2900    74.2690     6.3130     5.3060     7.5600     2.0640 
   33.2500    33.2490    -0.0850     0.0230   -12.1260    80.8390     5.7290     4.7510     6.4760     2.0760 
   33.3750    33.3740    -0.0890     0.0250   -11.0940    85.7030     5.3070     4.3290     5.4340     2.1100 
   33.5000    33.4990    -0.0930     0.0260   -10.7390    87.6050     5.2240     4.2790     5.2320     2.1510 
   33.6250    33.6240    -0.0970     0.0270   -10.8980    88.0310     5.6270     4.6410     5.9960     2.1640 
   33.7500    33.7490    -0.1010     0.0290   -10.8120    87.0710     6.3550     5.3800     6.6300     2.1430 
   33.8750    33.8730    -0.1050     0.0300   -10.1500    86.1220     7.1250     6.1500     7.8250     2.1370 
   34.0000    33.9980    -0.1090     0.0310    -9.1530    86.0170     7.5600     6.6890     9.9530     2.1790 
   34.1250    34.1230    -0.1130     0.0330    -8.3250    85.5610     7.3420     6.6570     9.6050     2.2320 
   34.2500    34.2480    -0.1170     0.0340    -8.0070    86.0330     6.6000     6.1090     6.9300     2.2410 
   34.3750    34.3730    -0.1210     0.0360    -7.8950    90.9950     5.6880     5.3820     5.4170     2.2060 
   34.5000    34.4980    -0.1260     0.0370    -7.8490   100.1210     4.8270     4.6290     4.9890     2.1670 
   34.6250    34.6230    -0.1300     0.0380    -7.7600   107.9210     4.1510     4.0400     4.6680     2.1480 
   34.7500    34.7480    -0.1340     0.0400    -7.4580   110.3400     3.7290     3.6630     4.4470     2.1470 
   34.8750    34.8730    -0.1390     0.0410    -7.0330   110.0770     3.6450     3.6380     4.2630     2.1600 
   35.0000    34.9980    -0.1430     0.0420    -6.7590   110.4900     4.2230     4.3330     4.2560     2.1920 
   35.1250    35.1230    -0.1480     0.0440    -6.9990   109.5990     5.6840     6.0930     4.7330     2.2330 
   35.2500    35.2480    -0.1520     0.0450    -8.0380   101.5900     8.1000     9.1270    25.4790     2.2840 
   35.3750    35.3720    -0.1570     0.0460    -9.7020    86.6360    10.9010    12.8670    68.3350     2.3680 
   35.5000    35.4970    -0.1620     0.0470   -11.8260    72.7450    12.7340    15.1050    74.2730     2.4590 
   35.6250    35.6220    -0.1660     0.0490   -13.9410    67.2180    12.7000    14.9260    35.7890     2.4580 
   35.7500    35.7470    -0.1710     0.0500   -15.1620    69.4520    11.2520    12.8530    11.2770     2.3210 
   35.8750    35.8720    -0.1760     0.0510   -15.1640    74.3430     9.6590    10.7280     8.5330     2.1610 
   36.0000    35.9970    -0.1810     0.0520   -14.7120    75.8310     9.1910    10.3510     8.6360     2.0870 
   36.1250    36.1220    -0.1860     0.0540   -14.7440    73.7480     9.7620    11.3360    33.5820     2.1140 
   36.2500    36.2470    -0.1910     0.0550   -14.9720    69.4660    10.6000    12.6360    75.5090     2.2240 
   36.3750    36.3720    -0.1960     0.0560   -15.2600    65.3470    11.1740    13.4460    68.4200     2.3380 
   36.5000    36.4970    -0.2010     0.0580   -15.5710    61.7480    11.1540    13.4260    27.3490     2.3340 
   36.6250    36.6210    -0.2060     0.0590   -15.6000    59.9480    10.7880    13.0910    27.2370     2.2140 
   36.7500    36.7460    -0.2110     0.0600   -15.6360    60.8700    10.2370    12.6780    53.6930     2.0990 
   36.8750    36.8710    -0.2160     0.0620   -16.0490    60.8420     9.7320    12.4380    46.7230     2.0630 
   37.0000    36.9960    -0.2220     0.0630   -16.5910    58.7290     9.4380    12.3660    19.6200     2.0630 
   37.1250    37.1210    -0.2270     0.0640   -16.9890    56.5150     9.0350    11.9450     9.0440     2.0630 
   37.2500    37.2460    -0.2320     0.0660   -17.3640    57.5660     8.4570    11.1770     8.8120     2.0670 
   37.3750    37.3710    -0.2380     0.0670   -17.7630    59.4890     7.9450    10.6060     8.8050     2.0720 
   37.5000    37.4960    -0.2430     0.0680   -18.2100    58.8170     7.6880    10.3730     8.8180     2.0670 
   37.6250    37.6200    -0.2490     0.0700   -18.6960    55.8600     7.6230    10.4010     8.8730     2.0620 
   37.7500    37.7450    -0.2540     0.0710   -19.0090    55.0190     7.6170    10.4820     8.9560     2.0630 
   37.8750    37.8700    -0.2600     0.0720   -18.9170    58.9710     7.6140    10.5290     9.0210     2.0650 
   38.0000    37.9950    -0.2660     0.0740   -18.4120    64.8050     7.5800    10.5440     9.0920     2.0690 
   38.1250    38.1200    -0.2720     0.0750   -17.6970    67.9800     7.5030    10.5160     9.1030     2.0770 
   38.2500    38.2450    -0.2780     0.0760   -17.0980    66.4040     7.4080    10.4880     8.9780     2.0850 
   38.3750    38.3700    -0.2840     0.0780   -17.0000    63.4680     7.2820    10.4230     8.8770     2.0900 
   38.5000    38.4940    -0.2900     0.0790   -17.3590    62.0250     7.1390    10.3060     8.8620     2.0910 
   38.6250    38.6190    -0.2960     0.0800   -17.8590    62.8110     6.9680    10.0830     8.8500     2.0830 
   38.7500    38.7440    -0.3020     0.0820   -18.3120    65.4300     6.7710     9.8000     8.6800     2.0760 
   38.8750    38.8690    -0.3090     0.0830   -18.5300    69.3330     6.5790     9.5550     8.2450     2.0800 
   39.0000    38.9940    -0.3150     0.0840   -18.4610    71.5040     6.4240     9.3720     7.7770     2.0840 
