~V
VERS. 2.00: Ver 2.00
~W
STRT.M 1.0000:
STOP.M 198.0000:
STEP.M 0.1250:
NULL. -999.2500:
UWI. FD10802:
~C
DEPT.M :
TVD. :
DX. :
DY. :
SP.MV :
GR.API :
RI. :
RML.OHMM :
RXO.OHMM :
DEN.GM/CC :
~A
# ...
   92.2500    91.8930    -2.0060     3.4840   -16.6970    70.4240     5.6600     6.3380     6.4760     2.1050 
   92.3750    92.0140    -2.0250     3.5100   -16.9710    72.9860     5.6150     6.2990     6.4310     2.1060 
   92.5000    92.1340    -2.0440     3.5360   -17.2300    73.9130     5.5270     6.1950     6.4020     2.1030 
   92.6250    92.2550    -2.0640     3.5620   -17.3630    73.6990     5.4120     6.0450     6.5370     2.0990 
   92.7500    92.3760    -2.0840     3.5880   -17.3870    73.3250     5.2830     5.8800     6.5490     2.1010 
   92.8750    92.4960    -2.1040     3.6140   -17.3530    73.7190     5.1960     5.7750     6.2540     2.1070 
   93.0000    92.6170    -2.1230     3.6410   -17.2780    73.8520     5.1950     5.7810     6.0100     2.1120 
   93.1250    92.7370    -2.1430     3.6670   -17.2570    73.9720     5.2980     5.9200     5.8380     2.1140 
   93.2500    92.8580    -2.1630     3.6930   -17.2970    75.0490     5.5040     6.1870     5.7680     2.1200 
   93.3750    92.9780    -2.1830     3.7200   -17.4150    76.1020     5.7430     6.4920     5.9920     2.1240 
   93.5000    93.0990    -2.2040     3.7460   -17.5560    74.0890     5.9270     6.7170     6.3600     2.1260 
   93.6250    93.2190    -2.2240     3.7730   -17.5670    70.9610     5.9730     6.7580     6.5540     2.1230 
   93.7500    93.3400    -2.2440     3.7990   -17.4670    67.9620     5.8790     6.6140     6.4150     2.1210 
   93.8750    93.4600    -2.2650     3.8260   -17.3770    68.1610     5.7020     6.3810     6.1670     2.1210 
   94.0000    93.5810    -2.2850     3.8520   -17.3290    69.3560     5.5270     6.1600     5.9540     2.1190 
   94.1250    93.7010    -2.3060     3.8790   -17.2980    70.8060     5.4450     6.0790     5.7510     2.1160 
   94.2500    93.8210    -2.3270     3.9060   -17.3370    70.5230     5.4920     6.1640     5.5900     2.1180 
   94.3750    93.9420    -2.3480     3.9330   -17.3450    70.1620     5.6500     6.3920     5.4860     2.1270 
   94.5000    94.0620    -2.3690     3.9590   -17.4940    70.4400     5.8580     6.6880     5.5660     2.1340 
   94.6250    94.1820    -2.3900     3.9860   -17.5950    70.4350     6.0090     6.9000     5.8060     2.1310 
   94.7500    94.3020    -2.4110     4.0130   -17.5560    69.4170     6.0630     6.9770     5.9290     2.1190 
   94.8750    94.4230    -2.4320     4.0400   -17.4920    66.6550     5.9540     6.8070     5.6610     2.1080 
   95.0000    94.5430    -2.4530     4.0670   -17.5190    65.7260     5.7350     6.4800     5.2430     2.0960 
   95.1250    94.6630    -2.4750     4.0940   -17.5150    64.7530     5.5060     6.1430     5.1100     2.0920 
   95.2500    94.7830    -2.4960     4.1210   -17.4950    66.1790     5.3640     5.9270     5.0780     2.0960 
   95.3750    94.9030    -2.5180     4.1480   -17.4600    67.0440     5.3620     5.9170     5.0320     2.1060 
   95.5000    95.0230    -2.5390     4.1750   -17.3710    69.0610     5.5540     6.1210     5.4530     2.1130 
   95.6250    95.1430    -2.5610     4.2020   -17.0910    69.3110     5.7310     6.3060     5.8300     2.1120 
   95.7500    95.2630    -2.5830     4.2290   -16.6700    68.5340     5.8720     6.4320     6.0130     2.1080 
   95.8750    95.3840    -2.6050     4.2560   -16.0630    69.1610     5.9050     6.4310     6.0310     2.1040 
   96.0000    95.5040    -2.6270     4.2840   -15.0740    70.0600     5.7360     6.2150     5.8720     2.1050 
   96.1250    95.6230    -2.6490     4.3110   -13.7290    73.1210     5.3810     5.8200     5.7290     2.1220 
   96.2500    95.7430    -2.6710     4.3380   -11.8890    77.5290     4.8880     5.2720     5.5920     2.1540 
   96.3750    95.8630    -2.6930     4.3650    -9.7640    85.6850     4.2980     4.6330     5.3060     2.1880 
   96.5000    95.9830    -2.7160     4.3930    -7.5390    94.3580     3.7110     3.9940     4.7790     2.2100 
   96.6250    96.1030    -2.7380     4.4200    -5.5010   102.6570     3.2120     3.4570     4.0940     2.2180 
   96.7500    96.2230    -2.7600     4.4470    -4.1380   106.5880     2.8570     3.0940     3.6310     2.2240 
   96.8750    96.3430    -2.7830     4.4750    -3.4420   106.1200     2.6770     2.9290     3.4950     2.2390 
   97.0000    96.4630    -2.8050     4.5020    -3.2840   101.4950     2.6350     2.9170     3.5180     2.2620 
   97.1250    96.5830    -2.8280     4.5290    -3.5630    97.9660     2.6820     2.9930     3.5550     2.2830 
   97.2500    96.7030    -2.8500     4.5570    -4.2330    99.0710     2.7990     3.1450     3.6240     2.2910 
   97.3750    96.8220    -2.8730     4.5840    -5.0280   101.9830     2.9500     3.3240     3.6760     2.2920 
   97.5000    96.9420    -2.8960     4.6120    -5.9720   103.8000     3.1150     3.5180     3.8560     2.2830 
   97.6250    97.0620    -2.9190     4.6390    -7.0580   101.8150     3.2830     3.7060     4.2380     2.2650 
   97.7500    97.1820    -2.9420     4.6670    -8.2160    99.3290     3.4620     3.9010     4.5410     2.2300 
   97.8750    97.3020    -2.9650     4.6940    -9.4170    96.2130     3.6210     4.0470     4.6400     2.1890 
   98.0000    97.4210    -2.9880     4.7220   -10.7430    93.8310     3.8140     4.2130     4.6360     2.1550 
   98.1250    97.5410    -3.0110     4.7490   -12.0610    89.3070     4.1500     4.5570     4.9120     2.1410 
   98.2500    97.6610    -3.0340     4.7770   -13.3260    84.6100     4.7550     5.2370     5.6280     2.1570 
   98.3750    97.7800    -3.0570     4.8040   -14.4210    78.5760     5.5610     6.1900    10.4250     2.1950 
   98.5000    97.9000    -3.0800     4.8320   -15.4430    73.6690     6.3510     7.1490    21.9440     2.2230 
   98.6250    98.0200    -3.1040     4.8600   -16.5190    67.9850     6.8670     7.7590    27.7300     2.2090 
   98.7500    98.1390    -3.1270     4.8870   -17.4980    65.3390     6.8440     7.6980    19.4580     2.1530 
   98.8750    98.2590    -3.1500     4.9150   -18.3220    64.4000     6.3960     7.1210     9.6610     2.0940 
   99.0000    98.3790    -3.1740     4.9430   -18.7830    66.5250     5.7440     6.3390     6.2890     2.0630 
   99.1250    98.4980    -3.1970     4.9700   -18.8470    67.2080     5.1560     5.7050     5.7690     2.0590 
   99.2500    98.6180    -3.2210     4.9980   -18.5130    68.2420     4.8970     5.5020     5.7150     2.0680 
   99.3750    98.7370    -3.2440     5.0260   -18.0460    67.8450     4.8530     5.5500     5.8390     2.0760 
   99.5000    98.8570    -3.2680     5.0540   -17.7050    68.5360     4.8940     5.6590     6.1550     2.0820 
   99.6250    98.9760    -3.2920     5.0820   -17.4760    69.1120     4.9140     5.7060     6.3840     2.0890 
   99.7500    99.0960    -3.3150     5.1100   -17.0800    71.1280     4.8840     5.6710     6.1740     2.0960 
   99.8750    99.2150    -3.3390     5.1380   -16.4680    74.3300     4.8110     5.5700     5.6870     2.1030 
  100.0000    99.3350    -3.3630     5.1660   -15.7280    77.4460     4.7140     5.4180     5.4740     2.1120 
  100.1250    99.4540    -3.3870     5.1940   -15.0160    79.1340     4.6170     5.2630     5.6220     2.1270 
  100.2500    99.5740    -3.4110     5.2220   -14.3760    78.4980     4.5620     5.1480     5.7730     2.1350 
  100.3750    99.6930    -3.4350     5.2500   -13.6760    78.3580     4.6000     5.1690     5.8790     2.1360 
  100.5000    99.8130    -3.4590     5.2780   -13.0290    78.4200     4.7480     5.3230     6.1090     2.1260 
  100.6250    99.9320    -3.4830     5.3060   -12.4850    79.5720     4.9210     5.5150     6.3880     2.1180 
  100.7500   100.0510    -3.5070     5.3350   -11.8690    80.2950     5.0280     5.6260     6.5320     2.1160 
  100.8750   100.1710    -3.5320     5.3630   -11.0120    81.3670     4.9770     5.5390     6.9360     2.1320 
  101.0000   100.2900    -3.5560     5.3910    -9.9880    83.0010     4.7640     5.2590     8.8100     2.1680 
  101.1250   100.4090    -3.5800     5.4190    -9.0040    86.0290     4.4490     4.8820     9.8410     2.2010 
  101.2500   100.5290    -3.6050     5.4470    -8.1780    90.4220     4.1290     4.5310     7.6160     2.2070 
