~V
VERS. 2.00: Ver 2.00
~W
STRT.M 44.0000:
STOP.M 206.0000:
STEP.M 0.1250:
NULL. -999.2500:
UWI. FD10808:
~C
DEPT.M :
TVD. :
DX. :
DY. :
SP.MV :
GR.API :
RI. :
RML.OHMM :
RXO.OHMM :
DEN.GM/CC :
~A
# ...
  144.3750   138.1520   -12.1090    26.8900    -4.6060    53.0290    15.7900    18.1540    19.2930     2.4240 
  144.5000   138.2570   -12.1390    26.9500    -4.6340    53.2500    15.7280    17.9940    17.1300     2.4220 
  144.6250   138.3630   -12.1680    27.0100    -4.6010    53.3550    15.5690    17.7520    16.9300     2.4260 
  144.7500   138.4680   -12.1980    27.0700    -4.6040    52.8880    15.4210    17.5030    17.7190     2.4360 
  144.8750   138.5740   -12.2280    27.1310    -4.7330    51.7600    15.3250    17.2820    16.9310     2.4490 
  145.0000   138.6790   -12.2580    27.1910    -4.8510    51.8530    15.2250    17.0080    16.3760     2.4610 
  145.1250   138.7840   -12.2880    27.2510    -4.9040    52.9470    14.9700    16.5190    17.5060     2.4680 
  145.2500   138.8900   -12.3170    27.3110    -4.9910    53.9360    14.4480    15.7580    17.1950     2.4680 
  145.3750   138.9950   -12.3470    27.3720    -5.1840    53.6610    13.7010    14.7650    14.8030     2.4650 
  145.5000   139.1010   -12.3770    27.4320    -5.3740    52.9330    12.7840    13.6780    13.0470     2.4610 
  145.6250   139.2060   -12.4070    27.4920    -5.3350    52.7580    11.8630    12.6850    12.4620     2.4620 
  145.7500   139.3110   -12.4370    27.5520    -5.3020    52.9150    11.1490    11.9360    11.9650     2.4630 
  145.8750   139.4170   -12.4670    27.6130    -5.3620    52.4240    10.7190    11.5160    10.8060     2.4730 
  146.0000   139.5220   -12.4970    27.6730    -5.4450    51.8010    10.5630    11.3730     9.9110     2.4800 
  146.1250   139.6280   -12.5270    27.7330    -5.5770    52.0780    10.6020    11.4370    10.0690     2.4860 
  146.2500   139.7330   -12.5560    27.7930    -5.8110    54.2530    10.7430    11.5860    10.3160     2.4790 
  146.3750   139.8380   -12.5860    27.8530    -6.1230    56.9190    10.8530    11.6830    10.0120     2.4590 
  146.5000   139.9440   -12.6160    27.9140    -6.5060    58.7930    10.8050    11.6670    10.2770     2.4220 
  146.6250   140.0490   -12.6460    27.9740    -6.8620    57.6480    10.7860    11.6800    11.0490     2.3830 
  146.7500   140.1540   -12.6760    28.0340    -7.2180    56.7160    11.0210    12.0070    10.7810     2.3470 
  146.8750   140.2600   -12.7070    28.0940    -7.6690    57.5530    11.8940    13.1480     9.9580     2.3190 
  147.0000   140.3650   -12.7370    28.1540    -8.1030    61.1140    13.9110    15.7220    10.1990     2.2880 
  147.1250   140.4700   -12.7670    28.2150    -8.5250    64.1030    18.2870    20.9220    14.0390     2.2600 
  147.2500   140.5760   -12.7970    28.2750    -8.7030    66.7690    25.6640    29.0670    25.0820     2.2330 
  147.3750   140.6810   -12.8270    28.3350    -8.7050    67.3670    35.4080    39.7980    48.0770     2.2200 
  147.5000   140.7860   -12.8570    28.3950    -8.6590    68.4410    46.4920    51.3490    74.3670     2.2120 
  147.6250   140.8910   -12.8870    28.4560    -8.5290    69.4430    55.8560    60.6380    85.2510     2.2010 
  147.7500   140.9970   -12.9180    28.5160    -8.3510    71.1460    60.4830    65.1340    81.5430     2.1840 
  147.8750   141.1020   -12.9480    28.5770    -8.2020    70.6480    59.4850    64.1120    76.4370     2.1680 
  148.0000   141.2070   -12.9780    28.6370    -7.9980    69.9400    55.2830    59.6780    73.5820     2.1670 
  148.1250   141.3120   -13.0080    28.6980    -7.8220    69.8200    49.7570    54.4180    68.8680     2.1790 
  148.2500   141.4170   -13.0380    28.7580    -7.7030    71.1000    46.3740    50.7770    57.6990     2.1910 
  148.3750   141.5220   -13.0690    28.8190    -7.4450    71.2090    45.0360    49.7620    44.6030     2.1880 
  148.5000   141.6270   -13.0990    28.8790    -7.1400    71.1800    46.3690    51.0010    45.2430     2.1760 
  148.6250   141.7320   -13.1290    28.9400    -6.8880    70.1070    49.0050    53.9160    53.3290     2.1620 
  148.7500   141.8370   -13.1590    29.0010    -6.7640    69.0560    52.8680    57.7070    56.4770     2.1560 
  148.8750   141.9420   -13.1890    29.0610    -6.6990    67.8590    56.9140    61.8000    61.2340     2.1530 
  149.0000   142.0470   -13.2200    29.1220    -6.7230    67.1490    60.9640    66.3460    61.3290     2.1540 
  149.1250   142.1520   -13.2500    29.1820    -6.7470    67.2140    66.6770    72.3460    57.6910     2.1530 
  149.2500   142.2570   -13.2810    29.2430    -6.7230    66.8870    73.9260    80.0100    68.8910     2.1500 
  149.3750   142.3630   -13.3110    29.3040    -6.6490    67.2300    82.7230    88.6800    92.4680     2.1500 
  149.5000   142.4680   -13.3410    29.3640    -6.5030    68.2540    90.7510    96.7320   107.3510     2.1560 
  149.6250   142.5730   -13.3710    29.4250    -6.3740    68.7590    96.7880   102.5230   111.1630     2.1640 
  149.7500   142.6780   -13.4020    29.4860    -6.2650    68.1610    99.7090   105.6350   108.6300     2.1660 
  149.8750   142.7830   -13.4320    29.5460    -6.4080    66.0010   100.5680   106.9000    96.2870     2.1610 
  150.0000   142.8880   -13.4630    29.6070    -6.5940    64.8190   101.4320   108.0010    88.5220     2.1540 
  150.1250   142.9930   -13.4930    29.6670    -6.5740    63.5940   102.9980   109.1630    96.8580     2.1510 
  150.2500   143.0980   -13.5240    29.7280    -6.4960    62.6230   103.4480   108.8690   105.9410     2.1480 
  150.3750   143.2030   -13.5540    29.7880    -6.4420    61.7310   100.4170   105.2540   106.9430     2.1440 
  150.5000   143.3070   -13.5850    29.8490    -6.3500    62.7600    93.9880    98.2220   106.6980     2.1430 
  150.6250   143.4120   -13.6160    29.9100    -6.1770    64.7070    84.6160    89.1000   108.8940     2.1500 
  150.7500   143.5170   -13.6470    29.9700    -6.0310    66.7880    76.3030    80.8540   107.1190     2.1620 
  150.8750   143.6220   -13.6770    30.0310    -5.8770    66.9310    71.1900    75.9110    89.9000     2.1750 
  151.0000   143.7270   -13.7080    30.0910    -5.7530    66.8590    69.9450    75.0850    72.7110     2.1820 
  151.1250   143.8320   -13.7390    30.1520    -5.5970    67.7650    73.2450    79.0980    69.3120     2.1840 
  151.2500   143.9370   -13.7700    30.2130    -5.3770    69.6850    80.8280    86.7930    71.5810     2.1820 
  151.3750   144.0420   -13.8000    30.2740    -5.0410    70.2560    90.4690    95.9420    84.0980     2.1780 
  151.5000   144.1470   -13.8310    30.3340    -4.6820    69.0090    99.1450   104.2260   100.6460     2.1700 
  151.6250   144.2510   -13.8610    30.3950    -4.3380    69.3980   103.9600   109.9780   104.2060     2.1620 
  151.7500   144.3560   -13.8920    30.4560    -4.0040    70.2960   106.3300   112.2730   101.7090     2.1590 
  151.8750   144.4610   -13.9220    30.5170    -3.7580    70.3220   107.5090   112.9600   102.3920     2.1600 
  152.0000   144.5660   -13.9520    30.5780    -3.6270    67.9620   110.6250   115.9130    99.7960     2.1590 
  152.1250   144.6700   -13.9830    30.6400    -3.5260    65.1210   117.5600   123.1700   103.3560     2.1520 
  152.2500   144.7750   -14.0130    30.7010    -3.3560    63.8070   125.8670   130.1770   120.0550     2.1470 
  152.3750   144.8800   -14.0440    30.7620    -3.3070    64.2620   127.2560   131.2680   130.4170     2.1490 
  152.5000   144.9850   -14.0750    30.8230    -3.3460    65.7860   119.2200   123.8280   126.9880     2.1590 
  152.6250   145.0890   -14.1050    30.8840    -3.5650    67.5900    97.4200   102.7460   118.4300     2.1750 
  152.7500   145.1940   -14.1360    30.9450    -3.8410    70.0740    69.9910    74.8750    99.1760     2.2020 
  152.8750   145.2990   -14.1660    31.0060    -4.0610    73.6380    47.0120    50.8250    66.0410     2.2370 
  153.0000   145.4030   -14.1970    31.0670    -4.2480    77.2600    31.7480    35.1280    39.7700     2.2690 
  153.1250   145.5080   -14.2280    31.1280    -4.4780    78.9110    26.0490    29.0010    25.6440     2.2750 
  153.2500   145.6120   -14.2590    31.1890    -4.6380    78.3340    26.5510    30.2610    17.8190     2.2540 
  153.3750   145.7170   -14.2900    31.2500    -4.7330    75.4950    34.0400    39.8800    27.4330     2.2170 
