~V
VERS. 2.00: Ver 2.00
~W
STRT.M 20.0000:
STOP.M 242.0000:
STEP.M 0.1250:
NULL. -999.2500:
UWI. FD10624:
~C
DEPT.M :
TVD. :
DX. :
DY. :
GR.API :
RML.OHMM :
RI. :
RXO.OHMM :
CALI.CM :
DEN.GM/CC :
SP.MV :
~A
# ...
   36.5000    36.4950    -0.2310     0.2260    48.8610     7.3330     6.2570     7.7530    27.4140     2.0870   -22.7480 
   36.6250    36.6200    -0.2320     0.2300    50.7720     7.5780     6.2000     7.8690    27.4680     2.0480   -23.0230 
   36.7500    36.7450    -0.2330     0.2330    52.4370     7.9660     6.3840     7.8250    27.3710     2.0480   -23.1030 
   36.8750    36.8700    -0.2340     0.2360    52.3490     8.2440     6.6100     7.5450    27.0680     2.0670   -23.1840 
   37.0000    36.9950    -0.2350     0.2400    52.0920     8.2550     6.7280     7.1780    26.8050     2.0930   -23.2390 
   37.1250    37.1190    -0.2350     0.2430    54.1210     7.9710     6.6660     7.2730    26.7960     2.1210   -23.2000 
   37.2500    37.2440    -0.2360     0.2470    56.4410     7.5850     6.5010     7.3750    26.9930     2.1400   -23.1140 
   37.3750    37.3690    -0.2370     0.2500    57.6010     7.2470     6.3040     7.4340    27.5010     2.1410   -23.0340 
   37.5000    37.4940    -0.2380     0.2530    57.8220     7.0530     6.1380     7.5630    28.5720     2.1110   -22.9530 
   37.6250    37.6190    -0.2390     0.2570    58.1930     7.0520     6.0510     7.7840    29.8290     2.0480   -22.8710 
   37.7500    37.7440    -0.2400     0.2600    59.7170     7.1570     6.0320     8.0850    30.1890     1.9790   -22.7520 
   37.8750    37.8690    -0.2410     0.2640    62.7640     7.2830     6.0620     8.3550    29.4220     1.9330   -22.5280 
   38.0000    37.9940    -0.2410     0.2670    66.8430     7.3550     6.1140     8.5370    28.1940     1.9310   -22.2280 
   38.1250    38.1190    -0.2420     0.2700    68.8630     7.3290     6.1690     8.6660    27.6530     1.9750   -21.8050 
   38.2500    38.2440    -0.2430     0.2740    68.8400     7.2460     6.2160     8.7190    27.7200     2.0340   -21.3780 
   38.3750    38.3690    -0.2440     0.2770    68.4310     7.1600     6.2550     8.6630    27.9590     2.0820   -21.0620 
   38.5000    38.4930    -0.2450     0.2810    67.2830     7.1160     6.2910     8.4500    27.9450     2.1050   -20.7560 
   38.6250    38.6180    -0.2460     0.2840    65.3530     7.1210     6.3140     8.1880    27.5120     2.1090   -20.5100 
   38.7500    38.7430    -0.2470     0.2870    65.4110     7.1030     6.2950     8.0280    27.0360     2.1120   -20.3460 
   38.8750    38.8680    -0.2470     0.2910    69.2600     6.9850     6.1890     8.0520    26.6950     2.1270   -20.1200 
   39.0000    38.9930    -0.2480     0.2940    73.8710     6.7310     5.9760     8.0680    26.5700     2.1540   -19.8040 
   39.1250    39.1180    -0.2490     0.2980    74.2590     6.4030     5.6960     7.8370    26.6580     2.1910   -19.5140 
   39.2500    39.2430    -0.2500     0.3010    75.2710     6.1500     5.4620     7.1520    26.8610     2.2320   -19.2030 
   39.3750    39.3680    -0.2510     0.3050    79.6650     6.0810     5.3560     6.3870    27.1520     2.2670   -18.8530 
   39.5000    39.4930    -0.2520     0.3080    83.4570     6.2550     5.4210     6.0370    27.4990     2.2880   -18.7270 
   39.6250    39.6180    -0.2530     0.3110    79.9270     6.6910     5.6620     6.8040    27.8530     2.2770   -18.9210 
   39.7500    39.7430    -0.2530     0.3150    72.7310     7.2340     5.9600     7.8430    28.1330     2.2380   -19.3130 
   39.8750    39.8680    -0.2540     0.3180    67.6810     7.7040     6.2000     8.1010    28.3780     2.1850   -19.9520 
   40.0000    39.9920    -0.2550     0.3220    65.3200     7.9290     6.3000     7.7960    28.5970     2.1390   -20.7120 
   40.1250    40.1170    -0.2560     0.3250    65.2800     7.7950     6.2370     7.4210    28.7970     2.1160   -21.4310 
   40.2500    40.2420    -0.2570     0.3280    66.0110     7.4570     6.1210     7.3100    29.0890     2.1050   -22.1950 
   40.3750    40.3670    -0.2580     0.3320    65.2710     7.0790     6.0420     7.1680    29.4840     2.0850   -22.9260 
   40.5000    40.4920    -0.2590     0.3350    61.8090     6.7850     6.0430     6.9070    29.8110     2.0360   -23.4360 
   40.6250    40.6170    -0.2590     0.3390    59.6970     6.6020     6.0950     6.6330    29.7640     1.9590   -23.5810 
   40.7500    40.7420    -0.2600     0.3420    62.6030     6.4150     6.0900     6.6160    29.2710     1.8840   -23.2500 
   40.8750    40.8670    -0.2610     0.3450    69.4920     6.1320     5.9470     6.7060    28.4700     1.8450   -22.4790 
   41.0000    40.9920    -0.2620     0.3490    79.7320     5.7190     5.6400     6.4210    27.6200     1.8620   -21.4810 
   41.1250    41.1170    -0.2630     0.3520    93.1240     5.2160     5.2040     5.7560    27.0530     1.9420   -20.3040 
   41.2500    41.2420    -0.2640     0.3560   105.6130     4.7350     4.7550     4.9750    26.8110     2.0510   -19.0200 
   41.3750    41.3660    -0.2650     0.3590   113.7250     4.3590     4.3700     4.5810    26.7560     2.1590   -17.7360 
   41.5000    41.4910    -0.2650     0.3620   117.4780     4.1470     4.0920     4.4760    26.7970     2.2380   -16.4420 
   41.6250    41.6160    -0.2660     0.3660   117.2000     4.1480     3.9440     4.4120    26.8480     2.2710   -15.2130 
   41.7500    41.7410    -0.2670     0.3690   114.0760     4.3010     3.8890     4.4220    26.8890     2.2730   -14.2670 
   41.8750    41.8660    -0.2680     0.3730   108.8170     4.5420     3.9020     4.4520    26.8480     2.2650   -13.5620 
   42.0000    41.9910    -0.2690     0.3760   103.9150     4.7960     3.9630     4.5290    26.7680     2.2640   -13.0070 
   42.1250    42.1160    -0.2700     0.3790   101.9310     4.9920     4.0580     4.5360    26.7070     2.2760   -12.7360 
   42.2500    42.2410    -0.2710     0.3830   103.7150     5.1160     4.1610     4.5010    26.6830     2.2940   -12.5780 
   42.3750    42.3660    -0.2710     0.3860   108.5900     5.1800     4.2510     4.4620    26.7460     2.3070   -12.3820 
   42.5000    42.4910    -0.2720     0.3900   110.9620     5.2010     4.3070     4.5560    26.8590     2.3090   -12.2010 
   42.6250    42.6160    -0.2730     0.3930   108.1850     5.1700     4.3070     4.5660    26.8920     2.2970   -12.0580 
   42.7500    42.7410    -0.2740     0.3970   106.3910     5.0770     4.2500     4.4490    26.7950     2.2790   -11.8130 
   42.8750    42.8650    -0.2750     0.4000   109.1570     4.9090     4.1330     4.3260    26.6280     2.2640   -11.5350 
   43.0000    42.9900    -0.2760     0.4030   112.3630     4.6740     3.9600     4.2680    26.4540     2.2600   -11.3300 
   43.1250    43.1150    -0.2760     0.4070   110.7700     4.4020     3.7420     4.2780    26.3300     2.2720   -11.0730 
   43.2500    43.2400    -0.2770     0.4100   108.0440     4.1630     3.5210     4.3920    26.2650     2.2930   -10.8100 
   43.3750    43.3650    -0.2780     0.4140   104.5550     4.0310     3.3600     4.4190    26.2460     2.3140   -10.6340 
   43.5000    43.4900    -0.2790     0.4170   100.3940     4.0760     3.3520     4.4440    26.2820     2.3270   -10.5020 
   43.6250    43.6150    -0.2800     0.4200    97.9760     4.5120     3.6930     4.7730    26.4080     2.3300   -10.4430 
   43.7500    43.7400    -0.2810     0.4240    96.1010     5.6140     4.5480     5.9250    26.5410     2.3340   -10.4840 
   43.8750    43.8650    -0.2820     0.4270    88.8300     7.7640     6.1710     9.2450    26.5540     2.3570   -10.6340 
   44.0000    43.9900    -0.2820     0.4310    74.5440    11.2370     8.7900    18.2260    26.4790     2.4120   -10.8900 
   44.1250    44.1150    -0.2830     0.4340    62.3420    15.5410    12.3210    27.9330    26.4210     2.4900   -11.3060 
   44.2500    44.2390    -0.2840     0.4370    57.9100    18.6420    15.3030    30.5310    26.4000     2.5520   -11.8680 
   44.3750    44.3640    -0.2850     0.4410    58.7750    18.9600    16.0760    21.4640    26.5160     2.5620   -12.6060 
   44.5000    44.4890    -0.2860     0.4440    60.9130    16.5650    14.3830    11.6460    26.9160     2.5050   -13.4460 
   44.6250    44.6140    -0.2870     0.4480    61.5140    13.2400    11.6510     8.3860    27.4800     2.3950   -14.3290 
