~V
VERS. 2.00: Ver 2.00
~W
STRT.M 20.0000:
STOP.M 206.0000:
STEP.M 0.1250:
NULL. -999.2500:
UWI. FD10809:
~C
DEPT.M :
TVD. :
DX. :
DY. :
SP.MV :
GR.API :
RI. :
RML.OHMM :
DEN.GM/CC :
RXO.OHMM :
~A
# ...
  111.2500   105.4370     3.0740    25.5550   -27.6380    68.9660     4.7580     5.6060     2.0700     5.9250 
  111.3750   105.5380     3.0800    25.6300   -27.5540    69.5190     4.7550     5.6120     2.0770     6.3000 
  111.5000   105.6380     3.0850    25.7050   -27.5750    70.1670     4.7410     5.6160     2.0810     6.3620 
  111.6250   105.7380     3.0910    25.7790   -27.6540    70.6670     4.7280     5.6220     2.0800     6.3900 
  111.7500   105.8380     3.0970    25.8540   -27.7490    70.9150     4.7120     5.6330     2.0790     6.5510 
  111.8750   105.9380     3.1030    25.9290   -27.7920    70.8730     4.6910     5.6430     2.0790     6.6490 
  112.0000   106.0380     3.1080    26.0040   -27.7830    69.7230     4.6670     5.6360     2.0830     6.6070 
  112.1250   106.1370     3.1140    26.0790   -27.7030    68.6860     4.6150     5.6030     2.0840     6.6440 
  112.2500   106.2370     3.1200    26.1540   -27.5680    67.5610     4.5510     5.5400     2.0800     6.6060 
  112.3750   106.3370     3.1250    26.2280   -27.4230    67.8710     4.4550     5.4350     2.0780     6.2100 
  112.5000   106.4370     3.1310    26.3030   -27.1560    69.1020     4.3060     5.2770     2.0870     5.6210 
  112.6250   106.5370     3.1370    26.3780   -26.7780    70.3010     4.1800     5.1230     2.1100     5.1580 
  112.7500   106.6370     3.1430    26.4530   -26.1620    71.8110     4.1420     5.0790     2.1410     5.0890 
  112.8750   106.7370     3.1490    26.5280   -25.4370    73.0540     4.2720     5.2500     2.1770     5.4400 
  113.0000   106.8360     3.1550    26.6030   -24.7260    74.0150     4.6560     5.7980     2.2440     5.7640 
  113.1250   106.9360     3.1610    26.6790   -24.1130    73.7710     5.4020     6.7780     2.3430     5.8810 
  113.2500   107.0360     3.1670    26.7540   -23.4410    73.2780     6.4690     8.0000     2.4530     6.0190 
  113.3750   107.1350     3.1730    26.8290   -22.7660    70.9540     7.2980     8.9420     2.5250     6.2250 
  113.5000   107.2350     3.1790    26.9040   -22.2530    69.5900     7.5330     9.1350     2.5340     6.7290 
  113.6250   107.3350     3.1850    26.9790   -21.9340    69.8000     7.0680     8.5140     2.4790     7.0820 
  113.7500   107.4340     3.1900    27.0550   -21.8970    73.9250     6.0630     7.3510     2.3750     6.4850 
  113.8750   107.5340     3.1960    27.1300   -22.0780    77.9410     5.1560     6.2080     2.2640     5.6900 
  114.0000   107.6330     3.2020    27.2050   -22.3780    79.0150     4.4550     5.4130     2.1890     5.5690 
  114.1250   107.7330     3.2080    27.2810   -22.6430    78.1770     4.1480     5.0540     2.1540     5.5960 
  114.2500   107.8330     3.2140    27.3560   -22.8390    77.6170     4.1550     5.0920     2.1440     5.4700 
  114.3750   107.9320     3.2190    27.4320   -22.7600    78.7200     4.3370     5.3120     2.1430     5.4770 
  114.5000   108.0320     3.2250    27.5070   -22.4170    79.7000     4.5200     5.5180     2.1500     5.6090 
  114.6250   108.1310     3.2310    27.5830   -21.8060    80.0450     4.5970     5.6040     2.1650     5.8680 
  114.7500   108.2310     3.2370    27.6580   -20.9040    79.7220     4.5780     5.5530     2.1860     5.9560 
  114.8750   108.3300     3.2430    27.7330   -19.8420    80.1550     4.4640     5.3950     2.2080     5.4900 
  115.0000   108.4300     3.2480    27.8090   -18.7700    82.4710     4.2790     5.1640     2.2310     5.0580 
  115.1250   108.5290     3.2540    27.8840   -18.0090    86.5530     4.0700     4.9000     2.2580     5.1190 
  115.2500   108.6290     3.2600    27.9600   -17.5920    91.5710     3.8400     4.6360     2.2830     5.1680 
  115.3750   108.7280     3.2660    28.0350   -17.4420    93.7760     3.6640     4.4350     2.3010     4.7990 
  115.5000   108.8280     3.2710    28.1110   -17.5670    93.2540     3.6010     4.3600     2.3060     4.1640 
  115.6250   108.9270     3.2770    28.1860   -18.0200    89.7510     3.6540     4.4370     2.3000     3.7510 
  115.7500   109.0270     3.2820    28.2620   -18.7720    85.2110     3.8490     4.6810     2.2780     3.8260 
  115.8750   109.1260     3.2880    28.3370   -19.8910    79.7210     4.1370     5.0310     2.2380     4.9290 
  116.0000   109.2260     3.2930    28.4120   -21.2600    74.5970     4.4520     5.3870     2.1890     7.3750 
  116.1250   109.3250     3.2990    28.4880   -22.5850    71.1850     4.6840     5.6470     2.1440     8.4240 
  116.2500   109.4250     3.3040    28.5630   -23.6510    68.9220     4.8070     5.7600     2.1180     7.0220 
  116.3750   109.5240     3.3100    28.6390   -24.3940    67.7130     4.8100     5.7620     2.1050     6.2040 
  116.5000   109.6240     3.3150    28.7140   -24.8450    66.5750     4.7780     5.7310     2.1030     6.2430 
  116.6250   109.7230     3.3200    28.7900   -25.1530    66.7230     4.7830     5.7350     2.1050     5.8120 
  116.7500   109.8230     3.3250    28.8650   -25.4490    66.5930     4.8270     5.7940     2.1110     5.8090 
  116.8750   109.9220     3.3300    28.9400   -25.6840    66.5510     4.9200     5.8960     2.1210     6.6800 
  117.0000   110.0220     3.3350    29.0160   -25.9480    66.6740     5.0270     6.0100     2.1270     7.3140 
  117.1250   110.1220     3.3410    29.0910   -26.1300    66.8200     5.1180     6.1000     2.1300     7.3490 
  117.2500   110.2210     3.3460    29.1670   -26.1950    67.0170     5.1810     6.1430     2.1300     7.3240 
  117.3750   110.3210     3.3500    29.2420   -26.1190    67.0030     5.2010     6.1480     2.1310     7.3020 
  117.5000   110.4200     3.3550    29.3170   -25.8910    68.5610     5.1990     6.1360     2.1330     7.1840 
  117.6250   110.5200     3.3600    29.3930   -25.7000    69.0060     5.2080     6.1360     2.1320     7.0970 
  117.7500   110.6190     3.3650    29.4680   -25.4960    68.7830     5.2440     6.1630     2.1300     6.9990 
  117.8750   110.7190     3.3700    29.5440   -25.2780    67.3710     5.2920     6.2380     2.1280     7.0020 
  118.0000   110.8190     3.3740    29.6190   -24.9780    67.2890     5.4380     6.4050     2.1330     7.1960 
  118.1250   110.9180     3.3790    29.6940   -24.4800    66.9740     5.6340     6.6150     2.1520     7.0390 
  118.2500   111.0180     3.3840    29.7700   -23.6250    67.2100     5.7430     6.7320     2.1980     6.3690 
  118.3750   111.1170     3.3890    29.8450   -22.4270    68.4130     5.6830     6.6150     2.2500     6.1100 
  118.5000   111.2170     3.3930    29.9210   -20.8400    71.2060     5.3010     6.1700     2.2880     7.4500 
  118.6250   111.3160     3.3980    29.9960   -19.1470    74.5980     4.7640     5.5510     2.2900     8.9220 
  118.7500   111.4160     3.4030    30.0720   -17.7850    77.5880     4.3010     5.0060     2.2790     7.5810 
  118.8750   111.5150     3.4070    30.1470   -16.9280    79.5830     4.0550     4.7260     2.2740     5.0350 
  119.0000   111.6150     3.4120    30.2230   -16.6140    79.1080     4.1120     4.8310     2.2740     4.1250 
  119.1250   111.7140     3.4160    30.2980   -16.6080    76.7700     4.4630     5.2450     2.2590     6.0700 
  119.2500   111.8140     3.4200    30.3740   -16.8650    74.0190     4.9690     5.7840     2.2280     9.0740 
  119.3750   111.9130     3.4240    30.4500   -17.2210    72.8510     5.3740     6.2040     2.2030     8.7230 
  119.5000   112.0130     3.4290    30.5250   -17.5320    72.0060     5.5830     6.3610     2.1940     6.6090 
  119.6250   112.1120     3.4330    30.6010   -17.7750    71.0720     5.5650     6.2960     2.1920     5.9380 
  119.7500   112.2110     3.4370    30.6770   -18.0880    70.5290     5.4880     6.1740     2.1870     6.0590 
  119.8750   112.3110     3.4410    30.7520   -18.4790    71.5330     5.5410     6.1870     2.1840     6.1700 
  120.0000   112.4100     3.4450    30.8280   -18.9910    73.0190     5.8070     6.4620     2.2010     6.2090 
  120.1250   112.5100     3.4490    30.9040   -19.5500    73.7060     6.3150     6.9950     2.2420     6.4030 
  120.2500   112.6090     3.4530    30.9790   -20.0760    72.8960     7.0160     7.7440     2.2980     6.8000 
