~V
VERS. 2.00: Ver 2.00
~W
STRT.M 40.0000:
STOP.M 276.0000:
STEP.M 0.1250:
NULL. -999.2500:
UWI. FD10882:
~C
DEPT.M :
TVD. :
DX. :
DY. :
SP.MV :
GR.API :
RI. :
RML.OHMM :
RXO.OHMM :
DEN.GM/CC :
~A
# ...
  149.5000   145.8320   -17.7470   -13.7520     1.5290    63.4950    16.1140    20.0550    22.8620     2.1800 
  149.6250   145.9430   -17.7920   -13.7870     1.8760    62.7390    16.4140    20.5190    22.4910     2.1490 
  149.7500   146.0540   -17.8380   -13.8230     2.2040    62.5820    16.9970    21.2870    22.0220     2.1270 
  149.8750   146.1650   -17.8830   -13.8580     2.6660    60.8300    17.6800    22.1110    21.9410     2.1260 
  150.0000   146.2760   -17.9290   -13.8930     3.3200    60.0750    18.3410    22.8810    22.3080     2.1400 
  150.1250   146.3870   -17.9740   -13.9280     4.0190    61.5060    18.8570    23.4000    22.4770     2.1550 
  150.2500   146.4980   -18.0200   -13.9630     4.6000    65.2160    19.0960    23.5080    21.7770     2.1610 
  150.3750   146.6090   -18.0650   -13.9980     5.1870    67.4910    19.0860    23.2840    20.4380     2.1610 
  150.5000   146.7200   -18.1110   -14.0330     5.7600    65.7300    18.9400    22.8780    19.1390     2.1540 
  150.6250   146.8310   -18.1570   -14.0680     6.2200    62.8300    18.7860    22.5190    18.0160     2.1460 
  150.7500   146.9420   -18.2030   -14.1030     6.6190    60.4410    18.7960    22.4300    17.0340     2.1440 
  150.8750   147.0530   -18.2490   -14.1380     6.9240    59.7170    19.2730    22.9740    17.2010     2.1540 
  151.0000   147.1630   -18.2940   -14.1740     7.2030    58.6860    20.1360    24.0390    19.6850     2.1700 
  151.1250   147.2740   -18.3400   -14.2090     7.2640    58.4580    21.0960    25.2040    24.4810     2.1760 
  151.2500   147.3850   -18.3860   -14.2440     6.9830    60.0370    21.4100    25.5190    29.1490     2.1780 
  151.3750   147.4960   -18.4320   -14.2790     6.3050    63.7480    20.4820    24.2030    30.2900     2.1850 
  151.5000   147.6070   -18.4770   -14.3140     5.2680    68.0190    18.3180    21.3510    26.8390     2.2110 
  151.6250   147.7180   -18.5230   -14.3500     3.8480    72.0810    15.4260    17.7000    20.5080     2.2460 
  151.7500   147.8290   -18.5690   -14.3850     2.1490    75.6050    12.9140    14.6320    15.1900     2.2760 
  151.8750   147.9390   -18.6140   -14.4210     0.5970    76.6230    11.3150    12.8020    13.5680     2.2880 
  152.0000   148.0500   -18.6600   -14.4560    -0.3050    74.3480    11.0670    12.6470    15.3960     2.2720 
  152.1250   148.1610   -18.7060   -14.4910    -0.1910    70.1050    12.0830    13.9750    19.4190     2.2290 
  152.2500   148.2720   -18.7520   -14.5270     0.8690    67.1970    14.1420    16.4630    24.0520     2.1780 
  152.3750   148.3830   -18.7980   -14.5620     2.6750    64.7240    17.1820    20.0530    28.2900     2.1440 
  152.5000   148.4940   -18.8430   -14.5970     4.6910    62.1590    20.7690    24.2070    31.3700     2.1320 
  152.6250   148.6040   -18.8890   -14.6320     6.4040    59.8210    24.0310    27.9040    32.5820     2.1330 
  152.7500   148.7150   -18.9350   -14.6670     7.5910    59.4110    26.1890    30.2650    31.7560     2.1400 
  152.8750   148.8260   -18.9810   -14.7030     8.1040    59.2440    26.6700    30.6310    28.8410     2.1550 
  153.0000   148.9370   -19.0270   -14.7380     8.1960    58.0260    25.7420    29.4600    24.8210     2.1740 
  153.1250   149.0480   -19.0720   -14.7730     8.0520    56.9840    24.0530    27.5640    21.1860     2.1910 
  153.2500   149.1590   -19.1180   -14.8080     7.7080    57.4190    22.3450    25.7750    19.1510     2.1980 
  153.3750   149.2690   -19.1640   -14.8440     7.1760    59.6120    21.1120    24.6190    19.0110     2.1880 
  153.5000   149.3800   -19.2090   -14.8790     6.5930    61.7040    20.3890    24.0520    19.7610     2.1670 
  153.6250   149.4910   -19.2550   -14.9150     6.1140    62.2190    20.0910    23.9340    20.4400     2.1480 
  153.7500   149.6020   -19.3000   -14.9500     5.8380    62.0140    20.1000    24.0700    20.8150     2.1430 
  153.8750   149.7130   -19.3460   -14.9860     5.6110    61.1730    20.3340    24.3300    21.3610     2.1540 
  154.0000   149.8240   -19.3910   -15.0210     5.3710    60.4850    20.8220    24.7420    22.3400     2.1710 
  154.1250   149.9350   -19.4370   -15.0570     5.1320    59.0430    21.3420    25.1100    23.2110     2.1880 
  154.2500   150.0460   -19.4820   -15.0920     4.8770    58.9770    21.7740    25.3710    23.2750     2.1910 
  154.3750   150.1570   -19.5280   -15.1270     4.5900    60.2410    22.0890    25.5360    22.3660     2.1810 
  154.5000   150.2680   -19.5730   -15.1630     4.2640    62.8900    22.2780    25.6050    20.9150     2.1670 
  154.6250   150.3780   -19.6190   -15.1980     3.7740    62.5670    22.2820    25.4670    19.4160     2.1620 
  154.7500   150.4890   -19.6650   -15.2330     3.0500    60.7770    21.9480    24.9160    18.2460     2.1660 
  154.8750   150.6000   -19.7100   -15.2690     2.1390    58.1250    20.6910    23.2360    17.2390     2.1740 
  155.0000   150.7110   -19.7560   -15.3050     0.9860    58.1580    18.5290    20.5090    15.9030     2.1800 
  155.1250   150.8220   -19.8010   -15.3400    -0.3930    60.0410    16.1110    17.5190    14.2440     2.1850 
  155.2500   150.9330   -19.8470   -15.3750    -1.8610    64.1000    13.8490    14.8180    12.9200     2.1900 
  155.3750   151.0440   -19.8920   -15.4110    -3.1780    67.6260    12.5180    13.3030    12.5740     2.1970 
  155.5000   151.1540   -19.9380   -15.4470    -4.2140    69.8450    11.9610    12.7300    13.2820     2.2040 
  155.6250   151.2650   -19.9830   -15.4820    -4.8510    70.0060    11.9690    12.8110    14.9210     2.2090 
  155.7500   151.3760   -20.0290   -15.5180    -5.0670    69.3760    12.5960    13.5660    16.9310     2.2080 
  155.8750   151.4870   -20.0740   -15.5530    -4.7810    69.0440    13.6380    14.7390    18.7460     2.1950 
  156.0000   151.5980   -20.1200   -15.5890    -4.1950    67.8300    14.8320    16.0840    20.0690     2.1760 
  156.1250   151.7090   -20.1660   -15.6240    -3.5790    64.1180    15.9410    17.3250    20.5840     2.1640 
  156.2500   151.8190   -20.2120   -15.6600    -3.0550    60.6400    16.6530    18.1420    20.1430     2.1580 
  156.3750   151.9300   -20.2570   -15.6960    -2.8120    59.5130    16.8990    18.4560    19.0090     2.1570 
  156.5000   152.0410   -20.3030   -15.7310    -2.7660    61.2430    16.9540    18.6130    18.1180     2.1590 
  156.6250   152.1520   -20.3490   -15.7670    -2.8590    61.9190    17.4070    19.3010    18.6510     2.1870 
  156.7500   152.2620   -20.3950   -15.8030    -3.1110    61.2340    18.7120    20.9930    22.8200     2.2540 
  156.8750   152.3730   -20.4400   -15.8380    -3.4670    59.1380    21.2750    24.1990    32.8580     2.3640 
  157.0000   152.4840   -20.4860   -15.8740    -3.8430    58.8240    25.1920    29.3250    47.8200     2.4790 
  157.1250   152.5940   -20.5330   -15.9090    -4.2930    58.9720    32.6590    39.0520    65.1970     2.5580 
  157.2500   152.7050   -20.5790   -15.9450    -4.7300    60.1560    44.6690    54.1770    81.5400     2.5910 
  157.3750   152.8150   -20.6250   -15.9800    -5.0960    59.7180    55.2140    66.5400    92.2030     2.5980 
  157.5000   152.9260   -20.6710   -16.0160    -5.2590    59.6570    59.5340    70.5720    92.3050     2.6010 
  157.6250   153.0370   -20.7170   -16.0510    -5.2920    58.9080    55.4330    63.8810    78.6190     2.6030 
  157.7500   153.1470   -20.7640   -16.0860    -5.2510    57.7960    44.4980    49.7970    57.7030     2.5930 
  157.8750   153.2580   -20.8100   -16.1220    -5.2020    55.4240    35.3110    38.8150    40.2640     2.5780 
  158.0000   153.3680   -20.8560   -16.1580    -5.1350    53.9750    28.9940    31.8050    32.0420     2.5650 
  158.1250   153.4790   -20.9020   -16.1940    -5.1140    54.2180    26.2930    29.2670    31.0100     2.5670 
  158.2500   153.5890   -20.9480   -16.2290    -5.1380    54.9210    26.2420    29.5410    31.5030     2.5750 
  158.3750   153.7000   -20.9950   -16.2650    -5.2290    54.8720    27.1280    30.6180    31.3270     2.5790 
  158.5000   153.8100   -21.0410   -16.3010    -5.3540    54.0830    27.6510    31.0980    29.9640     2.5740 
