~V
VERS. 2.00: Ver 2.00
~W
STRT.M 50.0000:
STOP.M 287.0000:
STEP.M 0.1250:
NULL. -999.2500:
UWI. FD10894:
~C
DEPT.M :
TVD. :
DX. :
DY. :
SP.MV :
GR.API :
RI. :
RML.OHMM :
RXO.OHMM :
DEN.GM/CC :
~A
# ...
  123.0000   122.3090     7.0570     2.1010   -17.6330    63.4790    11.1010    12.2840     9.5270     2.1710 
  123.1250   122.4290     7.0910     2.1090   -17.7650    63.3260    11.6170    12.8580    10.9660     2.1280 
  123.2500   122.5490     7.1250     2.1170   -17.9340    64.5790    12.6900    14.0790    12.6410     2.1030 
  123.3750   122.6690     7.1590     2.1250   -18.2210    66.0510    13.8980    15.3920    13.7860     2.0940 
  123.5000   122.7890     7.1930     2.1340   -18.6670    64.3560    14.4690    15.8940    15.1440     2.0950 
  123.6250   122.9090     7.2280     2.1420   -19.3120    61.3020    13.4770    14.5880    16.6500     2.1120 
  123.7500   123.0290     7.2620     2.1500   -20.1270    62.4290    11.2070    11.8300    21.8040     2.1470 
  123.8750   123.1490     7.2960     2.1590   -21.0680    70.0720     8.5920     8.8030    24.5570     2.2000 
  124.0000   123.2690     7.3310     2.1670   -22.0410    78.4800     6.4170     6.3740    16.1330     2.2570 
  124.1250   123.3890     7.3650     2.1750   -22.9400    83.4250     5.1990     5.1140     8.1490     2.2990 
  124.2500   123.5090     7.4000     2.1840   -23.6840    85.7700     4.6520     4.6530     6.3880     2.3190 
  124.3750   123.6280     7.4350     2.1930   -24.2000    88.7080     4.4490     4.5480     5.6900     2.3210 
  124.5000   123.7480     7.4690     2.2010   -24.5010    91.5400     4.3960     4.5600     5.4400     2.3140 
  124.6250   123.8680     7.5040     2.2100   -24.6150    93.0310     4.3170     4.4840     5.3510     2.3050 
  124.7500   123.9880     7.5390     2.2180   -24.6240    93.8760     4.1290     4.2740     5.1450     2.2960 
  124.8750   124.1070     7.5740     2.2270   -24.5880    94.5490     3.9420     4.0670     4.8720     2.2890 
  125.0000   124.2270     7.6090     2.2360   -24.5420    93.2080     3.8210     3.9350     4.7130     2.2860 
  125.1250   124.3470     7.6440     2.2450   -24.4730    90.2640     3.8460     3.9650     4.7710     2.2890 
  125.2500   124.4660     7.6790     2.2540   -24.3340    88.5750     4.0350     4.1790     4.8930     2.2950 
  125.3750   124.5860     7.7140     2.2630   -24.0470    88.8640     4.3380     4.5170     5.4700     2.3020 
  125.5000   124.7060     7.7490     2.2720   -23.5630    88.6780     4.7420     4.9720     6.7990     2.3080 
  125.6250   124.8250     7.7840     2.2810   -22.8360    87.4590     5.3090     5.6100     7.8920     2.3130 
  125.7500   124.9450     7.8200     2.2900   -21.8940    86.0960     6.1280     6.5350     8.6010     2.3110 
  125.8750   125.0640     7.8550     2.2990   -20.7760    84.6500     7.2100     7.7440     9.7940     2.2950 
  126.0000   125.1840     7.8910     2.3080   -19.5820    80.3010     8.5680     9.2990    11.0250     2.2630 
  126.1250   125.3030     7.9260     2.3170   -18.4220    73.0780    10.3240    11.2850    13.2820     2.2160 
  126.2500   125.4230     7.9620     2.3260   -17.4040    66.8940    12.3520    13.5660    15.8600     2.1680 
  126.3750   125.5420     7.9980     2.3350   -16.6460    64.9600    14.6350    16.1620    16.3920     2.1300 
  126.5000   125.6620     8.0340     2.3440   -16.1960    64.1810    17.2170    19.1300    15.8340     2.1160 
  126.6250   125.7810     8.0690     2.3530   -16.1100    61.5990    19.5980    21.9860    16.3680     2.1380 
  126.7500   125.9000     8.1050     2.3620   -16.3410    58.5380    20.8780    23.6150    19.1280     2.1950 
  126.8750   126.0200     8.1410     2.3720   -16.8510    57.6950    19.9510    22.6550    23.2610     2.2790 
  127.0000   126.1390     8.1780     2.3810   -17.5300    59.0460    17.3430    19.6650    30.1320     2.3630 
  127.1250   126.2580     8.2140     2.3900   -18.2750    61.2790    13.6550    15.3480    30.6720     2.4130 
  127.2500   126.3780     8.2500     2.3990   -18.9760    65.0450    10.4130    11.5810    18.9680     2.4150 
  127.3750   126.4970     8.2860     2.4080   -19.5380    68.6610     8.1960     9.0550    11.0750     2.3730 
  127.5000   126.6160     8.3230     2.4170   -19.9190    70.9770     6.7710     7.5110    10.2890     2.3160 
  127.6250   126.7350     8.3590     2.4260   -20.0980    74.2530     6.0880     6.8260     8.4300     2.2720 
  127.7500   126.8540     8.3960     2.4350   -20.1230    77.9280     5.8350     6.6000     6.9480     2.2480 
  127.8750   126.9740     8.4330     2.4440   -20.0530    78.7650     5.7510     6.5200     6.9280     2.2400 
  128.0000   127.0930     8.4700     2.4530   -19.9660    77.1260     5.6940     6.4590     7.3360     2.2370 
  128.1250   127.2120     8.5060     2.4620   -19.9180    78.0620     5.7430     6.5170     7.8670     2.2350 
  128.2500   127.3310     8.5430     2.4710   -19.9250    81.6470     5.8410     6.6000     7.5220     2.2320 
  128.3750   127.4500     8.5800     2.4800   -19.9740    83.6740     5.9240     6.6720     6.4610     2.2310 
  128.5000   127.5690     8.6180     2.4890   -20.0250    83.3550     5.9330     6.6580     7.1910     2.2300 
  128.6250   127.6880     8.6550     2.4980   -20.0350    82.3330     5.8050     6.4910     9.0820     2.2300 
  128.7500   127.8070     8.6920     2.5080   -19.9840    81.0510     5.6550     6.3190     8.8480     2.2310 
  128.8750   127.9260     8.7290     2.5170   -19.8670    81.8450     5.5790     6.2300     7.2100     2.2390 
  129.0000   128.0450     8.7670     2.5260   -19.7120    83.8690     5.5740     6.2690     5.9760     2.2560 
  129.1250   128.1640     8.8040     2.5350   -19.5500    84.6760     5.7190     6.5160    10.1760     2.2730 
  129.2500   128.2820     8.8420     2.5440   -19.4130    83.7810     6.1640     7.1580    18.6940     2.2810 
  129.3750   128.4010     8.8800     2.5530   -19.3260    83.0200     6.8530     8.0420    18.4200     2.2770 
  129.5000   128.5200     8.9180     2.5620   -19.3010    82.8720     7.5120     8.8510    11.1910     2.2650 
  129.6250   128.6390     8.9560     2.5710   -19.3480    80.4130     7.8460     9.2740     8.6790     2.2500 
  129.7500   128.7570     8.9940     2.5800   -19.4650    76.2580     7.7610     9.1640    10.5830     2.2400 
  129.8750   128.8760     9.0320     2.5900   -19.6560    75.3070     7.4630     8.7930    11.3990     2.2350 
  130.0000   128.9950     9.0700     2.5990   -19.9090    78.1510     7.2550     8.5230     9.3890     2.2340 
  130.1250   129.1130     9.1080     2.6080   -20.2150    81.2420     7.1450     8.3630     7.4840     2.2390 
  130.2500   129.2320     9.1470     2.6170   -20.5430    81.0460     6.9730     8.1860     7.1850     2.2580 
  130.3750   129.3510     9.1850     2.6270   -20.8580    78.2370     6.7090     7.9310    11.4190     2.2960 
  130.5000   129.4690     9.2240     2.6360   -21.1150    76.5160     6.2560     7.3620    17.1940     2.3410 
  130.6250   129.5880     9.2630     2.6450   -21.2700    77.8760     5.6480     6.5620    14.1330     2.3760 
  130.7500   129.7060     9.3010     2.6540   -21.3070    83.1150     5.0230     5.7610     7.3800     2.3850 
  130.8750   129.8250     9.3400     2.6640   -21.2230    88.0060     4.5030     5.1400     5.2860     2.3670 
  131.0000   129.9430     9.3790     2.6730   -21.0610    88.9900     4.2010     4.8310     5.3200     2.3370 
  131.1250   130.0610     9.4180     2.6830   -20.8690    86.6980     4.1070     4.7420     5.4570     2.3120 
  131.2500   130.1800     9.4570     2.6920   -20.6970    85.0820     4.1120     4.7130     5.5130     2.2960 
  131.3750   130.2980     9.4960     2.7020   -20.5750    87.1140     4.1610     4.7110     5.3340     2.2900 
  131.5000   130.4160     9.5350     2.7110   -20.4940    91.5040     4.2920     4.8280     5.1130     2.2890 
  131.6250   130.5350     9.5740     2.7210   -20.4270    93.3720     4.5520     5.1020     5.0790     2.2890 
  131.7500   130.6530     9.6130     2.7310   -20.3330    91.2340     4.8860     5.4690     5.3700     2.2880 
  131.8750   130.7710     9.6520     2.7410   -20.1780    89.9310     5.2220     5.8320     5.9910     2.2830 
  132.0000   130.8900     9.6920     2.7510   -19.9610    90.1850     5.4370     6.0440     6.5630     2.2740 
