~V
VERS. 2.00: Ver 2.00
~W
STRT.M 25.0000:
STOP.M 295.0000:
STEP.M 0.1250:
NULL. -999.2500:
UWI. FD10906:
~C
DEPT.M :
TVD. :
DX. :
DY. :
SP.MV :
GR.API :
RI. :
RML.OHMM :
RXO.OHMM :
DEN.GM/CC :
~A
# ...
   43.2500    43.1770    -1.0640     1.1590   -17.6500    97.0730     3.9190     5.3890     5.2330     2.2390 
   43.3750    43.3010    -1.0760     1.1690   -17.5570    96.3300     4.0470     5.5330     5.1710     2.2240 
   43.5000    43.4250    -1.0880     1.1800   -17.6370    97.6090     4.2140     5.7200     5.0460     2.2130 
   43.6250    43.5490    -1.1000     1.1910   -17.8720    97.0740     4.4000     5.9280     5.2220     2.2060 
   43.7500    43.6730    -1.1120     1.2020   -18.2300    95.8270     4.5930     6.1440     5.6900     2.1960 
   43.8750    43.7970    -1.1240     1.2120   -18.6420    94.5240     4.7720     6.3450     6.0210     2.1780 
   44.0000    43.9210    -1.1360     1.2230   -19.0360    95.1600     4.9080     6.4960     6.1080     2.1580 
   44.1250    44.0440    -1.1480     1.2340   -19.3440    93.7900     4.9740     6.5710     6.1090     2.1430 
   44.2500    44.1680    -1.1600     1.2450   -19.5150    90.9870     4.9370     6.5300     5.9970     2.1370 
   44.3750    44.2920    -1.1720     1.2560   -19.5530    87.2870     4.7990     6.3750     5.8230     2.1350 
   44.5000    44.4160    -1.1850     1.2670   -19.4790    85.8350     4.5800     6.1300     5.7600     2.1350 
   44.6250    44.5400    -1.1970     1.2780   -19.3440    86.2390     4.3440     5.8650     5.7410     2.1410 
   44.7500    44.6640    -1.2100     1.2890   -19.1890    88.8880     4.1690     5.6690     5.5380     2.1530 
   44.8750    44.7880    -1.2220     1.3000   -19.0480    92.7080     4.1060     5.5990     5.2760     2.1710 
   45.0000    44.9120    -1.2350     1.3110   -18.9480    93.7840     4.1900     5.6930     5.3330     2.1810 
   45.1250    45.0360    -1.2480     1.3220   -18.9160    92.6890     4.4050     5.9330     5.6480     2.1770 
   45.2500    45.1590    -1.2600     1.3330   -18.9810    89.1030     4.7180     6.2850     5.9090     2.1610 
   45.3750    45.2830    -1.2730     1.3450   -19.1290    87.2990     5.0380     6.6430     6.1400     2.1470 
   45.5000    45.4070    -1.2860     1.3560   -19.2850    85.1060     5.2360     6.8640     6.6340     2.1430 
   45.6250    45.5310    -1.2990     1.3670   -19.3410    83.1750     5.2270     6.8480     7.2360     2.1460 
   45.7500    45.6550    -1.3120     1.3780   -19.1930    82.5540     4.9760     6.5200     7.3540     2.1560 
   45.8750    45.7790    -1.3250     1.3890   -18.8240    87.1960     4.5640     5.9410     6.9720     2.1760 
   46.0000    45.9020    -1.3380     1.4010   -18.2410    95.1100     4.0910     5.2740     6.3970     2.2030 
   46.1250    46.0260    -1.3520     1.4120   -17.5200   100.4270     3.6660     4.7230     5.5450     2.2250 
   46.2500    46.1500    -1.3650     1.4230   -16.7450   103.0480     3.3650     4.3700     4.5510     2.2350 
   46.3750    46.2740    -1.3780     1.4340   -16.0270   103.1460     3.1930     4.1760     4.0750     2.2370 
   46.5000    46.3970    -1.3920     1.4460   -15.4740   104.6110     3.1290     4.1050     4.0570     2.2400 
   46.6250    46.5210    -1.4050     1.4570   -15.1180   106.3160     3.1350     4.1110     4.1060     2.2460 
   46.7500    46.6450    -1.4190     1.4680   -14.9620   109.0940     3.2050     4.1900     4.1140     2.2530 
   46.8750    46.7690    -1.4330     1.4790   -14.9550   110.7470     3.3330     4.3330     4.0830     2.2540 
   47.0000    46.8920    -1.4470     1.4910   -15.0760   110.3810     3.5100     4.5310     4.3240     2.2460 
   47.1250    47.0160    -1.4610     1.5020   -15.3010   106.4600     3.7080     4.7530     4.9720     2.2320 
   47.2500    47.1400    -1.4750     1.5130   -15.6120   100.2340     3.8940     4.9610     5.4790     2.2190 
   47.3750    47.2630    -1.4890     1.5250   -15.9460    94.5460     4.0320     5.1160     5.3580     2.2110 
   47.5000    47.3870    -1.5030     1.5360   -16.2180    92.8070     4.0860     5.1760     4.9880     2.2110 
   47.6250    47.5110    -1.5170     1.5470   -16.3750    95.5890     4.0480     5.1340     4.9110     2.2140 
   47.7500    47.6340    -1.5310     1.5590   -16.4210    98.9490     3.9460     5.0190     5.0010     2.2180 
   47.8750    47.7580    -1.5450     1.5700   -16.4410   101.0140     3.8540     4.9170     4.9380     2.2240 
   48.0000    47.8820    -1.5590     1.5820   -16.5280   100.9480     3.8490     4.9100     4.7240     2.2360 
   48.1250    48.0050    -1.5740     1.5930   -16.7230   101.9170     3.9570     5.0320     4.8730     2.2570 
   48.2500    48.1290    -1.5880     1.6050   -17.0420   101.8070     4.1810     5.2830     6.1440     2.2840 
   48.3750    48.2530    -1.6030     1.6160   -17.4690    97.8860     4.4620     5.5970     7.7500     2.3040 
   48.5000    48.3760    -1.6170     1.6280   -18.0240    90.3450     4.7220     5.8880     7.8870     2.3000 
   48.6250    48.5000    -1.6320     1.6390   -18.7110    84.4220     4.8990     6.0870     6.8150     2.2700 
   48.7500    48.6240    -1.6470     1.6510   -19.5300    81.3060     4.9640     6.1600     6.0420     2.2260 
   48.8750    48.7470    -1.6610     1.6620   -20.4100    79.0950     4.9670     6.1630     6.0130     2.1840 
   49.0000    48.8710    -1.6760     1.6740   -21.2500    75.8310     5.0030     6.2030     6.3440     2.1550 
   49.1250    48.9940    -1.6910     1.6850   -21.9610    72.7470     5.1640     6.3840     6.6280     2.1400 
   49.2500    49.1180    -1.7060     1.6970   -22.4670    70.4840     5.5200     6.7830     7.5500     2.1490 
   49.3750    49.2410    -1.7210     1.7090   -22.7740    68.6420     6.0210     7.3440    11.1370     2.1920 
   49.5000    49.3650    -1.7360     1.7200   -22.8830    66.5810     6.5120     7.8940    17.0930     2.2770 
   49.6250    49.4880    -1.7510     1.7320   -22.8470    66.0270     6.7830     8.1970    19.7080     2.3710 
   49.7500    49.6120    -1.7660     1.7430   -22.7070    66.7080     6.6660     8.0590    15.8170     2.4170 
   49.8750    49.7360    -1.7820     1.7550   -22.5250    68.4720     6.2240     7.5340    10.2300     2.3870 
   50.0000    49.8590    -1.7970     1.7670   -22.3490    70.1400     5.6370     6.8230     6.9880     2.3050 
   50.1250    49.9830    -1.8120     1.7780   -22.2300    71.2740     5.1460     6.2670     6.1570     2.2250 
   50.2500    50.1060    -1.8280     1.7900   -22.2220    70.8380     4.9120     6.1130     6.8600     2.1730 
   50.3750    50.2290    -1.8440     1.8010   -22.3420    69.5430     4.9270     6.3080     7.6990     2.1410 
   50.5000    50.3530    -1.8590     1.8130   -22.5900    68.0630     5.1220     6.6900     7.9640     2.1240 
   50.6250    50.4760    -1.8750     1.8250   -22.9070    66.4380     5.3750     7.0740     7.9440     2.1190 
   50.7500    50.6000    -1.8910     1.8360   -23.2200    65.2610     5.6000     7.3530     7.9320     2.1320 
   50.8750    50.7230    -1.9070     1.8480   -23.4780    63.8190     5.7570     7.5130     7.8990     2.1570 
   51.0000    50.8470    -1.9230     1.8600   -23.6630    62.9920     5.8320     7.5580     7.8210     2.1830 
   51.1250    50.9700    -1.9390     1.8710   -23.7980    63.0210     5.8340     7.5140     7.8390     2.1950 
   51.2500    51.0940    -1.9550     1.8830   -23.8930    64.7350     5.7750     7.4070     8.0330     2.1840 
   51.3750    51.2170    -1.9710     1.8950   -23.9450    66.6170     5.6890     7.2930     8.1940     2.1630 
   51.5000    51.3400    -1.9870     1.9060   -23.9470    69.6010     5.6050     7.2150     8.1030     2.1450 
   51.6250    51.4640    -2.0030     1.9180   -23.9180    71.0100     5.5340     7.1740     7.9290     2.1350 
   51.7500    51.5870    -2.0200     1.9300   -23.9030    70.1330     5.4690     7.1350     7.8660     2.1290 
   51.8750    51.7100    -2.0360     1.9410   -23.9340    66.5240     5.3880     7.0470     7.8430     2.1240 
   52.0000    51.8340    -2.0530     1.9530   -24.0200    63.8920     5.2790     6.8870     7.8870     2.1220 
   52.1250    51.9570    -2.0690     1.9650   -24.1270    63.9200     5.1840     6.7270     8.1410     2.1230 
   52.2500    52.0800    -2.0860     1.9770   -24.2070    65.4840     5.2370     6.7890     8.4610     2.1270 
