~V
VERS. 2.00: Ver 2.00
~W
STRT.M 33.0000:
STOP.M 287.0000:
STEP.M 0.1250:
NULL. -999.2500:
UWI. FD10889:
~C
DEPT.M :
TVD. :
DX. :
DY. :
SP.MV :
GR.API :
RI. :
RML.OHMM :
RXO.OHMM :
DEN.GM/CC :
~A
# ...
  279.3750   241.8220   -68.9360   -86.5030   -12.4500    85.9230     3.8490     4.8100     4.5280     2.2910 
  279.5000   241.9100   -68.9800   -86.5800   -12.4500    85.9230     3.8510     4.8110     4.5150     2.2920 
  279.6250   241.9980   -69.0250   -86.6570   -12.4500    85.9230     3.8510     4.8130     4.4980     2.2960 
  279.7500   242.0860   -69.0690   -86.7340   -12.4500    85.9230     3.8510     4.8130     4.4890     2.3070 
  279.8750   242.1740   -69.1130   -86.8110   -12.4500    85.9230     3.8510     4.8140     4.4870     2.3200 
  280.0000   242.2620   -69.1580   -86.8880   -12.4500    85.9230     3.8510     4.8140     4.4740     2.3270 
  280.1250   242.3500   -69.2020   -86.9640   -12.4500    85.9230     3.8510     4.8140     4.4280     2.3220 
  280.2500   242.4380   -69.2460   -87.0410   -12.4500    85.9230     3.8510     4.8140     4.3760     2.3070 
  280.3750   242.5260   -69.2910   -87.1180   -12.4500    85.9230     3.8510     4.8140     4.3790     2.2880 
  280.5000   242.6140   -69.3350   -87.1950   -12.4500    85.9230     3.8510     4.8140     4.4570     2.2760 
  280.6250   242.7020   -69.3790   -87.2720   -12.4500    85.9230     3.8510     4.8130     4.5390     2.2750 
  280.7500   242.7900   -69.4240   -87.3490   -12.4500    85.9230     3.8500     4.8130     4.5640     2.2850 
  280.8750   242.8780   -69.4680   -87.4260   -12.4500    85.9230     3.8470     4.8130     4.5420     2.2990 
  281.0000   242.9660   -69.5130   -87.5030   -12.4500    85.9230     3.8460     4.8130     4.4680     2.3110 
  281.1250   243.0540   -69.5570   -87.5800   -12.4500    85.9230     3.8460     4.8140     4.3490     2.3150 
  281.2500   243.1420   -69.6010   -87.6570   -12.4500    85.9230     3.8470     4.8140     4.2620     2.3120 
  281.3750   243.2300   -69.6460   -87.7340   -12.4500    85.9230     3.8510     4.8140     4.2650     2.3090 
  281.5000   243.3180   -69.6900   -87.8110   -12.4500    85.9230     3.8510     4.8140     4.3270     2.3120 
  281.6250   243.4060   -69.7340   -87.8870   -12.4500    85.9230     3.8510     4.8140     4.3730     2.3200 
  281.7500   243.4940   -69.7790   -87.9640   -12.4500    85.9230     3.8510     4.8140     4.4040     2.3270 
  281.8750   243.5820   -69.8230   -88.0410   -12.4500    85.9230     3.8510     4.8140     4.4680     2.3300 
  282.0000   243.6700   -69.8670   -88.1180   -12.4500    85.9230     3.8510     4.8140     4.5450     2.3300 
  282.1250   243.7580   -69.9120   -88.1950   -12.4500    85.9230     3.8510     4.8140     4.5860     2.3240 
  282.2500   243.8460   -69.9560   -88.2720   -12.4500    85.9230     3.8510     4.8140     4.5850     2.3080 
  282.3750   243.9340   -70.0000   -88.3490   -12.4500    85.9230     3.8510     4.8140     4.5780     2.2800 
  282.5000   244.0220   -70.0450   -88.4260   -12.4500    85.9230     3.8510     4.8140     4.6070     2.2440 
  282.6250   244.1100   -70.0890   -88.5030   -12.4500    85.9230     3.8510     4.8140     4.6670     2.2080 
  282.7500   244.1980   -70.1340   -88.5800   -12.4500    85.9230     3.8510     4.8140     4.6950     2.1710 
  282.8750   244.2860   -70.1780   -88.6570   -12.4500    85.9230     3.8510     4.8140     4.6490     2.1300 
  283.0000   244.3740   -70.2220   -88.7340   -12.4500    85.9230     3.8510     4.8140     4.6000     2.0830 
  283.1250   244.4620   -70.2670   -88.8110   -12.4500    85.9230     3.8510     4.8140     4.6410     2.0390 
  283.2500   244.5500   -70.3110   -88.8870   -12.4500    85.9230     3.8510     4.8140     4.7460     2.0070 
  283.3750   244.6380   -70.3550   -88.9640   -12.4500    85.9230     3.8510     4.8140     4.8270     1.9910 
  283.5000   244.7260   -70.4000   -89.0410   -12.4500    85.9230     3.8510     4.8140     4.8650     1.9860 
  283.6250   244.8140   -70.4440   -89.1180   -12.4500    85.9230     3.8510     4.8140     4.8800     1.9850 
  283.7500   244.9020   -70.4880   -89.1950   -12.4500    85.9230     3.8510     4.8140     4.8810     1.9840 
  283.8750   244.9900   -70.5330   -89.2720   -12.4500    85.9230     3.8510     4.8140     4.8800     1.9830 
  284.0000   245.0780   -70.5770   -89.3490   -12.4500    85.9230     3.8510     4.8140     4.8800     1.9830 
  284.1250   245.1660   -70.6210   -89.4260   -12.4500    85.9230     3.8510     4.8140     4.8810     1.9840 
  284.2500   245.2540   -70.6660   -89.5030   -12.4500    85.9230     3.8510     4.8140     4.8810     1.9880 
  284.3750   245.3420   -70.7100   -89.5800   -12.4500    85.9230     3.8510     4.8140     4.8810     1.9930 
  284.5000   245.4300   -70.7550   -89.6570   -12.4500    85.9230     3.8510     4.8140     4.8810     1.9980 
  284.6250   245.5180   -70.7990   -89.7340   -12.4500    85.9230     3.8510     4.8140     4.8810     1.9990 
  284.7500   245.6060   -70.8430   -89.8110   -12.4500    85.9230     3.8510     4.8140     4.8810     1.9970 
  284.8750   245.6940   -70.8880   -89.8870   -12.4500    85.9230     3.8510     4.8140     4.8800     1.9930 
  285.0000   245.7820   -70.9320   -89.9640   -12.4500    85.9230     3.8510     4.8140     4.8800     1.9890 
  285.1250   245.8690   -70.9760   -90.0410   -12.4500    85.9230     3.8510     4.8140     4.8800     1.9860 
  285.2500   245.9570   -71.0210   -90.1180   -12.4500    85.9230     3.8510     4.8140     4.8790     1.9850 
  285.3750   246.0450   -71.0650   -90.1950   -12.4500    85.9230     3.8510     4.8140     4.8790     1.9870 
  285.5000   246.1330   -71.1090   -90.2720   -12.4500    85.9230     3.8510     4.8140     4.8800     1.9900 
  285.6250   246.2210   -71.1540   -90.3490   -12.4500    85.9230     3.8510     4.8140     4.8800     1.9910 
  285.7500   246.3090   -71.1980   -90.4260   -12.4500    85.9230     3.8510     4.8140     4.8800     1.9910 
  285.8750   246.3970   -71.2420   -90.5030   -12.4500    85.9230     3.8510     4.8140     4.8800     1.9900 
  286.0000   246.4850   -71.2870   -90.5800   -12.4500    85.9230     3.8510     4.8140     4.8800     1.9880 
  286.1250   246.6100   -71.2870   -90.5800   -12.4500    85.9230     3.8510     4.8140     4.8800     1.9850 
  286.2500   246.7350   -71.2870   -90.5800   -72.9390    85.9230     3.8510     4.8140     4.8800     1.9810 
  286.3750   246.8600   -71.2870   -90.5800  -133.4500    85.9230     3.8510     4.8140     4.8800     1.9770 
  286.5000   246.9850   -71.2870   -90.5800  -133.4500    85.9230     3.8510     4.8140     4.8800     1.9750 
  286.6250   247.1100   -71.2870   -90.5800  -133.4500    85.9230     3.8510     4.8140     4.8810     1.9740 
  286.7500   247.2350   -71.2870   -90.5800  -133.4500    85.9230     3.8510     4.8140     4.8800     1.9740 
  286.8750   247.3600   -71.2870   -90.5800  -133.4500    85.9230     3.8510     4.8140     4.8800     1.9740 
  287.0000   247.4850   -71.2870   -90.5800  -999.2500  -999.2500  -999.2500  -999.2500  -999.2500  -999.2500 
