~V
VERS. 2.00: Ver 2.00
~W
STRT.M 40.0000:
STOP.M 276.0000:
STEP.M 0.1250:
NULL. -999.2500:
UWI. FD10882:
~C
DEPT.M :
TVD. :
DX. :
DY. :
SP.MV :
GR.API :
RI. :
RML.OHMM :
RXO.OHMM :
DEN.GM/CC :
~A
# ...
  176.8750   170.0050   -27.9120   -21.6070    -7.6720    54.0950    10.7370    12.8440    12.1530     2.4680 
  177.0000   170.1150   -27.9590   -21.6430    -7.6120    52.9920    11.0620    13.2310    12.7030     2.4740 
  177.1250   170.2250   -28.0070   -21.6790    -7.5510    52.3930    11.4210    13.6460    12.8150     2.4740 
  177.2500   170.3350   -28.0550   -21.7150    -7.5030    52.1680    11.6930    13.9440    12.7230     2.4720 
  177.3750   170.4440   -28.1030   -21.7500    -7.4970    52.5040    11.7950    14.0240    12.6670     2.4630 
  177.5000   170.5540   -28.1510   -21.7860    -7.4990    52.8500    11.7520    13.9260    12.5920     2.4500 
  177.6250   170.6640   -28.1990   -21.8230    -7.5250    53.6670    11.5410    13.6240    12.3840     2.4450 
  177.7500   170.7730   -28.2470   -21.8580    -7.6440    53.4690    11.2800    13.2780    12.2210     2.4530 
  177.8750   170.8830   -28.2950   -21.8940    -7.7260    53.3510    11.0670    13.0120    12.3560     2.4610 
  178.0000   170.9920   -28.3440   -21.9300    -7.8230    53.5100    10.9460    12.8990    12.6210     2.4650 
  178.1250   171.1020   -28.3920   -21.9660    -7.9210    55.1970    10.9150    12.9280    12.5820     2.4660 
  178.2500   171.2110   -28.4410   -22.0020    -8.0050    57.3400    10.9120    13.0120    12.0640     2.4650 
  178.3750   171.3210   -28.4900   -22.0370    -8.0250    58.0350    10.9080    13.0710    11.2540     2.4540 
  178.5000   171.4300   -28.5380   -22.0730    -8.0450    59.0340    10.9120    13.1040    10.6400     2.4440 
  178.6250   171.5390   -28.5870   -22.1090    -8.0780    60.3690    11.0000    13.2000    10.6280     2.4460 
  178.7500   171.6490   -28.6360   -22.1450    -8.0610    61.8440    11.2610    13.4860    11.1700     2.4560 
  178.8750   171.7580   -28.6850   -22.1810    -8.0280    61.2260    11.6410    13.9320    11.9620     2.4590 
  179.0000   171.8670   -28.7340   -22.2170    -7.9690    61.6450    12.0400    14.4070    12.5620     2.4590 
  179.1250   171.9760   -28.7830   -22.2530    -7.9340    62.9090    12.3320    14.7700    12.6180     2.4600 
  179.2500   172.0850   -28.8330   -22.2890    -7.8830    63.0060    12.4090    14.8520    12.1840     2.4570 
  179.3750   172.1940   -28.8820   -22.3250    -7.7440    60.4930    12.3500    14.7610    11.6450     2.4500 
  179.5000   172.3030   -28.9310   -22.3610    -7.5740    57.5110    12.2330    14.6210    11.4500     2.4400 
  179.6250   172.4120   -28.9800   -22.3980    -7.4310    56.3900    12.1280    14.5240    11.7480     2.4470 
  179.7500   172.5210   -29.0300   -22.4340    -7.1860    56.0040    12.0410    14.4850    12.1780     2.4690 
  179.8750   172.6300   -29.0790   -22.4700    -6.9660    56.5520    11.9660    14.4450    12.1520     2.4850 
  180.0000   172.7390   -29.1290   -22.5070    -6.7650    58.3000    11.8500    14.3100    11.5390     2.4710 
  180.1250   172.8480   -29.1780   -22.5430    -6.5190    61.5400    11.7050    14.0820    10.9640     2.4320 
  180.2500   172.9570   -29.2280   -22.5790    -6.3610    65.2240    11.5960    13.8730    11.1200     2.4180 
  180.3750   173.0650   -29.2780   -22.6160    -6.1840    67.5570    11.5570    13.7340    11.8920     2.4370 
  180.5000   173.1740   -29.3270   -22.6530    -5.9910    68.8240    11.6350    13.7320    12.4490     2.4650 
  180.6250   173.2830   -29.3770   -22.6890    -5.8630    69.0160    11.7770    13.8020    12.3110     2.4730 
  180.7500   173.3910   -29.4270   -22.7260    -5.7730    68.1380    11.8630    13.7890    11.8370     2.4630 
  180.8750   173.5000   -29.4760   -22.7630    -5.7760    65.1400    11.8180    13.6220    11.4540     2.4520 
  181.0000   173.6090   -29.5260   -22.8000    -5.8360    59.4200    11.6650    13.3540    11.2280     2.4470 
  181.1250   173.7170   -29.5760   -22.8360    -5.8800    55.1600    11.4760    13.0970    11.0830     2.4530 
  181.2500   173.8260   -29.6260   -22.8730    -5.9610    53.3020    11.3430    12.9530    11.0810     2.4560 
  181.3750   173.9340   -29.6760   -22.9110    -6.1130    53.5690    11.3330    12.9780    11.3890     2.4530 
  181.5000   174.0430   -29.7250   -22.9480    -6.3540    53.8440    11.4000    13.1000    11.8820     2.4500 
  181.6250   174.1510   -29.7750   -22.9850    -6.5430    54.1270    11.5850    13.3730    12.2140     2.4520 
  181.7500   174.2600   -29.8250   -23.0220    -6.6380    54.1150    11.8340    13.7120    12.1660     2.4550 
  181.8750   174.3680   -29.8750   -23.0590    -6.6190    53.3700    12.0280    13.9880    11.9660     2.4500 
  182.0000   174.4770   -29.9250   -23.0960    -6.6200    51.8980    12.1310    14.1430    12.0710     2.4470 
  182.1250   174.5850   -29.9750   -23.1330    -6.6640    51.2430    12.0860    14.1090    12.4660     2.4450 
  182.2500   174.6930   -30.0250   -23.1700    -6.7070    50.7240    11.9710    13.9650    12.6930     2.4470 
  182.3750   174.8020   -30.0750   -23.2070    -6.7260    51.2450    11.9770    13.9700    12.7430     2.4390 
  182.5000   174.9100   -30.1250   -23.2440    -6.7810    52.2050    12.4310    14.5610    13.4050     2.4330 
  182.6250   175.0190   -30.1750   -23.2810    -6.8450    54.9750    13.6170    16.0520    16.1440     2.4290 
  182.7500   175.1270   -30.2250   -23.3180    -7.0750    57.8660    15.7560    18.6870    21.7250     2.4310 
  182.8750   175.2350   -30.2760   -23.3550    -7.4090    59.7050    19.3600    23.0540    29.3740     2.4280 
  183.0000   175.3440   -30.3260   -23.3910    -7.7800    59.8190    23.8650    28.5300    37.2050     2.4170 
  183.1250   175.4520   -30.3760   -23.4280    -8.1000    59.9590    29.2070    34.9480    44.9230     2.3980 
  183.2500   175.5600   -30.4260   -23.4650    -8.2640    61.3700    34.2270    40.7280    52.0640     2.3870 
  183.3750   175.6690   -30.4770   -23.5020    -8.2550    64.2330    38.3590    45.1210    56.0240     2.3860 
  183.5000   175.7770   -30.5270   -23.5390    -8.3210    65.1140    40.9880    47.5440    55.8770     2.3900 
  183.6250   175.8860   -30.5770   -23.5760    -8.4070    64.4030    42.1010    48.4700    53.6050     2.3810 
  183.7500   175.9940   -30.6270   -23.6130    -8.4590    62.6720    42.5610    49.3570    51.6900     2.3560 
  183.8750   176.1020   -30.6770   -23.6500    -8.4880    62.9330    43.2330    51.5050    50.6730     2.3180 
  184.0000   176.2110   -30.7270   -23.6870    -8.4960    63.2740    43.1710    52.1730    50.5630     2.2860 
  184.1250   176.3190   -30.7770   -23.7250    -8.5480    64.2420    37.9520    45.9750    50.3050     2.2740 
  184.2500   176.4270   -30.8270   -23.7620    -8.6100    63.1810    28.6310    34.3340    46.2550     2.2920 
  184.3750   176.5360   -30.8770   -23.7990    -8.6010    61.8010    17.5110    20.2770    35.2860     2.3330 
  184.5000   176.6440   -30.9270   -23.8370    -8.4800    60.3980     8.2630     9.3710    20.9380     2.3660 
  184.6250   176.7520   -30.9770   -23.8740    -8.2170    60.2930     4.5710     5.1740     9.7190     2.3650 
  184.7500   176.8610   -31.0270   -23.9110    -7.7510    59.1130     3.0680     3.5290     4.4320     2.3430 
  184.8750   176.9690   -31.0770   -23.9480    -7.1930    55.4010     2.6280     3.1740     3.3580     2.3240 
  185.0000   177.0770   -31.1270   -23.9850    -6.5660    52.1220     2.6810     3.3690     3.3790     2.3240 
  185.1250   177.1860   -31.1770   -24.0220    -6.0540    50.0840     2.9230     3.7160     3.5690     2.3340 
  185.2500   177.2940   -31.2270   -24.0590    -5.5550    50.8710     3.1780     3.9960     3.7720     2.3500 
  185.3750   177.4020   -31.2780   -24.0960    -5.1280    51.2810     3.3740     4.1420     3.9000     2.3610 
  185.5000   177.5110   -31.3280   -24.1330    -4.8660    53.1150     3.4940     4.1900     3.9300     2.3590 
  185.6250   177.6190   -31.3780   -24.1700    -4.7830    54.1860     3.5270     4.1540     3.8980     2.3500 
  185.7500   177.7270   -31.4280   -24.2070    -4.7160    54.3580     3.5280     4.0900     3.8640     2.3460 
  185.8750   177.8360   -31.4780   -24.2440    -4.6630    53.0290     3.4960     4.0030     3.8430     2.3510 
