~V
VERS. 2.00: Ver 2.00
~W
STRT.M 24.0000:
STOP.M 269.0000:
STEP.M 0.1250:
NULL. -999.2500:
UWI. FD10666:
~C
DEPT.M :
TVD. :
DX. :
DY. :
GR.API :
RML.OHMM :
RI. :
RXO.OHMM :
CALI.CM :
DEN.GM/CC :
SP.MV :
~A
# ...
   73.5000    73.1570     3.8660     2.5150    73.4830     6.6750     5.7420     6.6640    22.7000     2.2210   -10.1410 
   73.6250    73.2790     3.8870     2.5260    71.4480     6.9080     5.9620     6.8430    22.7230     2.2060   -10.9020 
   73.7500    73.4020     3.9090     2.5380    70.1450     7.1950     6.2370     7.0660    22.7910     2.1920   -11.6740 
   73.8750    73.5240     3.9300     2.5490    66.0990     7.5200     6.5570     7.6180    22.9380     2.1750   -12.4000 
   74.0000    73.6470     3.9510     2.5610    58.7540     7.8470     6.8900     8.6340    23.1780     2.1560   -13.0120 
   74.1250    73.7690     3.9730     2.5720    52.8710     8.1360     7.1990     9.1800    23.4890     2.1350   -13.4220 
   74.2500    73.8920     3.9940     2.5840    52.3990     8.3810     7.4690     9.3170    23.7330     2.1160   -13.6170 
   74.3750    74.0140     4.0150     2.5950    55.0060     8.5890     7.6970     9.2570    23.7230     2.1010   -13.5750 
   74.5000    74.1370     4.0370     2.6060    55.7610     8.7450     7.8710     9.0300    23.3410     2.0950   -13.2990 
   74.6250    74.2590     4.0580     2.6180    54.6070     8.7760     7.9260     8.7250    22.6930     2.1140   -12.7930 
   74.7500    74.3820     4.0790     2.6290    56.2820     8.6240     7.8140     8.6630    22.0960     2.1610   -12.1440 
   74.8750    74.5040     4.1000     2.6410    61.9010     8.2500     7.5030     9.2050    21.7730     2.2270   -11.4190 
   75.0000    74.6270     4.1220     2.6520    69.1850     7.6840     7.0110    10.0940    21.8480     2.2910   -10.6910 
   75.1250    74.7490     4.1430     2.6640    74.5260     7.0350     6.4230     9.6870    22.3830     2.3180   -10.0500 
   75.2500    74.8720     4.1640     2.6750    78.3660     6.4680     5.8820     7.5950    23.1660     2.3020    -9.5360 
   75.3750    74.9940     4.1860     2.6870    80.8240     6.0800     5.4770     6.3360    23.8800     2.2560    -9.1740 
   75.5000    75.1170     4.2070     2.6980    80.3660     5.9040     5.2450     5.8220    24.1630     2.2060    -8.9750 
   75.6250    75.2390     4.2280     2.7100    78.4120     5.9440     5.2000     5.5200    23.7630     2.1710    -8.9700 
   75.7500    75.3620     4.2500     2.7210    79.1720     6.0900     5.2610     5.5070    23.0400     2.1570    -9.1380 
   75.8750    75.4840     4.2710     2.7330    81.9900     6.2670     5.3700     5.6890    22.3670     2.1630    -9.4650 
   76.0000    75.6070     4.2920     2.7440    82.0340     6.4130     5.4810     5.8690    21.9660     2.1840    -9.9320 
   76.1250    75.7290     4.3140     2.7560    79.9390     6.5030     5.5750     6.0510    21.9640     2.2120   -10.5230 
   76.2500    75.8520     4.3350     2.7670    79.1550     6.5770     5.6730     6.1980    22.2120     2.2320   -11.1930 
   76.3750    75.9740     4.3560     2.7790    77.8020     6.6930     5.8110     6.3410    22.5770     2.2370   -11.9280 
   76.5000    76.0970     4.3780     2.7900    74.3440     6.9260     6.0340     6.3730    22.8970     2.2230   -12.6980 
   76.6250    76.2190     4.3990     2.8020    70.5040     7.3960     6.4250     6.5760    23.0140     2.1930   -13.4470 
   76.7500    76.3420     4.4200     2.8130    64.7080     8.1360     7.0180     7.4050    22.9220     2.1590   -14.1200 
   76.8750    76.4640     4.4420     2.8250    56.7830     9.1650     7.8480     8.4750    22.6820     2.1370   -14.6890 
   77.0000    76.5870     4.4630     2.8360    52.5150    10.4220     8.9050     8.9790    22.3880     2.1450   -15.1400 
   77.1250    76.7090     4.4840     2.8480    56.7110    11.6880    10.0700     8.9300    22.1720     2.2060   -15.4690 
   77.2500    76.8320     4.5050     2.8590    60.4200    12.6210    11.0610     8.8930    22.1490     2.3110   -15.7170 
   77.3750    76.9540     4.5270     2.8700    60.1940    12.9280    11.5970     8.7450    22.2990     2.4290   -15.8920 
   77.5000    77.0770     4.5480     2.8820    59.4570    12.4750    11.4870     8.3880    22.4910     2.5140   -16.0020 
   77.6250    77.1990     4.5690     2.8930    60.0580    11.3390    10.6800     8.2560    22.5720     2.5040   -16.0620 
   77.7500    77.3220     4.5910     2.9050    60.0120    10.0530     9.5970     8.6230    22.5370     2.4210   -16.1010 
   77.8750    77.4440     4.6120     2.9160    59.0170     9.0010     8.5830     9.0060    22.4270     2.3140   -16.1210 
   78.0000    77.5670     4.6330     2.9280    58.1020     8.3880     7.8580     9.0120    22.2950     2.2230   -16.1160 
   78.1250    77.6890     4.6550     2.9390    56.6120     8.2640     7.5310     8.7450    22.2440     2.1740   -16.0670 
   78.2500    77.8120     4.6760     2.9510    55.5580     8.4000     7.4690     8.6120    22.3600     2.1570   -15.9600 
   78.3750    77.9340     4.6970     2.9620    56.6850     8.6200     7.5580     8.6960    22.6520     2.1580   -15.7760 
   78.5000    78.0570     4.7190     2.9740    58.0320     8.7820     7.6860     8.9450    23.0750     2.1630   -15.5070 
   78.6250    78.1790     4.7400     2.9850    57.6090     8.8090     7.7730     9.2000    23.4460     2.1580   -15.1330 
   78.7500    78.3020     4.7610     2.9970    56.9400     8.7820     7.8310     9.4650    23.5550     2.1450   -14.6650 
   78.8750    78.4240     4.7830     3.0080    56.2750     8.8150     7.9230     9.5580    23.3210     2.1270   -14.1140 
   79.0000    78.5470     4.8040     3.0200    55.3210     8.9990     8.1110     9.4070    22.8380     2.1130   -13.4830 
   79.1250    78.6690     4.8250     3.0310    55.5830     9.3270     8.4030     9.1370    22.3200     2.1180   -12.7470 
   79.2500    78.7920     4.8460     3.0430    57.8510     9.6150     8.6690     8.9490    21.9800     2.1480   -11.9250 
   79.3750    78.9140     4.8680     3.0540    61.3720     9.6690     8.7540     9.1580    21.9100     2.2040   -11.0470 
   79.5000    79.0370     4.8890     3.0660    66.5730     9.3520     8.5360     9.8720    22.1150     2.2710   -10.1600 
   79.6250    79.1590     4.9100     3.0770    74.4120     8.6560     7.9600    10.3570    22.5160     2.3210    -9.3220 
   79.7500    79.2820     4.9320     3.0890    80.2650     7.8150     7.2240     9.4030    22.9360     2.3350    -8.5740 
   79.8750    79.4040     4.9530     3.1000    81.8280     7.0600     6.5170     7.3880    23.1990     2.3140    -7.9150 
   80.0000    79.5270     4.9740     3.1110    81.0270     6.5740     5.9790     6.3220    23.1830     2.2770    -7.3490 
   80.1250    79.6490     4.9960     3.1230    82.0050     6.2970     5.7060     6.2100    22.9420     2.2500    -6.9090 
   80.2500    79.7720     5.0170     3.1340    82.8770     6.2550     5.6450     6.2830    22.7010     2.2400    -6.5830 
   80.3750    79.8940     5.0380     3.1460    81.6550     6.3970     5.7580     6.1780    22.6130     2.2450    -6.3530 
   80.5000    80.0170     5.0600     3.1570    79.1890     6.6790     6.0030     5.8490    22.7070     2.2530    -6.1800 
   80.6250    80.1390     5.0810     3.1690    77.7870     7.0700     6.3470     5.8210    22.9200     2.2560    -6.0280 
   80.7500    80.2620     5.1020     3.1800    77.0090     7.4720     6.7100     6.0470    23.1450     2.2520    -5.8820 
   80.8750    80.3840     5.1240     3.1920    75.3810     7.7790     7.0100     6.5570    23.2900     2.2460    -5.7540 
   81.0000    80.5070     5.1450     3.2030    74.8830     7.8870     7.1580     7.2430    23.2760     2.2470    -5.6460 
   81.1250    80.6290     5.1660     3.2150    76.7960     7.7090     7.0620     7.9120    23.1070     2.2630    -5.5580 
   81.2500    80.7520     5.1880     3.2260    77.1810     7.3530     6.7870     7.8210    22.8870     2.2850    -5.4720 
   81.3750    80.8740     5.2090     3.2380    77.1810     6.9500     6.4270     6.7870    22.6940     2.3050    -5.3870 
   81.5000    80.9970     5.2300     3.2490    79.6200     6.6230     6.0910     6.0600    22.5610     2.3140    -5.3240 
   81.6250    81.1190     5.2510     3.2610    83.7940     6.4580     5.8730     5.9040    22.5210     2.3090    -5.2940 
