~V
VERS. 2.00: Ver 2.00
~W
STRT.M 20.0000:
STOP.M 242.0000:
STEP.M 0.1250:
NULL. -999.2500:
UWI. FD10624:
~C
DEPT.M :
TVD. :
DX. :
DY. :
GR.API :
RML.OHMM :
RI. :
RXO.OHMM :
CALI.CM :
DEN.GM/CC :
SP.MV :
~A
# ...
  135.5000   132.9630    12.6110    12.5690    48.6400    25.0430    26.2530    22.3530    21.9400     2.4330    -7.3610 
  135.6250   133.0780    12.6450    12.6020    48.2370    25.4690    26.0340    21.3210    21.5850     2.3660    -7.3270 
  135.7500   133.1930    12.6800    12.6360    50.9170    26.5000    26.7140    22.7580    21.1420     2.3480    -7.2670 
  135.8750   133.3090    12.7140    12.6700    55.7800    28.0640    28.2240    26.9770    20.8710     2.3910    -7.1570 
  136.0000   133.4240    12.7490    12.7030    58.9760    29.9890    30.3800    33.3460    20.8330     2.4770    -7.0560 
  136.1250   133.5390    12.7830    12.7370    57.6540    31.9630    32.7700    38.0610    21.0090     2.5620    -7.0260 
  136.2500   133.6550    12.8170    12.7700    53.9550    33.5340    34.6890    38.9090    21.2750     2.6070    -6.9970 
  136.3750   133.7700    12.8520    12.8040    50.8990    34.2500    35.5580    38.3370    21.4680     2.6030    -6.9990 
  136.5000   133.8850    12.8860    12.8370    50.0950    33.8620    35.1370    36.1480    21.4340     2.5630    -7.1070 
  136.6250   134.0000    12.9210    12.8710    49.8130    32.5590    33.6750    33.1670    21.1680     2.5150    -7.2870 
  136.7500   134.1160    12.9550    12.9050    47.5990    31.2190    32.0960    28.0270    20.9120     2.4860    -7.3940 
  136.8750   134.2310    12.9900    12.9380    45.8910    30.3570    30.9300    25.1680    20.8460     2.4870    -7.5150 
  137.0000   134.3460    13.0240    12.9720    48.4180    30.0790    30.3430    25.1880    20.9460     2.5170    -7.6820 
  137.1250   134.4620    13.0590    13.0050    52.5590    30.1980    30.2230    30.3670    21.2000     2.5600    -7.8600 
  137.2500   134.5770    13.0930    13.0390    53.0640    30.3550    30.1660    35.3390    21.4770     2.5850    -8.0920 
  137.3750   134.6920    13.1280    13.0720    50.7550    30.3680    29.8940    33.8770    21.6080     2.5700    -8.3060 
  137.5000   134.8070    13.1620    13.1060    49.4280    30.1680    29.3080    27.8330    21.4900     2.5170    -8.5280 
  137.6250   134.9230    13.1960    13.1390    50.4760    29.8290    28.6030    24.9650    21.1380     2.4590    -8.7270 
  137.7500   135.0380    13.2310    13.1730    51.5730    29.6390    28.1700    26.9380    20.8140     2.4380    -9.0520 
  137.8750   135.1530    13.2650    13.2070    51.3680    29.8560    28.2550    30.4100    20.6960     2.4700    -9.3460 
  138.0000   135.2680    13.3000    13.2400    49.5040    30.5540    28.9350    31.4830    20.8480     2.5380    -9.6190 
  138.1250   135.3840    13.3340    13.2740    47.2760    31.5800    30.1640    33.1860    21.2410     2.5940    -9.7690 
  138.2500   135.4990    13.3690    13.3070    46.3630    32.5880    31.5430    37.7700    21.5820     2.6070    -9.9200 
  138.3750   135.6140    13.4030    13.3410    47.3530    33.3960    32.7220    39.3560    21.6780     2.5740   -10.0760 
  138.5000   135.7300    13.4380    13.3740    48.6450    33.9000    33.4640    36.7570    21.4540     2.5210   -10.1690 
  138.6250   135.8450    13.4720    13.4080    48.6340    34.0290    33.6850    34.5120    21.0560     2.4910   -10.1730 
  138.7500   135.9600    13.5070    13.4420    48.8480    33.9990    33.6640    33.1940    20.6080     2.5030   -10.1310 
  138.8750   136.0760    13.5410    13.4750    49.8570    34.0080    33.6230    32.9260    20.3470     2.5550   -10.1390 
  139.0000   136.1910    13.5750    13.5090    50.1130    34.0860    33.6510    34.0540    20.3400     2.6230   -10.2030 
  139.1250   136.3060    13.6100    13.5420    49.2460    33.9950    33.5330    35.9890    20.6130     2.6740   -10.2940 
  139.2500   136.4210    13.6440    13.5760    49.5030    33.5660    32.9770    35.5810    20.9720     2.6850   -10.3590 
  139.3750   136.5370    13.6790    13.6090    50.1830    32.8210    31.8960    32.0520    21.1850     2.6520   -10.4250 
  139.5000   136.6520    13.7130    13.6430    48.6930    31.8970    30.5080    26.6720    21.1440     2.5850   -10.5330 
  139.6250   136.7670    13.7480    13.6770    46.8790    31.0210    29.3000    23.5690    20.8460     2.5200   -10.6940 
  139.7500   136.8820    13.7820    13.7100    48.6520    30.3910    28.6030    23.0220    20.4650     2.4950   -10.9050 
  139.8750   136.9980    13.8170    13.7440    52.9500    30.0350    28.4340    24.3420    20.2360     2.5240   -11.0720 
  140.0000   137.1130    13.8510    13.7770    55.5530    29.7920    28.5500    25.6760    20.2380     2.5880   -11.1930 
  140.1250   137.2280    13.8860    13.8110    53.5640    29.4210    28.5580    24.6460    20.5030     2.6390   -11.3340 
  140.2500   137.3440    13.9200    13.8440    50.8900    28.8940    28.2640    23.0020    20.8820     2.6370   -11.4040 
  140.3750   137.4590    13.9540    13.8780    50.4090    28.3460    27.7930    20.8100    21.2480     2.5840   -11.4680 
  140.5000   137.5740    13.9890    13.9110    51.5820    27.9700    27.5060    20.3690    21.4200     2.5140   -11.4460 
  140.6250   137.6890    14.0230    13.9450    51.1700    28.0720    27.8970    23.1820    21.3110     2.4880   -11.4570 
  140.7500   137.8050    14.0580    13.9790    48.2260    28.8130    28.9400    28.6620    21.1000     2.5260   -11.4130 
  140.8750   137.9200    14.0920    14.0120    44.9410    30.1910    30.3180    31.8040    20.9650     2.6090   -11.4250 
  141.0000   138.0350    14.1270    14.0460    43.0750    31.6860    31.4480    31.6520    20.9860     2.6940   -11.4210 
  141.1250   138.1510    14.1610    14.0790    42.2110    32.0170    31.4690    29.3330    21.1890     2.7240   -11.4270 
  141.2500   138.2660    14.1960    14.1130    43.1150    30.7630    30.2980    26.1580    21.5230     2.6920   -11.5230 
  141.3750   138.3810    14.2300    14.1460    45.0570    28.5050    28.3180    21.8710    21.7750     2.6220   -11.5920 
  141.5000   138.4960    14.2650    14.1800    46.8990    26.2850    26.1310    19.0090    21.8030     2.5560   -11.7000 
  141.6250   138.6120    14.2990    14.2140    47.8390    24.8620    24.2820    19.0550    21.6780     2.5430   -11.7430 
  141.7500   138.7270    14.3330    14.2470    49.1500    24.0880    22.9580    20.3790    21.5130     2.5810   -11.8270 
  141.8750   138.8420    14.3680    14.2810    51.4230    23.8380    22.2190    22.0140    21.4540     2.6470   -11.8990 
  142.0000   138.9580    14.4020    14.3140    52.8240    24.1270    22.0530    22.6180    21.5370     2.7000   -12.0390 
  142.1250   139.0730    14.4370    14.3480    52.8570    25.0290    22.5220    21.9070    21.8050     2.6960   -12.1740 
  142.2500   139.1880    14.4710    14.3810    52.5590    26.2300    23.4870    21.6560    22.0710     2.6360   -12.3010 
  142.3750   139.3030    14.5060    14.4150    51.4250    27.3940    24.7600    23.9710    22.1760     2.5490   -12.3960 
  142.5000   139.4190    14.5400    14.4490    49.4220    28.1780    25.9450    26.4650    22.0740     2.4780   -12.4780 
  142.6250   139.5340    14.5750    14.4820    49.4610    28.1230    26.3520    28.8690    21.7730     2.4700   -12.5100 
  142.7500   139.6490    14.6090    14.5160    52.4900    27.1520    25.7130    29.6920    21.4540     2.5240   -12.4870 
  142.8750   139.7650    14.6440    14.5490    55.4970    25.4090    24.1540    25.7900    21.3620     2.6120   -12.3940 
  143.0000   139.8800    14.6780    14.5830    56.6910    23.3450    22.1840    20.2690    21.5810     2.6870   -12.2590 
  143.1250   139.9950    14.7120    14.6160    55.7050    21.5930    20.4570    17.0520    21.9850     2.6860   -12.1020 
  143.2500   140.1100    14.7470    14.6500    53.3160    20.4150    19.2520    15.8360    22.3290     2.6040   -11.9370 
  143.3750   140.2260    14.7810    14.6830    50.5280    19.7810    18.5810    16.1900    22.3430     2.4690   -11.7980 
  143.5000   140.3410    14.8160    14.7170    49.7500    19.5260    18.3330    17.1870    21.8700     2.3370   -11.6580 
  143.6250   140.4560    14.8500    14.7510    51.8040    19.4490    18.3080    19.4510    21.3640     2.2720   -11.6790 
