~V
VERS. 2.00: Ver 2.00
~W
STRT.M 15.0000:
STOP.M 236.0000:
STEP.M 0.1250:
NULL. -999.2500:
UWI. FD10614:
~C
DEPT.M :
TVD. :
DX. :
DY. :
DEN.GM/CC :
GR.API :
RML.OHMM :
RI. :
RXO.OHMM :
CALI.CM :
SP.MV :
~A
# ...
  155.2500   149.1650    27.6630    13.1740     2.5130    53.9070    16.9280    15.1610    11.2150    20.1930   -10.5090 
  155.3750   149.2720    27.7210    13.2030     2.5070    52.5590    16.1430    14.4080    10.4770    20.2230   -10.6380 
  155.5000   149.3790    27.7790    13.2330     2.5110    51.1400    15.5080    13.7740     9.5960    20.3090   -10.7420 
  155.6250   149.4860    27.8360    13.2620     2.5250    51.2560    15.2290    13.4340     9.6740    20.5060   -10.9160 
  155.7500   149.5930    27.8940    13.2910     2.5410    52.5260    15.3000    13.3910    10.8560    20.8340   -11.0770 
  155.8750   149.7000    27.9510    13.3210     2.5550    54.5520    15.6520    13.6110    12.2960    21.2110   -11.1950 
  156.0000   149.8070    28.0090    13.3500     2.5600    55.5350    16.1490    13.9980    13.3450    21.5000   -11.3130 
  156.1250   149.9140    28.0660    13.3800     2.5540    52.0870    16.5870    14.3890    14.0190    21.6080   -11.4130 
  156.2500   150.0210    28.1240    13.4090     2.5430    47.6290    16.8060    14.6240    14.0470    21.5000   -11.6120 
  156.3750   150.1280    28.1810    13.4380     2.5330    45.4210    16.7390    14.6280    13.6790    21.2610   -11.8700 
  156.5000   150.2350    28.2390    13.4680     2.5310    45.1310    16.4020    14.4040    13.3400    21.0030   -12.1450 
  156.6250   150.3420    28.2970    13.4970     2.5390    46.1160    15.8720    14.0040    13.0200    20.9330   -12.2770 
  156.7500   150.4490    28.3540    13.5270     2.5530    47.5760    15.3150    13.5680    12.6140    21.0040   -12.4230 
  156.8750   150.5560    28.4120    13.5560     2.5660    48.9260    14.8380    13.1860    12.1420    21.1490   -12.5640 
  157.0000   150.6630    28.4690    13.5850     2.5720    50.0320    14.5100    12.9140    11.8170    21.2400   -12.6660 
  157.1250   150.7700    28.5270    13.6150     2.5670    51.1040    14.3630    12.7900    11.8340    21.1630   -12.7070 
  157.2500   150.8770    28.5840    13.6440     2.5540    51.2130    14.2980    12.7560    11.6200    20.9700   -12.7190 
  157.3750   150.9840    28.6420    13.6740     2.5410    50.9170    14.1780    12.7130    10.6550    20.7300   -12.6790 
  157.5000   151.0910    28.7000    13.7030     2.5330    51.0870    13.8410    12.5120     9.6920    20.5540   -12.6450 
  157.6250   151.1980    28.7570    13.7320     2.5310    51.3650    13.1040    11.9550     9.5450    20.4980   -12.6860 
  157.7500   151.3050    28.8150    13.7620     2.5290    52.0840    12.0420    11.0740     9.7200    20.4800   -12.7020 
  157.8750   151.4120    28.8720    13.7910     2.5210    56.1010    10.8060     9.9940     9.3110    20.4490   -12.7120 
  158.0000   151.5190    28.9300    13.8210     2.5070    64.1130     9.6080     8.9090     7.9240    20.4180   -12.7230 
  158.1250   151.6260    28.9870    13.8500     2.4900    71.4890     8.6920     8.0390     6.6050    20.3940   -12.7900 
  158.2500   151.7330    29.0450    13.8790     2.4760    75.0490     8.1030     7.4410     6.2360    20.3570   -12.8710 
  158.3750   151.8400    29.1030    13.9090     2.4690    76.4430     7.8100     7.1020     6.4450    20.3130   -12.9250 
  158.5000   151.9470    29.1600    13.9380     2.4680    77.6910     7.7160     6.9590     6.8120    20.2880   -12.9410 
  158.6250   152.0540    29.2180    13.9680     2.4670    80.3230     7.7030     6.9160     7.0160    20.2730   -12.9040 
  158.7500   152.1610    29.2750    13.9970     2.4640    83.8080     7.6700     6.8710     6.8840    20.2500   -12.9240 
  158.8750   152.2680    29.3330    14.0260     2.4580    86.9630     7.6010     6.8000     6.5270    20.2290   -12.9750 
  159.0000   152.3750    29.3900    14.0560     2.4480    87.8530     7.5240     6.7250     6.2200    20.2340   -13.0610 
  159.1250   152.4820    29.4480    14.0850     2.4370    84.1150     7.4890     6.6850     6.3020    20.2650   -13.1610 
  159.2500   152.5890    29.5060    14.1150     2.4290    77.6720     7.5170     6.6970     6.6420    20.2790   -13.3180 
  159.3750   152.6960    29.5630    14.1440     2.4250    73.1800     7.6140     6.7630     7.0390    20.2820   -13.5550 
  159.5000   152.8030    29.6210    14.1730     2.4270    75.0780     7.7810     6.8810     7.2880    20.2820   -13.8860 
  159.6250   152.9100    29.6780    14.2030     2.4390    81.2050     8.0340     7.0590     7.1530    20.2820   -14.3260 
  159.7500   153.0170    29.7360    14.2320     2.4560    84.3940     8.3650     7.2890     7.3880    20.2860   -14.7740 
  159.8750   153.1230    29.7930    14.2620     2.4710    84.1950     8.7660     7.5720     8.0770    20.3000   -15.2320 
  160.0000   153.2300    29.8510    14.2910     2.4800    82.8200     9.2130     7.8940     8.7880    20.3300   -15.6830 
  160.1250   153.3370    29.9090    14.3200     2.4810    81.0460     9.6720     8.2340     8.8320    20.3460   -16.0500 
  160.2500   153.4440    29.9660    14.3500     2.4780    79.8240    10.1070     8.5650     8.5360    20.3510   -16.3000 
  160.3750   153.5510    30.0240    14.3790     2.4770    80.9080    10.4960     8.8690     9.0030    20.3510   -16.4820 
  160.5000   153.6580    30.0810    14.4090     2.4750    83.0740    10.8280     9.1280     9.9250    20.3510   -16.5650 
  160.6250   153.7650    30.1390    14.4380     2.4690    82.5800    11.0930     9.3320    10.8750    20.3560   -16.5240 
  160.7500   153.8720    30.1960    14.4670     2.4540    80.8310    11.3210     9.5100    11.1250    20.3720   -16.4340 
  160.8750   153.9790    30.2540    14.4970     2.4310    79.9770    11.5490     9.6850    11.2920    20.3980   -16.2700 
  161.0000   154.0860    30.3120    14.5260     2.4040    81.0760    11.8220     9.8900    10.7130    20.4210   -16.0290 
  161.1250   154.1930    30.3690    14.5550     2.3840    83.6100    12.2030    10.1800    10.6800    20.4430   -15.8280 
  161.2500   154.3000    30.4270    14.5850     2.3790    84.7870    12.6950    10.5730    10.8850    20.4670   -15.6620 
  161.3750   154.4070    30.4840    14.6140     2.3910    82.7810    13.2890    11.0710    11.4650    20.4770   -15.5180 
  161.5000   154.5140    30.5420    14.6440     2.4160    78.9800    13.9570    11.6610    11.7180    20.4790   -15.4010 
  161.6250   154.6210    30.5990    14.6730     2.4330    76.5870    14.6430    12.3170    12.2200    20.4800   -15.3120 
  161.7500   154.7280    30.6570    14.7020     2.4300    75.9170    15.2490    12.9440    13.3590    20.4920   -15.2600 
  161.8750   154.8350    30.7150    14.7320     2.4050    75.3130    15.6580    13.4320    14.0710    20.5260   -15.2460 
  162.0000   154.9420    30.7720    14.7610     2.3710    74.8740    15.7570    13.6650    13.6380    20.5670   -15.2960 
  162.1250   155.0490    30.8300    14.7910     2.3490    77.1350    15.4190    13.5030    12.6670    20.5940   -15.3170 
  162.2500   155.1560    30.8870    14.8200     2.3420    80.6280    14.7680    13.0310    11.5830    20.5940   -15.3270 
  162.3750   155.2630    30.9450    14.8490     2.3460    84.9180    13.9640    12.3890    10.6200    20.5720   -15.3220 
  162.5000   155.3700    31.0020    14.8790     2.3520    87.8700    13.2130    11.7570    10.2000    20.5490   -15.3170 
  162.6250   155.4770    31.0600    14.9080     2.3590    85.2500    12.7470    11.3350    10.0660    20.5400   -15.2980 
  162.7500   155.5840    31.1170    14.9380     2.3690    79.0030    12.6210    11.1850    10.1910    20.5390   -15.2040 
  162.8750   155.6910    31.1750    14.9670     2.3780    75.2270    12.8090    11.3120    10.4900    20.5390   -15.1210 
  163.0000   155.7980    31.2330    14.9960     2.3830    77.5670    13.1940    11.6490    10.9020    20.5400   -15.0560 
  163.1250   155.9050    31.2900    15.0260     2.3780    80.2810    13.5530    12.0300    11.4800    20.5420   -15.0580 
  163.2500   156.0120    31.3480    15.0550     2.3660    78.5120    13.6670    12.2340    11.6520    20.5400   -15.0630 
  163.3750   156.1190    31.4050    15.0850     2.3560    76.3640    13.4220    12.1100    11.3980    20.5420   -15.0580 
