~V
VERS. 2.00: Ver 2.00
~W
STRT.M 32.0000:
STOP.M 269.0000:
STEP.M 0.1250:
NULL. -999.2500:
UWI. FD10881:
~C
DEPT.M :
TVD. :
DX. :
DY. :
SP.MV :
GR.API :
RI. :
RML.OHMM :
RXO.OHMM :
~A
# ...
  202.0000   189.9140   -46.6210   -23.6550   -11.3600    64.6250     6.2390     7.1040    11.3970 
  202.1250   190.0140   -46.6860   -23.6920   -10.5290    64.3570     6.3520     7.2550    11.0160 
  202.2500   190.1150   -46.7510   -23.7290    -9.6020    65.6810     6.4070     7.3450    11.4250 
  202.3750   190.2150   -46.8150   -23.7660    -9.0070    65.8360     6.3310     7.2820    11.0900 
  202.5000   190.3150   -46.8800   -23.8030    -9.0790    63.6710     6.1320     7.0660    10.0230 
  202.6250   190.4160   -46.9450   -23.8400    -9.5850    61.8490     5.8460     6.7520    10.1200 
  202.7500   190.5160   -47.0100   -23.8760   -10.2040    62.4440     5.5790     6.4410    11.0690 
  202.8750   190.6160   -47.0740   -23.9130   -10.7420    64.4990     5.4370     6.2640    10.9740 
  203.0000   190.7170   -47.1390   -23.9500   -10.9500    65.6790     5.4820     6.3180     9.4920 
  203.1250   190.8170   -47.2040   -23.9870   -10.7540    63.3970     5.7930     6.6890     8.3920 
  203.2500   190.9180   -47.2680   -24.0250   -10.4510    59.7990     6.4240     7.4490     9.1300 
  203.3750   191.0180   -47.3330   -24.0620   -10.3450    58.9240     7.3460     8.5490    10.5460 
  203.5000   191.1180   -47.3970   -24.1000   -10.4010    62.2740     8.3510     9.7340    11.3450 
  203.6250   191.2190   -47.4610   -24.1370   -10.5970    66.1460     9.3500    10.9020    13.3770 
  203.7500   191.3190   -47.5260   -24.1750   -10.9590    65.9370    10.2750    11.9800    16.9060 
  203.8750   191.4190   -47.5900   -24.2130   -11.3640    62.8090    10.8580    12.6170    19.3910 
  204.0000   191.5200   -47.6540   -24.2500   -11.8090    61.3750    10.8250    12.4780    20.0950 
  204.1250   191.6200   -47.7190   -24.2880   -12.2300    62.1420    10.2320    11.6920    19.1610 
  204.2500   191.7200   -47.7830   -24.3260   -12.5110    62.9910     9.0450    10.2390    18.1780 
  204.3750   191.8210   -47.8480   -24.3630   -12.7300    63.6270     7.7880     8.7800    18.5890 
  204.5000   191.9210   -47.9120   -24.4000   -12.9290    65.3160     6.7430     7.6170    18.7870 
  204.6250   192.0210   -47.9770   -24.4380   -13.0840    67.2240     5.9210     6.7290    18.0760 
  204.7500   192.1210   -48.0410   -24.4750   -13.1570    68.2720     5.5610     6.3930    15.1140 
  204.8750   192.2220   -48.1060   -24.5130   -13.2580    69.5770     5.4690     6.3530    10.2470 
  205.0000   192.3220   -48.1700   -24.5510   -13.1280    69.8970     5.5720     6.5040     8.2150 
  205.1250   192.4220   -48.2350   -24.5890   -12.6010    67.6640     5.7450     6.6870     8.9510 
  205.2500   192.5220   -48.2990   -24.6270   -11.7970    65.2610     5.8530     6.7320    10.0930 
  205.3750   192.6220   -48.3640   -24.6640   -11.0600    64.9520     5.8820     6.6720    11.0320 
  205.5000   192.7220   -48.4290   -24.7020   -10.8110    67.0500     5.8400     6.5350    10.9790 
  205.6250   192.8220   -48.4930   -24.7400   -11.1590    69.2240     5.7540     6.3790    10.5180 
  205.7500   192.9220   -48.5580   -24.7780   -11.8670    68.6710     5.6580     6.2320    10.0860 
  205.8750   193.0220   -48.6230   -24.8160   -12.6290    66.1640     5.5750     6.1090     9.6700 
  206.0000   193.1220   -48.6870   -24.8530   -13.1380    64.7600     5.5070     6.0270     9.3820 
  206.1250   193.2220   -48.7520   -24.8910   -13.1900    65.9340     5.4420     5.9620     9.1730 
  206.2500   193.3220   -48.8170   -24.9280   -12.8630    66.6020     5.3900     5.9390     8.9930 
  206.3750   193.4220   -48.8820   -24.9660   -12.5940    66.5040     5.3460     5.9450     8.7480 
  206.5000   193.5220   -48.9470   -25.0030   -12.4690    68.6080     5.3370     5.9830     8.4970 
  206.6250   193.6220   -49.0120   -25.0400   -12.3540    72.2220     5.3530     6.0430     8.3870 
  206.7500   193.7220   -49.0780   -25.0780   -12.4230    72.8990     5.3960     6.1320     8.3730 
  206.8750   193.8220   -49.1430   -25.1150   -12.6540    70.8480     5.5090     6.2760     8.3630 
  207.0000   193.9220   -49.2080   -25.1520   -12.9650    67.9880     5.7060     6.5200     8.5350 
  207.1250   194.0220   -49.2730   -25.1890   -13.2010    64.6510     5.9920     6.8540     8.8520 
  207.2500   194.1220   -49.3380   -25.2270   -13.0750    61.4070     6.5430     7.4830     9.0600 
  207.3750   194.2220   -49.4030   -25.2640   -12.4900    61.0420     7.3610     8.3950     8.9380 
  207.5000   194.3220   -49.4680   -25.3010   -12.2260    62.2350     8.3340     9.4540     8.6240 
  207.6250   194.4220   -49.5330   -25.3390   -12.6470    61.2360     9.3970    10.5980     9.3940 
  207.7500   194.5220   -49.5980   -25.3770   -13.2870    58.2420    10.4140    11.7120    12.2380 
  207.8750   194.6220   -49.6630   -25.4140   -13.9370    55.5410    11.4880    12.8980    17.6250 
  208.0000   194.7220   -49.7280   -25.4510   -14.3960    54.4180    12.8260    14.4830    23.1740 
  208.1250   194.8220   -49.7940   -25.4880   -14.3420    56.5080    14.0780    15.9630    24.2260 
  208.2500   194.9220   -49.8590   -25.5260   -13.5410    60.5270    14.7950    16.8170    23.2960 
  208.3750   195.0220   -49.9240   -25.5630   -12.4040    62.8170    14.8390    16.8550    25.8330 
  208.5000   195.1220   -49.9890   -25.6000   -11.6330    61.8750    13.9220    15.6850    30.1870 
  208.6250   195.2220   -50.0540   -25.6370   -11.4150    60.9920    12.7470    14.2460    30.8490 
  208.7500   195.3220   -50.1190   -25.6750   -11.7440    62.1160    11.6630    12.9480    24.6600 
  208.8750   195.4220   -50.1850   -25.7120   -12.3590    63.5140    10.9880    12.2150    17.4660 
  209.0000   195.5220   -50.2500   -25.7490   -13.0120    63.5460    10.9090    12.2110    15.9550 
  209.1250   195.6220   -50.3150   -25.7860   -13.4620    63.5220    11.0580    12.4710    16.6430 
  209.2500   195.7220   -50.3800   -25.8230   -13.3930    64.3720    11.1990    12.6570    16.9110 
  209.3750   195.8220   -50.4450   -25.8600   -13.0050    64.7580    11.1080    12.5420    18.1780 
  209.5000   195.9220   -50.5100   -25.8980   -12.6570    64.3910    10.8350    12.1910    19.2060 
  209.6250   196.0220   -50.5750   -25.9350   -12.3960    64.8650    10.5340    11.8270    18.6070 
  209.7500   196.1220   -50.6400   -25.9720   -12.0580    65.8920    10.3920    11.6730    17.1780 
  209.8750   196.2230   -50.7050   -26.0090   -11.8110    66.1840    10.5000    11.8080    16.2430 
  210.0000   196.3230   -50.7690   -26.0460   -12.0050    66.5400    10.9120    12.3140    16.1890 
  210.1250   196.4230   -50.8340   -26.0840   -12.5650    68.3330    11.5040    13.0540    16.4250 
  210.2500   196.5230   -50.8990   -26.1210   -13.2690    69.6320    12.2290    13.9370    17.0350 
  210.3750   196.6230   -50.9640   -26.1580   -13.8820    68.9750    12.9310    14.7640    18.0520 
  210.5000   196.7240   -51.0290   -26.1940   -14.3940    66.0470    13.6500    15.6140    19.2100 
  210.6250   196.8240   -51.0940   -26.2310   -14.9540    64.0720    14.3790    16.4640    20.4070 
  210.7500   196.9240   -51.1590   -26.2680   -15.5890    64.8350    15.1180    17.3800    20.5740 
  210.8750   197.0240   -51.2240   -26.3050   -16.1630    66.4970    15.7750    18.1790    21.0290 
  211.0000   197.1250   -51.2890   -26.3420   -16.6960    66.3850    16.1010    18.4640    24.9390 
  211.1250   197.2250   -51.3530   -26.3790   -16.9880    65.4540    16.1410    18.3630    30.4890 
  211.2500   197.3250   -51.4180   -26.4160   -16.7070    64.9960    15.9310    18.0180    32.5730 
  211.3750   197.4260   -51.4830   -26.4530   -15.9520    65.8380    15.7070    17.8570    29.9340 
  211.5000   197.5260   -51.5470   -26.4900   -15.0480    66.2920    15.7470    18.2350    26.1160 
  211.6250   197.6260   -51.6120   -26.5280   -14.3590    65.5250    16.1380    19.2520    24.5300 
  211.7500   197.7260   -51.6770   -26.5650   -14.0920    64.7140    16.0990    19.4550    25.7760 
  211.8750   197.8270   -51.7410   -26.6020   -14.1430    65.6460    14.3130    17.3200    29.5520 
