~V
VERS. 2.00: Ver 2.00
~W
STRT.M 24.0000:
STOP.M 269.0000:
STEP.M 0.1250:
NULL. -999.2500:
UWI. FD10666:
~C
DEPT.M :
TVD. :
DX. :
DY. :
GR.API :
RML.OHMM :
RI. :
RXO.OHMM :
CALI.CM :
DEN.GM/CC :
SP.MV :
~A
# ...
  246.7500   231.3700    65.7610    31.9480    31.3540     4.5600     4.2610     4.7700    20.8040     2.3770    -9.5790 
  246.8750   231.4780    65.8190    31.9740    32.7960     4.5440     4.2670     4.7960    20.9230     2.3810    -9.4250 
  247.0000   231.5860    65.8770    32.0000    34.5250     4.5050     4.2450     4.7400    20.9830     2.3810    -9.2740 
  247.1250   231.6930    65.9350    32.0260    34.5650     4.4650     4.2020     4.6260    20.9560     2.3760    -9.1360 
  247.2500   231.8010    65.9930    32.0510    33.2810     4.4400     4.1560     4.4710    20.8590     2.3730    -9.0260 
  247.3750   231.9090    66.0510    32.0770    31.3290     4.4260     4.1120     4.4230    20.7190     2.3750    -8.9500 
  247.5000   232.0170    66.1090    32.1030    29.8210     4.4110     4.0680     4.5050    20.5840     2.3840    -8.9030 
  247.6250   232.1240    66.1670    32.1290    29.4740     4.3740     4.0140     4.5890    20.4990     2.3960    -8.8750 
  247.7500   232.2320    66.2250    32.1540    30.5060     4.3120     3.9420     4.6070    20.4670     2.4000    -8.8560 
  247.8750   232.3400    66.2830    32.1800    31.8110     4.2350     3.8560     4.5750    20.4620     2.3930    -8.8290 
  248.0000   232.4470    66.3410    32.2060    31.4900     4.1650     3.7700     4.4600    20.4700     2.3750    -8.7970 
  248.1250   232.5550    66.3990    32.2320    29.2590     4.1290     3.7060     4.3120    20.4920     2.3560    -8.7560 
  248.2500   232.6630    66.4570    32.2570    27.5540     4.1360     3.6800     4.2380    20.5270     2.3410    -8.7100 
  248.3750   232.7700    66.5150    32.2830    27.3080     4.1810     3.7000     4.2540    20.5650     2.3330    -8.6640 
  248.5000   232.8780    66.5730    32.3090    28.8590     4.2580     3.7640     4.3130    20.5940     2.3290    -8.6230 
  248.6250   232.9860    66.6310    32.3350    29.5500     4.3550     3.8640     4.3490    20.6040     2.3310    -8.6030 
  248.7500   233.0940    66.6890    32.3600    28.6380     4.4560     3.9750     4.3590    20.6050     2.3370    -8.6030 
  248.8750   233.2010    66.7470    32.3860    27.3440     4.5400     4.0710     4.4660    20.6040     2.3450    -8.6290 
  249.0000   233.3090    66.8050    32.4120    27.4820     4.5840     4.1300     4.6470    20.6030     2.3510    -8.6650 
  249.1250   233.4170    66.8630    32.4380    28.6200     4.5570     4.1240     4.7050    20.6030     2.3480    -8.6860 
  249.2500   233.5240    66.9210    32.4640    28.2490     4.4650     4.0600     4.4790    20.6040     2.3360    -8.6770 
  249.3750   233.6320    66.9790    32.4890    26.4210     4.3260     3.9520     4.2120    20.6050     2.3240    -8.6320 
  249.5000   233.7400    67.0370    32.5150    25.1770     4.1660     3.8220     4.0470    20.6050     2.3170    -8.5460 
  249.6250   233.8480    67.0950    32.5410    25.7990     4.0220     3.6960     3.9840    20.6040     2.3190    -8.4280 
  249.7500   233.9550    67.1530    32.5670    27.3070     3.9150     3.5940     3.9770    20.6040     2.3250    -8.2810 
  249.8750   234.0630    67.2110    32.5920    28.4400     3.8520     3.5240     3.9640    20.6030     2.3320    -8.1120 
  250.0000   234.1710    67.2690    32.6180    28.2440     3.8280     3.4840     3.9310    20.6030     2.3400    -7.9300 
  250.1250   234.2780    67.3270    32.6440    26.2720     3.8350     3.4690     3.9290    20.6050     2.3500    -7.7770 
  250.2500   234.3860    67.3850    32.6700    24.6410     3.8550     3.4670     3.9590    20.6050     2.3620    -7.6580 
  250.3750   234.4940    67.4430    32.6950    24.4500     3.8810     3.4730     4.0020    20.6050     2.3740    -7.5740 
  250.5000   234.6010    67.5010    32.7210    24.9720     3.9080     3.4870     4.0340    20.6050     2.3840    -7.5270 
  250.6250   234.7090    67.5590    32.7470    24.8470     3.9320     3.5130     4.0610    20.6040     2.3900    -7.5160 
  250.7500   234.8170    67.6170    32.7730    25.0140     3.9530     3.5480     4.0950    20.6030     2.3960    -7.5400 
  250.8750   234.9250    67.6750    32.7980    25.7820     3.9650     3.5880     4.1300    20.6010     2.4030    -7.5930 
  251.0000   235.0320    67.7330    32.8240    26.1610     3.9690     3.6240     4.1400    20.6010     2.4090    -7.6700 
  251.1250   235.1400    67.7910    32.8500    25.4540     3.9640     3.6450     4.1730    20.6010     2.4110    -7.7600 
  251.2500   235.2480    67.8490    32.8760    24.7390     3.9580     3.6520     4.2080    20.6010     2.4080    -7.8620 
  251.3750   235.3550    67.9070    32.9010    24.6170     3.9550     3.6470     4.2170    20.5990     2.4030    -7.9870 
  251.5000   235.4630    67.9650    32.9270    24.9530     3.9600     3.6370     4.1900    20.5970     2.3960    -8.1320 
  251.6250   235.5710    68.0230    32.9530    25.8790     3.9770     3.6300     4.1790    20.5960     2.3840    -8.2950 
  251.7500   235.6780    68.0810    32.9790    27.4990     4.0040     3.6300     4.2050    20.5970     2.3670    -8.4770 
  251.8750   235.7860    68.1390    33.0040    29.1870     4.0360     3.6410     4.2470    20.5970     2.3450    -8.6760 
  252.0000   235.8940    68.1960    33.0300    30.1410     4.0700     3.6630     4.2790    20.5970     2.3220    -8.8830 
  252.1250   236.0020    68.2540    33.0560    30.4650     4.1050     3.6980     4.2880    20.5960     2.3060    -9.0770 
  252.2500   236.1090    68.3120    33.0820    30.9910     4.1380     3.7420     4.2690    20.5950     2.3020    -9.2480 
  252.3750   236.2170    68.3700    33.1070    30.5260     4.1660     3.7900     4.2400    20.5950     2.3100    -9.3680 
  252.5000   236.3250    68.4280    33.1330    27.4040     4.1810     3.8320     4.2710    20.5940     2.3270    -9.4370 
  252.6250   236.4320    68.4860    33.1590    22.5150     4.1700     3.8490     4.3630    20.5950     2.3460    -9.4180 
  252.7500   236.5400    68.5440    33.1850    19.3260     4.1290     3.8330     4.4290    20.5970     2.3590    -9.3010 
  252.8750   236.6480    68.6020    33.2100    19.3840     4.0590     3.7780     4.4090    20.6010     2.3650    -9.0920 
  253.0000   236.7560    68.6600    33.2360    21.3520     3.9710     3.6950     4.3940    20.6080     2.3660    -8.8160 
  253.1250   236.8630    68.7180    33.2620    22.7320     3.8860     3.6050     4.3350    20.6150     2.3600    -8.5080 
  253.2500   236.9710    68.7760    33.2880    23.6440     3.8360     3.5380     4.1820    20.6160     2.3520    -8.1980 
  253.3750   237.0790    68.8340    33.3130    26.0150     3.8430     3.5140     4.0050    20.6100     2.3420    -7.9050 
  253.5000   237.1860    68.8920    33.3390    29.3920     3.9160     3.5410     3.9580    20.6050     2.3340    -7.6310 
  253.6250   237.2940    68.9500    33.3650    30.5080     4.0410     3.6170     4.0340    20.6030     2.3300    -7.4120 
  253.7500   237.4020    69.0080    33.3910    28.6420     4.1700     3.7140     4.1280    20.6010     2.3320    -7.2580 
  253.8750   237.5090    69.0660    33.4160    26.2600     4.2640     3.8090     4.1700    20.5980     2.3360    -7.1700 
  254.0000   237.6170    69.1240    33.4420    25.5940     4.3080     3.8820     4.1790    20.5970     2.3410    -7.1320 
  254.1250   237.7250    69.1820    33.4680    26.5340     4.3060     3.9200     4.1950    20.5990     2.3460    -7.1340 
  254.2500   237.8330    69.2400    33.4940    26.9660     4.2910     3.9340     4.1980    20.6080     2.3510    -7.1460 
  254.3750   237.9400    69.2980    33.5190    25.7020     4.2850     3.9370     4.2010    20.6210     2.3570    -7.1640 
  254.5000   238.0480    69.3560    33.5450    24.3730     4.2960     3.9390     4.2760    20.6370     2.3640    -7.2030 
  254.6250   238.1560    69.4140    33.5710    25.5300     4.3220     3.9450     4.5130    20.6580     2.3720    -7.2570 
  254.7500   238.2630    69.4720    33.5970    27.2480     4.3510     3.9500     4.7060    20.6890     2.3780    -7.3280 
  254.8750   238.3710    69.5300    33.6220    27.5920     4.3750     3.9480     4.6850    20.7460     2.3820    -7.3960 
