~V
VERS. 2.00: Ver 2.00
~W
STRT.M 62.0000:
STOP.M 282.0000:
STEP.M 0.1250:
NULL. -999.2500:
UWI. FD10887:
~C
DEPT.M :
TVD. :
DX. :
DY. :
SP.MV :
GR.API :
RI. :
RML.OHMM :
RXO.OHMM :
DEN.GM/CC :
~A
# ...
  162.3750   159.6050    -1.6940    19.9040   -17.0180    46.5430    20.0680    21.6950    16.2730     2.5250 
  162.5000   159.7190    -1.6950    19.9560   -17.2000    47.8150    20.4830    22.1720    18.0690     2.5320 
  162.6250   159.8330    -1.6950    20.0070   -17.3770    47.8690    21.0740    22.8140    25.4130     2.5550 
  162.7500   159.9470    -1.6960    20.0580   -17.5520    45.9960    21.5440    23.3150    29.0670     2.5820 
  162.8750   160.0610    -1.6960    20.1100   -17.7180    43.4340    21.7590    23.5650    23.6030     2.6010 
  163.0000   160.1740    -1.6970    20.1610   -17.8670    42.7230    21.4910    23.2660    19.9350     2.6050 
  163.1250   160.2880    -1.6970    20.2130   -17.9810    44.8350    20.8700    22.5820    17.9500     2.5930 
  163.2500   160.4020    -1.6970    20.2650   -18.0450    46.9630    19.8820    21.4580    15.8540     2.5680 
  163.3750   160.5160    -1.6980    20.3160   -18.0360    47.3270    18.7080    20.1260    15.9120     2.5350 
  163.5000   160.6300    -1.6980    20.3680   -17.9580    47.8430    17.6290    18.9400    14.8920     2.5010 
  163.6250   160.7430    -1.6990    20.4200   -17.8240    48.4890    17.0370    18.3120    12.8670     2.4780 
  163.7500   160.8570    -1.6990    20.4720   -17.6670    48.6880    17.2240    18.5520    11.8890     2.4720 
  163.8750   160.9710    -1.7000    20.5240   -17.5190    48.0350    18.0300    19.4930    13.8590     2.4880 
  164.0000   161.0840    -1.7000    20.5760   -17.4120    47.8020    19.2400    20.9300    18.4490     2.5190 
  164.1250   161.1980    -1.7010    20.6280   -17.3800    47.2980    20.3680    22.2430    21.8400     2.5530 
  164.2500   161.3120    -1.7020    20.6800   -17.4350    46.3930    21.0030    23.0000    21.6520     2.5790 
  164.3750   161.4250    -1.7020    20.7330   -17.5800    46.8820    21.1700    23.1880    19.4650     2.5870 
  164.5000   161.5390    -1.7030    20.7850   -17.7720    49.4770    20.7890    22.7520    17.9610     2.5820 
  164.6250   161.6520    -1.7030    20.8370   -17.9560    52.8080    20.0250    21.9340    17.8210     2.5700 
  164.7500   161.7660    -1.7040    20.8900   -18.0900    54.3230    19.1480    21.0220    17.2500     2.5600 
  164.8750   161.8790    -1.7050    20.9420   -18.1530    53.7010    18.3740    20.2630    15.8270     2.5520 
  165.0000   161.9920    -1.7050    20.9950   -18.1610    52.4530    17.8520    19.7490    14.5990     2.5430 
  165.1250   162.1060    -1.7060    21.0480   -18.1290    51.3560    17.7730    19.6940    13.8060     2.5340 
  165.2500   162.2190    -1.7070    21.1010   -18.0710    50.9760    18.0420    19.9940    14.1980     2.5300 
  165.3750   162.3320    -1.7080    21.1530   -17.9870    50.6640    18.4330    20.4460    16.6940     2.5390 
  165.5000   162.4450    -1.7090    21.2060   -17.8840    51.1820    18.8500    20.9410    19.9770     2.5570 
  165.6250   162.5590    -1.7100    21.2600   -17.7630    53.2630    19.1410    21.2970    20.7900     2.5760 
  165.7500   162.6720    -1.7110    21.3130   -17.6320    56.1820    19.1660    21.2980    18.7990     2.5860 
  165.8750   162.7850    -1.7120    21.3660   -17.4930    57.1740    18.8950    20.9680    17.4100     2.5900 
  166.0000   162.8980    -1.7130    21.4190   -17.3560    55.4000    18.4030    20.3910    18.9200     2.5900 
  166.1250   163.0110    -1.7150    21.4730   -17.2270    53.5180    17.7840    19.6490    19.9400     2.5910 
  166.2500   163.1240    -1.7160    21.5260   -17.1070    53.0360    17.0950    18.8270    17.8580     2.5900 
  166.3750   163.2370    -1.7180    21.5800   -16.9800    53.0820    16.4510    18.0440    16.3550     2.5840 
  166.5000   163.3500    -1.7190    21.6340   -16.8270    51.9860    15.7680    17.2460    18.1080     2.5750 
  166.6250   163.4620    -1.7210    21.6870   -16.6440    50.6060    15.0620    16.4860    19.3670     2.5670 
  166.7500   163.5750    -1.7230    21.7410   -16.4580    50.8970    14.4360    15.8330    16.6550     2.5640 
  166.8750   163.6880    -1.7250    21.7950   -16.3120    52.6880    13.9190    15.2970    13.6980     2.5630 
  167.0000   163.8010    -1.7270    21.8490   -16.2280    54.6020    13.6460    15.0580    12.3540     2.5600 
  167.1250   163.9130    -1.7290    21.9030   -16.2010    55.0270    13.6870    15.1880    11.1750     2.5530 
  167.2500   164.0260    -1.7310    21.9580   -16.1950    55.0260    13.8550    15.5000    11.4750     2.5480 
  167.3750   164.1380    -1.7330    22.0120   -16.1790    55.1820    14.0670    15.9340    13.8460     2.5520 
  167.5000   164.2510    -1.7350    22.0660   -16.1460    55.5960    14.2980    16.4190    16.1160     2.5570 
  167.6250   164.3630    -1.7370    22.1210   -16.1030    55.8350    14.3530    16.6410    15.1930     2.5550 
  167.7500   164.4760    -1.7380    22.1750   -16.0600    55.1510    14.0380    16.3270    11.7660     2.5430 
  167.8750   164.5880    -1.7400    22.2300   -16.0270    54.7650    13.4230    15.5890    10.2850     2.5250 
  168.0000   164.7010    -1.7410    22.2850   -16.0070    55.3380    12.8160    14.8000    10.6580     2.5050 
  168.1250   164.8130    -1.7430    22.3400   -16.0040    56.0650    12.5120    14.3450     9.5900     2.4890 
  168.2500   164.9250    -1.7440    22.3940   -16.0060    55.7310    12.5100    14.2320     8.1640     2.4810 
  168.3750   165.0380    -1.7450    22.4490   -15.9730    53.9870    12.8540    14.5880     9.2450     2.4820 
  168.5000   165.1500    -1.7460    22.5050   -15.8580    52.1230    13.5820    15.4940    12.0590     2.4870 
  168.6250   165.2620    -1.7460    22.5600   -15.6240    50.3370    14.8310    17.0730    15.0800     2.4920 
  168.7500   165.3740    -1.7470    22.6150   -15.2980    48.2500    16.0150    18.5890    16.9060     2.4960 
  168.8750   165.4860    -1.7480    22.6700   -14.9330    45.2020    16.3720    19.0990    18.2160     2.5070 
  169.0000   165.5980    -1.7480    22.7250   -14.5910    43.4700    15.8350    18.4390    22.3120     2.5310 
  169.1250   165.7100    -1.7490    22.7810   -14.3100    44.9390    14.6220    16.9020    23.2600     2.5630 
  169.2500   165.8220    -1.7490    22.8360   -14.0860    48.4610    13.2950    15.1670    16.2960     2.5910 
  169.3750   165.9340    -1.7490    22.8920   -13.9230    50.7790    12.3340    13.9000     9.6320     2.5940 
  169.5000   166.0460    -1.7490    22.9480   -13.8130    51.3020    11.6030    13.0230     8.2790     2.5690 
  169.6250   166.1580    -1.7490    23.0030   -13.7520    51.0620    11.3430    12.8120     9.5420     2.5210 
  169.7500   166.2700    -1.7490    23.0590   -13.7000    51.3630    11.4620    13.0280    10.8290     2.4680 
  169.8750   166.3820    -1.7490    23.1150   -13.6060    51.7830    11.7710    13.3290    11.2870     2.4290 
  170.0000   166.4940    -1.7490    23.1710   -13.4320    51.7370    11.8830    13.3200    11.2540     2.4140 
  170.1250   166.6060    -1.7480    23.2270   -13.1690    52.0870    11.6270    12.9070    12.6230     2.4240 
  170.2500   166.7170    -1.7480    23.2830   -12.8500    52.0310    11.0410    12.1370    14.2270     2.4450 
  170.3750   166.8290    -1.7480    23.3390   -12.5160    51.0990    10.3560    11.4050    12.5290     2.4600 
  170.5000   166.9410    -1.7480    23.3950   -12.2130    49.6370     9.9750    10.9930     9.8830     2.4640 
  170.6250   167.0520    -1.7480    23.4510   -11.9830    49.5690    10.0450    11.1450     9.0430     2.4610 
  170.7500   167.1640    -1.7470    23.5070   -11.8500    50.8580    10.6900    12.0080     9.2530     2.4540 
  170.8750   167.2760    -1.7470    23.5640   -11.8280    51.4480    11.6380    13.2000     9.9480     2.4440 
  171.0000   167.3870    -1.7470    23.6200   -11.8870    52.6270    12.4590    14.2120    10.1880     2.4300 
  171.1250   167.4990    -1.7460    23.6760   -11.9880    53.8140    12.7120    14.4370    10.0380     2.4170 
  171.2500   167.6100    -1.7460    23.7330   -12.0850    53.3100    12.3470    13.9060    10.8690     2.4120 
  171.3750   167.7220    -1.7450    23.7890   -12.1520    50.7330    11.5310    12.8360    12.3750     2.4140 
