~V
VERS. 2.00: Ver 2.00
~W
STRT.M 34.0000:
STOP.M 260.0000:
STEP.M 0.1250:
NULL. -999.2500:
UWI. FD10858:
~C
DEPT.M :
TVD. :
DX. :
DY. :
SP.MV :
GR.API :
RI. :
RML.OHMM :
RXO.OHMM :
DEN.GM/CC :
~A
# ...
  107.0000   105.1390    -8.3350   -10.1640    -5.2780    57.5160    19.8200    22.9690    15.6420     2.0680 
  107.1250   105.2530    -8.3680   -10.2020    -5.2390    56.7260    20.2360    23.3400    17.2940     2.0620 
  107.2500   105.3680    -8.4010   -10.2410    -5.2900    53.5750    20.5300    23.5200    18.6120     2.0590 
  107.3750   105.4820    -8.4340   -10.2790    -5.4320    52.0040    20.5320    23.4730    18.0310     2.0610 
  107.5000   105.5960    -8.4680   -10.3180    -5.6520    51.8870    20.3990    23.2990    17.4740     2.0690 
  107.6250   105.7100    -8.5010   -10.3560    -5.9600    52.0990    20.1110    22.9400    18.0220     2.0820 
  107.7500   105.8240    -8.5340   -10.3950    -6.3530    53.2580    19.3730    22.0440    17.6850     2.0980 
  107.8750   105.9380    -8.5680   -10.4330    -6.8470    56.5180    18.0250    20.3950    17.2110     2.1130 
  108.0000   106.0520    -8.6010   -10.4720    -7.4380    59.6620    15.9980    17.9190    17.3740     2.1290 
  108.1250   106.1660    -8.6350   -10.5110    -8.1280    61.4720    13.6260    15.0760    15.1340     2.1480 
  108.2500   106.2800    -8.6680   -10.5500    -8.8860    64.1390    11.6260    12.7020    12.0030     2.1690 
  108.3750   106.3940    -8.7020   -10.5890    -9.6670    68.9760    10.2920    11.1570    10.1120     2.1860 
  108.5000   106.5080    -8.7360   -10.6280   -10.4010    73.1770     9.8600    10.7700     7.6690     2.1910 
  108.6250   106.6220    -8.7700   -10.6670   -11.0070    73.7410    10.1750    11.3570     5.9220     2.1760 
  108.7500   106.7360    -8.8040   -10.7060   -11.4460    71.1260    11.0410    12.5280     6.7460     2.1480 
  108.8750   106.8490    -8.8380   -10.7460   -11.6960    67.2020    12.3940    14.0890     9.1590     2.1210 
  109.0000   106.9630    -8.8720   -10.7850   -11.8040    63.9500    13.6330    15.4140    11.0080     2.1080 
  109.1250   107.0770    -8.9060   -10.8240   -11.8230    61.1100    14.3030    16.0730    11.4700     2.1100 
  109.2500   107.1900    -8.9400   -10.8630   -11.8220    58.4510    14.4090    16.1480    11.1950     2.1180 
  109.3750   107.3040    -8.9750   -10.9020   -11.8530    56.5740    14.2740    16.0400    10.7010     2.1280 
  109.5000   107.4170    -9.0090   -10.9420   -11.9380    56.1740    14.6270    16.4630    10.5400     2.1480 
  109.6250   107.5310    -9.0440   -10.9810   -12.0840    56.3420    16.4450    18.4080    11.1490     2.2010 
  109.7500   107.6440    -9.0780   -11.0200   -12.2690    56.4540    20.4830    23.3150    13.8570     2.2960 
  109.8750   107.7580    -9.1130   -11.0590   -12.4750    55.8980    27.7140    32.4230    28.8090     2.4170 
  110.0000   107.8710    -9.1480   -11.0990   -12.6770    54.4470    39.1050    46.7580    51.4230     2.5270 
  110.1250   107.9850    -9.1830   -11.1380   -12.8610    51.3200    47.8200    56.4740    58.7860     2.5940 
  110.2500   108.0980    -9.2170   -11.1770   -13.0200    47.6050    46.9830    55.4590    58.1170     2.6100 
  110.3750   108.2120    -9.2520   -11.2160   -13.1550    46.5560    38.5250    44.9540    69.5630     2.5750 
  110.5000   108.3250    -9.2870   -11.2560   -13.2730    49.7490    24.4120    28.1740    77.8290     2.5000 
  110.6250   108.4390    -9.3220   -11.2950   -13.3870    55.6100    14.6290    17.2060    56.8770     2.4080 
  110.7500   108.5520    -9.3570   -11.3340   -13.5070    62.2750     9.9770    11.5310    23.4890     2.3270 
  110.8750   108.6650    -9.3920   -11.3740   -13.6370    68.5290     7.6020     8.8030     7.9370     2.2770 
  111.0000   108.7790    -9.4270   -11.4130   -13.7640    73.0660     6.7600     7.9670     6.2550     2.2500 
  111.1250   108.8920    -9.4620   -11.4530   -13.8590    75.1550     6.8290     8.1340     6.3630     2.2330 
  111.2500   109.0050    -9.4970   -11.4920   -13.9010    74.6820     7.2020     8.5380     6.2400     2.2150 
  111.3750   109.1190    -9.5320   -11.5320   -13.8730    73.8900     7.5510     8.7810     6.0200     2.1980 
  111.5000   109.2320    -9.5670   -11.5710   -13.7890    72.9410     7.6470     8.7080     6.1430     2.1930 
  111.6250   109.3450    -9.6020   -11.6110   -13.6710    72.2840     7.4370     8.3250     6.3370     2.2090 
  111.7500   109.4580    -9.6370   -11.6500   -13.5480    72.9740     6.9430     7.7120     6.0570     2.2440 
  111.8750   109.5720    -9.6720   -11.6900   -13.4470    77.6500     6.2950     6.9980     5.3840     2.2880 
  112.0000   109.6850    -9.7080   -11.7290   -13.3850    85.5750     5.6980     6.3690     4.9030     2.3270 
  112.1250   109.7980    -9.7430   -11.7690   -13.3760    90.9020     5.3110     5.9160     5.1750     2.3510 
  112.2500   109.9110    -9.7790   -11.8080   -13.4170    90.7250     5.0770     5.6100     5.2890     2.3540 
  112.3750   110.0250    -9.8140   -11.8480   -13.4960    87.1180     4.9730     5.4300     4.6020     2.3400 
  112.5000   110.1380    -9.8490   -11.8870   -13.5850    84.7670     4.8240     5.2960     4.2400     2.3180 
  112.6250   110.2510    -9.8850   -11.9270   -13.6580    84.6210     4.6060     5.1940     4.2900     2.2980 
  112.7500   110.3640    -9.9200   -11.9660   -13.6990    85.3350     4.5000     5.2290     4.1600     2.2870 
  112.8750   110.4770    -9.9560   -12.0060   -13.6990    87.6580     4.5640     5.4000     4.0020     2.2860 
  113.0000   110.5900    -9.9920   -12.0450   -13.6670    91.4340     4.7970     5.6680     3.9870     2.2890 
  113.1250   110.7030   -10.0270   -12.0850   -13.6140    93.0470     5.1130     5.9830     4.2570     2.2870 
  113.2500   110.8160   -10.0630   -12.1240   -13.5560    91.0120     5.3680     6.2680     4.7800     2.2810 
  113.3750   110.9300   -10.0990   -12.1640   -13.5070    87.7360     5.5460     6.4470     5.1660     2.2750 
  113.5000   111.0430   -10.1340   -12.2030   -13.4740    86.1640     5.6640     6.5240     5.1930     2.2750 
  113.6250   111.1560   -10.1700   -12.2430   -13.4490    84.3220     5.8040     6.6160     5.0040     2.2820 
  113.7500   111.2690   -10.2060   -12.2830   -13.4150    80.1840     6.0180     6.8390     4.9310     2.2950 
  113.8750   111.3810   -10.2420   -12.3230   -13.3460    75.6390     6.4930     7.4430     5.1210     2.3110 
  114.0000   111.4940   -10.2770   -12.3630   -13.2280    74.3790     7.1800     8.3360     6.9130     2.3210 
  114.1250   111.6070   -10.3130   -12.4030   -13.0520    76.4890     8.0200     9.3740    17.4000     2.3160 
  114.2500   111.7200   -10.3490   -12.4430   -12.8250    77.1210     8.6290    10.0760    34.5580     2.2940 
  114.3750   111.8330   -10.3840   -12.4830   -12.5560    75.1030     8.7320    10.1670    39.7970     2.2660 
  114.5000   111.9460   -10.4200   -12.5230   -12.2720    73.8840     8.4060     9.7410    27.0630     2.2450 
  114.6250   112.0590   -10.4560   -12.5630   -12.0030    74.8850     7.7090     8.9220    12.1230     2.2350 
  114.7500   112.1710   -10.4930   -12.6030   -11.7790    76.9780     7.0290     8.1700     6.7260     2.2360 
  114.8750   112.2840   -10.5290   -12.6430   -11.6160    79.9330     6.6150     7.7170     6.3800     2.2400 
  115.0000   112.3970   -10.5650   -12.6830   -11.4970    82.9810     6.5680     7.6870     6.0860     2.2380 
  115.1250   112.5100   -10.6020   -12.7230   -11.3950    82.6980     7.0560     8.2960     5.9940     2.2250 
  115.2500   112.6220   -10.6380   -12.7630   -11.2700    79.2840     8.2220     9.7990     5.9430     2.2030 
  115.3750   112.7350   -10.6750   -12.8030   -11.0930    75.9890    10.0840    12.1680     8.0180     2.1780 
  115.5000   112.8470   -10.7110   -12.8430   -10.8560    72.5920    12.8220    15.5360    12.2290     2.1570 
  115.6250   112.9600   -10.7480   -12.8830   -10.5590    67.2990    16.6290    20.0230    14.9410     2.1390 
  115.7500   113.0730   -10.7850   -12.9240   -10.2160    62.3220    20.5160    24.4900    16.5750     2.1260 
  115.8750   113.1850   -10.8210   -12.9640    -9.8400    61.1100    24.4260    28.9000    19.3270     2.1160 
  116.0000   113.2980   -10.8580   -13.0040    -9.4430    62.4990    27.5550    32.4400    21.6070     2.1090 
