~V
VERS. 2.00: Ver 2.00
~W
STRT.M 25.0000:
STOP.M 295.0000:
STEP.M 0.1250:
NULL. -999.2500:
UWI. FD10906:
~C
DEPT.M :
TVD. :
DX. :
DY. :
SP.MV :
GR.API :
RI. :
RML.OHMM :
RXO.OHMM :
DEN.GM/CC :
~A
# ...
  152.7500   143.4960   -40.4700     3.6550   -16.7320    64.9260    17.0150    20.0790    17.6420     2.0940 
  152.8750   143.5970   -40.5440     3.6500   -16.5340    66.8840    17.0490    20.0310    17.9950     2.0980 
  153.0000   143.6970   -40.6180     3.6440   -16.3760    67.2100    17.0380    19.9430    18.3940     2.1010 
  153.1250   143.7970   -40.6920     3.6380   -16.2650    68.1650    16.9750    19.8060    19.3400     2.1020 
  153.2500   143.8980   -40.7670     3.6320   -16.1770    67.8820    16.8540    19.6080    23.2380     2.1000 
  153.3750   143.9980   -40.8410     3.6270   -16.0730    68.9360    16.6740    19.3450    32.7130     2.0950 
  153.5000   144.0990   -40.9150     3.6210   -15.9090    67.5920    16.4180    19.0000    40.9810     2.0920 
  153.6250   144.1990   -40.9900     3.6160   -15.6750    67.4520    16.0860    18.5710    37.2190     2.0920 
  153.7500   144.2990   -41.0640     3.6100   -15.3850    67.3930    15.6810    18.0570    25.5390     2.0950 
  153.8750   144.3990   -41.1390     3.6050   -15.0830    69.7450    15.2430    17.5050    18.1440     2.0990 
  154.0000   144.5000   -41.2130     3.5990   -14.8060    70.9660    14.8290    16.9860    16.3580     2.1030 
  154.1250   144.6000   -41.2880     3.5940   -14.5760    72.1040    14.5010    16.5730    15.8530     2.1060 
  154.2500   144.7000   -41.3620     3.5880   -14.4020    72.1900    14.3130    16.3290    15.3120     2.1080 
  154.3750   144.8000   -41.4370     3.5830   -14.2730    73.7690    14.2570    16.2390    14.9230     2.1070 
  154.5000   144.9000   -41.5120     3.5770   -14.1890    73.6310    14.3110    16.2680    15.0230     2.1050 
  154.6250   145.0000   -41.5860     3.5720   -14.1420    73.2150    14.4220    16.3450    15.5100     2.1040 
  154.7500   145.1000   -41.6610     3.5670   -14.1380    72.1390    14.5520    16.4200    16.1030     2.1030 
  154.8750   145.2000   -41.7360     3.5620   -14.1650    73.1750    14.6750    16.4760    16.6610     2.1030 
  155.0000   145.3000   -41.8110     3.5570   -14.2130    75.1410    14.7870    16.5300    17.0580     2.1040 
  155.1250   145.4000   -41.8860     3.5520   -14.2760    77.3040    14.8980    16.6050    17.0980     2.1070 
  155.2500   145.5000   -41.9600     3.5470   -14.3610    76.9920    15.0300    16.7220    16.8200     2.1100 
  155.3750   145.6000   -42.0350     3.5430   -14.4860    74.8950    15.1970    16.8770    16.6220     2.1110 
  155.5000   145.7000   -42.1100     3.5380   -14.6760    70.9490    15.3940    17.0560    16.6580     2.1070 
  155.6250   145.8000   -42.1850     3.5330   -14.9290    68.0550    15.5850    17.2250    16.6930     2.1020 
  155.7500   145.9000   -42.2600     3.5290   -15.2320    66.2690    15.7300    17.3590    16.6880     2.0990 
  155.8750   146.0000   -42.3350     3.5240   -15.5450    66.6200    15.8210    17.4540    16.8080     2.0980 
  156.0000   146.1000   -42.4100     3.5190   -15.8340    67.7830    15.8740    17.5270    17.0530     2.0980 
  156.1250   146.1990   -42.4860     3.5140   -16.0800    68.6550    15.9260    17.6090    17.3090     2.0990 
  156.2500   146.2990   -42.5610     3.5100   -16.2860    68.9520    16.0120    17.7220    17.4550     2.1030 
  156.3750   146.3990   -42.6360     3.5050   -16.4800    69.8830    16.1400    17.8660    17.4230     2.1080 
  156.5000   146.4990   -42.7110     3.5010   -16.6960    72.7470    16.3000    18.0270    17.3100     2.1110 
  156.6250   146.5990   -42.7860     3.4970   -16.9500    75.5130    16.4690    18.1900    17.2810     2.1100 
  156.7500   146.6980   -42.8620     3.4920   -17.2480    75.8100    16.6390    18.3590    17.4230     2.1080 
  156.8750   146.7980   -42.9370     3.4880   -17.5770    73.4270    16.8250    18.5640    17.7710     2.1080 
  157.0000   146.8980   -43.0120     3.4840   -17.9290    69.8940    17.0690    18.8570    18.4470     2.1080 
  157.1250   146.9970   -43.0880     3.4800   -18.2910    67.1270    17.4070    19.2810    19.4350     2.1070 
  157.2500   147.0970   -43.1630     3.4760   -18.6350    66.5590    17.8750    19.8720    20.3720     2.1070 
  157.3750   147.1960   -43.2380     3.4720   -18.9340    65.6670    18.4350    20.5730    22.1900     2.1120 
  157.5000   147.2960   -43.3140     3.4670   -19.1710    64.6750    18.9960    21.2710    32.5620     2.1210 
  157.6250   147.3960   -43.3890     3.4630   -19.3710    63.0880    19.4450    21.8310    52.5850     2.1270 
  157.7500   147.4950   -43.4650     3.4590   -19.5680    63.0180    19.6950    22.1530    60.7050     2.1270 
  157.8750   147.5950   -43.5400     3.4550   -19.7800    63.0670    19.7830    22.2860    46.0190     2.1210 
  158.0000   147.6940   -43.6160     3.4510   -19.9950    62.7420    19.7990    22.3430    28.5790     2.1130 
  158.1250   147.7940   -43.6910     3.4470   -20.1910    62.7310    19.8570    22.4700    22.2050     2.1080 
  158.2500   147.8930   -43.7670     3.4430   -20.3560    64.1510    20.0330    22.7500    21.6220     2.1090 
  158.3750   147.9930   -43.8430     3.4390   -20.5130    65.3300    20.3150    23.1340    22.2980     2.1110 
  158.5000   148.0920   -43.9180     3.4350   -20.6940    64.6510    20.6390    23.5060    23.4060     2.1100 
  158.6250   148.1910   -43.9940     3.4320   -20.9270    62.6480    20.9050    23.7680    23.9030     2.1060 
  158.7500   148.2910   -44.0700     3.4280   -21.2220    60.7240    21.0320    23.8890    23.3010     2.1020 
  158.8750   148.3900   -44.1450     3.4250   -21.5500    59.0730    21.0220    23.9240    22.0380     2.1000 
  159.0000   148.4900   -44.2210     3.4210   -21.8720    58.1320    20.9120    23.9200    21.1020     2.1020 
  159.1250   148.5890   -44.2970     3.4180   -22.1400    59.2070    20.7670    23.8940    20.9800     2.1070 
  159.2500   148.6880   -44.3730     3.4150   -22.3100    61.3300    20.6210    23.8280    21.1910     2.1110 
  159.3750   148.7870   -44.4490     3.4120   -22.3920    63.3180    20.4680    23.7050    21.3560     2.1110 
  159.5000   148.8870   -44.5250     3.4090   -22.4130    64.1050    20.2820    23.5120    21.6830     2.1120 
  159.6250   148.9860   -44.6010     3.4060   -22.4230    64.2280    20.0630    23.2830    22.0560     2.1170 
  159.7500   149.0850   -44.6760     3.4030   -22.4400    61.9620    19.8680    23.0960    22.1820     2.1270 
  159.8750   149.1840   -44.7520     3.3990   -22.4370    59.7890    19.7700    23.0240    22.0860     2.1390 
  160.0000   149.2840   -44.8280     3.3960   -22.3640    58.8430    19.8240    23.1160    22.6450     2.1560 
  160.1250   149.3830   -44.9040     3.3930   -22.2060    59.9970    19.9980    23.3310    29.7500     2.1770 
  160.2500   149.4820   -44.9800     3.3900   -21.9720    62.6200    20.2100    23.5860    51.8910     2.1960 
  160.3750   149.5810   -45.0570     3.3870   -21.7040    64.5610    20.3480    23.7660    74.4790     2.2040 
  160.5000   149.6800   -45.1330     3.3840   -21.4420    64.7970    20.3300    23.7650    71.4230     2.1990 
  160.6250   149.7790   -45.2090     3.3810   -21.2130    63.4310    20.1620    23.5810    49.8530     2.1870 
  160.7500   149.8780   -45.2850     3.3780   -21.0260    62.9680    19.8980    23.2800    31.6000     2.1750 
  160.8750   149.9770   -45.3610     3.3750   -20.8610    64.2740    19.6400    22.9950    22.4520     2.1640 
  161.0000   150.0760   -45.4380     3.3720   -20.6950    65.4000    19.4590    22.8220    19.3420     2.1530 
  161.1250   150.1750   -45.5140     3.3700   -20.5210    65.5840    19.3560    22.7560    18.9450     2.1440 
  161.2500   150.2740   -45.5900     3.3670   -20.3510    65.2470    19.3080    22.7620    19.5870     2.1400 
  161.3750   150.3730   -45.6670     3.3640   -20.1860    65.0690    19.2800    22.7840    20.2030     2.1380 
  161.5000   150.4720   -45.7430     3.3610   -20.0120    64.7380    19.2400    22.7840    20.2190     2.1350 
  161.6250   150.5710   -45.8200     3.3580   -19.7980    64.7220    19.1710    22.7490    19.8790     2.1290 
  161.7500   150.6700   -45.8960     3.3550   -19.5220    67.0170    19.0810    22.6950    19.6730     2.1230 
