~V
VERS. 2.00: Ver 2.00
~W
STRT.M 55.0000:
STOP.M 289.0000:
STEP.M 0.1250:
NULL. -999.2500:
UWI. FD10909:
~C
DEPT.M :
TVD. :
DX. :
DY. :
SP.MV :
GR.API :
RI. :
RML.OHMM :
RXO.OHMM :
DEN.GM/CC :
~A
# ...
  128.0000   127.4130     7.3630     0.9450    -8.3900    90.4280     4.5290     5.2870     5.0500     2.2220 
  128.1250   127.5340     7.3930     0.9520    -8.3880    92.9110     4.5050     5.2610     5.0300     2.2300 
  128.2500   127.6560     7.4230     0.9590    -8.3610    92.8710     4.4480     5.2000     5.0070     2.2330 
  128.3750   127.7770     7.4520     0.9660    -8.3080    92.1770     4.3880     5.1360     5.0110     2.2340 
  128.5000   127.8980     7.4820     0.9740    -8.2360    91.8670     4.4110     5.1610     4.9170     2.2360 
  128.6250   128.0190     7.5120     0.9810    -8.1680    93.7810     4.5760     5.3370     4.7420     2.2410 
  128.7500   128.1400     7.5420     0.9880    -8.1180    95.4030     4.8620     5.6420     5.2040     2.2530 
  128.8750   128.2620     7.5720     0.9950    -8.0880    93.5510     5.1440     5.9440     7.2790     2.2700 
  129.0000   128.3830     7.6020     1.0020    -8.0820    90.9350     5.2630     6.0710    10.2000     2.2830 
  129.1250   128.5040     7.6320     1.0100    -8.1000    90.3070     5.1380     5.9370    10.7830     2.2850 
  129.2500   128.6250     7.6620     1.0170    -8.1310    93.6340     4.7860     5.5620     8.0650     2.2790 
  129.3750   128.7460     7.6920     1.0240    -8.1360    97.0320     4.3680     5.1150     5.3130     2.2740 
  129.5000   128.8670     7.7220     1.0320    -8.0900   100.4450     4.1130     4.8430     4.4620     2.2800 
  129.6250   128.9880     7.7520     1.0390    -8.0180   102.7230     4.2520     5.0020     4.6090     2.2990 
  129.7500   129.1090     7.7820     1.0460    -8.0250   101.6840     4.9380     5.8660     5.1750     2.3350 
  129.8750   129.2300     7.8130     1.0540    -8.1710    97.2450     6.0860     7.3350     7.0360     2.3810 
  130.0000   129.3510     7.8430     1.0610    -8.5180    87.2760     7.6010     9.1060    10.7440     2.4140 
  130.1250   129.4720     7.8740     1.0680    -8.9910    76.4430     9.0730    10.7460    13.6240     2.4070 
  130.2500   129.5930     7.9040     1.0760    -9.5380    67.6350     9.9400    11.7080    13.8690     2.3510 
  130.3750   129.7140     7.9350     1.0830   -10.0910    64.1630    10.0020    11.7770    14.0580     2.2750 
  130.5000   129.8350     7.9650     1.0910   -10.5870    63.2210     9.3210    11.0210    14.7300     2.2100 
  130.6250   129.9560     7.9960     1.0980   -11.0150    63.9650     8.4010    10.0000    13.6000     2.1720 
  130.7500   130.0770     8.0270     1.1060   -11.3330    66.7110     7.7170     9.2390    11.4450     2.1580 
  130.8750   130.1980     8.0570     1.1130   -11.5920    70.0520     7.3740     8.8580    10.1900     2.1540 
  131.0000   130.3190     8.0880     1.1210   -11.7930    70.8280     7.2990     8.7750     9.7320     2.1570 
  131.1250   130.4400     8.1190     1.1290   -11.9590    69.3610     7.3890     8.8750     9.4610     2.1650 
  131.2500   130.5610     8.1500     1.1360   -12.1010    69.6660     7.5800     9.0880     9.4140     2.1740 
  131.3750   130.6820     8.1810     1.1440   -12.2210    71.7450     7.7270     9.2500     9.5150     2.1780 
  131.5000   130.8020     8.2120     1.1510   -12.3410    74.5850     7.6770     9.1950     9.5610     2.1740 
  131.6250   130.9230     8.2430     1.1590   -12.4730    75.8640     7.4180     8.9070     9.3920     2.1700 
  131.7500   131.0440     8.2740     1.1670   -12.6060    77.6250     7.0160     8.4610     8.9770     2.1740 
  131.8750   131.1650     8.3060     1.1740   -12.7470    78.1220     6.6380     8.0410     8.4320     2.1810 
  132.0000   131.2860     8.3370     1.1820   -12.9050    77.5470     6.4370     7.8170     8.0860     2.1760 
  132.1250   131.4060     8.3680     1.1890   -13.0800    75.0540     6.4580     7.8410     8.2700     2.1550 
  132.2500   131.5270     8.4000     1.1970   -13.2690    71.2280     6.6930     8.1020     8.8170     2.1280 
  132.3750   131.6480     8.4310     1.2040   -13.4320    66.5800     7.0350     8.4820     9.3000     2.1090 
  132.5000   131.7690     8.4630     1.2120   -13.5230    62.4860     7.3610     8.8430     9.7730     2.1000 
  132.6250   131.8890     8.4950     1.2200   -13.5270    60.4350     7.5830     9.0910    10.3500     2.1000 
  132.7500   132.0100     8.5260     1.2270   -13.4620    59.4390     7.6960     9.2160    10.7340     2.1050 
  132.8750   132.1310     8.5580     1.2350   -13.3540    58.9030     7.7480     9.2740    10.6930     2.1110 
  133.0000   132.2510     8.5900     1.2420   -13.2320    58.9880     7.7670     9.2950    10.4220     2.1160 
  133.1250   132.3720     8.6220     1.2500   -13.0980    60.2220     7.7650     9.2930    10.2860     2.1180 
  133.2500   132.4920     8.6540     1.2580   -12.9640    62.6090     7.7380     9.2630    10.3040     2.1220 
  133.3750   132.6130     8.6860     1.2660   -12.8410    64.5910     7.6790     9.1970    10.1980     2.1290 
  133.5000   132.7340     8.7180     1.2730   -12.7400    65.2380     7.5620     9.0670     9.8850     2.1390 
  133.6250   132.8540     8.7500     1.2810   -12.6630    65.7260     7.3970     8.8840     9.5430     2.1500 
  133.7500   132.9750     8.7820     1.2890   -12.6040    66.4500     7.2180     8.6850     9.2500     2.1610 
  133.8750   133.0950     8.8150     1.2970   -12.5480    69.0000     7.0770     8.5290     9.1130     2.1690 
  134.0000   133.2160     8.8470     1.3050   -12.4900    71.3500     7.0250     8.4710     9.3100     2.1720 
  134.1250   133.3360     8.8790     1.3120   -12.4350    72.5390     7.0710     8.5210     9.6390     2.1710 
  134.2500   133.4570     8.9120     1.3200   -12.4060    71.9650     7.1950     8.6590     9.8460     2.1700 
  134.3750   133.5770     8.9440     1.3280   -12.4170    70.9200     7.3410     8.8220     9.9550     2.1700 
  134.5000   133.6970     8.9770     1.3360   -12.4700    70.6640     7.4550     8.9490     9.9260     2.1710 
  134.6250   133.8180     9.0100     1.3440   -12.5450    70.8760     7.5110     9.0100     9.7090     2.1730 
  134.7500   133.9380     9.0420     1.3520   -12.6140    70.7240     7.5180     9.0180     9.4780     2.1720 
  134.8750   134.0580     9.0750     1.3600   -12.6610    70.7580     7.5220     9.0230     9.4140     2.1700 
  135.0000   134.1790     9.1080     1.3680   -12.6780    70.1970     7.5600     9.0650     9.4790     2.1640 
  135.1250   134.2990     9.1410     1.3760   -12.6830    69.5710     7.6340     9.1470     9.4990     2.1570 
  135.2500   134.4190     9.1740     1.3840   -12.6960    67.3360     7.7210     9.2440     9.3380     2.1520 
  135.3750   134.5400     9.2070     1.3920   -12.7360    65.7720     7.7850     9.3150     9.1100     2.1500 
  135.5000   134.6600     9.2400     1.4010   -12.8190    64.0660     7.8030     9.3350     9.1370     2.1490 
  135.6250   134.7800     9.2730     1.4090   -12.9410    63.1350     7.7830     9.3120     9.5130     2.1470 
  135.7500   134.9010     9.3060     1.4170   -13.0840    62.0830     7.7350     9.2600     9.9470     2.1440 
  135.8750   135.0210     9.3390     1.4260   -13.2170    62.3570     7.6800     9.1980    10.1400     2.1410 
  136.0000   135.1410     9.3730     1.4340   -13.3090    63.7300     7.6370     9.1510    10.1800     2.1360 
  136.1250   135.2610     9.4060     1.4420   -13.3330    65.7800     7.6180     9.1290    10.2900     2.1310 
  136.2500   135.3810     9.4390     1.4500   -13.2890    66.5720     7.6300     9.1430    10.4920     2.1270 
  136.3750   135.5010     9.4730     1.4590   -13.1960    65.4670     7.6700     9.1870    10.7260     2.1250 
  136.5000   135.6220     9.5060     1.4670   -13.0870    64.1640     7.7260     9.2490    10.8220     2.1280 
  136.6250   135.7420     9.5400     1.4750   -13.0010    64.1890     7.7790     9.3090    10.6350     2.1330 
  136.7500   135.8620     9.5740     1.4840   -12.9490    65.6020     7.8160     9.3500    10.4840     2.1380 
  136.8750   135.9820     9.6070     1.4920   -12.9280    65.8260     7.8350     9.3700    10.7690     2.1410 
  137.0000   136.1020     9.6410     1.5000   -12.9310    66.3960     7.8430     9.3790    11.2120     2.1390 
