~V
VERS. 2.00: Ver 2.00
~W
STRT.M 33.0000:
STOP.M 287.0000:
STEP.M 0.1250:
NULL. -999.2500:
UWI. FD10889:
~C
DEPT.M :
TVD. :
DX. :
DY. :
SP.MV :
GR.API :
RI. :
RML.OHMM :
RXO.OHMM :
DEN.GM/CC :
~A
# ...
  179.0000   169.7050   -33.8120   -26.3380   -18.2410    47.1070    10.1030    11.7440    11.4450     2.4460 
  179.1250   169.8020   -33.8610   -26.3990   -18.3360    48.9720    10.6480    12.4460    10.8250     2.4590 
  179.2500   169.8990   -33.9110   -26.4600   -18.3970    47.4440    11.2110    13.1610    12.3360     2.4720 
  179.3750   169.9960   -33.9610   -26.5210   -18.3700    45.8640    11.4530    13.4520    12.5450     2.4730 
  179.5000   170.0930   -34.0110   -26.5820   -18.3740    47.1850    11.2210    13.1470    12.7710     2.4560 
  179.6250   170.1900   -34.0610   -26.6430   -18.3500    49.3500    10.6120    12.3960    13.6440     2.4310 
  179.7500   170.2870   -34.1110   -26.7040   -18.3240    49.8260     9.8560    11.4990    12.2610     2.4100 
  179.8750   170.3840   -34.1610   -26.7660   -18.2110    48.1870     9.2410    10.8200    10.7690     2.4030 
  180.0000   170.4810   -34.2110   -26.8270   -18.0650    47.5420     8.8750    10.4540    10.5880     2.4120 
  180.1250   170.5770   -34.2610   -26.8890   -18.0240    47.5780     8.6850    10.2960     9.7260     2.4280 
  180.2500   170.6740   -34.3100   -26.9510   -17.8700    47.7280     8.6600    10.3100     8.9800     2.4430 
  180.3750   170.7700   -34.3600   -27.0130   -17.7430    47.4500     8.7310    10.4100     9.5840     2.4480 
  180.5000   170.8670   -34.4100   -27.0750   -17.8720    46.8130     8.8920    10.5870    10.7310     2.4440 
  180.6250   170.9630   -34.4600   -27.1370   -17.9120    46.8460     9.1540    10.8710    10.7790     2.4390 
  180.7500   171.0590   -34.5100   -27.1990   -17.9510    46.8860     9.6090    11.3920    10.3460     2.4390 
  180.8750   171.1560   -34.5600   -27.2610   -18.0650    46.7070    10.1760    12.0490    11.6540     2.4430 
  181.0000   171.2520   -34.6100   -27.3230   -18.1340    49.1310    10.7840    12.7570    11.8820     2.4510 
  181.1250   171.3480   -34.6590   -27.3860   -18.1730    52.9590    11.3100    13.3600    12.0760     2.4580 
  181.2500   171.4440   -34.7090   -27.4490   -18.2800    55.8070    11.5600    13.6370    12.0170     2.4610 
  181.3750   171.5400   -34.7590   -27.5110   -18.4550    55.5850    11.5160    13.5760    10.6270     2.4560 
  181.5000   171.6360   -34.8090   -27.5740   -18.6180    54.4020    11.2040    13.2170     9.6000     2.4430 
  181.6250   171.7320   -34.8590   -27.6370   -18.6240    55.3740    10.7160    12.6560    11.2090     2.4280 
  181.7500   171.8270   -34.9090   -27.7000   -18.6280    56.2040    10.1540    12.0030    11.5380     2.4160 
  181.8750   171.9230   -34.9590   -27.7630   -18.5870    55.7050     9.5850    11.3580    10.5000     2.4090 
  182.0000   172.0190   -35.0080   -27.8260   -18.3280    53.6880     9.1310    10.8580    10.8660     2.4110 
  182.1250   172.1140   -35.0580   -27.8900   -18.1730    50.8110     8.9160    10.6640    10.2920     2.4210 
  182.2500   172.2100   -35.1070   -27.9540   -17.9730    48.9440     9.0250    10.8610     9.3240     2.4350 
  182.3750   172.3050   -35.1560   -28.0180   -17.7800    49.4870     9.3770    11.3360     9.9840     2.4480 
  182.5000   172.4010   -35.2050   -28.0820   -17.6780    51.5020     9.8600    11.9340    10.5330     2.4550 
  182.6250   172.4960   -35.2550   -28.1460   -17.6580    53.5170    10.3950    12.5480     9.6450     2.4590 
  182.7500   172.5910   -35.3040   -28.2100   -17.6600    54.5610    10.8920    13.0740     9.4910     2.4650 
  182.8750   172.6860   -35.3530   -28.2740   -17.6480    53.6190    11.2800    13.4620    10.8900     2.4740 
  183.0000   172.7820   -35.4030   -28.3390   -17.6140    50.0460    11.6130    13.7990    12.4760     2.4790 
  183.1250   172.8770   -35.4520   -28.4030   -17.4140    48.4850    11.8660    14.0590    13.6410     2.4750 
  183.2500   172.9720   -35.5020   -28.4670   -17.0560    49.6630    12.0290    14.2230    13.1550     2.4640 
  183.3750   173.0670   -35.5510   -28.5320   -16.6370    50.0600    12.0970    14.2760    12.8070     2.4510 
  183.5000   173.1620   -35.6010   -28.5960   -16.2680    49.9000    12.0590    14.2170    12.9680     2.4400 
  183.6250   173.2560   -35.6500   -28.6610   -16.0030    52.1590    11.9260    14.0490    13.6550     2.4340 
  183.7500   173.3510   -35.7000   -28.7250   -15.9780    55.5070    11.6650    13.7260    13.2700     2.4340 
  183.8750   173.4460   -35.7500   -28.7900   -15.9320    56.4310    11.2240    13.1840    12.5620     2.4410 
  184.0000   173.5410   -35.7990   -28.8550   -16.0170    56.3130    10.7110    12.5560    11.3300     2.4510 
  184.1250   173.6360   -35.8480   -28.9200   -16.2030    55.4130    10.1750    11.9060    11.5390     2.4570 
  184.2500   173.7300   -35.8980   -28.9850   -16.3800    52.1680     9.7900    11.4480    11.2110     2.4570 
  184.3750   173.8250   -35.9470   -29.0500   -16.6140    47.2920     9.5690    11.1960    10.6210     2.4540 
  184.5000   173.9190   -35.9960   -29.1150   -16.8140    44.3550     9.5250    11.1680    11.0480     2.4560 
  184.6250   174.0140   -36.0450   -29.1810   -17.1460    44.5040     9.5900    11.2630    11.3040     2.4620 
  184.7500   174.1080   -36.0950   -29.2460   -17.4920    46.4790     9.6080    11.2750    11.2400     2.4650 
  184.8750   174.2030   -36.1440   -29.3120   -17.9290    49.1770     9.4760    11.0920    12.5970     2.4610 
  185.0000   174.2970   -36.1930   -29.3770   -18.4180    50.7660     9.1980    10.7250    11.1170     2.4520 
  185.1250   174.3910   -36.2420   -29.4430   -18.7840    51.4590     8.8990    10.3380     8.6890     2.4420 
  185.2500   174.4860   -36.2910   -29.5090   -19.0480    52.0400     8.6850    10.0640     8.8350     2.4370 
  185.3750   174.5800   -36.3400   -29.5750   -19.2620    53.9390     8.6470    10.0120    10.7510     2.4350 
  185.5000   174.6740   -36.3890   -29.6400   -19.4990    53.6020     8.8070    10.2080    11.2780     2.4370 
  185.6250   174.7680   -36.4380   -29.7070   -19.5200    50.9880     9.1270    10.5940    10.0900     2.4420 
  185.7500   174.8620   -36.4870   -29.7730   -19.3480    48.3180     9.5920    11.1430    10.3140     2.4520 
  185.8750   174.9560   -36.5360   -29.8390   -19.3740    47.9780    10.1370    11.7770    11.9740     2.4650 
  186.0000   175.0510   -36.5840   -29.9050   -19.4640    49.8460    10.6000    12.2930    11.1850     2.4780 
  186.1250   175.1450   -36.6330   -29.9720   -19.4520    50.7700    10.8260    12.5170     8.5820     2.4860 
  186.2500   175.2390   -36.6820   -30.0380   -19.6300    49.6150    10.6850    12.2910     8.2540     2.4860 
  186.3750   175.3330   -36.7300   -30.1050   -19.9100    48.0530    10.2640    11.7380    11.1310     2.4750 
  186.5000   175.4270   -36.7790   -30.1710   -20.2200    47.8620     9.7080    11.0570    13.2150     2.4580 
  186.6250   175.5200   -36.8270   -30.2380   -20.5270    48.5980     9.2680    10.5560    12.8070     2.4410 
  186.7500   175.6140   -36.8760   -30.3050   -20.7000    48.4500     9.0540    10.3480    11.2810     2.4310 
  186.8750   175.7080   -36.9250   -30.3720   -20.7840    47.7350     9.0640    10.4070     9.7300     2.4300 
  187.0000   175.8020   -36.9740   -30.4380   -20.6830    46.2160     9.2060    10.5930     9.5630     2.4360 
  187.1250   175.8960   -37.0230   -30.5050   -20.5950    44.8030     9.3300    10.7160    10.6240     2.4430 
  187.2500   175.9890   -37.0720   -30.5710   -20.5130    44.7860     9.3560    10.7020    10.1290     2.4460 
  187.3750   176.0830   -37.1210   -30.6380   -20.4180    46.4450     9.2620    10.5350     9.8930     2.4470 
  187.5000   176.1770   -37.1690   -30.7050   -20.5350    47.1890     9.1400    10.3450     9.6680     2.4460 
  187.6250   176.2700   -37.2180   -30.7720   -20.5670    46.1500     9.0680    10.2240     9.0660     2.4510 
  187.7500   176.3640   -37.2670   -30.8390   -20.6980    45.4530     9.1170    10.2520    10.4980     2.4640 
  187.8750   176.4570   -37.3160   -30.9060   -20.8150    46.3040     9.3230    10.4630    10.7680     2.4830 
  188.0000   176.5510   -37.3650   -30.9730   -20.8470    48.8660     9.6530    10.8140    10.1430     2.4990 
