~V
VERS. 2.00: Ver 2.00
~W
STRT.M 12.0000:
STOP.M 226.0000:
STEP.M 0.1250:
NULL. -999.2500:
UWI. FD10605:
~C
DEPT.M :
TVD. :
DX. :
DY. :
GR.API :
RML.OHMM :
RI. :
RXO.OHMM :
CALI.CM :
DEN.GM/CC :
SP.MV :
~A
# ...
  177.0000   166.1520    44.7930    20.9930    75.3740    29.8420    27.2110    15.5570    17.9630     2.2720   -14.0330 
  177.1250   166.2560    44.8580    21.0210    73.4170    30.7130    27.7300    15.4170    17.9320     2.2640   -13.9000 
  177.2500   166.3590    44.9220    21.0490    71.6580    31.6680    28.3450    14.5670    17.8890     2.2560   -13.8690 
  177.3750   166.4620    44.9860    21.0780    69.9330    32.5530    28.9240    13.9490    17.7850     2.2490   -13.9370 
  177.5000   166.5660    45.0500    21.1060    69.8840    33.2470    29.3610    13.8860    17.6010     2.2480   -13.9860 
  177.6250   166.6690    45.1150    21.1340    72.1060    33.6770    29.5940    14.1330    17.3860     2.2530   -14.0830 
  177.7500   166.7720    45.1790    21.1630    73.2230    33.9530    29.7230    15.2120    17.1700     2.2600   -14.2140 
  177.8750   166.8760    45.2430    21.1910    72.9040    34.2010    29.8630    16.6580    16.9840     2.2650   -14.4110 
  178.0000   166.9790    45.3070    21.2190    73.0430    34.5580    30.1320    17.6450    16.8450     2.2680   -14.5970 
  178.1250   167.0820    45.3720    21.2470    73.6290    35.1570    30.6490    17.1800    16.7480     2.2750   -14.6960 
  178.2500   167.1860    45.4360    21.2760    72.7880    35.9490    31.3800    16.4360    16.6110     2.2890   -14.7980 
  178.3750   167.2890    45.5000    21.3040    70.2660    36.7980    32.2180    15.5690    16.3880     2.3100   -14.8400 
  178.5000   167.3920    45.5640    21.3320    66.8820    37.4780    32.9550    15.4130    16.0800     2.3290   -14.9190 
  178.6250   167.4960    45.6290    21.3610    64.0180    37.6380    33.2380    16.4260    15.7750     2.3330   -14.9310 
  178.7500   167.5990    45.6930    21.3890    63.1960    37.1900    32.9260    16.7940    15.5810     2.3220   -14.9020 
  178.8750   167.7020    45.7570    21.4170    64.5910    36.1800    32.0260    15.6310    15.4990     2.3020   -14.8540 
  179.0000   167.8060    45.8210    21.4460    66.1800    34.8180    30.7280    14.0450    15.5330     2.2840   -14.7380 
  179.1250   167.9090    45.8860    21.4740    66.3550    33.4410    29.3610    13.0550    15.7340     2.2750   -14.6260 
  179.2500   168.0120    45.9500    21.5020    66.1970    32.3460    28.2300    12.7890    16.0620     2.2730   -14.4760 
  179.3750   168.1160    46.0140    21.5310    67.1990    31.6910    27.4870    12.9950    16.4700     2.2750   -14.3720 
  179.5000   168.2190    46.0780    21.5590    69.1850    31.5500    27.2070    13.4310    16.9660     2.2780   -14.3020 
  179.6250   168.3220    46.1420    21.5870    72.0700    32.0550    27.5210    14.9170    17.5910     2.2780   -14.3070 
  179.7500   168.4260    46.2070    21.6160    75.1440    33.1530    28.3780    16.4970    18.2140     2.2750   -14.2850 
  179.8750   168.5290    46.2710    21.6440    76.2200    34.8760    29.8000    16.9390    18.8030     2.2730   -14.2530 
  180.0000   168.6320    46.3350    21.6720    73.2780    37.2090    31.7730    17.2980    19.2950     2.2780   -14.2610 
  180.1250   168.7340    46.4030    21.7000    66.9780    40.0550    34.2280    18.2850    19.5400     2.3030   -14.3800 
  180.2500   168.8350    46.4710    21.7270    63.8900    42.9940    36.7730    19.9170    19.6190     2.3370   -14.5770 
  180.3750   168.9360    46.5390    21.7540    64.9820    45.6650    39.0300    20.2180    19.6320     2.3640   -14.7930 
  180.5000   169.0370    46.6070    21.7820    66.0690    47.8400    40.7320    20.3420    19.6420     2.3670   -15.0470 
  180.6250   169.1390    46.6750    21.8090    64.0400    49.4590    41.8480    20.5650    19.6800     2.3470   -15.3390 
  180.7500   169.2400    46.7430    21.8360    60.4680    50.7320    42.7210    20.3970    19.7250     2.3370   -15.7520 
  180.8750   169.3410    46.8110    21.8630    57.9490    51.6180    43.4220    20.0630    19.7750     2.3700   -16.2200 
  181.0000   169.4420    46.8790    21.8910    58.0340    51.8420    43.7760    21.0100    19.7920     2.4610   -16.7660 
  181.1250   169.5440    46.9470    21.9180    59.2790    50.8800    43.3620    24.4070    19.7400     2.5970   -17.3230 
  181.2500   169.6450    47.0150    21.9450    58.3940    48.9240    42.1790    26.8280    19.6240     2.7260   -17.8770 
  181.3750   169.7460    47.0830    21.9730    55.0110    46.5350    40.5240    26.1010    19.5010     2.8120   -18.4000 
  181.5000   169.8470    47.1520    22.0000    52.3020    44.5470    39.0940    24.9600    19.3980     2.8380   -18.7660 
  181.6250   169.9490    47.2200    22.0270    54.5210    43.6360    38.7140    23.2980    19.3330     2.8100   -19.0200 
  181.7500   170.0500    47.2880    22.0540    59.6490    43.0270    38.9280    23.1270    19.2590     2.7700   -19.1120 
  181.8750   170.1510    47.3560    22.0820    65.3870    41.2630    38.3450    24.0630    19.2290     2.7410   -19.0380 
  182.0000   170.2520    47.4240    22.1090    69.3110    37.0370    35.1670    27.2990    19.2190     2.7250   -18.7600 
  182.1250   170.3540    47.4920    22.1360    69.8660    30.0370    28.4800    27.1020    19.2020     2.6990   -18.2160 
  182.2500   170.4550    47.5600    22.1630    68.8650    22.3610    20.9200    20.6790    19.1780     2.6450   -17.5710 
  182.3750   170.5560    47.6280    22.1910    67.2110    15.7100    14.6030    13.5680    19.1670     2.5680   -16.9070 
  182.5000   170.6580    47.6960    22.2180    63.9700    10.9510    10.2780     9.5660    19.1710     2.4880   -16.4100 
  182.6250   170.7590    47.7640    22.2450    60.2160     8.2880     7.8550     8.3170    19.1870     2.4350   -16.0290 
  182.7500   170.8600    47.8320    22.2730    60.0620     6.8950     6.4980     7.9290    19.2110     2.4110   -15.8020 
  182.8750   170.9610    47.9000    22.3000    64.3830     6.3500     5.8750     7.8370    19.2230     2.4050   -15.7370 
  183.0000   171.0630    47.9680    22.3270    69.8020     6.3580     5.7720     7.8530    19.2250     2.4050   -15.8730 
  183.1250   171.1640    48.0360    22.3540    72.8440     6.7770     6.0970     8.0750    19.2290     2.4030   -16.3010 
  183.2500   171.2650    48.1040    22.3820    73.5320     7.4420     6.6990     8.4860    19.2430     2.4010   -16.8430 
  183.3750   171.3660    48.1720    22.4090    73.3300     8.2860     7.5270     8.8550    19.2570     2.4030   -17.4960 
  183.5000   171.4670    48.2400    22.4360    73.4790     9.2050     8.5020     8.9040    19.2350     2.4130   -18.0750 
  183.6250   171.5690    48.3080    22.4640    74.3900    10.0110     9.4490     9.9770    19.1700     2.4340   -18.4140 
  183.7500   171.6700    48.3760    22.4910    75.3430    10.5480    10.1460    11.0080    19.1380     2.4590   -18.5920 
  183.8750   171.7710    48.4440    22.5180    77.1300    10.7500    10.4590    11.3590    19.1400     2.4840   -18.6790 
  184.0000   171.8720    48.5120    22.5450    81.6600    10.6640    10.3950    10.7240    19.1280     2.5020   -18.6920 
  184.1250   171.9740    48.5800    22.5730    85.4940    10.4210    10.0770    10.4600    19.0800     2.5130   -18.5830 
  184.2500   172.0750    48.6480    22.6000    85.7560    10.2030     9.7260    10.5350    19.0280     2.5180   -18.4470 
  184.3750   172.1760    48.7160    22.6270    85.6530    10.0920     9.4490    10.8720    18.9940     2.5180   -18.3110 
  184.5000   172.2770    48.7840    22.6540    89.3660    10.1020     9.2850    11.0640    18.9820     2.5150   -18.2160 
  184.6250   172.3790    48.8520    22.6820    95.1530    10.2130     9.2450    11.1590    18.9760     2.5060   -18.2930 
  184.7500   172.4800    48.9200    22.7090   100.1510    10.3650     9.2770    10.8800    18.9540     2.4960   -18.4340 
  184.8750   172.5810    48.9880    22.7360   105.7980    10.5300     9.3520    10.4840    18.9460     2.4870   -18.6400 
  185.0000   172.6820    49.0560    22.7640   112.7920    10.6940     9.4510    10.4080    18.9580     2.4810   -18.8070 
  185.1250   172.7840    49.1240    22.7910   118.8270    10.8470     9.5590    10.4640    18.9740     2.4760   -18.9810 
