~V
VERS. 2.00: Ver 2.00
~W
STRT.M 64.0000:
STOP.M 246.0000:
STEP.M 0.1250:
NULL. -999.2500:
UWI. FD10853:
~C
DEPT.M :
TVD. :
DX. :
DY. :
SP.MV :
GR.API :
RI. :
RML.OHMM :
RXO.OHMM :
DEN.GM/CC :
~A
# ...
  164.3750   163.2280   -11.6020    -3.5760   -16.0990    63.5920     7.3280     7.9360     8.0440     2.4770 
  164.5000   163.3490   -11.6310    -3.5880   -16.1400    62.5090     7.6730     8.3240     8.5990     2.4880 
  164.6250   163.4700   -11.6600    -3.5990   -16.2100    63.6420     8.1170     8.8200     8.8180     2.4930 
  164.7500   163.5910   -11.6890    -3.6110   -16.1470    65.1800     8.6320     9.4060     8.9370     2.4870 
  164.8750   163.7120   -11.7180    -3.6230   -16.0520    67.0310     9.0900     9.8920     9.0330     2.4730 
  165.0000   163.8330   -11.7460    -3.6340   -16.0010    68.5780     9.2780    10.0660     9.1970     2.4560 
  165.1250   163.9540   -11.7750    -3.6460   -16.0770    69.9380     9.2330     9.9850     9.3410     2.4490 
  165.2500   164.0750   -11.8040    -3.6570   -16.1940    70.3970     9.0860     9.8080     9.3840     2.4580 
  165.3750   164.1960   -11.8330    -3.6690   -16.3060    69.2730     8.9730     9.7290     9.4130     2.4750 
  165.5000   164.3170   -11.8630    -3.6800   -16.3500    68.2360     8.9710     9.8220     9.7070     2.4880 
  165.6250   164.4380   -11.8920    -3.6920   -16.3400    69.4920     9.1140    10.1280    10.2460     2.4820 
  165.7500   164.5590   -11.9210    -3.7030   -16.3260    71.1360     9.4620    10.6690    10.7930     2.4500 
  165.8750   164.6800   -11.9500    -3.7150   -16.2930    72.3030     9.9740    11.3330    11.8680     2.4080 
  166.0000   164.8010   -11.9790    -3.7260   -16.2350    72.3960    10.6520    12.1480    12.5520     2.3820 
  166.1250   164.9220   -12.0080    -3.7380   -16.2010    73.1460    11.4570    13.0970    12.5230     2.3880 
  166.2500   165.0430   -12.0370    -3.7500   -16.2080    73.6300    12.6450    14.5570    13.7070     2.4100 
  166.3750   165.1640   -12.0660    -3.7610   -16.3320    73.9700    14.2510    16.5420    14.8720     2.4350 
  166.5000   165.2850   -12.0950    -3.7730   -16.4450    75.1500    16.0970    18.8070    17.2660     2.4460 
  166.6250   165.4060   -12.1250    -3.7850   -16.5670    75.9740    17.6090    20.6160    21.3950     2.4490 
  166.7500   165.5270   -12.1540    -3.7960   -16.6790    75.6450    18.1030    21.1000    23.1580     2.4490 
  166.8750   165.6480   -12.1830    -3.8080   -16.7940    75.0110    17.4140    20.0650    22.8790     2.4480 
  167.0000   165.7690   -12.2120    -3.8200   -16.9740    75.1800    15.9130    18.0060    22.1800     2.4450 
  167.1250   165.8900   -12.2410    -3.8310   -17.1400    77.6900    14.2500    15.7980    20.1460     2.4460 
  167.2500   166.0110   -12.2710    -3.8430   -17.2860    80.9620    12.9330    14.1230    17.0770     2.4750 
  167.3750   166.1320   -12.3000    -3.8540   -17.3620    84.4730    12.3020    13.4150    15.1970     2.5190 
  167.5000   166.2530   -12.3290    -3.8660   -17.3980    86.1590    12.5040    13.8120    15.0950     2.5440 
  167.6250   166.3740   -12.3580    -3.8780   -17.3780    85.6820    12.5940    14.0290    14.8420     2.5200 
  167.7500   166.4950   -12.3870    -3.8890   -17.3910    83.6130    11.8860    13.2860    14.5170     2.4680 
  167.8750   166.6160   -12.4160    -3.9000   -17.3640    82.7210    10.2240    11.3660    16.2240     2.4240 
  168.0000   166.7370   -12.4460    -3.9120   -17.3470    81.7460     7.7410     8.4520    18.2250     2.4040 
  168.1250   166.8580   -12.4750    -3.9230   -17.3340    79.8560     5.5950     6.0170    15.0200     2.3940 
  168.2500   166.9790   -12.5040    -3.9350   -17.3100    74.9440     4.2420     4.5180     7.9620     2.3860 
  168.3750   167.1000   -12.5340    -3.9460   -17.2180    71.8150     3.5120     3.7810     4.0510     2.3870 
  168.5000   167.2210   -12.5630    -3.9580   -17.0350    72.6060     3.3320     3.6840     3.6230     2.4030 
  168.6250   167.3420   -12.5920    -3.9700   -16.7250    77.3440     3.3410     3.7570     3.7720     2.4150 
  168.7500   167.4630   -12.6210    -3.9820   -16.3540    82.1590     3.4080     3.8300     3.8860     2.4050 
  168.8750   167.5840   -12.6510    -3.9930   -16.1060    85.8120     3.4750     3.8460     3.7760     2.3760 
  169.0000   167.7050   -12.6800    -4.0050   -15.9130    88.2520     3.6030     3.9230     3.6780     2.3570 
  169.1250   167.8260   -12.7100    -4.0170   -15.8140    91.0200     3.9190     4.2390     4.0500     2.3670 
  169.2500   167.9460   -12.7390    -4.0290   -15.7840    91.7970     4.5470     4.9450     4.9250     2.3940 
  169.3750   168.0670   -12.7690    -4.0400   -15.8770    89.6590     5.4360     5.9590     5.9760     2.4210 
  169.5000   168.1880   -12.7980    -4.0520   -16.0280    85.3380     6.2120     6.8280     7.5940     2.4310 
  169.6250   168.3090   -12.8280    -4.0640   -16.2670    82.1070     6.5950     7.2360     9.2250     2.4170 
  169.7500   168.4300   -12.8580    -4.0750   -16.5470    81.2070     6.3560     6.9280     9.3850     2.3840 
  169.8750   168.5510   -12.8870    -4.0870   -16.7790    81.2730     5.6910     6.1730     7.9420     2.3490 
  170.0000   168.6720   -12.9170    -4.0980   -16.9670    81.1890     5.0380     5.4860     5.9710     2.3360 
  170.1250   168.7930   -12.9470    -4.1100   -17.1660    81.5510     4.6170     5.0950     4.9570     2.3440 
  170.2500   168.9130   -12.9760    -4.1220   -17.3740    82.5800     4.5650     5.1290     5.1190     2.3660 
  170.3750   169.0340   -13.0060    -4.1340   -17.5590    86.3400     4.8390     5.5230     5.6660     2.3870 
  170.5000   169.1550   -13.0350    -4.1460   -17.6900    88.6670     5.3710     6.1710     6.1880     2.3910 
  170.6250   169.2760   -13.0650    -4.1580   -17.7680    88.7900     6.1060     7.0250     6.4130     2.3780 
  170.7500   169.3970   -13.0940    -4.1700   -17.7070    85.5580     7.2770     8.3990     6.7550     2.3530 
  170.8750   169.5180   -13.1230    -4.1830   -17.5790    83.5510     8.7090    10.0560     8.2220     2.3360 
  171.0000   169.6390   -13.1530    -4.1950   -17.5230    82.3390     9.8580    11.2250    11.6380     2.3370 
  171.1250   169.7600   -13.1820    -4.2070   -17.5130    80.7220    10.2930    11.5230    13.4380     2.3530 
  171.2500   169.8810   -13.2110    -4.2190   -17.5680    80.0100     9.7790    10.6880     9.8660     2.3670 
  171.3750   170.0010   -13.2400    -4.2310   -17.5760    81.6640     8.6620     9.2530     8.5180     2.3730 
  171.5000   170.1220   -13.2700    -4.2430   -17.5440    85.5620     7.4980     7.9510     7.2610     2.3750 
  171.6250   170.2430   -13.2990    -4.2550   -17.4540    86.7390     6.4980     6.9110     6.5990     2.3750 
  171.7500   170.3640   -13.3280    -4.2670   -17.3200    87.5270     5.6910     6.1460     6.0180     2.3690 
  171.8750   170.4850   -13.3580    -4.2790   -17.1860    88.1140     5.1570     5.6820     5.7650     2.3600 
  172.0000   170.6060   -13.3870    -4.2910   -17.1980    91.8440     4.8210     5.3810     5.6270     2.3550 
  172.1250   170.7270   -13.4160    -4.3040   -17.3810    95.4920     4.5490     5.0780     5.5180     2.3530 
  172.2500   170.8480   -13.4460    -4.3160   -17.6660    97.8690     4.3640     4.8250     5.4200     2.3620 
  172.3750   170.9690   -13.4750    -4.3280   -17.9880    96.8370     4.4270     4.8420     5.3070     2.3690 
  172.5000   171.0900   -13.5040    -4.3400   -18.3580    91.9250     4.8720     5.2950     5.5240     2.3890 
  172.6250   171.2110   -13.5340    -4.3520   -18.7000    86.1180     5.8540     6.3950     6.1140     2.3980 
  172.7500   171.3320   -13.5630    -4.3640   -18.9950    82.0990     7.8820     8.7000     8.2420     2.3770 
  172.8750   171.4520   -13.5920    -4.3760   -19.1750    79.9820    10.7070    11.8330     9.2540     2.3100 
  173.0000   171.5730   -13.6210    -4.3880   -19.1780    77.9910    13.5560    14.7870    11.5460     2.2360 
  173.1250   171.6940   -13.6510    -4.4000   -19.0220    75.2840    15.1570    16.1170    14.3220     2.2030 
  173.2500   171.8150   -13.6800    -4.4120   -18.7920    72.7220    14.4040    14.8760    15.7700     2.2300 
  173.3750   171.9360   -13.7090    -4.4240   -18.4490    72.0510    12.2950    12.3130    14.9790     2.3030 
