~V
VERS. 2.00: Ver 2.00
~W
STRT.M 30.0000:
STOP.M 223.0000:
STEP.M 0.1250:
NULL. -999.2500:
UWI. FD10814:
~C
DEPT.M :
TVD. :
DX. :
DY. :
SP.MV :
GR.API :
RI. :
RML.OHMM :
RXO.OHMM :
DEN.GM/CC :
~A
# ...
  166.8750   158.3990    -1.2920    38.9750    -2.3350    67.6250   116.0860   137.9310    20.0380     2.1350 
  167.0000   158.5080    -1.2940    39.0360    -1.2360    67.7080   110.8290   131.8080    19.0450     2.1610 
  167.1250   158.6170    -1.2960    39.0980    -0.2410    66.0170   117.1100   140.0390    19.7830     2.1840 
  167.2500   158.7260    -1.2980    39.1590     0.4320    63.8810   132.2980   159.3800    22.2330     2.1940 
  167.3750   158.8350    -1.3000    39.2200     1.0250    61.8000   158.4470   187.3010    44.6940     2.1880 
  167.5000   158.9430    -1.3020    39.2810     1.8460    60.9270   185.2430   217.4060   130.1740     2.1740 
  167.6250   159.0520    -1.3040    39.3430     2.9580    61.3900   207.6470   244.8690   181.3220     2.1600 
  167.7500   159.1610    -1.3060    39.4040     4.0670    63.6030   224.9770   269.4130   104.1870     2.1490 
  167.8750   159.2700    -1.3080    39.4650     5.1670    64.2690   241.2520   292.4780    36.0150     2.1420 
  168.0000   159.3790    -1.3100    39.5270     6.2000    62.6990   256.9860   312.2170    30.3670     2.1410 
  168.1250   159.4880    -1.3120    39.5880     7.0460    58.9410   263.5700   320.0130    34.4100     2.1450 
  168.2500   159.5970    -1.3140    39.6490     7.8070    56.0400   251.3570   309.5120    40.8410     2.1480 
  168.3750   159.7060    -1.3160    39.7100     8.5380    55.7750   221.8230   280.3330    45.6000     2.1560 
  168.5000   159.8150    -1.3190    39.7720     9.3090    57.9820   186.7870   242.4660    46.7230     2.1850 
  168.6250   159.9240    -1.3210    39.8330     9.7310    60.7100   155.4180   205.7870    37.0680     2.2550 
  168.7500   160.0330    -1.3230    39.8940     9.6410    63.1400   131.9890   176.6110    24.7090     2.3330 
  168.8750   160.1420    -1.3250    39.9560     9.2960    64.3440   117.8710   156.9550    19.9730     2.3770 
  169.0000   160.2510    -1.3270    40.0170     8.5560    64.8310   109.2600   143.4700    23.0280     2.3780 
  169.1250   160.3590    -1.3300    40.0780     7.4120    63.1920   101.6880   132.4620    28.1890     2.3910 
  169.2500   160.4680    -1.3320    40.1400     6.0170    62.1100    93.6550   120.5610    33.6570     2.4510 
  169.3750   160.5770    -1.3340    40.2010     4.5430    61.3980    82.5140   105.6190    35.7990     2.5350 
  169.5000   160.6860    -1.3360    40.2620     3.0700    62.7560    68.4280    87.8130    31.2140     2.5990 
  169.6250   160.7950    -1.3380    40.3240     1.5590    64.8580    53.4250    68.8280    28.1860     2.6190 
  169.7500   160.9040    -1.3410    40.3850     0.0790    67.9910    38.6900    51.5290    27.2280     2.6110 
  169.8750   161.0130    -1.3430    40.4460    -1.3300    70.2350    28.6630    38.9150    23.8170     2.5860 
  170.0000   161.1220    -1.3450    40.5080    -2.6100    70.0040    22.9560    31.2410    18.7840     2.5720 
  170.1250   161.2300    -1.3470    40.5690    -3.7120    67.4720    20.5660    27.1470    13.8130     2.5780 
  170.2500   161.3390    -1.3490    40.6300    -4.8340    65.0220    18.6130    24.3520    13.5590     2.5940 
  170.3750   161.4480    -1.3520    40.6920    -5.9510    64.0230    16.6970    21.7970    23.5390     2.5930 
  170.5000   161.5570    -1.3540    40.7530    -7.0790    64.0060    14.8450    19.2060    29.5040     2.5630 
  170.6250   161.6660    -1.3560    40.8150    -8.1150    64.9730    13.0550    16.7620    19.0720     2.5190 
  170.7500   161.7750    -1.3580    40.8760    -9.4690    67.0830    11.6900    14.8060    10.1250     2.4890 
  170.8750   161.8830    -1.3600    40.9380   -10.9650    69.2920    11.0060    13.6700     9.6990     2.4840 
  171.0000   161.9920    -1.3620    40.9990   -12.3960    70.2980    11.0150    13.2730     9.7880     2.4820 
  171.1250   162.1010    -1.3650    41.0610   -13.7500    69.8150    11.4310    13.3670     9.8550     2.4750 
  171.2500   162.2100    -1.3670    41.1220   -15.0170    70.1820    11.8680    13.5930     9.5940     2.4630 
  171.3750   162.3190    -1.3690    41.1840   -16.1410    71.5960    12.1040    13.7430     8.9240     2.4640 
  171.5000   162.4270    -1.3710    41.2450   -17.0140    72.3200    12.0430    13.6670     8.4800     2.4680 
  171.6250   162.5360    -1.3740    41.3070   -17.6580    71.5350    11.7000    13.3550     8.1310     2.4670 
  171.7500   162.6450    -1.3760    41.3680   -18.0720    69.6180    11.2420    12.9610     8.0830     2.4500 
  171.8750   162.7540    -1.3780    41.4300   -18.3700    68.7600    10.8400    12.6390     8.7490     2.4320 
  172.0000   162.8630    -1.3800    41.4910   -18.6110    69.3190    10.6130    12.5050     8.7560     2.4160 
  172.1250   162.9720    -1.3830    41.5530   -18.8710    69.5880    10.6250    12.6900     7.9990     2.4050 
  172.2500   163.0800    -1.3850    41.6140   -19.1100    70.0990    10.9880    13.3330     8.3820     2.3990 
  172.3750   163.1890    -1.3870    41.6760   -19.2490    70.4500    11.8520    14.7270     8.6420     2.3980 
  172.5000   163.2980    -1.3900    41.7370   -19.2010    72.1980    13.4760    17.0760     8.6170     2.4050 
  172.6250   163.4070    -1.3920    41.7980   -19.0720    73.1390    15.8700    20.4570    10.4130     2.4060 
  172.7500   163.5160    -1.3950    41.8600   -18.9370    73.4750    18.9020    24.5050    14.4250     2.4030 
  172.8750   163.6250    -1.3970    41.9210   -18.7570    74.3480    21.8910    28.3190    20.1820     2.3870 
  173.0000   163.7330    -1.4000    41.9830   -18.5870    75.9210    23.9410    30.9140    23.7810     2.3720 
  173.1250   163.8420    -1.4020    42.0440   -18.5090    76.7730    24.6620    31.7610    23.5070     2.3590 
  173.2500   163.9510    -1.4050    42.1050   -18.5160    75.0540    24.2270    31.2430    23.5680     2.3550 
  173.3750   164.0600    -1.4070    42.1670   -18.5080    72.6400    23.1680    30.1240    24.4240     2.3480 
  173.5000   164.1690    -1.4100    42.2280   -18.5570    69.9210    22.3920    29.5160    23.9470     2.3460 
  173.6250   164.2780    -1.4120    42.2890   -18.6620    69.1260    22.8030    30.5870    26.1770     2.3510 
  173.7500   164.3870    -1.4150    42.3510   -18.7810    68.4330    25.1930    34.4940    30.0630     2.3480 
  173.8750   164.4960    -1.4170    42.4120   -18.8230    68.3420    30.6550    42.4440    34.2930     2.3190 
  174.0000   164.6040    -1.4200    42.4730   -18.7430    67.3230    38.9920    54.2400    51.1070     2.2620 
  174.1250   164.7130    -1.4220    42.5350   -18.5400    66.6440    50.5860    69.7700   100.8710     2.2060 
  174.2500   164.8220    -1.4250    42.5960   -18.3770    66.2440    63.8970    86.4860   192.7320     2.1670 
  174.3750   164.9310    -1.4270    42.6570   -18.1430    66.9260    75.9790   100.7740   215.1240     2.1520 
  174.5000   165.0400    -1.4300    42.7190   -17.7570    67.1870    84.3770   110.1410   117.6800     2.1530 
  174.6250   165.1490    -1.4320    42.7800   -17.2280    67.1270    87.7150   113.3900    61.0730     2.1640 
  174.7500   165.2580    -1.4350    42.8410   -16.7770    66.0230    87.4600   112.5210    95.9660     2.1880 
  174.8750   165.3670    -1.4370    42.9030   -16.3650    65.7220    85.6420   109.8430   137.1920     2.2140 
  175.0000   165.4760    -1.4400    42.9640   -15.9560    65.5390    83.4680   106.8920   138.5770     2.2280 
  175.1250   165.5840    -1.4430    43.0250   -15.6540    66.3720    81.5200   104.7030   100.1860     2.2230 
  175.2500   165.6930    -1.4450    43.0870   -15.3320    66.4450    81.6350   104.9610    53.0260     2.2120 
  175.3750   165.8020    -1.4480    43.1480   -15.0640    66.2670    85.0050   109.1880    30.5000     2.2180 
  175.5000   165.9110    -1.4500    43.2100   -14.7320    63.5690    91.9650   118.1930    85.1240     2.2610 
  175.6250   166.0200    -1.4530    43.2710   -14.2420    60.8790   104.5940   133.6220   180.5560     2.3560 
  175.7500   166.1290    -1.4550    43.3330   -13.5660    58.6200   122.1080   155.4600   205.2890     2.4800 
  175.8750   166.2370    -1.4580    43.3940   -12.8530    58.9170   145.6840   184.8740   248.8310     2.5840 
