~V
VERS. 2.00: Ver 2.00
~W
STRT.M 20.0000:
STOP.M 242.0000:
STEP.M 0.1250:
NULL. -999.2500:
UWI. FD10624:
~C
DEPT.M :
TVD. :
DX. :
DY. :
GR.API :
RML.OHMM :
RI. :
RXO.OHMM :
CALI.CM :
DEN.GM/CC :
SP.MV :
~A
# ...
  102.5000   101.7820     4.9020     5.4410    79.5500     8.4820     6.6310    10.9650    21.8890     2.4840    -9.5790 
  102.6250   101.9020     4.9260     5.4620    68.6920     9.9070     7.7760    12.7950    22.1630     2.4740    -9.8780 
  102.7500   102.0230     4.9510     5.4830    59.2600    10.9460     8.6800    11.7620    22.6020     2.3970   -10.1720 
  102.8750   102.1440     4.9760     5.5040    53.1750    11.4030     9.1610    10.8420    22.9880     2.2790   -10.4780 
  103.0000   102.2640     5.0000     5.5250    51.6720    11.3460     9.2380    10.7830    23.1610     2.1630   -10.9340 
  103.1250   102.3850     5.0250     5.5470    53.4560    11.0290     9.0860    10.9330    23.1800     2.0960   -11.4120 
  103.2500   102.5050     5.0490     5.5680    55.5280    10.7560     8.9400    10.8990    23.1800     2.0740   -11.8830 
  103.3750   102.6260     5.0740     5.5890    56.4810    10.6220     8.8720    10.8540    23.1800     2.0790   -12.3640 
  103.5000   102.7470     5.0980     5.6100    54.8620    10.6130     8.8730    10.8250    23.1550     2.0890   -12.6920 
  103.6250   102.8670     5.1230     5.6310    51.7470    10.6690     8.9120    10.7250    23.0660     2.0910   -12.8930 
  103.7500   102.9880     5.1470     5.6530    49.4400    10.7320     8.9620    10.5740    22.9260     2.0870   -13.0620 
  103.8750   103.1080     5.1720     5.6740    49.1320    10.7980     9.0260    10.5490    22.8290     2.0800   -13.0760 
  104.0000   103.2290     5.1960     5.6950    51.3220    10.8840     9.1160    10.5550    22.7940     2.0760   -12.8900 
  104.1250   103.3500     5.2210     5.7160    54.1940    10.9750     9.2300    10.5450    22.7990     2.0760   -12.5360 
  104.2500   103.4700     5.2460     5.7370    54.2600    10.9800     9.3080    10.7170    22.8220     2.0800   -11.9370 
  104.3750   103.5910     5.2700     5.7590    52.2910    10.7810     9.2490    10.7520    22.8310     2.0800   -11.0810 
  104.5000   103.7120     5.2950     5.7800    53.0920    10.3170     8.9570    10.5460    22.7900     2.0760   -10.2680 
  104.6250   103.8320     5.3190     5.8010    58.5210     9.6440     8.3940     9.9800    22.6470     2.0740   -10.0720 
  104.7500   103.9530     5.3440     5.8220    64.0980     9.0000     7.7350     9.0650    22.4110     2.0880   -10.4870 
  104.8750   104.0730     5.3680     5.8430    70.8320     8.5550     7.1480     7.7490    22.0870     2.1250   -10.9470 
  105.0000   104.1940     5.3930     5.8640    79.0660     8.3910     6.7720     7.0050    21.8960     2.1760   -11.2200 
  105.1250   104.3150     5.4170     5.8860    82.6520     8.5400     6.7320     7.3320    21.9460     2.2150   -11.7580 
  105.2500   104.4350     5.4420     5.9070    78.6990     8.8830     6.9740     8.2780    22.1730     2.2260   -12.6370 
  105.3750   104.5560     5.4660     5.9280    71.1670     9.3400     7.4310     9.0060    22.4160     2.2070   -13.6200 
  105.5000   104.6760     5.4910     5.9490    64.9790     9.8090     7.9850     9.3150    22.5580     2.1720   -14.3100 
  105.6250   104.7970     5.5160     5.9700    61.2270    10.1380     8.4390     9.3740    22.5920     2.1390   -14.1990 
  105.7500   104.9180     5.5400     5.9920    59.6490    10.2510     8.6620     9.3420    22.5920     2.1140   -13.4980 
  105.8750   105.0380     5.5650     6.0130    60.7610    10.1480     8.6480     9.3610    22.5540     2.0920   -12.9170 
  106.0000   105.1590     5.5890     6.0340    64.1890     9.8930     8.4680     9.2940    22.4460     2.0730   -12.6630 
  106.1250   105.2790     5.6140     6.0550    69.2750     9.5410     8.1810     8.6110    22.2060     2.0700   -12.2190 
  106.2500   105.4000     5.6380     6.0760    73.6990     9.1170     7.8220     7.9760    21.9730     2.0980   -11.6120 
  106.3750   105.5210     5.6630     6.0980    74.9700     8.6030     7.3790     8.1780    21.7580     2.1640   -11.1240 
  106.5000   105.6410     5.6870     6.1190    74.2770     8.0140     6.8550     9.2280    21.6450     2.2530   -10.9050 
  106.6250   105.7620     5.7120     6.1400    77.8550     7.4480     6.3090     7.7500    21.6010     2.3290   -10.8370 
  106.7500   105.8830     5.7360     6.1610    87.3050     7.0200     5.8500     6.4700    21.5530     2.3700   -10.7690 
  106.8750   106.0030     5.7610     6.1820    95.9190     6.7890     5.5520     5.6080    21.5120     2.3770   -10.5970 
  107.0000   106.1240     5.7860     6.2030    98.0180     6.7540     5.4530     5.8660    21.4900     2.3680   -10.3330 
  107.1250   106.2440     5.8100     6.2250    96.6640     6.8790     5.5610     7.0870    21.4810     2.3720   -10.1270 
  107.2500   106.3650     5.8350     6.2460    97.4170     7.0640     5.7680     8.0320    21.4810     2.3990   -10.0300 
  107.3750   106.4860     5.8590     6.2670    98.0050     7.2450     5.9750     7.7690    21.5050     2.4380    -9.9540 
  107.5000   106.6060     5.8840     6.2880    95.8440     7.3760     6.1130     7.4110    21.5430     2.4690    -9.9160 
  107.6250   106.7270     5.9080     6.3090    94.1320     7.4200     6.1610     7.4530    21.5580     2.4650   -10.0110 
  107.7500   106.8470     5.9330     6.3310    94.3950     7.4030     6.1810     6.9880    21.5530     2.4270   -10.0950 
  107.8750   106.9680     5.9570     6.3520    93.0040     7.3530     6.2160     6.6040    21.5140     2.3690   -10.1630 
  108.0000   107.0890     5.9820     6.3730    88.7630     7.2900     6.2700     6.8210    21.4280     2.3180   -10.3260 
  108.1250   107.2090     6.0060     6.3940    87.0980     7.2090     6.2930     7.3360    21.3580     2.3040   -10.4560 
  108.2500   107.3300     6.0310     6.4150    91.3250     7.0980     6.2440     7.2910    21.3260     2.3260   -10.4800 
  108.3750   107.4500     6.0560     6.4360    97.1380     6.9510     6.1160     6.9410    21.3520     2.3670   -10.5530 
  108.5000   107.5710     6.0800     6.4580    99.6530     6.7800     5.9240     6.4680    21.4200     2.4020   -10.6920 
  108.6250   107.6920     6.1050     6.4790    98.9280     6.6170     5.7060     5.8020    21.4550     2.4100   -10.9270 
  108.7500   107.8120     6.1290     6.5000    98.6430     6.4860     5.5110     5.6870    21.4200     2.3940   -11.2670 
  108.8750   107.9330     6.1540     6.5210    98.3200     6.3800     5.3570     5.6640    21.3370     2.3660   -11.6130 
  109.0000   108.0540     6.1780     6.5420    96.1660     6.2730     5.2430     5.5600    21.2300     2.3410   -12.6190 
  109.1250   108.1740     6.2030     6.5640    94.8130     6.1340     5.1650     5.5130    21.1900     2.3310   -14.0340 
  109.2500   108.2950     6.2270     6.5850    97.7680     5.9710     5.0980     5.6230    21.1980     2.3330   -14.9300 
  109.3750   108.4150     6.2520     6.6060   102.8530     5.8110     5.0280     5.6450    21.2530     2.3440   -15.2150 
  109.5000   108.5360     6.2760     6.6270   105.1940     5.6770     4.9460     5.6190    21.3140     2.3590   -15.1690 
  109.6250   108.6570     6.3010     6.6480   103.8300     5.5910     4.8570     5.4110    21.3880     2.3690   -15.0250 
  109.7500   108.7770     6.3260     6.6700   103.0290     5.5610     4.7910     5.1550    21.4490     2.3710   -14.7240 
  109.8750   108.8980     6.3500     6.6910   103.6250     5.6060     4.7970     5.1930    21.4640     2.3620   -14.3160 
  110.0000   109.0180     6.3750     6.7120   103.7090     5.7360     4.9190     5.5280    21.4270     2.3440   -13.8070 
  110.1250   109.1390     6.3990     6.7330   102.9360     5.9610     5.1960     5.9700    21.3870     2.3250   -13.1930 
  110.2500   109.2600     6.4240     6.7540   101.6640     6.2460     5.5710     6.5870    21.3720     2.3130   -12.5000 
  110.3750   109.3800     6.4480     6.7750    98.2490     6.5430     5.9630     7.5100    21.3710     2.3110   -11.6980 
  110.5000   109.5010     6.4730     6.7970    94.4090     6.7810     6.2700     8.0460    21.3760     2.3130   -10.8040 
  110.6250   109.6210     6.4970     6.8180    93.9180     6.9070     6.4300     7.4980    21.3650     2.3090   -10.0170 
