~V
VERS. 2.00: Ver 2.00
~W
STRT.M 32.0000:
STOP.M 275.0000:
STEP.M 0.1250:
NULL. -999.2500:
UWI. FD10902:
~C
DEPT.M :
TVD. :
DX. :
DY. :
SP.MV :
GR.API :
RI. :
RML.OHMM :
RXO.OHMM :
DEN.GM/CC :
~A
# ...
  251.0000   235.4850    69.9600   -21.3640    -7.0600    39.8310     2.2350     2.8990     2.6860     2.3400 
  251.1250   235.5960    70.0150   -21.3820    -7.6670    40.4280     2.4710     3.1790     2.8050     2.3980 
  251.2500   235.7060    70.0710   -21.4010    -8.2150    40.4340     2.8090     3.5960     2.8990     2.4310 
  251.3750   235.8160    70.1270   -21.4190    -8.7590    39.2600     3.2060     4.0930     3.3470     2.4320 
  251.5000   235.9270    70.1820   -21.4380    -9.4720    37.0880     3.5830     4.5610     4.1650     2.4200 
  251.6250   236.0370    70.2380   -21.4560   -10.2960    36.0150     3.7870     4.7900     4.7460     2.4030 
  251.7500   236.1480    70.2940   -21.4750   -11.0400    35.5580     3.6880     4.6310     4.6160     2.3810 
  251.8750   236.2580    70.3490   -21.4930   -11.5740    34.8850     3.3320     4.1470     3.7790     2.3390 
  252.0000   236.3680    70.4050   -21.5120   -11.7000    33.5990     2.8390     3.4980     2.8120     2.2820 
  252.1250   236.4790    70.4610   -21.5300   -11.2620    32.3190     2.4060     2.9390     2.3890     2.2300 
  252.2500   236.5890    70.5160   -21.5490   -10.5270    32.2730     2.1620     2.6310     2.3250     2.2150 
  252.3750   236.6990    70.5720   -21.5680    -9.6650    32.7490     2.0620     2.5170     2.2290     2.2320 
  252.5000   236.8100    70.6280   -21.5870    -8.5860    35.0520     2.0710     2.5320     2.1400     2.2570 
  252.6250   236.9200    70.6840   -21.6060    -7.4510    37.7940     2.1150     2.5750     2.1180     2.2530 
  252.7500   237.0300    70.7390   -21.6240    -6.5340    39.7500     2.1600     2.6080     2.2080     2.2330 
  252.8750   237.1400    70.7950   -21.6440    -6.0040    40.1750     2.1860     2.6040     2.4370     2.2000 
  253.0000   237.2510    70.8510   -21.6630    -5.8380    39.0310     2.1850     2.5740     2.6220     2.1880 
  253.1250   237.3610    70.9070   -21.6820    -5.5490    38.8760     2.1730     2.5380     2.6140     2.1740 
  253.2500   237.4710    70.9630   -21.7010    -5.0880    38.2880     2.1660     2.5130     2.5480     2.1760 
  253.3750   237.5810    71.0190   -21.7200    -4.6240    38.6290     2.1810     2.5230     2.5590     2.1900 
  253.5000   237.6910    71.0750   -21.7390    -4.0560    39.1620     2.2250     2.5610     2.6070     2.2350 
  253.6250   237.8010    71.1310   -21.7570    -3.4980    41.7520     2.2900     2.6290     2.6490     2.2790 
  253.7500   237.9110    71.1870   -21.7760    -2.9930    45.4260     2.3790     2.7330     2.7150     2.3020 
  253.8750   238.0210    71.2440   -21.7950    -2.6240    49.0040     2.4790     2.8510     2.8010     2.2950 
  254.0000   238.1310    71.3000   -21.8130    -2.3080    52.6990     2.5730     2.9570     2.9030     2.2800 
  254.1250   238.2410    71.3570   -21.8320    -1.9590    56.0650     2.6720     3.0700     3.1080     2.2730 
  254.2500   238.3510    71.4140   -21.8510    -1.5660    59.0230     2.7900     3.2070     3.3400     2.2860 
  254.3750   238.4610    71.4700   -21.8690    -1.2780    60.7440     2.9120     3.3410     3.3690     2.3010 
  254.5000   238.5710    71.5270   -21.8880    -1.0100    60.4620     3.0040     3.4490     3.2990     2.3050 
  254.6250   238.6810    71.5830   -21.9060    -0.7350    58.4950     3.0260     3.4670     3.7750     2.2900 
  254.7500   238.7900    71.6400   -21.9250    -0.6130    55.4520     2.9470     3.3780     5.1800     2.2840 
  254.8750   238.9000    71.6970   -21.9430    -0.5280    52.1020     2.8190     3.2120     5.8070     2.2850 
  255.0000   239.0100    71.7530   -21.9620    -0.5230    47.7120     2.6800     3.0480     4.4760     2.2930 
  255.1250   239.1200    71.8100   -21.9810    -0.4670    41.9970     2.5630     2.9230     3.1760     2.2870 
  255.2500   239.2300    71.8670   -21.9990    -0.3230    35.9890     2.4860     2.8500     2.9240     2.2830 
  255.3750   239.3400    71.9240   -22.0180    -0.1450    32.4350     2.4500     2.8340     2.9540     2.2890 
  255.5000   239.4490    71.9800   -22.0360     0.0160    32.2190     2.4540     2.8300     2.9650     2.3040 
  255.6250   239.5590    72.0370   -22.0550     0.0520    33.6850     2.4840     2.8460     2.9740     2.3120 
  255.7500   239.6690    72.0940   -22.0730    -0.0330    35.2560     2.5150     2.8720     2.9920     2.3110 
  255.8750   239.7790    72.1510   -22.0920    -0.1680    35.5630     2.5250     2.8810     2.9490     2.3080 
  256.0000   239.8890    72.2080   -22.1100    -0.4180    35.1810     2.5170     2.8680     2.8940     2.3080 
  256.1250   239.9980    72.2650   -22.1280    -0.5380    34.4620     2.4950     2.8440     2.8760     2.3010 
  256.2500   240.1080    72.3210   -22.1470    -0.5700    34.6420     2.4650     2.8080     2.8270     2.2870 
  256.3750   240.2180    72.3780   -22.1650    -0.5990    35.1690     2.4360     2.7700     2.7930     2.2740 
  256.5000   240.3280    72.4350   -22.1830    -0.6820    34.8880     2.4250     2.7550     2.8050     2.2730 
  256.6250   240.4380    72.4920   -22.2010    -0.7960    33.6080     2.4490     2.7830     2.7670     2.2800 
  256.7500   240.5480    72.5480   -22.2200    -0.7990    33.4840     2.5180     2.8770     2.7190     2.2950 
  256.8750   240.6580    72.6050   -22.2390    -0.6810    35.8510     2.6180     3.0080     2.9200     2.3100 
  257.0000   240.7680    72.6610   -22.2580    -0.6380    39.6140     2.7340     3.1610     3.4100     2.3230 
  257.1250   240.8770    72.7180   -22.2770    -0.6740    43.5240     2.8420     3.3010     3.7550     2.3320 
  257.2500   240.9870    72.7740   -22.2960    -0.7430    46.8650     2.9210     3.4040     3.7470     2.3390 
  257.3750   241.0970    72.8300   -22.3140    -0.7690    49.2440     2.9560     3.4620     3.6340     2.3510 
  257.5000   241.2070    72.8870   -22.3330    -0.7280    49.7590     2.9570     3.4820     3.6210     2.3670 
  257.6250   241.3170    72.9430   -22.3520    -0.6570    48.9800     2.9160     3.4530     3.6780     2.3820 
  257.7500   241.4270    73.0000   -22.3700    -0.5790    47.9710     2.8440     3.3770     3.7220     2.3900 
  257.8750   241.5370    73.0560   -22.3890    -0.5350    46.4610     2.7650     3.2870     3.6840     2.3930 
  258.0000   241.6470    73.1120   -22.4080    -0.5190    44.4980     2.7310     3.2520     3.4650     2.4020 
  258.1250   241.7570    73.1690   -22.4260    -0.5110    42.2720     2.7720     3.3070     3.2330     2.4150 
  258.2500   241.8670    73.2250   -22.4450    -0.5180    41.2830     2.9110     3.4810     3.1880     2.4370 
  258.3750   241.9770    73.2810   -22.4640    -0.6020    40.7770     3.1130     3.7360     3.4860     2.4590 
  258.5000   242.0870    73.3370   -22.4830    -0.6770    40.8010     3.3610     4.0400     4.2250     2.4660 
  258.6250   242.1980    73.3940   -22.5010    -0.8030    39.5600     3.5400     4.2490     4.9890     2.4480 
  258.7500   242.3080    73.4500   -22.5200    -0.9750    37.7610     3.5910     4.3010     5.6990     2.4010 
  258.8750   242.4180    73.5060   -22.5390    -1.1110    36.1830     3.4690     4.1340     6.2230     2.3520 
  259.0000   242.5280    73.5620   -22.5580    -1.1450    36.9310     3.2030     3.8120     5.6260     2.3190 
  259.1250   242.6380    73.6180   -22.5760    -1.1380    38.9300     2.9140     3.4710     4.2350     2.3060 
  259.2500   242.7480    73.6750   -22.5950    -1.1280    41.9660     2.6750     3.2090     3.3530     2.3050 
  259.3750   242.8580    73.7310   -22.6130    -1.2260    43.3250     2.5260     3.0610     3.1800     2.3030 
  259.5000   242.9680    73.7870   -22.6320    -1.4250    43.9650     2.4720     3.0210     3.2020     2.3060 
  259.6250   243.0780    73.8430   -22.6500    -1.4770    43.5480     2.4850     3.0540     3.1580     2.3120 
  259.7500   243.1890    73.8990   -22.6690    -1.4770    44.6810     2.5420     3.1280     3.1600     2.3100 
  259.8750   243.2990    73.9550   -22.6870    -1.4770    46.0120     2.6220     3.2220     3.3120     2.3000 
  260.0000   243.4090    74.0110   -22.7060    -1.4770    47.3460     2.7160     3.3190     3.4540     2.2940 
