~V
VERS. 2.00: Ver 2.00
~W
STRT.M 30.0000:
STOP.M 262.0000:
STEP.M 0.1250:
NULL. -999.2500:
UWI. FD10852:
~C
DEPT.M :
TVD. :
DX. :
DY. :
SP.MV :
GR.API :
RI. :
RML.OHMM :
RXO.OHMM :
DEN.GM/CC :
~A
# ...
  203.3750   185.2990   -68.2220    -3.4020    -8.2690    57.2430    48.3140    54.0210    61.0950     2.1890 
  203.5000   185.4010   -68.2930    -3.4060    -8.3420    58.9270    49.6640    55.4310    64.2070     2.2110 
  203.6250   185.5040   -68.3650    -3.4100    -8.4340    59.1810    49.1350    54.7110    60.4000     2.2180 
  203.7500   185.6060   -68.4360    -3.4140    -8.5350    57.9080    47.2530    52.5380    59.6620     2.2110 
  203.8750   185.7080   -68.5080    -3.4180    -8.7230    56.5250    44.2090    48.9600    58.9860     2.2040 
  204.0000   185.8110   -68.5790    -3.4220    -9.0330    57.4020    41.7910    46.2170    59.4550     2.1990 
  204.1250   185.9130   -68.6510    -3.4250    -9.4160    59.1520    39.9870    44.1600    62.3890     2.1910 
  204.2500   186.0160   -68.7220    -3.4290    -9.9280    59.4590    38.3710    42.3500    52.4680     2.1830 
  204.3750   186.1180   -68.7940    -3.4320   -10.5110    58.7200    37.5580    41.5250    39.6260     2.1820 
  204.5000   186.2200   -68.8660    -3.4360   -10.8250    58.5880    36.8430    40.9750    38.3650     2.1890 
  204.6250   186.3230   -68.9370    -3.4400   -10.6780    58.4660    36.0490    40.0250    39.4990     2.2070 
  204.7500   186.4250   -69.0090    -3.4430   -10.1260    58.5220    34.0980    37.7740    34.9000     2.2180 
  204.8750   186.5280   -69.0800    -3.4470    -9.5000    58.8540    31.9330    35.2820    28.9100     2.2150 
  205.0000   186.6300   -69.1520    -3.4510    -9.2570    60.2090    29.8600    32.9570    29.2070     2.2040 
  205.1250   186.7330   -69.2230    -3.4540    -9.6230    61.0070    28.9270    32.0620    31.6880     2.1920 
  205.2500   186.8360   -69.2940    -3.4570   -10.4760    60.4730    28.9110    32.1500    30.5230     2.1920 
  205.3750   186.9380   -69.3660    -3.4610   -11.4910    58.3660    28.6630    31.9860    29.2050     2.2100 
  205.5000   187.0410   -69.4370    -3.4650   -12.3880    55.0700    27.9450    31.2210    29.7950     2.2590 
  205.6250   187.1440   -69.5080    -3.4680   -12.9090    53.8030    26.8190    29.9860    33.8720     2.3300 
  205.7500   187.2460   -69.5790    -3.4720   -13.0430    54.6740    25.6640    28.7840    34.4590     2.3790 
  205.8750   187.3490   -69.6500    -3.4760   -13.1760    54.1510    24.4290    27.5920    25.5190     2.3890 
  206.0000   187.4520   -69.7210    -3.4800   -13.4630    51.1950    23.6840    27.3820    20.3810     2.4020 
  206.1250   187.5550   -69.7920    -3.4850   -13.7280    50.8170    23.7740    28.4910    22.4100     2.4770 
  206.2500   187.6580   -69.8620    -3.4890   -13.8940    54.0050    23.8100    29.2470    24.8720     2.5890 
  206.3750   187.7610   -69.9330    -3.4930   -13.8890    57.8390    21.7800    26.9680    23.7840     2.6460 
  206.5000   187.8640   -70.0030    -3.4970   -13.5360    61.4300    17.4120    21.4830    19.8890     2.6010 
  206.6250   187.9670   -70.0740    -3.5010   -12.9520    66.6220    11.5760    13.9490    16.7790     2.4760 
  206.7500   188.0700   -70.1440    -3.5060   -12.3510    71.4000     6.8510     8.2580    11.0570     2.3170 
  206.8750   188.1740   -70.2150    -3.5100   -11.7320    73.4500     4.3940     5.3460     5.2420     2.1890 
  207.0000   188.2770   -70.2850    -3.5140   -10.9990    73.1160     3.2190     4.0150     3.6020     2.1440 
  207.1250   188.3800   -70.3550    -3.5190   -10.2670    70.9130     2.6500     3.4860     3.5930     2.1570 
  207.2500   188.4840   -70.4250    -3.5230    -9.6990    67.9060     2.5270     3.5040     3.6140     2.1540 
  207.3750   188.5870   -70.4950    -3.5280    -9.4860    66.2410     2.5610     3.6280     3.5110     2.1210 
  207.5000   188.6900   -70.5660    -3.5320    -9.6070    65.9530     2.5760     3.6200     3.3600     2.0940 
  207.6250   188.7940   -70.6360    -3.5360    -9.5250    64.8420     2.5730     3.5480     3.2870     2.0960 
  207.7500   188.8970   -70.7050    -3.5400    -9.0000    61.9410     2.5910     3.5250     3.4040     2.1150 
  207.8750   189.0010   -70.7750    -3.5440    -8.3620    58.7750     2.7030     3.6620     3.6330     2.1220 
  208.0000   189.1050   -70.8450    -3.5480    -7.8790    56.5170     2.9210     3.9650     3.8850     2.1060 
  208.1250   189.2080   -70.9150    -3.5520    -7.8430    56.9620     3.2200     4.3880     4.3000     2.0950 
  208.2500   189.3120   -70.9850    -3.5560    -8.5220    60.9390     3.5650     4.8970     4.6490     2.1120 
  208.3750   189.4150   -71.0550    -3.5600    -9.5220    64.3600     3.8600     5.3470     4.6170     2.1430 
  208.5000   189.5190   -71.1240    -3.5630   -10.4100    66.0050     3.9890     5.5830     4.4110     2.1570 
  208.6250   189.6230   -71.1940    -3.5670   -10.8420    67.3300     3.9660     5.5960     4.2790     2.1600 
  208.7500   189.7260   -71.2640    -3.5710   -10.5920    67.8470     3.8090     5.4080     4.2240     2.1740 
  208.8750   189.8300   -71.3340    -3.5740   -10.0030    65.9370     3.6560     5.2310     4.1990     2.1930 
  209.0000   189.9340   -71.4030    -3.5780    -9.1850    62.8790     3.5640     5.1910     4.1950     2.2110 
  209.1250   190.0370   -71.4730    -3.5810    -8.5900    64.5670     3.5700     5.3010     4.1140     2.2310 
  209.2500   190.1410   -71.5430    -3.5850    -7.9170    67.5920     3.5370     5.3320     4.0600     2.2540 
  209.3750   190.2450   -71.6130    -3.5880    -7.1880    69.3500     3.4370     5.2220     4.2160     2.2660 
  209.5000   190.3490   -71.6820    -3.5920    -6.3230    68.8210     3.2390     4.8950     4.1770     2.2500 
  209.6250   190.4520   -71.7520    -3.5950    -5.6560    66.5990     3.0160     4.4940     3.7290     2.2150 
  209.7500   190.5560   -71.8220    -3.5980    -5.5740    65.2360     2.8710     4.2370     3.4830     2.1980 
  209.8750   190.6600   -71.8920    -3.6020    -5.8220    66.6490     2.8860     4.2560     3.5690     2.2210 
  210.0000   190.7630   -71.9610    -3.6050    -6.3910    70.2910     3.1170     4.6310     3.6940     2.2660 
  210.1250   190.8670   -72.0310    -3.6080    -7.1880    75.2580     3.5010     5.2420     3.9040     2.2970 
  210.2500   190.9700   -72.1010    -3.6120    -7.8610    81.3330     3.9260     5.8530     4.0590     2.3140 
  210.3750   191.0740   -72.1710    -3.6150    -8.1190    85.9530     4.2580     6.2840     4.0980     2.3330 
  210.5000   191.1770   -72.2410    -3.6180    -7.9930    86.5570     4.4040     6.3570     4.0410     2.3460 
  210.6250   191.2810   -72.3110    -3.6210    -7.7280    83.9550     4.3760     6.1800     3.9550     2.3510 
  210.7500   191.3840   -72.3820    -3.6250    -7.2650    82.2240     4.2920     5.9360     3.8880     2.3580 
  210.8750   191.4870   -72.4520    -3.6280    -6.6020    82.2990     4.2230     5.7580     3.8510     2.3680 
  211.0000   191.5910   -72.5220    -3.6310    -5.9990    85.0080     4.2400     5.7560     3.8300     2.3570 
  211.1250   191.6940   -72.5930    -3.6340    -5.8090    88.7930     4.3430     5.8990     3.8020     2.3180 
  211.2500   191.7970   -72.6630    -3.6370    -6.2480    90.8440     4.4720     6.0820     3.7550     2.2830 
  211.3750   191.9000   -72.7340    -3.6410    -7.0330    89.9100     4.5640     6.2050     3.7010     2.2720 
  211.5000   192.0030   -72.8050    -3.6440    -7.8590    89.8840     4.5850     6.2190     3.6590     2.2780 
  211.6250   192.1060   -72.8760    -3.6480    -8.5110    93.6310     4.5420     6.1210     3.6320     2.2830 
  211.7500   192.2090   -72.9470    -3.6510    -8.6550    97.9420     4.4600     5.9940     3.6020     2.2900 
  211.8750   192.3120   -73.0180    -3.6550    -8.3010   100.0860     4.3970     5.9030     3.5560     2.2980 
  212.0000   192.4140   -73.0890    -3.6590    -7.8770   100.5630     4.3530     5.8360     3.5320     2.2980 
  212.1250   192.5170   -73.1600    -3.6620    -7.7210   100.9320     4.3740     5.8500     3.5550     2.2940 
  212.2500   192.6200   -73.2310    -3.6660    -7.8850    99.5360     4.5960     6.1030     3.7880     2.2990 
  212.3750   192.7220   -73.3020    -3.6690    -8.2310    96.0420     5.1380     6.7830     5.5340     2.3100 
