~V
VERS. 2.00: Ver 2.00
~W
STRT.M 15.0000:
STOP.M 236.0000:
STEP.M 0.1250:
NULL. -999.2500:
UWI. FD10614:
~C
DEPT.M :
TVD. :
DX. :
DY. :
DEN.GM/CC :
GR.API :
RML.OHMM :
RI. :
RXO.OHMM :
CALI.CM :
SP.MV :
~A
   15.0000    14.9990    -0.1450    -0.1260  -999.2500  -999.2500  -999.2500  -999.2500  -999.2500  -999.2500   214.1600 
   15.1250    15.1240    -0.1470    -0.1270  -999.2500  -999.2500  -999.2500  -999.2500  -999.2500  -999.2500   211.0810 
   15.2500    15.2490    -0.1480    -0.1280  -999.2500  -999.2500  -999.2500  -999.2500  -999.2500  -999.2500   206.8390 
   15.3750    15.3740    -0.1490    -0.1290  -999.2500  -999.2500  -999.2500  -999.2500  -999.2500  -999.2500   201.3120 
   15.5000    15.4980    -0.1500    -0.1300  -999.2500  -999.2500  -999.2500  -999.2500  -999.2500  -999.2500   194.6820 
   15.6250    15.6230    -0.1510    -0.1310  -999.2500  -999.2500  -999.2500  -999.2500  -999.2500  -999.2500   186.8970 
   15.7500    15.7480    -0.1530    -0.1320  -999.2500  -999.2500  -999.2500  -999.2500  -999.2500  -999.2500   178.3800 
   15.8750    15.8730    -0.1540    -0.1330  -999.2500  -999.2500  -999.2500  -999.2500  -999.2500  -999.2500   169.7200 
   16.0000    15.9980    -0.1550    -0.1340  -999.2500  -999.2500  -999.2500  -999.2500  -999.2500  -999.2500   161.3450 
   16.1250    16.1230    -0.1560    -0.1350  -999.2500  -999.2500  -999.2500  -999.2500  -999.2500  -999.2500   153.3200 
   16.2500    16.2480    -0.1580    -0.1360  -999.2500  -999.2500  -999.2500  -999.2500  -999.2500  -999.2500   145.7230 
   16.3750    16.3730    -0.1590    -0.1380  -999.2500  -999.2500  -999.2500  -999.2500  -999.2500  -999.2500   138.8130 
   16.5000    16.4980    -0.1600    -0.1390  -999.2500  -999.2500  -999.2500  -999.2500  -999.2500  -999.2500   132.7800 
   16.6250    16.6230    -0.1610    -0.1400    -0.0050  -999.2500  -999.2500  -999.2500  -999.2500  -999.2500   128.1010 
   16.7500    16.7480    -0.1620    -0.1410    -0.0050  -999.2500  -999.2500  -999.2500  -999.2500  -999.2500   124.5710 
   16.8750    16.8730    -0.1640    -0.1420    -0.0050    35.0450  1796.5170    10.8900     1.3300    25.8830   121.7650 
   17.0000    16.9980    -0.1650    -0.1430    -0.0050    35.0450  1796.5170    10.8900     1.3300    25.8830   119.2870 
   17.1250    17.1230    -0.1660    -0.1440     1.6300    37.5990  1689.2550    10.6880     1.4090    25.8480   117.0660 
   17.2500    17.2480    -0.1670    -0.1450     1.6310    40.7540  1837.5620    10.2510     1.5800    25.8280   115.1000 
   17.3750    17.3730    -0.1680    -0.1460     1.6340    39.0490  2137.6670    10.4430     1.5730    25.7530   113.2760 
   17.5000    17.4980    -0.1700    -0.1470     1.6450    35.0450  2379.9390    10.8900     1.3300    25.8830   111.3700 
   17.6250    17.6230    -0.1710    -0.1480     1.6610    32.5330  2369.0230    10.7300     1.7490    25.8990   109.1690 
   17.7500    17.7480    -0.1720    -0.1490     1.6730    31.6130  2135.3760    10.4110     2.1780    25.8990   106.8620 
   17.8750    17.8730    -0.1730    -0.1500     1.6770    33.0970  1811.2380    10.0540     2.2860    25.8990   104.8460 
   18.0000    17.9980    -0.1750    -0.1510     1.6730    35.2020  1530.0750     9.7730     2.2200    25.8990   103.5380 
   18.1250    18.1230    -0.1760    -0.1520     1.6660    37.0760  1362.3490     9.6560     2.0970    25.8990   103.3110 
   18.2500    18.2480    -0.1770    -0.1530     1.6630    40.3520  1282.7280     9.6700     1.9750    25.8930   103.7320 
   18.3750    18.3730    -0.1780    -0.1540     1.6640    44.4330  1277.4430     9.7530     1.8690    25.8510   104.3070 
   18.5000    18.4980    -0.1790    -0.1550     1.6660    46.4100  1310.5470     9.7750     1.8110    25.7400   104.8070 
   18.6250    18.6230    -0.1810    -0.1560     1.6660    44.7800  1257.3380     9.3970     1.8060    25.6270   105.3850 
   18.7500    18.7480    -0.1820    -0.1570     1.6650    41.9980  1035.9220     8.3090     1.8710    25.6520   105.9670 
   18.8750    18.8730    -0.1830    -0.1590     1.6690    39.9420   697.2660     6.4220     2.0070    25.7960   106.0780 
   19.0000    18.9980    -0.1840    -0.1600     1.6950    39.0380   382.6320     4.2190     2.1340    25.9080   105.0120 
   19.1250    19.1230    -0.1850    -0.1610     1.7760    39.6360   210.6700     2.5030     2.3060    25.9310   101.6330 
   19.2500    19.2480    -0.1870    -0.1620     1.9190    40.8800   137.0930     1.4450     2.5710    25.9440    95.5900 
   19.3750    19.3730    -0.1880    -0.1630     2.1010    40.6440   114.2250     0.9350     2.7850    26.0090    86.3750 
   19.5000    19.4980    -0.1890    -0.1640     2.2680    39.5400   120.3430     0.8440     3.7800    26.1510    73.9870 
   19.6250    19.6230    -0.1900    -0.1650     2.3370    41.4540   153.9000     1.1690     4.4030    26.4830    59.1490 
   19.7500    19.7480    -0.1910    -0.1660     2.2950    45.8980   207.1970     1.8420     5.1700    27.0460    43.7300 
   19.8750    19.8730    -0.1930    -0.1670     2.1740    49.6060   266.9600     2.8140     5.2910    27.4480    28.5220 
   20.0000    19.9980    -0.1940    -0.1680     2.0360    50.7430   310.4240     3.9050     5.1240    27.4190    14.2280 
   20.1250    20.1230    -0.1950    -0.1690     1.9470    54.0380   314.1360     4.7170     4.9420    27.0220     2.1010 
   20.2500    20.2480    -0.1960    -0.1700     1.9230    61.0920   291.5540     5.1240     4.8810    26.5030    -7.2280 
   20.3750    20.3730    -0.1980    -0.1710     1.9510    70.5250   264.4920     5.2910     5.1520    26.1550   -13.1030 
   20.5000    20.4980    -0.1990    -0.1720     2.0170    81.2020   249.7540     5.4340     5.8010    25.9430   -15.5570 
   20.6250    20.6230    -0.2000    -0.1730     2.1070    91.6860   253.3890     5.6490     5.8720    25.7400   -15.5370 
   20.7500    20.7480    -0.2010    -0.1740     2.2000    98.8020   266.8750     5.8740     6.3150    25.6140   -14.9290 
   20.8750    20.8730    -0.2020    -0.1750     2.2710   101.6630   283.5100     6.0550     6.8880    25.5720   -14.2680 
   21.0000    20.9980    -0.2040    -0.1760     2.3010    99.5600   297.7330     6.1660     6.4440    25.5600   -13.7730 
   21.1250    21.1230    -0.2050    -0.1770     2.2830    91.9870   304.7080     6.1980     6.4910    25.6420   -13.7640 
   21.2500    21.2480    -0.2060    -0.1780     2.2440    82.9970   305.0270     6.1760     6.7890    25.8720   -14.2000 
   21.3750    21.3730    -0.2070    -0.1800     2.2140    77.7980   301.4420     6.1370     6.8730    26.0200   -14.9630 
   21.5000    21.4980    -0.2080    -0.1810     2.2080    78.3960   298.4670     6.1390     6.5150    25.9560   -15.9090 
   21.6250    21.6230    -0.2100    -0.1820     2.2200    80.6400   301.3440     6.2770     6.2140    25.9260   -16.8770 
   21.7500    21.7480    -0.2110    -0.1830     2.2280    80.5990   309.9480     6.5700     6.3600    26.0460   -17.8440 
   21.8750    21.8730    -0.2120    -0.1840     2.2200    78.7950   320.6830     6.9950     7.3950    26.2280   -18.6800 
   22.0000    21.9980    -0.2130    -0.1850     2.1960    76.2520   327.4300     7.4550     8.4080    26.2340   -19.3070 
   22.1250    22.1230    -0.2150    -0.1860     2.1710    72.9880   322.3410     7.7320     9.0780    26.1980   -19.6490 
   22.2500    22.2480    -0.2160    -0.1870     2.1620    71.1690   305.7580     7.6850     8.6870    26.1470   -19.7650 
   22.3750    22.3730    -0.2170    -0.1880     2.1770    76.8890   281.3840     7.3020     7.4040    26.0870   -19.6330 
   22.5000    22.4980    -0.2180    -0.1890     2.2140    89.5410   254.9680     6.7120     6.0540    26.0170   -19.2360 
   22.6250    22.6230    -0.2190    -0.1900     2.2590    98.7600   232.8160     6.1190     5.3790    26.0830   -18.6800 
   22.7500    22.7480    -0.2210    -0.1910     2.2960   101.3750   218.0310     5.6670     4.9740    26.1580   -17.9390 
   22.8750    22.8730    -0.2220    -0.1920     2.3180   102.8380   212.4810     5.3990     4.7860    26.1150   -17.1570 
   23.0000    22.9980    -0.2230    -0.1930     2.3280   105.3010   216.4730     5.3030     4.7960    25.9790   -16.4870 
   23.1250    23.1230    -0.2240    -0.1940     2.3320   106.9870   227.6720     5.3450     4.8960    25.8090   -16.0610 
