~V
VERS. 2.00: Ver 2.00
~W
STRT.M 15.0000:
STOP.M 282.0000:
STEP.M 0.1250:
NULL. -999.2500:
UWI. FD10218:
~C
DEPT.M :
TVD. :
DX. :
DY. :
DEN.GM/CC :
GR.API :
RML.OHMM :
RI. :
RXO.OHMM :
CALI.CM :
SP.MV :
~A
# ...
  171.7500   169.9640    11.4420    10.7060     2.2820    77.8080    32.4010    27.8500    17.6190    20.7970   -16.0470 
  171.8750   170.0830    11.4700    10.7320     2.2920    84.6620    31.3920    26.6340    16.6240    20.8000   -16.1930 
  172.0000   170.2020    11.4970    10.7580     2.2960    89.8170    31.6820    26.0780    15.5860    20.8120   -16.3760 
  172.1250   170.3210    11.5250    10.7840     2.2890    88.4150    34.6480    27.7240    15.6630    20.8300   -16.6640 
  172.2500   170.4400    11.5530    10.8100     2.2750    83.1300    39.7980    31.7650    16.5110    20.8400   -16.9450 
  172.3750   170.5590    11.5810    10.8360     2.2630    77.3280    46.0090    37.7590    17.8070    20.8460   -17.2220 
  172.5000   170.6780    11.6090    10.8620     2.2630    75.3460    51.5360    44.1820    18.4480    20.8370   -17.5330 
  172.6250   170.7970    11.6360    10.8880     2.2810    78.2430    54.2620    48.1890    18.3690    20.8300   -17.8680 
  172.7500   170.9160    11.6640    10.9140     2.3070    81.5150    54.3360    48.9190    18.1790    20.8260   -18.2430 
  172.8750   171.0350    11.6920    10.9400     2.3290    81.5780    53.0040    47.5250    17.5230    20.8280   -18.6040 
  173.0000   171.1550    11.7200    10.9660     2.3380    78.5730    51.9960    46.0150    16.6870    20.8290   -19.0140 
  173.1250   171.2740    11.7470    10.9920     2.3310    75.5700    52.9830    46.2190    17.0760    20.8380   -19.4240 
  173.2500   171.3930    11.7750    11.0180     2.3160    74.4730    56.1590    48.3960    18.2830    20.8550   -19.9040 
  173.3750   171.5120    11.8030    11.0450     2.3000    76.0030    61.5130    52.5390    19.6590    20.8390   -20.4110 
  173.5000   171.6310    11.8310    11.0710     2.2880    77.3650    69.0150    58.6100    20.0300    20.7780   -20.9400 
  173.6250   171.7500    11.8590    11.0970     2.2810    74.7610    79.1470    67.0670    19.3920    20.7640   -21.4370 
  173.7500   171.8690    11.8860    11.1230     2.2760    69.3770    91.7030    77.7890    19.1250    20.7950   -21.9490 
  173.8750   171.9880    11.9140    11.1490     2.2730    63.0900   106.6970    90.8510    19.1790    20.8380   -22.4520 
  174.0000   172.1070    11.9420    11.1750     2.2690    60.4090   123.8780   105.9750    19.2330    20.8620   -22.9400 
  174.1250   172.2260    11.9700    11.2010     2.2630    62.9300   142.9000   122.6690    19.6670    20.8580   -23.4090 
  174.2500   172.3450    11.9970    11.2270     2.2560    65.6980   162.8310   139.9900    20.0210    20.8470   -23.8270 
  174.3750   172.4640    12.0250    11.2530     2.2470    66.2000   183.2030   157.6090    20.0980    20.8410   -24.1850 
  174.5000   172.5830    12.0530    11.2790     2.2380    64.8710   203.5010   175.3290    19.9770    20.8430   -24.4330 
  174.6250   172.7020    12.0810    11.3050     2.2310    65.6930   222.4450   192.3050    20.0150    20.8100   -24.6500 
  174.7500   172.8210    12.1090    11.3310     2.2260    67.9700   238.6540   207.1710    20.1480    20.7600   -24.7890 
  174.8750   172.9400    12.1360    11.3570     2.2230    69.3550   250.9240   218.7180    20.1770    20.7150   -24.9640 
  175.0000   173.0600    12.1640    11.3830     2.2200    69.2580   258.8050   226.4190    20.1310    20.6750   -25.1260 
  175.1250   173.1790    12.1920    11.4090     2.2160    68.2600   262.1440   230.2190    20.6250    20.6590   -25.3550 
  175.2500   173.2980    12.2200    11.4350     2.2120    69.1950   262.3650   231.7280    20.3710    20.6560   -25.5650 
  175.3750   173.4170    12.2470    11.4610     2.2080    70.8850   260.0700   231.5950    19.6220    20.6570   -25.7240 
  175.5000   173.5360    12.2750    11.4870     2.2060    69.6880   257.4860   230.0240    19.2020    20.6570   -25.9360 
  175.6250   173.6550    12.3030    11.5130     2.2050    64.4670   256.8790   227.1940    19.3950    20.6510   -26.1410 
  175.7500   173.7740    12.3310    11.5390     2.2050    61.4150   256.6670   224.1200    19.1080    20.6160   -26.3920 
  175.8750   173.8930    12.3580    11.5650     2.2050    64.4150   254.8540   221.5870    18.1060    20.5350   -26.6020 
  176.0000   174.0120    12.3860    11.5910     2.2030    68.3980   251.9410   220.1260    17.3390    20.4650   -26.8370 
  176.1250   174.1310    12.4140    11.6170     2.2030    66.5460   250.7650   220.3810    17.2540    20.4400   -26.9230 
  176.2500   174.2500    12.4420    11.6430     2.2040    62.1230   251.8130   222.3310    17.7380    20.4360   -26.9610 
  176.3750   174.3690    12.4700    11.6690     2.2060    60.3280   254.6970   226.0480    18.3310    20.4160   -27.0670 
  176.5000   174.4880    12.4970    11.6950     2.2070    61.0620   259.2570   231.4670    18.4180    20.3610   -27.1940 
  176.6250   174.6070    12.5250    11.7210     2.2070    60.8490   265.0580   238.1700    18.3310    20.2560   -27.2790 
  176.7500   174.7260    12.5530    11.7470     2.2060    59.5790   270.7020   244.6740    18.6530    20.1960   -27.3610 
  176.8750   174.8450    12.5810    11.7730     2.2060    58.7740   274.5970   249.4630    18.7590    20.1650   -27.4290 
  177.0000   174.9640    12.6080    11.7990     2.2040    59.6480   275.0390   250.9750    18.7910    20.1540   -27.3810 
  177.1250   175.0840    12.6360    11.8250     2.2000    62.3730   269.9490   247.2540    18.7250    20.1520   -27.3130 
  177.2500   175.2030    12.6640    11.8510     2.1960    66.1470   260.1570   239.0110    18.9200    20.1520   -27.1790 
  177.3750   175.3220    12.6920    11.8780     2.1920    69.6570   246.8580   227.3340    19.5590    20.1520   -27.0530 
  177.5000   175.4410    12.7200    11.9040     2.1940    70.7830   231.7620   213.7770    20.6310    20.1520   -26.8170 
  177.6250   175.5600    12.7470    11.9300     2.2010    70.3520   216.7840   200.0320    21.9910    20.1510   -26.5920 
  177.7500   175.6790    12.7750    11.9560     2.2110    70.7830   203.4710   187.5100    22.0940    20.1480   -26.3280 
  177.8750   175.7980    12.8030    11.9820     2.2210    72.0580   192.9290   177.2070    21.2410    20.1440   -26.0720 
  178.0000   175.9170    12.8310    12.0080     2.2270    73.0520   186.0250   170.0360    19.9660    20.1440   -25.8690 
  178.1250   176.0360    12.8580    12.0340     2.2280    73.6710   183.8350   167.3330    19.2990    20.1470   -25.6130 
  178.2500   176.1550    12.8860    12.0600     2.2240    72.5980   185.1190   168.1780    18.9030    20.1490   -25.3890 
  178.3750   176.2740    12.9140    12.0860     2.2190    69.8270   188.4340   171.2150    18.5750    20.1490   -25.0220 
  178.5000   176.3930    12.9420    12.1120     2.2160    68.5450   191.7820   174.4970    18.7070    20.1490   -24.7250 
  178.6250   176.5120    12.9700    12.1380     2.2150    70.8560   192.5790   175.5720    18.8870    20.1470   -24.4730 
  178.7500   176.6310    12.9970    12.1640     2.2180    71.7370   189.9700   173.3490    19.0640    20.1450   -24.2480 
  178.8750   176.7500    13.0250    12.1900     2.2210    68.8530   184.3590   167.8670    19.1020    20.1410   -23.9910 
  179.0000   176.8690    13.0530    12.2160     2.2240    66.0290   177.3680   160.6340    19.1840    20.1340   -23.7400 
  179.1250   176.9890    13.0810    12.2420     2.2230    66.7020   171.4480   154.1800    19.1460    20.1280   -23.6570 
  179.2500   177.1080    13.1080    12.2680     2.2200    67.0420   167.8510   150.0760    19.1780    20.1520   -23.5770 
  179.3750   177.2270    13.1360    12.2940     2.2190    67.3930   166.3220   148.5070    19.3350    20.1610   -23.5750 
  179.5000   177.3460    13.1640    12.3200     2.2240    72.5030   165.2770   148.2830    19.4830    20.1500   -23.5120 
  179.6250   177.4650    13.1920    12.3460     2.2390    81.4690   161.7720   146.4320    19.4610    20.1290   -23.4650 
  179.7500   177.5840    13.2190    12.3720     2.2570    85.6030   154.3280   140.7670    19.4750    20.0910   -23.3640 
  179.8750   177.7030    13.2470    12.3980     2.2720    81.2070   143.0940   131.0880    19.4390    20.0200   -23.2720 
