~V
VERS. 2.00: Ver 2.00
~W
STRT.M 62.0000:
STOP.M 282.0000:
STEP.M 0.1250:
NULL. -999.2500:
UWI. FD10887:
~C
DEPT.M :
TVD. :
DX. :
DY. :
SP.MV :
GR.API :
RI. :
RML.OHMM :
RXO.OHMM :
DEN.GM/CC :
~A
# ...
   80.2500    80.2330    -0.3880     0.6270    -0.1480    65.1280     8.4500    10.6530    25.8710     2.1530 
   80.3750    80.3580    -0.3910     0.6350    -0.2280    66.0980     8.2780    10.5760    15.7740     2.1630 
   80.5000    80.4820    -0.3940     0.6420    -0.1640    67.3740     7.9930    10.2320     7.5640     2.1570 
   80.6250    80.6070    -0.3960     0.6500    -0.0080    67.6440     7.8490     9.8640     7.1960     2.1430 
   80.7500    80.7320    -0.3990     0.6580     0.1800    66.8030     7.9140     9.6450     7.2520     2.1300 
   80.8750    80.8570    -0.4010     0.6660     0.3630    66.2040     8.2910     9.8120     7.4000     2.1220 
   81.0000    80.9810    -0.4040     0.6740     0.5110    66.8060     8.7500    10.1650     7.3880     2.1190 
   81.1250    81.1060    -0.4060     0.6820     0.5750    66.7950     9.0070    10.5060     7.3860     2.1200 
   81.2500    81.2310    -0.4080     0.6910     0.5220    65.6770     9.0290    10.7960     7.5570     2.1250 
   81.3750    81.3550    -0.4110     0.6990     0.3280    63.1600     8.8950    10.9900     7.8220     2.1350 
   81.5000    81.4800    -0.4140     0.7070     0.0340    60.0370     8.7460    11.0650     8.1850     2.1440 
   81.6250    81.6050    -0.4160     0.7150    -0.3110    57.7660     8.7560    11.0140     8.3740     2.1460 
   81.7500    81.7290    -0.4190     0.7240    -0.6520    58.0630     8.9000    10.8380     8.0890     2.1420 
   81.8750    81.8540    -0.4210     0.7320    -0.9610    58.6550     9.0150    10.4940     7.8100     2.1340 
   82.0000    81.9790    -0.4240     0.7410    -1.2390    58.1380     8.9330    10.2510     7.8500     2.1280 
   82.1250    82.1040    -0.4260     0.7500    -1.5000    59.2240     8.6510    10.2790     7.7720     2.1250 
   82.2500    82.2280    -0.4290     0.7580    -1.7700    61.3470     8.3550    10.4200     7.4460     2.1240 
   82.3750    82.3530    -0.4310     0.7670    -2.0850    61.3490     8.2370    10.5250     7.2960     2.1230 
   82.5000    82.4780    -0.4340     0.7760    -2.4680    60.7870     8.2580    10.3170     7.5250     2.1210 
   82.6250    82.6020    -0.4360     0.7850    -2.9360    62.4860     8.1990     9.8780     7.7380     2.1190 
   82.7500    82.7270    -0.4390     0.7940    -3.4640    65.7250     7.9390     9.4100     7.4160     2.1150 
   82.8750    82.8510    -0.4410     0.8030    -4.0210    67.2210     7.5830     9.0630     6.6270     2.1110 
   83.0000    82.9760    -0.4440     0.8120    -4.5700    67.5560     7.4250     8.9150     6.1360     2.1080 
   83.1250    83.1010    -0.4460     0.8210    -5.0790    67.0380     7.5730     8.9280     6.2040     2.1090 
   83.2500    83.2250    -0.4490     0.8300    -5.5300    65.2290     7.8380     9.0370     6.5420     2.1110 
   83.3750    83.3500    -0.4510     0.8390    -5.9210    63.2700     7.8600     9.0660     6.9570     2.1150 
   83.5000    83.4750    -0.4540     0.8490    -6.2900    63.4010     7.6760     8.9200     6.9520     2.1180 
   83.6250    83.5990    -0.4560     0.8580    -6.7070    64.8880     7.3710     8.5140     6.5050     2.1200 
   83.7500    83.7240    -0.4590     0.8670    -7.2380    66.1830     7.1330     8.0520     5.8770     2.1220 
   83.8750    83.8490    -0.4610     0.8770    -7.9190    69.5080     6.9200     7.6960     5.2010     2.1280 
   84.0000    83.9730    -0.4640     0.8860    -8.7000    74.7570     6.6670     7.5350     4.9030     2.1390 
   84.1250    84.0980    -0.4660     0.8960    -9.4890    78.6700     6.5590     7.5450     5.2350     2.1570 
   84.2500    84.2220    -0.4690     0.9050   -10.1910    78.4600     6.5800     7.6030     5.8940     2.1740 
   84.3750    84.3470    -0.4710     0.9150   -10.7520    76.4170     6.5490     7.5770     5.8920     2.1820 
   84.5000    84.4720    -0.4740     0.9250   -11.2040    75.7320     6.3560     7.4190     5.1530     2.1790 
   84.6250    84.5960    -0.4760     0.9340   -11.6070    76.0310     6.0210     7.0720     4.5150     2.1650 
   84.7500    84.7210    -0.4780     0.9440   -12.0260    76.1640     5.6110     6.5890     4.2400     2.1500 
   84.8750    84.8450    -0.4810     0.9540   -12.5000    76.5230     5.3610     6.1940     4.6520     2.1400 
   85.0000    84.9700    -0.4830     0.9640   -13.0290    76.7740     5.2880     6.0080     5.9860     2.1390 
   85.1250    85.0940    -0.4860     0.9740   -13.6020    77.5940     5.4610     6.1910     6.4390     2.1480 
   85.2500    85.2190    -0.4880     0.9840   -14.1840    77.8840     5.9390     6.7990     5.8490     2.1670 
   85.3750    85.3440    -0.4910     0.9940   -14.7390    76.3830     6.8960     8.1360     6.5720     2.1930 
   85.5000    85.4680    -0.4930     1.0040   -15.2480    71.7580     8.5640    10.1200     8.4520     2.2280 
   85.6250    85.5930    -0.4950     1.0150   -15.7300    64.4890     9.5470    11.1960    15.9970     2.2780 
   85.7500    85.7170    -0.4980     1.0250   -16.2380    58.9100     9.4140    10.9290    28.7080     2.3460 
   85.8750    85.8420    -0.5000     1.0350   -16.8300    58.1580     8.2330     9.2310    29.0840     2.4170 
   86.0000    85.9660    -0.5030     1.0460   -17.5120    64.6570     6.2110     6.8960    15.3440     2.4560 
   86.1250    86.0910    -0.5050     1.0560   -18.2450    76.6190     4.9300     5.3910     5.5610     2.4370 
   86.2500    86.2150    -0.5070     1.0670   -18.9660    85.9980     4.3030     4.6570     3.7000     2.3750 
   86.3750    86.3400    -0.5100     1.0780   -19.6180    88.2150     3.9940     4.5000     3.7070     2.3050 
   86.5000    86.4640    -0.5120     1.0880   -20.1790    87.0740     4.0480     4.7190     3.9790     2.2560 
   86.6250    86.5890    -0.5140     1.0990   -20.6240    86.1760     4.3240     5.0200     4.3550     2.2340 
   86.7500    86.7130    -0.5170     1.1100   -20.9570    85.7150     4.3480     5.1010     4.3870     2.2280 
   86.8750    86.8380    -0.5190     1.1210   -21.1830    84.8710     4.2160     4.9240     4.1050     2.2290 
   87.0000    86.9620    -0.5210     1.1320   -21.3420    85.0120     3.9720     4.5250     3.8370     2.2360 
   87.1250    87.0870    -0.5240     1.1430   -21.4640    89.2470     3.5250     4.0590     3.4800     2.2530 
   87.2500    87.2110    -0.5260     1.1540   -21.5720    96.1910     3.2580     3.6470     3.0070     2.2800 
   87.3750    87.3360    -0.5280     1.1650   -21.6690   102.1020     3.0500     3.3970     2.7580     2.3100 
   87.5000    87.4600    -0.5310     1.1760   -21.7560   102.8250     2.9100     3.3010     2.8040     2.3320 
   87.6250    87.5850    -0.5330     1.1880   -21.8460   100.5690     2.9880     3.3400     2.9030     2.3380 
   87.7500    87.7090    -0.5350     1.1990   -21.9600    99.1750     3.0350     3.4980     2.9860     2.3320 
   87.8750    87.8340    -0.5380     1.2100   -22.1080    99.5200     3.2380     3.7320     3.0880     2.3210 
   88.0000    87.9580    -0.5400     1.2220   -22.2740    99.8170     3.4510     4.0000     3.1710     2.3110 
   88.1250    88.0830    -0.5420     1.2330   -22.4260    98.3240     3.6440     4.2490     3.4440     2.3010 
   88.2500    88.2070    -0.5450     1.2450   -22.5400    95.3730     3.8620     4.4330     3.7960     2.2870 
   88.3750    88.3320    -0.5470     1.2560   -22.6070    92.7360     3.8890     4.4850     3.8660     2.2680 
   88.5000    88.4560    -0.5490     1.2680   -22.6390    91.5560     3.8880     4.4490     3.7890     2.2510 
   88.6250    88.5810    -0.5510     1.2790   -22.6510    89.8900     3.8170     4.3570     3.6860     2.2400 
   88.7500    88.7050    -0.5540     1.2910   -22.6600    87.1840     3.7620     4.2820     3.6300     2.2380 
   88.8750    88.8290    -0.5560     1.3030   -22.6830    84.0230     3.7570     4.2630     3.6460     2.2400 
   89.0000    88.9540    -0.5580     1.3140   -22.7290    82.6430     3.7750     4.2890     3.6300     2.2400 
   89.1250    89.0780    -0.5600     1.3260   -22.8030    84.0700     3.7980     4.3530     3.6430     2.2380 
   89.2500    89.2030    -0.5630     1.3380   -22.8900    86.8590     3.8460     4.4820     3.6550     2.2350 
