~V
VERS. 2.00: Ver 2.00
~W
STRT.M 15.0000:
STOP.M 236.0000:
STEP.M 0.1250:
NULL. -999.2500:
UWI. FD10614:
~C
DEPT.M :
TVD. :
DX. :
DY. :
DEN.GM/CC :
GR.API :
RML.OHMM :
RI. :
RXO.OHMM :
CALI.CM :
SP.MV :
~A
# ...
  204.7500   191.3580    50.7750    24.8090     2.6060    24.5550     6.1210     5.6880     8.2060    21.4720   -14.5770 
  204.8750   191.4640    50.8340    24.8380     2.6820    21.8210     6.7360     6.3040    10.5690    21.1960   -14.3410 
  205.0000   191.5700    50.8930    24.8670     2.6930    19.5100     6.9610     6.6000     9.7820    20.8580   -14.1680 
  205.1250   191.6760    50.9530    24.8970     2.6240    20.6790     6.5930     6.2790     6.8140    20.7820   -14.1080 
  205.2500   191.7830    51.0120    24.9260     2.5250    24.5370     5.8790     5.5740     5.0110    20.8880   -14.0510 
  205.3750   191.8890    51.0710    24.9560     2.4400    27.9170     5.0940     4.7780     4.4900    21.1120   -14.0430 
  205.5000   191.9950    51.1300    24.9850     2.3900    28.5170     4.4670     4.1100     4.3790    21.3900   -14.0480 
  205.6250   192.1010    51.1890    25.0140     2.3810    27.7960     4.1370     3.7010     4.2570    21.5760   -14.1150 
  205.7500   192.2070    51.2480    25.0440     2.3890    28.8590     4.0270     3.5080     4.1380    21.7190   -14.1820 
  205.8750   192.3130    51.3080    25.0730     2.3990    31.0490     4.0630     3.4800     4.1160    21.8430   -14.0960 
  206.0000   192.4190    51.3670    25.1020     2.4020    31.8460     4.1720     3.5540     4.1990    22.0170   -13.9000 
  206.1250   192.5250    51.4260    25.1320     2.3920    30.7030     4.2960     3.6710     4.3760    22.3560   -13.6300 
  206.2500   192.6320    51.4850    25.1610     2.3780    29.2500     4.3970     3.7770     4.4800    22.7260   -13.4100 
  206.3750   192.7380    51.5440    25.1910     2.3670    28.5340     4.4630     3.8490     4.4780    22.9620   -13.1900 
  206.5000   192.8440    51.6030    25.2200     2.3670    29.7810     4.4900     3.8810     4.4550    22.8760   -13.0400 
  206.6250   192.9500    51.6620    25.2490     2.3800    32.9960     4.4850     3.8800     4.4060    22.3450   -12.8760 
  206.7500   193.0560    51.7220    25.2790     2.3980    35.7960     4.4680     3.8640     4.3650    21.7360   -12.7830 
  206.8750   193.1620    51.7810    25.3080     2.4120    36.0580     4.4500     3.8470     4.3410    21.3780   -12.7840 
  207.0000   193.2680    51.8400    25.3370     2.4200    34.4060     4.4410     3.8350     4.3670    21.3150   -12.7790 
  207.1250   193.3740    51.8990    25.3670     2.4220    33.5790     4.4470     3.8300     4.3970    21.4640   -12.8270 
  207.2500   193.4800    51.9580    25.3960     2.4220    34.6730     4.4640     3.8310     4.3740    21.6440   -12.9520 
  207.3750   193.5870    52.0170    25.4250     2.4210    35.0450     4.4850     3.8310     4.3460    21.7310   -13.1300 
  207.5000   193.6930    52.0770    25.4550     2.4230    34.0800     4.5030     3.8280     4.3640    21.6500   -13.3640 
  207.6250   193.7990    52.1360    25.4840     2.4320    35.0540     4.5100     3.8170     4.4200    21.4320   -13.6810 
  207.7500   193.9050    52.1950    25.5140     2.4450    37.1720     4.5070     3.7990     4.4410    21.3000   -13.8510 
  207.8750   194.0110    52.2540    25.5430     2.4560    37.3550     4.4930     3.7760     4.4750    21.3720   -13.8720 
  208.0000   194.1170    52.3130    25.5720     2.4550    35.3970     4.4740     3.7490     4.5740    21.7090   -13.9420 
  208.1250   194.2230    52.3720    25.6020     2.4380    34.5540     4.4510     3.7220     4.4720    22.2250   -13.9850 
  208.2500   194.3290    52.4320    25.6310     2.4120    34.8140     4.4310     3.6940     4.4080    22.5930   -13.9600 
  208.3750   194.4360    52.4910    25.6600     2.3890    34.7430     4.4150     3.6700     4.3860    22.7080   -13.9560 
  208.5000   194.5420    52.5500    25.6900     2.3800    34.6230     4.4070     3.6510     4.3510    22.5950   -13.8510 
  208.6250   194.6480    52.6090    25.7190     2.3910    34.9110     4.4040     3.6390     4.3000    22.2090   -13.6620 
  208.7500   194.7540    52.6680    25.7480     2.4110    35.2020     4.4050     3.6310     4.2820    21.7040   -13.6040 
  208.8750   194.8600    52.7270    25.7780     2.4270    35.8240     4.4090     3.6260     4.2880    21.2240   -13.6200 
  209.0000   194.9660    52.7860    25.8070     2.4260    36.2970     4.4180     3.6250     4.2850    20.9290   -13.6390 
  209.1250   195.0720    52.8460    25.8370     2.4050    35.8610     4.4360     3.6350     4.2770    20.9510   -13.6740 
  209.2500   195.1780    52.9050    25.8660     2.3750    35.2640     4.4650     3.6570     4.2800    21.2210   -13.7380 
  209.3750   195.2850    52.9640    25.8950     2.3520    35.1650     4.5020     3.6890     4.3460    21.5230   -13.7430 
  209.5000   195.3910    53.0230    25.9250     2.3440    35.0040     4.5420     3.7250     4.5000    21.5550   -13.6740 
  209.6250   195.4970    53.0820    25.9540     2.3550    34.2790     4.5780     3.7550     4.5780    21.0620   -13.6110 
  209.7500   195.6030    53.1410    25.9830     2.3740    33.7960     4.6070     3.7760     4.4990    20.4050   -13.5440 
  209.8750   195.7090    53.2010    26.0130     2.3910    34.4780     4.6260     3.7850     4.4070    20.0510   -13.5090 
  210.0000   195.8150    53.2600    26.0420     2.4030    35.0700     4.6360     3.7860     4.3630    19.9750   -13.5190 
  210.1250   195.9210    53.3190    26.0710     2.4100    34.6750     4.6420     3.7840     4.3760    19.9880   -13.5530 
  210.2500   196.0280    53.3780    26.0990     2.4160    33.1660     4.6480     3.7850     4.4210    20.0560   -13.5190 
  210.3750   196.1340    53.4370    26.1280     2.4260    32.2790     4.6560     3.7890     4.4530    20.2100   -13.4800 
  210.5000   196.2400    53.4970    26.1560     2.4410    33.7460     4.6650     3.7960     4.4580    20.4180   -13.4770 
  210.6250   196.3470    53.5560    26.1850     2.4570    35.2570     4.6740     3.8030     4.5060    20.5110   -13.3800 
  210.7500   196.4530    53.6150    26.2140     2.4670    34.2390     4.6870     3.8110     4.5500    20.5720   -13.2760 
  210.8750   196.5590    53.6740    26.2420     2.4660    31.9560     4.7120     3.8280     4.5930    20.7290   -13.2200 
  211.0000   196.6650    53.7340    26.2710     2.4550    31.9010     4.7560     3.8650     4.6300    21.0980   -13.0960 
  211.1250   196.7720    53.7930    26.2990     2.4400    33.6970     4.8180     3.9260     4.8820    21.6300   -12.9550 
  211.2500   196.8780    53.8520    26.3280     2.4330    34.0970     4.8750     3.9910     5.4420    22.0830   -12.8250 
  211.3750   196.9840    53.9110    26.3560     2.4380    33.7560     4.8990     4.0340     6.0290    22.2180   -12.6050 
  211.5000   197.0910    53.9700    26.3850     2.4530    34.0710     4.8730     4.0340     5.6360    21.9080   -12.4270 
  211.6250   197.1970    54.0300    26.4140     2.4700    34.3730     4.7960     3.9780     4.9400    21.3850   -12.3930 
  211.7500   197.3030    54.0890    26.4420     2.4790    33.4410     4.7100     3.9000     4.5770    21.0460   -12.3140 
  211.8750   197.4100    54.1480    26.4710     2.4730    31.8910     4.6520     3.8340     4.5120    20.8790   -12.2400 
  212.0000   197.5160    54.2070    26.4990     2.4520    30.9100     4.6440     3.8050     4.5130    20.7780   -12.2290 
  212.1250   197.6220    54.2670    26.5280     2.4220    31.3080     4.6910     3.8260     4.6130    20.8310   -12.2380 
  212.2500   197.7280    54.3260    26.5560     2.3960    32.9320     4.7580     3.8740     4.7480    21.0270   -12.3000 
  212.3750   197.8350    54.3850    26.5850     2.3840    35.8450     4.8150     3.9240     4.8770    21.0400   -12.3830 
  212.5000   197.9410    54.4440    26.6130     2.3870    38.5280     4.8460     3.9600     4.9540    20.8640   -12.4620 
  212.6250   198.0470    54.5040    26.6420     2.4010    37.5010     4.8590     3.9790     4.8470    20.7960   -12.5020 
  212.7500   198.1540    54.5630    26.6710     2.4110    34.4960     4.8880     4.0070     4.7960    20.9440   -12.5780 
  212.8750   198.2600    54.6220    26.6990     2.4080    35.6470     4.9630     4.0710     4.9100    21.3610   -12.6330 
