~V
VERS. 2.00: Ver 2.00
~W
STRT.M 63.0000:
STOP.M 256.0000:
STEP.M 0.1250:
NULL. -999.2500:
UWI. FD10901:
~C
DEPT.M :
TVD. :
DX. :
DY. :
SP.MV :
GR.API :
RI. :
RML.OHMM :
RXO.OHMM :
DEN.GM/CC :
~A
# ...
  209.0000   206.9600    -5.0810   -17.7220     1.3760    74.4100     7.2960     8.3260     7.4560     2.3240 
  209.1250   207.0800    -5.0890   -17.7570     1.1870    74.7610     7.4730     8.5330     7.4050     2.3170 
  209.2500   207.2000    -5.0980   -17.7920     0.8970    72.3880     7.9240     9.0910     7.9250     2.2890 
  209.3750   207.3190    -5.1060   -17.8270     0.5000    70.0620     8.6080     9.9660     9.0070     2.2630 
  209.5000   207.4390    -5.1140   -17.8620     0.1450    67.3370     9.3650    10.9470    10.4340     2.2600 
  209.6250   207.5590    -5.1230   -17.8970    -0.2020    66.7030     9.8390    11.5580    12.3720     2.2690 
  209.7500   207.6780    -5.1310   -17.9320    -0.5690    65.2400     9.8400    11.4760    13.9760     2.2840 
  209.8750   207.7980    -5.1400   -17.9670    -0.8310    65.7810     9.3640    10.7560    13.9860     2.2920 
  210.0000   207.9180    -5.1480   -18.0020    -1.1370    67.5240     8.8130    10.0040    12.5970     2.3130 
  210.1250   208.0370    -5.1570   -18.0370    -1.5300    70.2010     8.5790     9.8040    10.8610     2.3520 
  210.2500   208.1570    -5.1650   -18.0720    -1.9690    70.5860     9.0450    10.7930     9.9030     2.4100 
  210.3750   208.2770    -5.1730   -18.1070    -2.2290    67.9200    10.4300    13.1800    12.0320     2.4730 
  210.5000   208.3970    -5.1810   -18.1420    -2.3130    64.6150    11.4940    14.8970    17.5810     2.5350 
  210.6250   208.5160    -5.1900   -18.1780    -2.4200    64.2310    10.6640    13.8330    22.4350     2.5890 
  210.7500   208.6360    -5.1980   -18.2130    -2.5470    65.0140     8.6200    10.9830    21.1670     2.6160 
  210.8750   208.7560    -5.2060   -18.2480    -2.5830    65.6180     5.6070     6.7890    12.6940     2.5890 
  211.0000   208.8750    -5.2140   -18.2830    -2.2330    64.7230     3.3450     3.8970     5.0200     2.5160 
  211.1250   208.9950    -5.2220   -18.3180    -1.6910    62.4720     2.3580     2.7320     2.7760     2.4410 
  211.2500   209.1150    -5.2300   -18.3530    -1.1710    60.5390     1.8820     2.2620     2.6970     2.4010 
  211.3750   209.2350    -5.2380   -18.3870    -0.6600    59.1650     1.8020     2.3130     2.9520     2.3950 
  211.5000   209.3540    -5.2460   -18.4220    -0.1640    59.0130     1.9200     2.5720     3.2130     2.3970 
  211.6250   209.4740    -5.2540   -18.4570     0.1790    58.5590     2.1040     2.8280     3.3450     2.3990 
  211.7500   209.5940    -5.2620   -18.4920     0.1980    57.7250     2.2220     2.9190     3.3370     2.4020 
  211.8750   209.7140    -5.2710   -18.5270     0.0250    57.6740     2.2970     2.9210     3.2480     2.4090 
  212.0000   209.8340    -5.2790   -18.5610    -0.0270    56.7270     2.3650     2.9540     3.1570     2.4220 
  212.1250   209.9530    -5.2870   -18.5960    -0.0990    56.6070     2.4460     3.0400     3.1440     2.4330 
  212.2500   210.0730    -5.2950   -18.6310    -0.4370    56.3990     2.5390     3.1620     3.2450     2.4380 
  212.3750   210.1930    -5.3030   -18.6650    -1.0050    57.8530     2.6040     3.2480     3.3170     2.4250 
  212.5000   210.3130    -5.3120   -18.7000    -1.7860    59.5640     2.6200     3.2530     3.2990     2.4060 
  212.6250   210.4330    -5.3200   -18.7340    -2.6020    63.3410     2.5880     3.1960     3.3460     2.3930 
  212.7500   210.5530    -5.3280   -18.7690    -3.2170    67.2390     2.4990     3.0920     3.4510     2.3880 
  212.8750   210.6730    -5.3370   -18.8030    -3.6460    69.0930     2.3630     2.9510     3.4050     2.3850 
  213.0000   210.7920    -5.3450   -18.8370    -3.9860    67.2990     2.2110     2.8130     3.2280     2.3820 
  213.1250   210.9120    -5.3540   -18.8710    -4.2900    64.4700     2.0530     2.6640     3.1140     2.3790 
  213.2500   211.0320    -5.3620   -18.9060    -4.5330    63.5540     1.9460     2.5530     3.0420     2.3740 
  213.3750   211.1520    -5.3710   -18.9400    -4.7980    64.3190     1.8730     2.4800     2.9430     2.3690 
  213.5000   211.2720    -5.3790   -18.9740    -4.9800    64.6780     1.8240     2.4420     2.9130     2.3650 
  213.6250   211.3920    -5.3870   -19.0080    -4.9370    64.7080     1.8030     2.4360     2.9900     2.3610 
  213.7500   211.5120    -5.3960   -19.0430    -4.8510    64.6570     1.7850     2.4470     3.0950     2.3570 
  213.8750   211.6320    -5.4040   -19.0770    -4.6910    65.1930     1.7940     2.4760     3.1380     2.3680 
  214.0000   211.7520    -5.4130   -19.1110    -4.6200    65.0300     1.8100     2.5040     3.0990     2.3870 
  214.1250   211.8720    -5.4210   -19.1450    -4.3430    63.7590     1.8480     2.5170     3.0360     2.4060 
  214.2500   211.9920    -5.4290   -19.1800    -4.2420    61.6490     1.8960     2.5530     2.9770     2.4100 
  214.3750   212.1120    -5.4370   -19.2140    -4.2290    59.1390     2.0840     2.8130     2.9090     2.4150 
  214.5000   212.2320    -5.4450   -19.2480    -4.0400    57.6320     2.3910     3.2500     2.8580     2.4340 
  214.6250   212.3510    -5.4540   -19.2830    -3.2140    59.3560     2.7260     3.7640     3.4160     2.4750 
  214.7500   212.4710    -5.4620   -19.3170    -2.3000    66.1540     3.0610     4.2400     5.6300     2.4960 
  214.8750   212.5910    -5.4700   -19.3510    -1.6390    78.4890     3.2300     4.4370     7.0480     2.4750 
  215.0000   212.7110    -5.4780   -19.3860    -0.8670    91.6430     3.2030     4.3030     5.4550     2.4230 
  215.1250   212.8310    -5.4870   -19.4200     0.0460   101.1210     3.0130     3.9470     4.0990     2.3870 
  215.2500   212.9510    -5.4950   -19.4540     0.5650   103.8700     2.7840     3.5800     4.1160     2.3780 
  215.3750   213.0710    -5.5030   -19.4890     0.6220   103.0460     2.6500     3.3850     4.1210     2.3950 
  215.5000   213.1910    -5.5110   -19.5230     0.6350   101.3050     2.6660     3.4150     4.2220     2.4190 
  215.6250   213.3110    -5.5190   -19.5580     0.6050   101.2060     2.7850     3.5630     4.4050     2.4360 
  215.7500   213.4310    -5.5280   -19.5920     0.0030   100.9740     2.8910     3.6680     4.4470     2.4320 
  215.8750   213.5500    -5.5360   -19.6260    -0.7750    99.9520     2.9580     3.7190     4.2580     2.4070 
  216.0000   213.6700    -5.5450   -19.6610    -1.2450    99.1920     2.9710     3.7060     4.3400     2.3780 
  216.1250   213.7900    -5.5530   -19.6950    -1.1880    99.2530     2.9310     3.6300     4.6510     2.3610 
  216.2500   213.9100    -5.5610   -19.7300    -0.9110    99.9180     2.8530     3.5220     4.3110     2.3530 
  216.3750   214.0300    -5.5700   -19.7640    -0.7220   101.4340     2.7570     3.4000     3.7130     2.3480 
  216.5000   214.1500    -5.5780   -19.7990     0.2140   102.8120     2.6700     3.3060     3.5070     2.3400 
  216.6250   214.2700    -5.5870   -19.8330     1.0400   103.9900     2.6030     3.2510     3.4270     2.3290 
  216.7500   214.3900    -5.5960   -19.8670     1.1630   103.8310     2.5470     3.2210     3.2930     2.3220 
  216.8750   214.5090    -5.6040   -19.9020     1.1760   102.4680     2.4950     3.1970     3.3210     2.3170 
  217.0000   214.6290    -5.6130   -19.9360     1.1900   100.7040     2.4270     3.1230     3.7740     2.3180 
  217.1250   214.7490    -5.6210   -19.9710     1.1810    97.1840     2.3470     2.9880     3.9890     2.3240 
  217.2500   214.8690    -5.6300   -20.0050     0.6890    92.8210     2.3730     2.9680     3.6000     2.3420 
  217.3750   214.9890    -5.6390   -20.0390    -0.0780    86.6900     2.6490     3.2610     3.3780     2.3840 
  217.5000   215.1090    -5.6470   -20.0740    -0.8440    81.0900     3.2980     4.0670     3.5400     2.4480 
  217.6250   215.2290    -5.6560   -20.1080    -1.6990    74.2910     4.5060     5.6330    10.0890     2.4920 
  217.7500   215.3480    -5.6640   -20.1430    -2.3560    69.6760     6.2600     7.9050    23.4500     2.4800 
  217.8750   215.4680    -5.6730   -20.1770    -2.9580    68.1460     8.2370    10.3210    26.1270     2.4070 
  218.0000   215.5880    -5.6810   -20.2110    -3.4500    69.2530     9.8000    12.0280    17.3540     2.3430 
