~V
VERS. 2.00: Ver 2.00
~W
STRT.M 30.0000:
STOP.M 210.0000:
STEP.M 0.1250:
NULL. -999.2500:
UWI. FD10800:
~C
DEPT.M :
TVD. :
DX. :
DY. :
SP.MV :
GR.API :
RI. :
RML.OHMM :
RXO.OHMM :
DEN.GM/CC :
~A
# ...
  121.2500   119.1810   -12.2860     4.9950   -28.1810    55.0990     6.0800     6.2770     7.2410     2.2930 
  121.3750   119.2940   -12.3380     5.0100   -28.2210    53.2290     6.0510     6.2570     6.5800     2.2960 
  121.5000   119.4060   -12.3900     5.0250   -28.2960    51.6690     6.2500     6.5410     6.2360     2.3110 
  121.6250   119.5190   -12.4420     5.0400   -28.3670    51.3540     6.5620     6.9630     6.3010     2.3400 
  121.7500   119.6320   -12.4940     5.0550   -28.4490    52.7370     6.6720     7.1500     6.4940     2.3640 
  121.8750   119.7450   -12.5460     5.0700   -28.5550    56.4530     6.3800     6.8420     7.3190     2.3540 
  122.0000   119.8570   -12.5980     5.0840   -28.7130    60.0030     5.6210     5.9780     8.3190     2.3020 
  122.1250   119.9700   -12.6500     5.0990   -28.8370    65.0990     4.6210     4.8560     7.9690     2.2380 
  122.2500   120.0820   -12.7020     5.1130   -29.0350    71.4580     3.7470     3.8940     6.1010     2.2040 
  122.3750   120.1950   -12.7550     5.1280   -29.1640    78.3700     3.2180     3.3320     4.5130     2.2100 
  122.5000   120.3080   -12.8070     5.1430   -29.1370    81.2770     3.1420     3.2960     4.0380     2.2430 
  122.6250   120.4200   -12.8590     5.1580   -28.9130    77.8360     3.6050     3.8670     4.0250     2.2910 
  122.7500   120.5330   -12.9110     5.1730   -28.5980    71.4730     4.5410     4.9750     5.4220     2.3490 
  122.8750   120.6450   -12.9640     5.1870   -28.3620    63.5260     5.9640     6.6170    10.0570     2.3970 
  123.0000   120.7580   -13.0160     5.2020   -28.1740    57.8580     7.5150     8.3150    13.9940     2.4180 
  123.1250   120.8700   -13.0690     5.2170   -28.0500    54.6170     8.6420     9.4720    13.2050     2.4180 
  123.2500   120.9830   -13.1210     5.2320   -27.9430    54.3060     9.0040     9.7290    11.3790     2.4100 
  123.3750   121.0950   -13.1740     5.2460   -27.8650    54.4180     8.4560     9.0030    10.6160     2.3900 
  123.5000   121.2080   -13.2260     5.2610   -27.8450    54.8600     7.6760     8.1160    10.0720     2.3550 
  123.6250   121.3200   -13.2790     5.2750   -27.9590    56.3410     7.0330     7.4350     9.7940     2.3190 
  123.7500   121.4330   -13.3320     5.2900   -28.0960    58.6830     6.4970     6.8880     8.7610     2.3010 
  123.8750   121.5450   -13.3850     5.3050   -28.1940    60.7330     6.1520     6.5550     8.1670     2.3010 
  124.0000   121.6570   -13.4370     5.3190   -28.2690    62.2500     5.9220     6.3490     9.3270     2.3030 
  124.1250   121.7700   -13.4900     5.3340   -28.2540    62.9410     5.7960     6.2350     9.0780     2.3050 
  124.2500   121.8820   -13.5430     5.3480   -28.2590    63.1670     5.8370     6.3130     7.4510     2.3050 
  124.3750   121.9940   -13.5960     5.3620   -28.3040    62.9550     6.0090     6.5070     7.5020     2.3080 
  124.5000   122.1070   -13.6490     5.3770   -28.5030    63.1930     6.2950     6.8450     7.4480     2.3220 
  124.6250   122.2190   -13.7020     5.3910   -28.8060    63.1900     6.7650     7.4000     6.6990     2.3410 
  124.7500   122.3310   -13.7550     5.4050   -29.1060    62.8350     7.3330     8.0750     7.8200     2.3310 
  124.8750   122.4440   -13.8080     5.4190   -29.4390    63.5650     7.7920     8.5940    10.1580     2.2690 
  125.0000   122.5560   -13.8610     5.4330   -29.8080    65.8040     8.0320     8.8720    11.6370     2.1850 
  125.1250   122.6680   -13.9140     5.4470   -30.0350    68.9490     7.8560     8.6480    11.3500     2.1210 
  125.2500   122.7810   -13.9670     5.4600   -30.2190    71.2370     7.3010     8.0050     9.6490     2.0920 
  125.3750   122.8930   -14.0200     5.4740   -30.3490    72.2040     6.6690     7.2830     8.0730     2.0960 
  125.5000   123.0050   -14.0740     5.4880   -30.4390    71.7600     6.2220     6.7790     7.2620     2.1190 
  125.6250   123.1170   -14.1270     5.5020   -30.5780    71.0630     6.1910     6.7600     6.8080     2.1690 
  125.7500   123.2300   -14.1800     5.5160   -30.6420    69.6930     6.6740     7.3570     7.1760     2.2410 
  125.8750   123.3420   -14.2330     5.5300   -30.5680    66.7360     7.8050     8.7370     8.7900     2.3250 
  126.0000   123.4540   -14.2860     5.5430   -30.3510    61.5000     9.2520    10.4560    10.9600     2.4030 
  126.1250   123.5670   -14.3390     5.5570   -30.1250    56.7400    10.5750    11.9950    14.0890     2.4590 
  126.2500   123.6790   -14.3930     5.5700   -29.9170    53.2890    11.3450    12.7780    16.8460     2.4880 
  126.3750   123.7910   -14.4460     5.5840   -29.8240    51.5270    11.3170    12.6190    17.2740     2.4810 
  126.5000   123.9030   -14.4990     5.5970   -29.7510    50.7400    11.0110    12.1940    16.3330     2.4530 
  126.6250   124.0160   -14.5530     5.6100   -29.8000    51.7700    10.4770    11.5220    13.7100     2.4270 
  126.7500   124.1280   -14.6060     5.6230   -30.0020    54.8620     9.7450    10.7010    10.7080     2.4070 
  126.8750   124.2400   -14.6590     5.6360   -30.1660    59.0970     8.8870     9.7540    11.1420     2.3730 
  127.0000   124.3520   -14.7130     5.6490   -30.2860    63.5340     7.7020     8.3940    13.0720     2.3060 
  127.1250   124.4650   -14.7660     5.6620   -30.3130    69.0250     6.3950     6.9030    11.5360     2.2330 
  127.2500   124.5770   -14.8200     5.6760   -30.2900    74.9930     5.1770     5.5010     7.7200     2.1930 
  127.3750   124.6890   -14.8730     5.6890   -30.0960    82.5520     4.2540     4.4830     5.3920     2.1810 
  127.5000   124.8010   -14.9260     5.7010   -29.7980    89.8340     3.7240     3.9410     4.4450     2.1670 
  127.6250   124.9140   -14.9800     5.7140   -29.5280    94.8600     3.4960     3.7530     4.0740     2.1520 
  127.7500   125.0260   -15.0330     5.7270   -29.4180    96.1530     3.4250     3.7130     5.4160     2.1570 
  127.8750   125.1380   -15.0870     5.7400   -29.2590    96.5240     3.3770     3.6300     6.4990     2.1820 
  128.0000   125.2500   -15.1400     5.7520   -28.9540    96.2400     3.3270     3.5170     4.9970     2.1870 
  128.1250   125.3630   -15.1940     5.7650   -28.7050    94.4870     3.2910     3.4150     3.3680     2.1700 
  128.2500   125.4750   -15.2480     5.7780   -28.5470    88.6940     3.3780     3.4620     3.6050     2.1720 
  128.3750   125.5870   -15.3010     5.7900   -28.5350    81.9010     3.7820     3.8930     4.6430     2.2360 
  128.5000   125.6990   -15.3550     5.8020   -28.4620    76.9120     4.5880     4.7690     5.0810     2.3380 
  128.6250   125.8120   -15.4090     5.8150   -28.3480    74.9390     5.5880     5.8620     8.1750     2.4180 
  128.7500   125.9240   -15.4620     5.8270   -28.2210    74.3860     6.5950     6.9600    12.9780     2.4260 
  128.8750   126.0360   -15.5160     5.8390   -28.0590    74.3670     7.0910     7.4610    12.8500     2.3540 
  129.0000   126.1480   -15.5700     5.8510   -27.8750    76.0360     6.8770     7.1960     9.8180     2.2520 
  129.1250   126.2600   -15.6240     5.8640   -27.7520    78.5010     6.0710     6.2850     7.7850     2.1800 
  129.2500   126.3720   -15.6780     5.8760   -27.7360    81.9100     4.8880     5.0130     6.5610     2.1530 
  129.3750   126.4840   -15.7320     5.8880   -27.8480    84.9520     3.8810     3.9740     5.4760     2.1600 
  129.5000   126.5970   -15.7860     5.9000   -28.0520    87.7550     3.1950     3.2870     4.2710     2.1710 
  129.6250   126.7090   -15.8400     5.9120   -28.1820    88.8570     2.9130     3.0330     3.4350     2.1750 
  129.7500   126.8210   -15.8940     5.9240   -28.2040    87.9220     2.9710     3.1560     3.0290     2.1650 
  129.8750   126.9330   -15.9480     5.9360   -28.2110    86.4180     3.4970     3.7990     3.5720     2.1460 
  130.0000   127.0450   -16.0020     5.9470   -28.3300    84.1380     4.4780     4.9580     5.4840     2.1470 
  130.1250   127.1570   -16.0570     5.9590   -28.4740    81.2170     5.9340     6.6290     8.0460     2.2040 
  130.2500   127.2690   -16.1110     5.9700   -28.5540    76.3600     7.7430     8.6440     9.8740     2.3110 
