~V
VERS. 2.00: Ver 2.00
~W
STRT.M 22.0000:
STOP.M 238.0000:
STEP.M 0.1250:
NULL. -999.2500:
UWI. FD10612:
~C
DEPT.M :
TVD. :
DX. :
DY. :
GR.API :
RML.OHMM :
RI. :
RXO.OHMM :
CALI.CM :
DEN.GM/CC :
SP.MV :
~A
# ...
  162.2500   155.7650    27.6600    18.3610    82.3670    10.1140     8.3380     7.9650    22.2600     2.4500   -20.4350 
  162.3750   155.8670    27.7210    18.3980    78.3230    10.2870     8.4450     8.4590    22.3020     2.4410   -20.1890 
  162.5000   155.9690    27.7830    18.4350    78.2730    10.5320     8.6360     9.5380    22.2760     2.4310   -19.9670 
  162.6250   156.0710    27.8450    18.4720    80.1760    10.6890     8.7970    10.1510    22.1380     2.4200   -19.7020 
  162.7500   156.1730    27.9060    18.5080    81.4260    10.6890     8.8460     9.9080    21.9980     2.4100   -19.4830 
  162.8750   156.2750    27.9680    18.5450    82.1120    10.5750     8.7890     9.4570    21.9350     2.4010   -19.3690 
  163.0000   156.3770    28.0300    18.5820    80.9970    10.4780     8.7160     9.1650    21.9710     2.3910   -19.3630 
  163.1250   156.4790    28.0910    18.6190    76.7000    10.6160     8.7950     9.2780    22.0920     2.3760   -19.3690 
  163.2500   156.5810    28.1530    18.6560    72.9120    11.0900     9.1240     9.4500    22.1960     2.3550   -19.4000 
  163.3750   156.6830    28.2150    18.6930    71.3530    11.9250     9.7600     9.9240    22.2220     2.3420   -19.3820 
  163.5000   156.7850    28.2760    18.7300    69.1670    13.0370    10.6850    11.2010    22.1350     2.3500   -19.3800 
  163.6250   156.8870    28.3380    18.7670    65.1800    14.1930    11.7600    13.2290    21.9390     2.3910   -19.4480 
  163.7500   156.9890    28.4000    18.8040    62.9790    15.0830    12.6860    14.8510    21.7830     2.4450   -19.4540 
  163.8750   157.0910    28.4610    18.8410    64.8870    15.5130    13.2400    15.5490    21.7440     2.4850   -19.4730 
  164.0000   157.1930    28.5230    18.8780    69.4990    15.4490    13.3450    15.0460    21.8300     2.4910   -19.4130 
  164.1250   157.2950    28.5850    18.9150    73.1730    14.9950    13.0580    13.7150    21.9860     2.4530   -19.3090 
  164.2500   157.3970    28.6460    18.9520    74.7110    14.4530    12.6430    12.2030    22.1230     2.3980   -19.2430 
  164.3750   157.4990    28.7080    18.9890    73.4860    14.0090    12.2620    12.3030    22.1760     2.3460   -19.1950 
  164.5000   157.6010    28.7700    19.0260    69.7710    13.7780    12.0240    12.5710    22.1330     2.3110   -19.2220 
  164.6250   157.7030    28.8310    19.0630    67.9980    13.8590    12.0460    11.6040    22.0080     2.2970   -19.1830 
  164.7500   157.8050    28.8930    19.1000    69.5920    14.1600    12.3040    11.0120    21.9500     2.2930   -19.1230 
  164.8750   157.9070    28.9550    19.1370    71.0350    14.5290    12.6970    12.1230    21.9670     2.2930   -19.1060 
  165.0000   158.0090    29.0160    19.1740    68.7230    14.7200    13.0050    14.5470    22.0370     2.2920   -19.1970 
  165.1250   158.1110    29.0780    19.2110    64.7490    14.3910    12.8740    16.5840    22.1000     2.2910   -19.3590 
  165.2500   158.2130    29.1400    19.2480    66.7190    13.5430    12.2270    15.0360    22.1300     2.2950   -19.5120 
  165.3750   158.3150    29.2010    19.2850    74.3150    12.3660    11.2130    11.2470    22.1150     2.3050   -19.6960 
  165.5000   158.4170    29.2630    19.3220    81.2860    11.2080    10.1590     8.5020    22.0750     2.3190   -19.8350 
  165.6250   158.5180    29.3250    19.3590    82.3690    10.5190     9.4630     7.8790    22.0190     2.3330   -19.9880 
  165.7500   158.6200    29.3860    19.3960    79.8670    10.4380     9.2550     8.1920    21.9920     2.3420   -20.1910 
  165.8750   158.7220    29.4480    19.4330    77.9630    10.9540     9.5650     9.6230    22.0160     2.3480   -20.2690 
  166.0000   158.8240    29.5100    19.4700    76.3950    11.9050    10.3160    11.3370    22.0620     2.3490   -20.2490 
  166.1250   158.9260    29.5710    19.5070    74.2920    12.9950    11.3190    12.1520    22.0940     2.3490   -20.2440 
  166.2500   159.0280    29.6330    19.5440    71.9080    13.8820    12.2250    12.0150    22.1230     2.3450   -20.2280 
  166.3750   159.1300    29.6950    19.5810    68.9540    14.4150    12.8260    12.2150    22.1410     2.3380   -20.2170 
  166.5000   159.2320    29.7560    19.6180    67.1080    14.6400    13.1030    12.5010    22.1370     2.3290   -20.2070 
  166.6250   159.3340    29.8180    19.6550    67.7500    14.8190    13.2560    12.0330    22.1080     2.3290   -20.2280 
  166.7500   159.4360    29.8800    19.6920    68.9250    15.2840    13.6050    11.9600    22.1000     2.3440   -20.2780 
  166.8750   159.5380    29.9410    19.7290    67.6610    16.2310    14.3510    13.7680    22.1110     2.3780   -20.4080 
  167.0000   159.6400    30.0030    19.7660    62.3180    17.6850    15.5680    18.1940    22.1400     2.4210   -20.5220 
  167.1250   159.7420    30.0650    19.8030    56.5240    19.4860    17.1950    22.7500    22.1150     2.4580   -20.5880 
  167.2500   159.8440    30.1260    19.8400    54.5960    21.1880    18.8480    23.7710    22.1000     2.4750   -20.7000 
  167.3750   159.9460    30.1880    19.8770    56.1410    22.3960    20.1330    22.5720    22.0930     2.4700   -20.7370 
  167.5000   160.0480    30.2500    19.9140    58.6350    22.8300    20.7190    22.0020    22.0970     2.4460   -20.7200 
  167.6250   160.1500    30.3110    19.9510    59.4220    22.3260    20.3790    21.0810    22.1050     2.4110   -20.7120 
  167.7500   160.2520    30.3730    19.9880    61.1890    21.2550    19.4640    19.8420    22.1140     2.3770   -20.6420 
  167.8750   160.3540    30.4350    20.0250    64.7870    19.9190    18.2700    19.1500    22.1360     2.3490   -20.5150 
  168.0000   160.4560    30.4960    20.0620    67.8470    18.5800    17.0500    17.4760    22.2010     2.3320   -20.3890 
  168.1250   160.5580    30.5580    20.0990    69.9950    17.4550    16.0120    13.7830    22.2580     2.3250   -20.2820 
  168.2500   160.6600    30.6200    20.1360    72.3890    16.6090    15.2280    11.7480    22.2800     2.3220   -20.1240 
  168.3750   160.7620    30.6810    20.1730    73.5810    16.0760    14.7310    11.8720    22.2830     2.3200   -20.0350 
  168.5000   160.8640    30.7430    20.2100    71.4370    15.8760    14.5410    12.6990    22.2830     2.3180   -19.9750 
  168.6250   160.9660    30.8050    20.2470    67.7970    16.0710    14.7280    13.3060    22.2840     2.3180   -19.8310 
  168.7500   161.0680    30.8660    20.2840    66.0540    16.5750    15.2210    13.5640    22.3000     2.3180   -19.7230 
  168.8750   161.1700    30.9280    20.3210    65.0190    17.3150    15.9660    14.1140    22.3410     2.3180   -19.6710 
  169.0000   161.2720    30.9900    20.3580    63.6760    18.1710    16.8670    14.8380    22.3910     2.3140   -19.6690 
  169.1250   161.3740    31.0510    20.3950    62.6130    18.9440    17.7510    15.3610    22.3900     2.3060   -19.7250 
  169.2500   161.4760    31.1130    20.4320    61.8540    19.4620    18.4120    15.7330    22.3370     2.2970   -19.7600 
  169.3750   161.5780    31.1750    20.4690    62.5670    19.6460    18.7150    15.5090    22.2720     2.2950   -19.8200 
  169.5000   161.6800    31.2360    20.5050    65.4200    19.5440    18.6700    15.0660    22.2380     2.3070   -19.8760 
  169.6250   161.7820    31.2980    20.5420    68.9620    19.3350    18.4320    15.3200    22.2460     2.3340   -19.9010 
  169.7500   161.8840    31.3600    20.5790    70.4090    19.2590    18.2590    16.2880    22.2510     2.3650   -19.9090 
  169.8750   161.9860    31.4210    20.6160    68.4290    19.4480    18.3010    17.4230    22.2680     2.3880   -19.8180 
  170.0000   162.0880    31.4830    20.6530    64.0950    19.9250    18.6160    18.2010    22.2800     2.3930   -19.6690 
  170.1250   162.1900    31.5450    20.6900    60.6160    20.6280    19.1850    20.1190    22.2840     2.3770   -19.5720 
  170.2500   162.2920    31.6060    20.7270    61.4660    21.3800    19.8410    18.6660    22.2940     2.3530   -19.4750 
  170.3750   162.3940    31.6680    20.7640    65.0240    22.0920    20.4780    17.1480    22.3120     2.3310   -19.3400 
