~V
VERS. 2.00: Ver 2.00
~W
STRT.M 27.0000:
STOP.M 267.0000:
STEP.M 0.1250:
NULL. -999.2500:
UWI. FD10204:
~C
DEPT.M :
TVD. :
DX. :
DY. :
GR.API :
RML.OHMM :
RI. :
RXO.OHMM :
CALI.CM :
SP.MV :
DEN.GM/CC :
~A
# ...
   60.0000    59.9980    -0.2390    -0.1000    73.7620     8.6620     6.0440     7.8860    25.4300   -35.5380     2.2620 
   60.1250    60.1230    -0.2410    -0.1010    80.1440     8.2260     5.7920     7.0810    25.8290   -36.6440     2.2760 
   60.2500    60.2480    -0.2430    -0.1010    85.1460     7.9020     5.5900     6.2020    26.2680   -37.8810     2.2870 
   60.3750    60.3730    -0.2450    -0.1020    88.6340     7.6800     5.4420     6.1600    26.4470   -39.1280     2.2920 
   60.5000    60.4980    -0.2470    -0.1030    92.5280     7.5180     5.3300     6.8820    26.2500   -40.2920     2.2930 
   60.6250    60.6230    -0.2490    -0.1030    95.3940     7.4020     5.2450     6.3280    25.9360   -41.3080     2.2950 
   60.7500    60.7480    -0.2510    -0.1040    96.3440     7.3380     5.1870     5.9880    25.7950   -42.1650     2.2980 
   60.8750    60.8730    -0.2530    -0.1050    95.1540     7.3320     5.1590     5.4060    25.7780   -42.8210     2.3040 
   61.0000    60.9980    -0.2550    -0.1060    90.4110     7.3820     5.1640     4.9810    25.7570   -43.2570     2.3100 
   61.1250    61.1230    -0.2570    -0.1060    85.0660     7.4870     5.2050     5.2390    25.7010   -43.4440     2.3090 
   61.2500    61.2480    -0.2590    -0.1070    83.8740     7.6030     5.2610     6.2800    25.6580   -43.4360     2.2990 
   61.3750    61.3730    -0.2610    -0.1080    88.1360     7.6810     5.3110     7.0680    25.6430   -43.3230     2.2850 
   61.5000    61.4980    -0.2630    -0.1080    94.5420     7.6750     5.3360     5.9180    25.6440   -43.1460     2.2700 
   61.6250    61.6230    -0.2650    -0.1090    98.6840     7.5470     5.3100     5.3370    25.6440   -42.8880     2.2620 
   61.7500    61.7480    -0.2670    -0.1100    98.5920     7.3840     5.2590     5.7110    25.6420   -42.5840     2.2600 
   61.8750    61.8730    -0.2690    -0.1110    92.8480     7.3890     5.2720     6.4580    25.6400   -42.2570     2.2630 
   62.0000    61.9980    -0.2710    -0.1110    86.0720     7.8610     5.5090     6.6400    25.6430   -41.9120     2.2750 
   62.1250    62.1230    -0.2730    -0.1120    83.8240     9.2670     6.2540     6.1750    25.6680   -41.5510     2.3150 
   62.2500    62.2480    -0.2750    -0.1130    82.8960    11.6130     7.5830     6.4910    25.6970   -41.2030     2.3900 
   62.3750    62.3730    -0.2770    -0.1130    80.9390    14.6200     9.4270     8.9180    25.6890   -40.8370     2.4750 
   62.5000    62.4980    -0.2790    -0.1140    77.6940    17.3650    11.3350    16.0730    25.6100   -40.4460     2.5210 
   62.6250    62.6230    -0.2810    -0.1150    74.7050    17.9090    12.1680    28.3730    25.4730   -40.0300     2.4860 
   62.7500    62.7480    -0.2830    -0.1150    74.8570    16.0030    11.5170    32.0430    25.3990   -39.5750     2.4070 
   62.8750    62.8730    -0.2850    -0.1160    78.5220    12.9870     9.9520    21.1300    25.4720   -39.0970     2.3240 
   63.0000    62.9980    -0.2870    -0.1170    80.8240    10.4920     8.3930     9.9790    25.6410   -38.6320     2.2710 
   63.1250    63.1230    -0.2890    -0.1180    79.3780     9.4620     7.4950     7.0100    25.7620   -38.1520     2.2770 
   63.2500    63.2480    -0.2910    -0.1180    77.6970     9.5220     7.2210     7.8660    25.8160   -37.6820     2.3270 
   63.3750    63.3730    -0.2930    -0.1190    77.8840    10.2020     7.3960    11.2860    25.8610   -37.2480     2.3830 
   63.5000    63.4980    -0.2950    -0.1200    77.2140    10.9270     7.7380    16.1750    25.9460   -36.8300     2.4010 
   63.6250    63.6230    -0.2970    -0.1200    75.9830    11.0610     7.8800    11.8860    26.0850   -36.5000     2.3600 
   63.7500    63.7480    -0.2990    -0.1210    75.7560    10.6010     7.6990     8.4530    26.2370   -36.2560     2.2950 
   63.8750    63.8730    -0.3010    -0.1220    74.5600     9.8740     7.2950     7.1360    26.3430   -36.0110     2.2400 
   64.0000    63.9980    -0.3030    -0.1220    73.4970     9.2500     6.8650     7.0290    26.3740   -35.7240     2.2130 
   64.1250    64.1230    -0.3060    -0.1270    75.4830     8.9510     6.5930     7.1290    26.3650   -35.4830     2.2130 
   64.2500    64.2470    -0.3090    -0.1310    77.2410     8.8440     6.4750     7.3420    26.3750   -35.3210     2.2190 
   64.3750    64.3720    -0.3130    -0.1360    76.1750     8.7800     6.4310     7.5850    26.4920   -35.2320     2.2210 
   64.5000    64.4970    -0.3160    -0.1400    73.9650     8.7020     6.3950     7.7120    26.8230   -35.2470     2.2140 
   64.6250    64.6220    -0.3200    -0.1450    76.2960     8.7290     6.3900     7.4260    27.3060   -35.2850     2.2000 
   64.7500    64.7470    -0.3230    -0.1490    79.5410     8.9730     6.4880     6.8630    27.6740   -35.2650     2.1950 
   64.8750    64.8720    -0.3270    -0.1540    77.9280     9.4550     6.7310     6.6300    27.7890   -35.2220     2.2140 
   65.0000    64.9970    -0.3300    -0.1580    72.8410    10.0940     7.1010     8.4120    27.6820   -35.1850     2.2580 
   65.1250    65.1210    -0.3340    -0.1630    69.8480    10.6670     7.4880    11.3600    27.5460   -35.0550     2.3030 
   65.2500    65.2460    -0.3370    -0.1670    70.2110    10.9250     7.7190    12.0910    27.5730   -34.7870     2.3190 
   65.3750    65.3710    -0.3410    -0.1720    71.1660    10.7690     7.6980     9.4420    27.8060   -34.4420     2.2960 
   65.5000    65.4960    -0.3440    -0.1760    70.2160    10.2870     7.4470     7.8480    28.1950   -34.0480     2.2480 
   65.6250    65.6210    -0.3470    -0.1810    67.5130     9.7170     7.0920     7.6710    28.7520   -33.6470     2.2010 
   65.7500    65.7460    -0.3510    -0.1850    65.6000     9.2940     6.8020     7.6040    29.4390   -33.3090     2.1720 
   65.8750    65.8710    -0.3540    -0.1900    66.1260     9.0990     6.6560     7.5670    30.1000   -33.0720     2.1600 
   66.0000    65.9950    -0.3580    -0.1940    68.5440     9.1040     6.6540     7.5900    30.5510   -32.9420     2.1540 
   66.1250    66.1200    -0.3610    -0.1990    69.7250     9.2080     6.7340     7.5180    30.8520   -33.0140     2.1350 
   66.2500    66.2450    -0.3650    -0.2030    69.3090     9.2710     6.7870     7.2220    31.3670   -33.2500     2.0980 
   66.3750    66.3700    -0.3680    -0.2080    69.0500     9.2050     6.7460     6.8490    32.1730   -33.5960     2.0560 
   66.5000    66.4950    -0.3720    -0.2120    72.0380     8.9710     6.5830     6.8340    32.8780   -34.0150     2.0250 
   66.6250    66.6200    -0.3750    -0.2170    79.6550     8.6000     6.3210     6.5710    32.9110   -34.4930     2.0060 
   66.7500    66.7450    -0.3790    -0.2210    87.1870     8.2300     6.0520     5.8960    32.5370   -34.9550     1.9790 
   66.8750    66.8690    -0.3820    -0.2260    90.5830     7.9820     5.8490     5.3870    32.2070   -35.3390     1.9320 
   67.0000    66.9940    -0.3850    -0.2300    88.8620     7.9360     5.7600     5.4730    32.0120   -35.5950     1.8720 
   67.1250    67.1190    -0.3890    -0.2350    82.5050     8.1250     5.8100     6.0750    31.3590   -35.6590     1.8280 
   67.2500    67.2440    -0.3920    -0.2390    76.0190     8.4230     5.9390     6.7660    29.8760   -35.6400     1.8200 
   67.3750    67.3690    -0.3960    -0.2440    72.2730     8.7300     6.0950     7.0200    27.9470   -35.5300     1.8540 
   67.5000    67.4940    -0.3990    -0.2480    71.0490     9.0150     6.2560     7.3870    26.4080   -35.3130     1.9190 
   67.6250    67.6190    -0.4030    -0.2530    67.7910     9.3440     6.4500     7.5380    25.8700   -35.0560     2.0050 
   67.7500    67.7440    -0.4060    -0.2570    64.5710     9.7700     6.6990     7.6390    25.8300   -34.8520     2.0940 
   67.8750    67.8680    -0.4100    -0.2620    65.3800    10.2510     6.9880     7.9860    25.8660   -34.6930     2.1730 
   68.0000    67.9930    -0.4130    -0.2660    68.6530    10.6130     7.2320     9.5310    25.8660   -34.5550     2.2220 
   68.1250    68.1180    -0.4170    -0.2710    69.7080    10.5630     7.2670    12.1250    25.8390   -34.4450     2.2230 
