~V
VERS. 2.00: Ver 2.00
~W
STRT.M 32.0000:
STOP.M 275.0000:
STEP.M 0.1250:
NULL. -999.2500:
UWI. FD10902:
~C
DEPT.M :
TVD. :
DX. :
DY. :
SP.MV :
GR.API :
RI. :
RML.OHMM :
RXO.OHMM :
DEN.GM/CC :
~A
# ...
  205.3750   195.2950    49.4070   -14.7320     1.8680    72.1950    15.8980    16.0230    16.0280     2.2350 
  205.5000   195.4060    49.4630   -14.7500     2.0850    71.7540    15.2820    15.4140    16.0470     2.2380 
  205.6250   195.5160    49.5190   -14.7690     2.0510    69.9790    14.9400    15.1530    16.2130     2.2460 
  205.7500   195.6260    49.5740   -14.7870     1.9540    69.1810    14.7960    15.1190    16.2480     2.2560 
  205.8750   195.7370    49.6300   -14.8050     1.8240    69.7240    14.7720    15.1960    16.1780     2.2660 
  206.0000   195.8470    49.6860   -14.8230     1.6660    71.0830    14.6760    15.1390    15.8150     2.2740 
  206.1250   195.9570    49.7420   -14.8420     1.5290    70.7460    14.3820    14.8350    15.6040     2.2770 
  206.2500   196.0680    49.7980   -14.8600     1.4470    67.6830    14.0520    14.4860    15.4530     2.2790 
  206.3750   196.1780    49.8540   -14.8780     1.3730    65.0130    14.0430    14.5380    15.1520     2.2780 
  206.5000   196.2880    49.9100   -14.8970     1.3560    62.2930    14.6970    15.3600    15.5640     2.2760 
  206.6250   196.3990    49.9660   -14.9150     1.4100    60.9890    15.9320    16.8420    16.6320     2.2760 
  206.7500   196.5090    50.0220   -14.9330     1.4250    57.8420    17.7850    19.0010    18.0090     2.2780 
  206.8750   196.6190    50.0780   -14.9520     1.4400    56.6280    19.6950    21.1580    20.3210     2.2810 
  207.0000   196.7290    50.1340   -14.9700     1.3810    56.3700    21.1620    22.7730    21.7310     2.2820 
  207.1250   196.8390    50.1900   -14.9880     1.3040    58.1820    22.1020    23.8200    22.8030     2.2800 
  207.2500   196.9500    50.2460   -15.0070     1.1770    59.0290    22.4100    24.2000    23.5150     2.2780 
  207.3750   197.0600    50.3020   -15.0250     1.2600    58.3650    22.0810    23.9520    22.4100     2.2780 
  207.5000   197.1700    50.3580   -15.0430     1.3040    56.8890    21.1780    23.0770    21.0110     2.2800 
  207.6250   197.2800    50.4150   -15.0610     1.0600    55.8610    19.7080    21.5240    19.8560     2.2870 
  207.7500   197.3900    50.4710   -15.0800     0.6800    56.8020    17.7920    19.4530    18.4460     2.2940 
  207.8750   197.5000    50.5270   -15.0980     0.3370    59.7350    15.9650    17.5310    17.4370     2.2980 
  208.0000   197.6100    50.5840   -15.1160     0.0460    61.2870    14.7280    16.3330    16.9650     2.2970 
  208.1250   197.7200    50.6400   -15.1340    -0.0700    60.3400    14.2620    16.1190    16.7710     2.2870 
  208.2500   197.8300    50.6970   -15.1520    -0.1040    57.1780    15.0070    17.3830    17.1680     2.2620 
  208.3750   197.9400    50.7530   -15.1710    -0.0290    55.6820    16.2950    19.1080    17.8790     2.2370 
  208.5000   198.0500    50.8100   -15.1890     0.1780    58.1920    16.2310    18.8650    18.3330     2.2360 
  208.6250   198.1600    50.8660   -15.2070     0.3470    62.6680    14.5450    16.5520    18.3560     2.2520 
  208.7500   198.2700    50.9230   -15.2250     0.6180    67.2660    11.3310    12.3920    16.5200     2.2780 
  208.8750   198.3800    50.9790   -15.2440     0.7910    72.0470     7.9540     8.3590    14.3520     2.3070 
  209.0000   198.4900    51.0360   -15.2620     0.6930    76.8990     5.7170     5.9040    10.1750     2.3370 
  209.1250   198.6000    51.0920   -15.2800     0.3200    81.5940     4.4900     4.6700     6.0270     2.3520 
  209.2500   198.7100    51.1490   -15.2990    -0.1720    83.3170     3.9320     4.2020     4.8080     2.3540 
  209.3750   198.8200    51.2050   -15.3170    -0.9250    82.8770     3.7890     4.1770     4.5620     2.3620 
  209.5000   198.9300    51.2620   -15.3350    -1.7860    80.6020     3.8640     4.3430     4.5620     2.3810 
  209.6250   199.0400    51.3180   -15.3530    -2.4750    78.8670     3.9210     4.4420     4.5620     2.3900 
  209.7500   199.1500    51.3750   -15.3710    -2.7240    77.4850     3.9230     4.4340     4.5620     2.3840 
  209.8750   199.2600    51.4320   -15.3890    -2.4880    77.4260     3.8580     4.3350     4.5620     2.3740 
  210.0000   199.3700    51.4880   -15.4070    -2.0950    78.3610     3.7660     4.2130     4.5330     2.3660 
  210.1250   199.4800    51.5450   -15.4250    -1.5190    80.7660     3.6860     4.1140     4.3870     2.3680 
  210.2500   199.5900    51.6020   -15.4430    -0.9140    83.4170     3.6310     4.0570     4.3680     2.3690 
  210.3750   199.7000    51.6580   -15.4610    -0.7150    85.3310     3.6210     4.0520     4.2350     2.3830 
  210.5000   199.8100    51.7150   -15.4790    -0.6440    85.6320     3.5930     4.0220     4.1430     2.3860 
  210.6250   199.9200    51.7720   -15.4970    -0.3930    84.6320     3.5620     3.9910     4.0840     2.3820 
  210.7500   200.0300    51.8290   -15.5150     0.0390    83.4720     3.5190     3.9590     4.0390     2.3720 
  210.8750   200.1400    51.8850   -15.5330     0.4000    82.6700     3.5060     3.9790     4.0710     2.3770 
  211.0000   200.2490    51.9420   -15.5510     0.6070    81.8750     3.5360     4.0500     4.0910     2.3870 
  211.1250   200.3590    51.9990   -15.5690     0.8780    82.1820     3.5880     4.1520     4.1490     2.3970 
  211.2500   200.4690    52.0550   -15.5870     1.1640    82.6900     3.6640     4.2770     4.2610     2.3850 
  211.3750   200.5790    52.1120   -15.6050     1.4240    82.4680     3.7130     4.3700     4.3670     2.3670 
  211.5000   200.6890    52.1680   -15.6230     1.6120    83.3720     3.7550     4.4680     4.4310     2.3550 
  211.6250   200.7990    52.2250   -15.6410     1.7860    83.9860     3.8120     4.5870     4.4800     2.3660 
  211.7500   200.9090    52.2810   -15.6590     1.7760    85.5340     3.8810     4.7380     4.5660     2.3740 
  211.8750   201.0190    52.3380   -15.6770     1.6810    84.1500     3.9650     4.8900     4.6210     2.3710 
  212.0000   201.1300    52.3940   -15.6950     1.4910    81.4950     4.0450     5.0100     4.7230     2.3600 
  212.1250   201.2400    52.4510   -15.7130     1.2500    78.2720     4.1180     5.0820     4.8820     2.3590 
  212.2500   201.3500    52.5070   -15.7310     0.7770    76.4070     4.2300     5.1710     5.1070     2.3750 
  212.3750   201.4600    52.5640   -15.7500     0.2740    75.5470     4.4670     5.4030     5.8230     2.4110 
  212.5000   201.5700    52.6200   -15.7680    -0.1250    74.2950     4.8810     5.8650     6.1580     2.4590 
  212.6250   201.6800    52.6770   -15.7860    -0.5200    73.0220     5.5700     6.7030     7.8450     2.5080 
  212.7500   201.7900    52.7330   -15.8040    -0.8740    72.3520     6.7890     8.3520    11.2270     2.5440 
  212.8750   201.9000    52.7890   -15.8220    -1.0970    72.1920     8.8650    11.3690    13.9340     2.5710 
  213.0000   202.0100    52.8460   -15.8400    -1.0660    72.0740    11.2650    14.8080    17.3650     2.5820 
  213.1250   202.1200    52.9020   -15.8580    -0.8730    71.5700    12.2190    16.0960    23.1880     2.5640 
  213.2500   202.2300    52.9580   -15.8760    -0.5240    72.8600    11.2090    14.5490    25.7320     2.4960 
  213.3750   202.3400    53.0150   -15.8940    -0.2020    75.1290     8.3640    10.4120    22.3800     2.4110 
  213.5000   202.4510    53.0710   -15.9130     0.0190    76.0710     5.3670     6.3300    14.4930     2.3590 
  213.6250   202.5610    53.1270   -15.9310     0.1780    73.4700     3.2970     3.7110     6.4950     2.3590 
  213.7500   202.6710    53.1840   -15.9490     0.3680    69.7340     2.3540     2.6740     3.1380     2.3880 
  213.8750   202.7810    53.2400   -15.9670     0.4800    65.8790     1.9380     2.3300     2.4870     2.4170 
  214.0000   202.8910    53.2960   -15.9850     0.4930    63.2290     1.9500     2.5050     2.5780     2.4530 
  214.1250   203.0010    53.3520   -16.0030     0.5100    61.6180     2.1390     2.8480     2.8590     2.4860 
  214.2500   203.1110    53.4090   -16.0210     0.5620    61.5120     2.3470     3.1510     3.0060     2.4990 
  214.3750   203.2220    53.4650   -16.0390     0.7300    61.9470     2.5060     3.3430     3.1300     2.4750 
