~V
VERS. 2.00: Ver 2.00
~W
STRT.M 15.0000:
STOP.M 236.0000:
STEP.M 0.1250:
NULL. -999.2500:
UWI. FD10614:
~C
DEPT.M :
TVD. :
DX. :
DY. :
DEN.GM/CC :
GR.API :
RML.OHMM :
RI. :
RXO.OHMM :
CALI.CM :
SP.MV :
~A
# ...
  130.5000   127.2200    17.6500     7.7720     2.5160    54.0820    40.2980    41.9240    25.2010    22.1400    -6.1950 
  130.6250   127.3320    17.6990     7.7990     2.5590    55.2870    39.8540    41.6900    28.2040    21.7670    -6.3390 
  130.7500   127.4430    17.7470     7.8260     2.5560    53.8130    39.1890    41.2400    30.0030    21.7400    -6.4770 
  130.8750   127.5550    17.7960     7.8520     2.5070    52.9490    38.2630    40.5000    30.3320    22.0410    -6.5720 
  131.0000   127.6670    17.8450     7.8790     2.4400    53.2720    37.0730    39.4010    28.2610    22.5670    -6.6530 
  131.1250   127.7790    17.8930     7.9060     2.3980    52.6920    35.6920    37.9650    26.4190    22.9050    -6.6620 
  131.2500   127.8910    17.9420     7.9320     2.3960    53.7530    34.3210    36.4510    27.4780    22.8530    -6.6320 
  131.3750   128.0030    17.9910     7.9590     2.4270    57.6190    33.1300    35.0710    28.3490    22.3920    -6.5750 
  131.5000   128.1150    18.0390     7.9860     2.4720    61.3480    32.2800    34.0250    28.3420    21.8380    -6.4770 
  131.6250   128.2270    18.0880     8.0130     2.5120    61.5240    32.0040    33.5790    26.9920    21.5510    -6.4080 
  131.7500   128.3380    18.1370     8.0390     2.5330    59.9600    32.2820    33.7230    27.5790    21.7450    -6.3850 
  131.8750   128.4500    18.1860     8.0660     2.5330    56.9550    33.0380    34.3960    30.0390    22.1940    -6.3570 
  132.0000   128.5620    18.2340     8.0930     2.5200    52.4790    34.0600    35.4180    31.5970    22.6310    -6.3710 
  132.1250   128.6740    18.2830     8.1190     2.5170    49.8840    34.9920    36.4280    31.9470    22.6980    -6.4870 
  132.2500   128.7860    18.3320     8.1460     2.5400    50.7260    35.5610    37.0530    31.5910    22.3680    -6.6280 
  132.3750   128.8980    18.3800     8.1730     2.5830    53.6350    35.7230    37.1760    30.2750    21.6870    -6.7060 
  132.5000   129.0100    18.4290     8.2000     2.6290    56.0640    35.6360    36.9560    29.8990    21.1380    -6.8220 
  132.6250   129.1220    18.4780     8.2260     2.6470    56.8970    35.5890    36.7050    32.6590    21.2410    -6.9610 
  132.7500   129.2340    18.5260     8.2530     2.6310    55.7090    35.7630    36.6620    34.7050    21.7600    -7.1250 
  132.8750   129.3450    18.5750     8.2800     2.5920    53.4150    36.1450    36.8630    33.9600    22.3520    -7.3100 
  133.0000   129.4570    18.6240     8.3060     2.5540    53.6600    36.5820    37.1920    33.3590    22.7160    -7.4920 
  133.1250   129.5690    18.6720     8.3330     2.5440    57.9180    36.8170    37.3890    33.2720    22.6710    -7.6680 
  133.2500   129.6810    18.7210     8.3600     2.5690    59.5410    36.7680    37.3190    34.8860    22.3310    -7.8580 
  133.3750   129.7930    18.7700     8.3870     2.6160    54.8900    36.5040    37.0200    35.0160    21.7950    -8.1330 
  133.5000   129.9050    18.8190     8.4130     2.6660    49.8040    36.1770    36.6490    31.3350    21.3970    -8.3660 
  133.6250   130.0170    18.8670     8.4400     2.6930    51.7130    35.9020    36.3490    28.9210    21.4120    -8.5760 
  133.7500   130.1290    18.9160     8.4670     2.6870    54.9850    35.5900    36.0540    28.8400    21.7260    -8.6940 
  133.8750   130.2400    18.9650     8.4930     2.6530    55.9660    35.0470    35.5570    29.2150    22.0820    -8.8330 
  134.0000   130.3520    19.0130     8.5200     2.6060    56.5980    34.1210    34.6580    28.2610    22.2770    -8.9510 
  134.1250   130.4640    19.0620     8.5470     2.5670    57.6620    32.8170    33.3200    27.5440    22.2030    -9.0110 
  134.2500   130.5760    19.1110     8.5740     2.5500    56.3820    31.4830    31.9090    25.2690    21.9540    -9.0010 
  134.3750   130.6880    19.1590     8.6000     2.5550    54.3580    30.4350    30.7550    22.7340    21.6890    -8.9740 
  134.5000   130.8000    19.2080     8.6270     2.5690    53.5600    29.8880    30.0800    21.7350    21.5590    -8.9860 
  134.6250   130.9120    19.2570     8.6540     2.5740    52.4900    29.9450    30.0170    23.7010    21.6310    -9.0520 
  134.7500   131.0240    19.3050     8.6800     2.5650    51.4400    30.3260    30.3270    25.9930    21.8130    -9.1240 
  134.8750   131.1350    19.3540     8.7070     2.5470    51.9670    30.7670    30.7510    26.2700    22.0100    -9.1750 
  135.0000   131.2470    19.4030     8.7340     2.5300    53.9730    31.0490    31.0230    23.5570    22.0790    -9.2330 
  135.1250   131.3590    19.4510     8.7610     2.5300    54.9700    31.0660    30.9910    21.5030    21.9320    -9.3350 
  135.2500   131.4710    19.5000     8.7870     2.5490    54.9250    30.9570    30.8160    21.7720    21.6110    -9.4800 
  135.3750   131.5830    19.5490     8.8140     2.5810    55.1200    30.8470    30.6480    22.8540    21.2800    -9.6560 
  135.5000   131.6950    19.5980     8.8410     2.6120    55.5140    30.7890    30.5500    22.4700    21.1800    -9.7830 
  135.6250   131.8070    19.6460     8.8670     2.6210    57.9240    30.7240    30.4670    24.2390    21.4430    -9.8870 
  135.7500   131.9190    19.6950     8.8940     2.6040    60.4520    30.5420    30.2650    27.8880    21.9030    -9.9910 
  135.8750   132.0300    19.7440     8.9210     2.5740    60.9660    30.1790    29.8610    28.8030    22.1840   -10.0470 
  136.0000   132.1420    19.7920     8.9480     2.5490    60.0830    29.6440    29.2600    24.7970    22.1150   -10.1000 
  136.1250   132.2540    19.8410     8.9740     2.5510    58.8500    29.0060    28.5390    21.8090    21.8110   -10.0760 
  136.2500   132.3660    19.8900     9.0010     2.5750    57.3560    28.3890    27.8290    21.8030    21.5560   -10.0760 
  136.3750   132.4780    19.9380     9.0280     2.6070    54.6940    27.8650    27.2100    22.0470    21.4640   -10.0330 
  136.5000   132.5900    19.9870     9.0540     2.6310    51.8960    27.4730    26.7390    21.9100    21.5770   -10.0650 
  136.6250   132.7020    20.0360     9.0810     2.6340    51.3850    27.2410    26.4430    22.1500    21.9460   -10.0470 
  136.7500   132.8140    20.0840     9.1080     2.6200    52.5860    27.1490    26.2730    21.9110    22.3370   -10.0760 
  136.8750   132.9250    20.1330     9.1350     2.6010    54.5510    27.2250    26.2500    21.5810    22.5040   -10.1460 
  137.0000   133.0370    20.1820     9.1610     2.5920    56.5890    27.5160    26.4350    21.0440    22.3040   -10.2060 
  137.1250   133.1490    20.2300     9.1880     2.6130    57.5480    28.0730    26.9010    20.6590    21.8000   -10.2890 
  137.2500   133.2610    20.2790     9.2150     2.6550    57.4400    28.7850    27.5440    20.1900    21.3460   -10.3330 
  137.3750   133.3730    20.3280     9.2410     2.6970    57.2040    29.4860    28.2260    19.6590    21.1630   -10.4030 
  137.5000   133.4850    20.3770     9.2680     2.7170    57.5420    29.9270    28.7170    21.5890    21.2810   -10.4600 
  137.6250   133.5970    20.4250     9.2950     2.7010    57.9940    29.7090    28.6040    22.1300    21.6160   -10.5880 
  137.7500   133.7090    20.4740     9.3210     2.6670    58.3650    28.7480    27.7580    20.4610    21.9470   -10.6990 
  137.8750   133.8200    20.5230     9.3480     2.6360    58.8330    27.1020    26.2120    18.2100    22.0240   -10.8050 
  138.0000   133.9320    20.5710     9.3750     2.6270    58.7010    25.0240    24.2030    16.5620    21.7680   -10.8760 
  138.1250   134.0440    20.6200     9.4020     2.6460    58.1110    22.9260    22.1350    15.2800    21.3050   -10.9390 
  138.2500   134.1560    20.6690     9.4280     2.6790    58.5230    21.1910    20.3900    14.7350    21.0320   -10.9570 
  138.3750   134.2680    20.7170     9.4550     2.7100    58.5990    20.0180    19.1380    14.4300    21.0940   -10.9320 
  138.5000   134.3800    20.7660     9.4820     2.7230    57.2900    19.4520    18.4110    13.8660    21.4650   -10.8400 
  138.6250   134.4920    20.8150     9.5080     2.7100    56.1930    19.4360    18.1980    13.7760    21.8580   -10.7240 
