~V
VERS. 2.00: Ver 2.00
~W
STRT.M 15.0000:
STOP.M 236.0000:
STEP.M 0.1250:
NULL. -999.2500:
UWI. FD10614:
~C
DEPT.M :
TVD. :
DX. :
DY. :
DEN.GM/CC :
GR.API :
RML.OHMM :
RI. :
RXO.OHMM :
CALI.CM :
SP.MV :
~A
# ...
  229.5000   212.3970    62.4990    30.4990     2.4170    30.8410     5.1020     4.6060     5.8630    21.5700   -12.3700 
  229.6250   212.5030    62.5590    30.5270     2.4090    30.8410     5.1380     4.6790     5.9100    21.8720   -12.5410 
  229.7500   212.6090    62.6180    30.5560     2.4070    30.8410     5.1080     4.6870     5.8130    22.2730   -12.5960 
  229.8750   212.7160    62.6770    30.5840     2.4130    30.8410     5.0220     4.6350     5.6310    22.5060   -12.5130 
  230.0000   212.8220    62.7360    30.6130     2.4260    30.8410     4.9070     4.5450     5.2410    22.5570   -12.2710 
  230.1250   212.9280    62.7950    30.6420     2.4410    30.8410     4.7990     4.4520     5.0150    22.6490   -11.8730 
  230.2500   213.0350    62.8550    30.6700     2.4510    30.8410     4.7210     4.3840     4.9270    22.9140   -11.3940 
  230.3750   213.1410    62.9140    30.6990     2.4500    30.8410     4.6760     4.3470     4.9180    23.2560   -10.8510 
  230.5000   213.2470    62.9730    30.7270     2.4390    30.8410     4.6550     4.3310     4.8970    23.4530   -10.2980 
  230.6250   213.3530    63.0320    30.7560     2.4210    30.8410     4.6460     4.3250     4.8600    23.3800    -9.6420 
  230.7500   213.4600    63.0920    30.7840     2.4060    30.8410     4.6390     4.3210     4.8270    23.1490    -9.0360 
  230.8750   213.5660    63.1510    30.8130     2.3990    30.8410     4.6340     4.3200     4.8130    22.9040    -8.5990 
  231.0000   213.6720    63.2100    30.8420     2.4040    30.8410     4.6310     4.3210     4.7930    22.7710    -8.3100 
  231.1250   213.7790    63.2690    30.8700     2.4210    30.8410     4.6310     4.3210     4.7830    22.7660    -8.0880 
  231.2500   213.8850    63.3290    30.8990     2.4370    30.8410     4.6310     4.3210     4.7490    22.8020    -7.8940 
  231.3750   213.9910    63.3880    30.9270     2.4400    30.8410     4.6310     4.3210     4.6950    22.9770    -7.7530 
  231.5000   214.0970    63.4470    30.9560     2.4190    30.8410     4.6310     4.3210     4.6780    23.2990    -7.6680 
  231.6250   214.2040    63.5060    30.9840     2.3730    30.8410     4.6310     4.3210     4.7900    23.5570    -7.8040 
  231.7500   214.3100    63.5650    31.0130     2.3160    30.8410     4.6310     4.3210     4.8880    23.9840    -7.9680 
  231.8750   214.4160    63.6250    31.0420     2.2650    30.8410     4.6310     4.3210     4.8600    24.4480    -8.0730 
  232.0000   214.5230    63.6840    31.0700     2.2240    30.8410     4.6310     4.3210     4.7180    24.4820    -8.0350 
  232.1250   214.6290    63.7430    31.0990     2.1940    30.8410     4.6310     4.3210     4.7620    24.0500    -7.8550 
  232.2500   214.7350    63.8020    31.1270     2.1670    30.8410     4.6310     4.3210     5.2450    23.8060    -7.6820 
  232.3750   214.8410    63.8620    31.1560     2.1430    30.8410     4.6310     4.3210     6.2510    23.8360    -7.4940 
  232.5000   214.9480    63.9210    31.1840     2.1260    30.8410     4.6310     4.3210     6.9680    24.0480    -7.3860 
  232.6250   215.0540    63.9800    31.2130     2.1220    30.8410     4.6310     4.3210     6.9750    24.2070    -7.2750 
  232.7500   215.1600    64.0390    31.2420     2.1270    30.8410     4.6310     4.3210     6.7750    24.1100    -7.1500 
  232.8750   215.2670    64.0990    31.2700     2.1360    30.8410     4.6310     4.3210     6.5900    23.7730    -7.0460 
  233.0000   215.3730    64.1580    31.2990     2.1460    30.8410     4.6310     4.3210     6.0540    23.3990    -7.0270 
  233.1250   215.4790    64.2170    31.3270     2.1580    30.8410     4.6310     4.3210     5.7180    23.1470    -7.0270 
  233.2500   215.5860    64.2760    31.3560     2.1740    30.8410     4.6310     4.3210     6.4050    22.9090  -999.2500 
  233.3750   215.6920    64.3350    31.3840     2.2000    30.8410     4.6310     4.3210     7.9120    22.5770  -999.2500 
  233.5000   215.7980    64.3950    31.4130     2.2330    30.8410     4.6310     4.3210     9.2700    22.1430  -999.2500 
  233.6250   215.9040    64.4540    31.4420     2.2630    30.8410     4.6310     4.3210    10.4440    21.7830  -999.2500 
  233.7500   216.0110    64.5130    31.4700     2.2770    30.8410     4.6310     4.3210    12.0660    21.5490  -999.2500 
  233.8750   216.1170    64.5720    31.4990     2.2680    30.8410     4.6310     4.3210    13.7370    21.4980  -999.2500 
  234.0000   216.2230    64.6320    31.5270     2.2340    30.8410     4.6310     4.3210    13.8540    21.6000  -999.2500 
  234.1250   216.3300    64.6910    31.5560     2.1970    30.8410     4.6310     4.3210    12.5100    21.7330  -999.2500 
  234.2500   216.4360    64.7500    31.5840     2.1310    30.8410     4.6310     4.3210    10.0360    21.5740  -999.2500 
  234.3750   216.5420    64.8090    31.6130     2.1120    30.8410     4.6310     4.3210     8.1710    21.0710  -999.2500 
  234.5000   216.6480    64.8680    31.6420     2.1080    30.8410     4.6310     4.3210     6.9480    20.2910  -999.2500 
  234.6250   216.7550    64.9280    31.6700     2.1110    30.8410     4.6310     4.3210     6.0200    19.0750  -999.2500 
  234.7500   216.8610    64.9870    31.6990     2.1140    30.8410     4.6310     4.3210     5.1960    17.4650  -999.2500 
  234.8750   216.9670    65.0460    31.7270     2.1090    30.8410     4.6310     4.3210     4.6470    15.9330  -999.2500 
  235.0000   217.0740    65.1050    31.7560     2.0940    30.8410     4.6310     4.3210     4.3000    14.5710  -999.2500 
  235.1250   217.1800    65.1650    31.7840     2.0690    30.8410     4.6310     4.3210     4.1420    13.5880  -999.2500 
  235.2500   217.2860    65.2240    31.8130     2.0240    30.8410     4.6310     4.3210     4.1040    13.2390  -999.2500 
  235.3750   217.3920    65.2830    31.8420     1.9840    30.8410     4.6310     4.3210     4.1030    13.1740  -999.2500 
  235.5000   217.4990    65.3420    31.8700     1.9160    30.8410     4.6310     4.3210     4.1030    13.1720  -999.2500 
  235.6250   217.6050    65.4020    31.8990     1.6090    30.8410     4.6310     4.3210     4.1030    13.1720  -999.2500 
  235.7500   217.7110    65.4610    31.9270     1.4960    30.8410     4.6310     4.3210     4.1020    13.1720  -999.2500 
  235.8750   217.8180    65.5200    31.9560  -999.2500    30.8410     4.6310     4.3210     4.1020    13.1720  -999.2500 
  236.0000   217.9240    65.5790    31.9840  -999.2500    30.8410     4.6310     4.3210     4.1020    13.1720  -999.2500 
