~V
VERS. 2.00: Ver 2.00
~W
STRT.M 32.0000:
STOP.M 275.0000:
STEP.M 0.1250:
NULL. -999.2500:
UWI. FD10902:
~C
DEPT.M :
TVD. :
DX. :
DY. :
SP.MV :
GR.API :
RI. :
RML.OHMM :
RXO.OHMM :
DEN.GM/CC :
~A
# ...
  123.2500   121.3020    15.5510    -4.2720    -4.2550    71.0470    12.3970    14.1200    10.4580     2.1680 
  123.3750   121.4190    15.5930    -4.2840    -4.0530    72.7280    12.0910    13.8110     8.4750     2.1710 
  123.5000   121.5360    15.6350    -4.2970    -3.8180    72.2650    11.9060    13.6550     6.8850     2.1680 
  123.6250   121.6540    15.6770    -4.3090    -3.6400    71.1420    11.9460    13.8120     7.1150     2.1650 
  123.7500   121.7710    15.7180    -4.3210    -3.4990    69.8020    12.4070    14.4610     9.9150     2.1670 
  123.8750   121.8880    15.7600    -4.3340    -3.3550    68.5750    13.0840    15.3460    13.2810     2.1660 
  124.0000   122.0050    15.8020    -4.3460    -3.1940    65.1990    13.9040    16.3360    15.7240     2.1610 
  124.1250   122.1220    15.8440    -4.3580    -2.9790    61.5140    14.4470    16.9160    16.8880     2.1540 
  124.2500   122.2390    15.8860    -4.3700    -2.7310    59.6770    14.7960    17.2480    16.1510     2.1510 
  124.3750   122.3560    15.9280    -4.3820    -2.4360    59.2890    14.9510    17.3520    15.0000     2.1450 
  124.5000   122.4730    15.9710    -4.3950    -2.1080    57.8220    14.9920    17.3640    14.9890     2.1330 
  124.6250   122.5900    16.0130    -4.4070    -1.7690    56.4860    14.9580    17.3090    15.3180     2.1180 
  124.7500   122.7070    16.0560    -4.4190    -1.4530    57.6010    14.8720    17.2170    15.3820     2.1020 
  124.8750   122.8240    16.0980    -4.4320    -1.1110    60.7650    14.8010    17.1660    15.7240     2.0930 
  125.0000   122.9410    16.1410    -4.4440    -0.9020    63.1730    14.6940    17.0860    15.9670     2.0910 
  125.1250   123.0580    16.1830    -4.4560    -0.7990    63.2320    14.4960    16.8920    15.6010     2.0920 
  125.2500   123.1750    16.2260    -4.4690    -0.6550    62.2670    14.2290    16.6360    15.1200     2.0890 
  125.3750   123.2910    16.2690    -4.4820    -0.4300    61.4390    14.0260    16.4400    14.5150     2.0860 
  125.5000   123.4080    16.3110    -4.4940    -0.2130    62.9210    13.9220    16.3420    12.9590     2.0870 
  125.6250   123.5250    16.3540    -4.5070    -0.1180    64.6440    13.9380    16.3910    10.7570     2.0980 
  125.7500   123.6410    16.3970    -4.5200    -0.0650    66.1350    14.0290    16.5480     8.5650     2.1050 
  125.8750   123.7580    16.4400    -4.5330    -0.0870    66.5170    14.1220    16.7500     6.6550     2.1020 
  126.0000   123.8750    16.4830    -4.5460    -0.1550    66.4250    14.1350    16.8540     5.7170     2.0830 
  126.1250   123.9910    16.5260    -4.5590    -0.3050    66.0220    13.9270    16.6570     5.7690     2.0640 
  126.2500   124.1080    16.5690    -4.5730    -0.5050    64.4490    13.4690    16.1170     6.1610     2.0600 
  126.3750   124.2240    16.6130    -4.5860    -0.6740    63.1930    12.9020    15.4800     6.3700     2.0720 
  126.5000   124.3410    16.6560    -4.6000    -0.6960    62.5350    12.3320    14.8480     6.2750     2.0890 
  126.6250   124.4570    16.6990    -4.6130    -0.8980    63.5290    11.7260    14.1770     6.1260     2.1100 
  126.7500   124.5740    16.7420    -4.6270    -1.2310    64.9690    11.2070    13.6100     6.4430     2.1330 
  126.8750   124.6900    16.7860    -4.6400    -1.4780    66.0090    10.8500    13.1940     6.9150     2.1500 
  127.0000   124.8070    16.8290    -4.6540    -1.6700    66.1200    10.8560    13.2430     6.7530     2.1460 
  127.1250   124.9230    16.8730    -4.6680    -1.9020    66.2900    11.1910    13.6960     6.3350     2.1240 
  127.2500   125.0400    16.9160    -4.6810    -2.0360    65.6710    11.6970    14.4240     6.0860     2.1020 
  127.3750   125.1560    16.9600    -4.6950    -2.0280    64.8130    12.2690    15.1900     5.9350     2.0910 
  127.5000   125.2720    17.0030    -4.7080    -1.8470    64.1630    12.4670    15.4200     5.9360     2.0990 
  127.6250   125.3890    17.0470    -4.7220    -2.0150    65.3050    12.4240    15.2890     5.9330     2.1180 
  127.7500   125.5050    17.0900    -4.7360    -2.3990    67.4290    11.8730    14.3960     5.7670     2.1320 
  127.8750   125.6210    17.1340    -4.7490    -2.6960    69.0680    11.0730    13.2450     5.6280     2.1350 
  128.0000   125.7380    17.1780    -4.7630    -2.8590    70.2390    10.2600    12.1470     5.5630     2.1300 
  128.1250   125.8540    17.2220    -4.7760    -2.9000    72.6250     9.5580    11.2690     5.4690     2.1250 
  128.2500   125.9700    17.2650    -4.7890    -2.7980    75.2090     9.1100    10.7770     5.5140     2.1240 
  128.3750   126.0870    17.3090    -4.8030    -2.5300    76.3190     8.8090    10.5210     5.5470     2.1270 
  128.5000   126.2030    17.3530    -4.8160    -2.0340    73.0170     8.5960    10.3780     5.3320     2.1390 
  128.6250   126.3190    17.3970    -4.8290    -1.3540    70.7280     8.2400    10.0370     5.1510     2.1650 
  128.7500   126.4360    17.4410    -4.8420    -0.7780    70.5110     7.7360     9.4620     5.2410     2.1970 
  128.8750   126.5520    17.4850    -4.8550    -0.3880    74.1100     7.0890     8.6500     5.4640     2.2290 
  129.0000   126.6680    17.5290    -4.8680    -0.2100    77.5350     6.3970     7.7450     5.6930     2.2700 
  129.1250   126.7840    17.5730    -4.8810    -0.0690    81.4820     5.9110     7.1320     6.0120     2.3220 
  129.2500   126.9010    17.6170    -4.8940     0.0600    83.3560     5.9250     7.2080     6.6530     2.3980 
  129.3750   127.0170    17.6610    -4.9070     0.1410    85.0960     6.2760     7.7370     9.1110     2.4570 
  129.5000   127.1330    17.7050    -4.9200     0.1700    85.6860     6.6850     8.3290    14.5410     2.4640 
  129.6250   127.2490    17.7500    -4.9330     0.2050    86.3080     6.9040     8.6240    16.5860     2.4040 
  129.7500   127.3650    17.7940    -4.9450     0.1660    85.9100     6.6850     8.2710    11.4600     2.3360 
  129.8750   127.4820    17.8380    -4.9580     0.1200    86.1120     6.1960     7.5720     7.1820     2.2950 
  130.0000   127.5980    17.8830    -4.9700     0.1130    88.0670     5.6040     6.8040     6.8940     2.2850 
  130.1250   127.7140    17.9270    -4.9830     0.1030    92.1260     5.0880     6.1890     7.1280     2.2830 
  130.2500   127.8300    17.9710    -4.9950     0.0370    94.6580     4.7400     5.8210     6.8840     2.2910 
  130.3750   127.9460    18.0160    -5.0080    -0.0050    97.3170     4.5760     5.6410     6.2490     2.3130 
  130.5000   128.0620    18.0600    -5.0210    -0.0310   100.6960     4.4780     5.4990     5.7280     2.3330 
  130.6250   128.1790    18.1050    -5.0340    -0.0940   105.3700     4.4410     5.4370     5.7700     2.3320 
  130.7500   128.2950    18.1490    -5.0470    -0.1380   108.1090     4.5220     5.5570     6.1280     2.3160 
  130.8750   128.4110    18.1940    -5.0600    -0.2060   106.5920     4.6690     5.7690     6.4700     2.3050 
  131.0000   128.5270    18.2380    -5.0730    -0.2520   103.1810     4.7960     5.9320     6.6610     2.3080 
  131.1250   128.6430    18.2830    -5.0860    -0.2230   100.5630     4.8620     5.9780     6.6040     2.3090 
  131.2500   128.7590    18.3270    -5.0990    -0.1260   100.5620     4.8450     5.8890     6.2820     2.2970 
  131.3750   128.8750    18.3720    -5.1120    -0.0740   101.3330     4.8160     5.7850     6.0230     2.2820 
  131.5000   128.9910    18.4160    -5.1250    -0.0890   100.5050     4.8120     5.7590     6.2590     2.2640 
  131.6250   129.1070    18.4610    -5.1380    -0.1890    99.1500     4.8690     5.8380     6.7580     2.2480 
  131.7500   129.2230    18.5060    -5.1500    -0.3270    97.5940     4.9760     5.9910     6.9380     2.2380 
  131.8750   129.3390    18.5500    -5.1630    -0.5050    97.2410     5.1010     6.1450     6.7150     2.2430 
  132.0000   129.4550    18.5950    -5.1760    -0.6560    96.5230     5.1950     6.2390     6.5960     2.2580 
  132.1250   129.5710    18.6390    -5.1890    -0.8340    96.1180     5.2470     6.2780     6.6460     2.2710 
  132.2500   129.6870    18.6840    -5.2020    -0.9930    95.5480     5.2130     6.2240     6.6100     2.2710 
