~V
VERS. 2.00: Ver 2.00
~W
STRT.M 15.0000:
STOP.M 282.0000:
STEP.M 0.1250:
NULL. -999.2500:
UWI. FD10218:
~C
DEPT.M :
TVD. :
DX. :
DY. :
DEN.GM/CC :
GR.API :
RML.OHMM :
RI. :
RXO.OHMM :
CALI.CM :
SP.MV :
~A
# ...
  155.2500   154.1650     7.9690     7.4570     2.1960    71.2580    56.7930    50.1750    30.0780    19.9020    -8.1410 
  155.3750   154.2850     7.9940     7.4810     2.1940    75.0280    57.6760    50.3610    29.3980    19.7790    -8.4150 
  155.5000   154.4050     8.0200     7.5050     2.1930    75.5670    59.6440    51.7130    27.6120    19.7390    -8.6830 
  155.6250   154.5250     8.0450     7.5280     2.1920    71.6460    62.5630    54.2030    25.2250    19.7390    -8.9830 
  155.7500   154.6460     8.0700     7.5520     2.1920    68.5890    65.7980    57.2930    24.6390    19.7390    -9.2890 
  155.8750   154.7660     8.0960     7.5750     2.1920    69.0620    68.7400    60.4340    26.7440    19.7390    -9.6220 
  156.0000   154.8860     8.1210     7.5990     2.1950    70.7900    70.7540    62.9430    28.9690    19.7430    -9.9500 
  156.1250   155.0060     8.1460     7.6220     2.2030    70.2660    71.1660    63.9860    29.5980    19.7660   -10.1780 
  156.2500   155.1260     8.1710     7.6460     2.2150    70.2850    70.3180    63.6690    30.2260    19.7920   -10.4130 
  156.3750   155.2460     8.1970     7.6700     2.2270    71.8890    68.7740    62.4630    31.7920    19.7950   -10.6290 
  156.5000   155.3660     8.2220     7.6930     2.2380    71.6110    67.2450    61.0970    32.6740    19.8460   -10.7530 
  156.6250   155.4860     8.2470     7.7170     2.2430    69.3010    66.4050    60.3060    29.0230    20.0520   -10.8750 
  156.7500   155.6060     8.2720     7.7400     2.2420    68.2500    66.2770    60.1850    25.5780    20.2890   -10.9900 
  156.8750   155.7270     8.2980     7.7640     2.2380    68.8610    66.6140    60.5460    24.0510    20.3890   -11.0180 
  157.0000   155.8470     8.3230     7.7880     2.2340    68.9530    66.9200    61.0920    24.1500    20.3260   -11.0380 
  157.1250   155.9670     8.3480     7.8110     2.2300    67.6740    66.1610    61.1190    24.8020    20.1370   -11.0190 
  157.2500   156.0870     8.3740     7.8350     2.2280    67.3270    63.4660    59.5930    26.0610    20.0420   -10.8930 
  157.3750   156.2070     8.3990     7.8580     2.2290    68.1900    58.3200    55.5850    27.5430    19.9850   -10.7350 
  157.5000   156.3270     8.4240     7.8820     2.2340    69.5030    51.0520    49.0510    27.1680    19.8920   -10.5530 
  157.6250   156.4470     8.4490     7.9060     2.2430    71.3700    43.0020    41.1620    24.5030    19.7740   -10.2780 
  157.7500   156.5670     8.4750     7.9290     2.2540    74.5390    36.0370    34.0480    22.0290    19.6750    -9.9900 
  157.8750   156.6880     8.5000     7.9530     2.2620    78.5170    31.1920    28.8930    20.6910    19.6420    -9.6620 
  158.0000   156.8080     8.5250     7.9760     2.2630    80.8510    28.7900    26.0540    20.3720    19.7650    -9.3360 
  158.1250   156.9280     8.5500     8.0000     2.2550    80.3510    28.8600    25.6090    20.8790    20.0860    -9.0850 
  158.2500   157.0480     8.5760     8.0230     2.2420    79.4060    30.3310    26.7300    22.1010    20.3820    -8.8500 
  158.3750   157.1680     8.6010     8.0470     2.2310    76.6560    32.3480    28.8440    23.9830    20.5490    -8.6690 
  158.5000   157.2880     8.6260     8.0710     2.2250    72.9780    33.9250    31.0720    25.2570    20.6430    -8.5220 
  158.6250   157.4080     8.6520     8.0940     2.2280    72.9370    33.8130    31.9600    23.4610    20.7420    -8.3890 
  158.7500   157.5280     8.6770     8.1180     2.2370    75.1030    31.7740    30.7760    20.7390    20.7900    -8.3540 
  158.8750   157.6490     8.7020     8.1410     2.2500    75.3600    28.0630    27.4910    18.8320    20.7170    -8.3880 
  159.0000   157.7690     8.7270     8.1650     2.2670    73.9910    23.4340    22.8410    17.5300    20.5590    -8.3750 
  159.1250   157.8890     8.7530     8.1890     2.2900    76.9450    18.9460    18.1330    16.5280    20.4680    -8.4050 
  159.2500   158.0090     8.7780     8.2120     2.3150    81.6900    15.3630    14.3470    15.5860    20.5080    -8.3860 
  159.3750   158.1290     8.8030     8.2360     2.3330    82.8500    12.9770    11.7430    14.4760    20.6210    -8.3900 
  159.5000   158.2490     8.8280     8.2590     2.3380    82.0130    11.7750    10.2550    13.4380    20.8350    -8.3970 
  159.6250   158.3690     8.8540     8.2830     2.3270    82.8030    11.6750     9.8230    13.1390    21.1410    -8.3690 
  159.7500   158.4890     8.8790     8.3060     2.3120    82.8710    12.1790    10.0530    13.7090    21.3390    -8.3190 
  159.8750   158.6100     8.9040     8.3300     2.2990    80.5620    12.9570    10.7020    14.6810    21.3010    -8.2430 
  160.0000   158.7300     8.9300     8.3540     2.2950    77.2210    13.7030    11.4810    15.2290    21.1740    -8.2300 
  160.1250   158.8500     8.9550     8.3770     2.2980    76.2650    14.1510    12.0490    14.6340    21.1680    -8.2260 
  160.2500   158.9700     8.9800     8.4010     2.2990    76.7390    14.3250    12.2980    14.2930    21.2600    -8.2740 
  160.3750   159.0900     9.0050     8.4240     2.2970    77.5530    14.3650    12.3190    14.1910    21.3540    -8.2860 
  160.5000   159.2100     9.0310     8.4480     2.2900    78.5740    14.4600    12.3030    14.8210    21.3540    -8.2880 
  160.6250   159.3300     9.0560     8.4720     2.2790    77.4210    14.7860    12.4460    15.8350    21.2090    -8.3500 
  160.7500   159.4500     9.0810     8.4950     2.2680    76.8470    15.3260    12.7790    16.7280    21.0400    -8.4370 
  160.8750   159.5700     9.1060     8.5190     2.2600    78.7020    15.9920    13.2540    17.7440    20.9140    -8.5320 
  161.0000   159.6910     9.1320     8.5420     2.2530    82.8460    16.6530    13.7740    18.9770    20.8000    -8.5480 
  161.1250   159.8110     9.1570     8.5660     2.2480    84.6560    17.1280    14.1910    19.3960    20.8350    -8.5650 
  161.2500   159.9300     9.1830     8.5910     2.2430    83.2110    17.3290    14.3930    19.2380    21.0840    -8.5530 
  161.3750   160.0500     9.2100     8.6160     2.2380    82.4850    17.2280    14.3220    18.6670    21.5090    -8.5920 
  161.5000   160.1690     9.2370     8.6410     2.2370    83.5560    16.8710    13.9980    18.6550    21.9720    -8.6560 
  161.6250   160.2890     9.2640     8.6660     2.2400    82.2630    16.3770    13.5050    19.3420    22.4480    -8.7410 
  161.7500   160.4080     9.2910     8.6910     2.2420    78.6540    15.9370    13.0210    19.9080    22.9860    -8.8040 
  161.8750   160.5280     9.3170     8.7160     2.2370    76.9130    15.6820    12.6720    19.3400    23.4590    -8.8680 
  162.0000   160.6470     9.3440     8.7410     2.2280    77.9160    15.6880    12.5480    18.3160    23.6940    -8.9590 
  162.1250   160.7670     9.3710     8.7660     2.2230    78.9080    15.9760    12.7130    18.6350    23.5700    -9.0180 
  162.2500   160.8860     9.3980     8.7910     2.2280    79.8370    16.3860    13.0610    19.2140    23.1080    -9.1190 
  162.3750   161.0060     9.4240     8.8160     2.2420    81.4590    16.7610    13.4660    19.7990    22.3810    -9.1980 
  162.5000   161.1250     9.4510     8.8410     2.2580    82.9330    16.9540    13.7750    20.0340    21.7550    -9.2680 
  162.6250   161.2450     9.4780     8.8660     2.2660    83.0240    16.8270    13.8120    19.8590    21.2570    -9.2670 
  162.7500   161.3640     9.5050     8.8910     2.2670    83.9950    16.4420    13.5810    19.1150    21.1210    -9.3060 
  162.8750   161.4840     9.5310     8.9170     2.2650    87.5970    15.8890    13.1460    17.8450    21.2340    -9.3410 
  163.0000   161.6030     9.5580     8.9420     2.2640    90.9480    15.2830    12.6070    16.8060    21.4970    -9.3930 
  163.1250   161.7230     9.5850     8.9670     2.2660    89.4690    14.7500    12.0760    16.5610    21.6460    -9.4680 
  163.2500   161.8420     9.6120     8.9920     2.2710    87.6720    14.3600    11.6370    16.7190    21.6710    -9.5170 
  163.3750   161.9620     9.6390     9.0170     2.2760    89.8310    14.1460    11.3380    16.4390    21.4300    -9.6040 
