~V
VERS. 2.00: Ver 2.00
~W
STRT.M 1.0000:
STOP.M 198.0000:
STEP.M 0.1250:
NULL. -999.2500:
UWI. FD10802:
~C
DEPT.M :
TVD. :
DX. :
DY. :
SP.MV :
GR.API :
RI. :
RML.OHMM :
RXO.OHMM :
DEN.GM/CC :
~A
# ...
  165.2500   160.2520   -19.7040    21.7080   -13.7870    69.3030   101.4840   121.5320    90.7330     2.1510 
  165.3750   160.3670   -19.7390    21.7420   -13.5370    67.3500   129.5360   155.2130   101.2290     2.1440 
  165.5000   160.4820   -19.7740    21.7770   -13.0200    66.5260   150.0700   179.7270   106.4650     2.1460 
  165.6250   160.5970   -19.8090    21.8110   -12.3780    65.6890   162.7100   194.7130   120.2540     2.1450 
  165.7500   160.7120   -19.8440    21.8450   -11.8080    64.9800   171.7970   208.6270   142.9350     2.1430 
  165.8750   160.8270   -19.8790    21.8790   -11.3810    65.0490   183.0400   219.8740   171.6190     2.1400 
  166.0000   160.9420   -19.9140    21.9130   -11.1200    66.1150   193.1800   230.1630   191.6880     2.1420 
  166.1250   161.0570   -19.9490    21.9470   -11.2080    66.6740   198.6350   234.5770   195.2100     2.1400 
  166.2500   161.1720   -19.9840    21.9810   -11.3710    66.8550   200.0720   233.6940   190.7950     2.1400 
  166.3750   161.2870   -20.0190    22.0150   -11.5030    67.7280   200.3730   231.8480   186.0580     2.1370 
  166.5000   161.4020   -20.0540    22.0490   -11.6860    69.2830   203.9450   232.8270   189.4610     2.1300 
  166.6250   161.5170   -20.0890    22.0840   -11.9440    70.2170   209.9450   235.9900   186.7650     2.1260 
  166.7500   161.6320   -20.1240    22.1180   -12.1470    69.4700   215.1990   237.5660   168.2250     2.1320 
  166.8750   161.7470   -20.1590    22.1520   -12.4450    68.1520   211.9860   232.7980   164.0780     2.1430 
  167.0000   161.8620   -20.1940    22.1860   -12.9080    66.3970   192.9710   210.1910   167.7230     2.1480 
  167.1250   161.9770   -20.2290    22.2200   -13.3070    66.1760   163.2730   175.9850   151.0860     2.1520 
  167.2500   162.0920   -20.2640    22.2540   -13.7340    67.7600   130.8130   141.8430   128.9910     2.1650 
  167.3750   162.2070   -20.3000    22.2890   -14.3820    70.7700   106.5530   115.3310   101.1880     2.1840 
  167.5000   162.3220   -20.3350    22.3230   -15.3670    73.8700    94.8410   102.3170    77.1530     2.1930 
  167.6250   162.4370   -20.3700    22.3570   -16.4330    74.7420    93.4080   100.4530    86.9170     2.1860 
  167.7500   162.5520   -20.4050    22.3910   -17.3590    72.9460   101.1690   108.9570   100.9530     2.1770 
  167.8750   162.6670   -20.4400    22.4260   -18.0510    68.5840   118.1220   126.3390    93.4910     2.1730 
  168.0000   162.7820   -20.4750    22.4600   -19.0000    64.2420   141.9470   150.7640    86.8510     2.1680 
  168.1250   162.8970   -20.5110    22.4940   -19.8510    60.7860   169.6900   179.0330    97.9300     2.1540 
  168.2500   163.0120   -20.5460    22.5280   -20.3850    59.9000   197.4990   205.8030   121.8030     2.1270 
  168.3750   163.1270   -20.5810    22.5630   -20.7260    59.3830   215.9060   223.8100   145.4680     2.0980 
  168.5000   163.2420   -20.6170    22.5970   -20.9380    57.7040   221.1690   227.1880   160.0370     2.0770 
  168.6250   163.3570   -20.6520    22.6310   -21.0890    55.3020   209.4390   215.4010   154.7490     2.0810 
  168.7500   163.4720   -20.6880    22.6650   -21.0280    55.1560   188.9730   196.1170   130.9000     2.1090 
  168.8750   163.5870   -20.7230    22.6990   -20.9600    56.1920   172.7750   181.1690   100.8070     2.1400 
  169.0000   163.7010   -20.7580    22.7340   -21.0190    57.2080   167.0370   177.1520    79.1990     2.1460 
  169.1250   163.8160   -20.7940    22.7680   -21.0580    56.7900   171.2660   182.0510   109.0850     2.1330 
  169.2500   163.9310   -20.8290    22.8020   -20.9730    57.0280   178.6560   189.6890   185.1480     2.1200 
  169.3750   164.0460   -20.8650    22.8370   -20.8480    57.0630   183.9710   193.4500   222.9770     2.1280 
  169.5000   164.1610   -20.9000    22.8710   -20.5730    56.7550   180.6470   189.3650   198.2540     2.1540 
  169.6250   164.2760   -20.9360    22.9050   -20.2610    56.4950   173.3870   181.2540   146.2560     2.1760 
  169.7500   164.3910   -20.9710    22.9400   -19.9090    57.5320   165.9960   174.6160   109.4650     2.1760 
  169.8750   164.5050   -21.0070    22.9740   -19.5360    58.7030   164.9460   175.3420   121.0890     2.1540 
  170.0000   164.6200   -21.0420    23.0080   -19.0390    58.6180   175.4190   187.8860   154.6480     2.1330 
  170.1250   164.7350   -21.0780    23.0420   -18.3900    57.4610   195.8370   208.7570   153.0510     2.1230 
  170.2500   164.8500   -21.1130    23.0760   -17.6560    56.1180   217.0350   229.6440   138.4460     2.1230 
  170.3750   164.9650   -21.1490    23.1110   -17.0160    54.9140   232.4150   244.1850   171.2110     2.1200 
  170.5000   165.0800   -21.1840    23.1450   -16.5450    53.5470   238.6560   249.9280   210.6140     2.1180 
  170.6250   165.1950   -21.2200    23.1790   -15.9960    53.1990   240.3030   251.1950   202.0290     2.1260 
  170.7500   165.3100   -21.2550    23.2130   -15.3990    53.3450   241.4410   251.7130   167.2730     2.1550 
  170.8750   165.4240   -21.2910    23.2470   -14.7480    53.6100   241.3610   250.8320   141.6490     2.2120 
  171.0000   165.5390   -21.3260    23.2810   -14.0560    53.8150   233.9150   241.8400   132.2860     2.3140 
  171.1250   165.6540   -21.3620    23.3150   -13.4660    55.2210   203.1120   212.9730   133.9140     2.4410 
  171.2500   165.7690   -21.3970    23.3500   -13.2880    57.3540   161.3630   168.5750   137.3890     2.5430 
  171.3750   165.8840   -21.4320    23.3840   -13.5410    60.0720   119.1560   124.6290   121.2000     2.5700 
  171.5000   165.9990   -21.4680    23.4180   -13.9560    65.4170    88.1690    93.7880    79.2160     2.5260 
  171.6250   166.1140   -21.5030    23.4520   -14.3780    74.0770    74.4670    77.8370    43.6340     2.4590 
  171.7500   166.2290   -21.5390    23.4860   -15.2310    84.0740    67.2870    70.1540    32.4590     2.4160 
  171.8750   166.3440   -21.5740    23.5200   -15.9310    89.6480    65.3050    68.0020    28.5270     2.4090 
  172.0000   166.4590   -21.6100    23.5540   -16.2330    89.2250    69.4800    72.1940    25.9940     2.4420 
  172.1250   166.5740   -21.6450    23.5880   -16.2030    84.6280    78.5890    81.3530    33.3200     2.4910 
  172.2500   166.6890   -21.6810    23.6220   -15.4180    79.7040    90.9860    94.2970    56.8660     2.5320 
  172.3750   166.8030   -21.7160    23.6560   -14.5650    75.8300   105.2420   108.3460    82.7550     2.5510 
  172.5000   166.9180   -21.7510    23.6900   -13.8920    71.6670   115.8940   119.0700    95.5820     2.5600 
  172.6250   167.0330   -21.7870    23.7240   -12.7030    68.9980   120.7930   124.6480   103.7250     2.5670 
  172.7500   167.1480   -21.8220    23.7590   -11.4150    67.5450   119.6440   124.1590   105.1190     2.5730 
  172.8750   167.2630   -21.8580    23.7930   -10.6480    67.9430   113.7310   119.8570    94.7860     2.5790 
  173.0000   167.3780   -21.8930    23.8270   -10.0840    67.8750   109.1090   115.5820    85.4780     2.5920 
  173.1250   167.4930   -21.9290    23.8610    -9.5290    68.9330   106.2100   111.7520    96.5090     2.6060 
  173.2500   167.6080   -21.9640    23.8950    -9.1170    70.6830   106.4480   112.3770   113.1980     2.6190 
  173.3750   167.7230   -21.9990    23.9290    -8.7220    74.6850   109.7820   118.7520   106.3610     2.6140 
  173.5000   167.8380   -22.0350    23.9630    -8.3410    77.7450   117.9290   128.8210   104.2890     2.5960 
  173.6250   167.9530   -22.0700    23.9970    -7.9660    78.1420   119.5140   128.7230   126.0940     2.5800 
  173.7500   168.0680   -22.1060    24.0320    -7.8000    75.5180   102.3530   109.1890   136.5020     2.5830 
  173.8750   168.1820   -22.1410    24.0660    -7.6810    72.6750    73.8830    77.2620   114.8580     2.6020 
  174.0000   168.2970   -22.1760    24.1000    -7.4850    72.1110    39.0520    41.7090    75.9500     2.6080 
  174.1250   168.4120   -22.2120    24.1340    -6.9930    72.9010    17.5190    18.6720    41.6830     2.5660 
  174.2500   168.5270   -22.2470    24.1680    -6.3230    74.9340     8.1710     9.3630    20.5380     2.4650 
