~V
VERS. 2.00: Ver 2.00
~W
STRT.M 63.0000:
STOP.M 256.0000:
STEP.M 0.1250:
NULL. -999.2500:
UWI. FD10901:
~C
DEPT.M :
TVD. :
DX. :
DY. :
SP.MV :
GR.API :
RI. :
RML.OHMM :
RXO.OHMM :
DEN.GM/CC :
~A
# ...
  126.8750   126.8230    -0.9330    -1.0140   -20.1780    85.7840     7.6160     8.8380     7.0010     2.1900 
  127.0000   126.9480    -0.9380    -1.0280   -21.0840    83.7080     7.4100     8.5250     6.8360     2.2130 
  127.1250   127.0720    -0.9420    -1.0410   -21.5470    85.2940     6.8450     7.7580     5.8180     2.2450 
  127.2500   127.1960    -0.9470    -1.0550   -21.6920    87.6550     6.3250     7.0840     4.9810     2.2680 
  127.3750   127.3200    -0.9510    -1.0690   -21.4210    90.1710     6.3160     7.0990     5.0890     2.2620 
  127.5000   127.4440    -0.9560    -1.0830   -21.6870    88.5670     7.0840     8.1360     6.3060     2.2400 
  127.6250   127.5680    -0.9600    -1.0970   -22.4500    83.9160     8.7470    10.3080     9.6110     2.2150 
  127.7500   127.6920    -0.9650    -1.1110   -23.1560    77.2800    11.1150    13.2770    12.6860     2.1940 
  127.8750   127.8170    -0.9700    -1.1250   -23.8920    72.4480    13.4690    16.0320    11.8150     2.1750 
  128.0000   127.9410    -0.9740    -1.1390   -24.3910    69.2510    15.1620    17.7570     9.9720     2.1570 
  128.1250   128.0650    -0.9790    -1.1530   -25.0820    66.1370    15.8380    18.1320     9.9990     2.1420 
  128.2500   128.1890    -0.9840    -1.1670   -26.4110    63.6130    15.7790    17.6620    10.5120     2.1350 
  128.3750   128.3130    -0.9890    -1.1820   -28.0670    62.5170    15.5030    17.0840    10.6650     2.1370 
  128.5000   128.4370    -0.9940    -1.1960   -29.0550    62.6080    15.3850    16.8460    10.3130     2.1400 
  128.6250   128.5610    -0.9990    -1.2100   -29.2120    62.1220    15.4750    16.9500     9.7770     2.1420 
  128.7500   128.6850    -1.0040    -1.2250   -28.5690    62.3760    15.6780    17.2810     9.4620     2.1440 
  128.8750   128.8090    -1.0090    -1.2390   -27.7580    63.3450    15.8840    17.6900     9.5390     2.1540 
  129.0000   128.9330    -1.0140    -1.2540   -26.6430    65.8110    15.6870    17.6110     9.7750     2.1630 
  129.1250   129.0570    -1.0190    -1.2690   -24.8720    68.2970    14.4770    16.2610     9.8460     2.1720 
  129.2500   129.1810    -1.0240    -1.2830   -22.7450    72.3030    12.3420    13.7740     9.6870     2.1880 
  129.3750   129.3050    -1.0290    -1.2980   -21.0410    77.6260     9.6180    10.5610     8.3150     2.2200 
  129.5000   129.4290    -1.0340    -1.3130   -19.6930    84.0220     7.2580     7.8020     5.9920     2.2650 
  129.6250   129.5530    -1.0400    -1.3280   -18.5450    89.4020     5.9010     6.2600     4.5520     2.3130 
  129.7500   129.6770    -1.0450    -1.3420   -17.7080    92.2730     5.6000     5.9600     4.4260     2.3690 
  129.8750   129.8010    -1.0500    -1.3570   -16.6270    90.7620     6.3910     6.9600     6.1480     2.4470 
  130.0000   129.9250    -1.0550    -1.3720   -16.5240    87.1420     8.1810     9.1730    10.4580     2.5310 
  130.1250   130.0490    -1.0610    -1.3870   -18.4920    81.3850    11.2280    12.7380    14.8830     2.5560 
  130.2500   130.1730    -1.0660    -1.4020   -20.1920    77.1970    14.2080    16.0280    15.0810     2.4900 
  130.3750   130.2970    -1.0710    -1.4170   -22.2700    73.8390    16.0440    17.8580    12.1050     2.3600 
  130.5000   130.4210    -1.0770    -1.4330   -25.2390    72.0980    16.2790    17.8220    10.2780     2.2450 
  130.6250   130.5450    -1.0820    -1.4480   -26.3820    69.8080    15.1150    16.3390     9.7030     2.1870 
  130.7500   130.6690    -1.0870    -1.4630   -26.3250    68.2960    13.7710    14.8270     9.1510     2.1710 
  130.8750   130.7930    -1.0930    -1.4780   -25.4660    69.3920    12.7200    13.7200     8.8960     2.1740 
  131.0000   130.9170    -1.0980    -1.4940   -24.3850    72.9700    12.0010    13.0160     8.9910     2.1710 
  131.1250   131.0410    -1.1030    -1.5090   -23.6820    75.5580    11.5480    12.6440     9.1580     2.1650 
  131.2500   131.1650    -1.1090    -1.5240   -23.5570    75.3820    11.3680    12.6170     9.2110     2.1580 
  131.3750   131.2890    -1.1140    -1.5400   -24.2340    72.7500    11.4940    12.9660     8.9480     2.1590 
  131.5000   131.4130    -1.1190    -1.5550   -25.2660    70.6330    11.8190    13.5260     8.5620     2.1610 
  131.6250   131.5370    -1.1250    -1.5700   -25.8360    69.7960    12.2500    14.1350     8.5330     2.1600 
  131.7500   131.6610    -1.1300    -1.5860   -26.4410    69.7720    12.5040    14.4270     8.7990     2.1590 
  131.8750   131.7850    -1.1360    -1.6010   -27.5500    70.3720    12.5320    14.3840     9.1400     2.1640 
  132.0000   131.9080    -1.1420    -1.6170   -28.3640    69.5600    12.5160    14.2610     9.3230     2.1760 
  132.1250   132.0320    -1.1470    -1.6320   -28.6270    68.9010    12.6290    14.3350     9.1000     2.1800 
  132.2500   132.1560    -1.1530    -1.6480   -28.0800    66.2420    13.0990    14.8920     9.2740     2.1770 
  132.3750   132.2800    -1.1580    -1.6630   -27.0650    63.9500    13.8400    15.7940     9.9250     2.1700 
  132.5000   132.4040    -1.1640    -1.6790   -26.4060    62.2080    14.6300    16.7460     9.8330     2.1740 
  132.6250   132.5280    -1.1700    -1.6940   -26.2150    63.4890    15.2340    17.4150     9.3740     2.1840 
  132.7500   132.6520    -1.1750    -1.7100   -26.1570    65.7550    15.4930    17.6340     9.0410     2.1920 
  132.8750   132.7760    -1.1810    -1.7260   -25.8770    68.4350    15.3610    17.4040     8.9730     2.1960 
  133.0000   132.9000    -1.1870    -1.7410   -25.7750    70.4390    15.0120    16.9960     9.6330     2.1940 
  133.1250   133.0240    -1.1920    -1.7570   -26.1620    70.5400    14.7920    16.8150     9.9500     2.1930 
  133.2500   133.1470    -1.1980    -1.7720   -26.5500    69.5430    14.6680    16.7610     9.4630     2.1900 
  133.3750   133.2710    -1.2040    -1.7880   -26.5140    66.8990    14.6430    16.7990     9.1300     2.1850 
  133.5000   133.3950    -1.2090    -1.8040   -26.1670    64.6460    14.6400    16.8190     9.2840     2.1750 
  133.6250   133.5190    -1.2150    -1.8190   -25.2860    64.2050    14.5720    16.7440     9.6650     2.1610 
  133.7500   133.6430    -1.2210    -1.8350   -24.0490    64.7450    14.5740    16.7600    10.0260     2.1490 
  133.8750   133.7670    -1.2260    -1.8510   -22.8790    64.6920    14.6810    16.9090    10.0940     2.1440 
  134.0000   133.8910    -1.2320    -1.8660   -21.7970    63.6070    14.8550    17.1310     9.6230     2.1430 
  134.1250   134.0150    -1.2380    -1.8820   -20.8720    64.6130    15.0480    17.3760     9.1980     2.1470 
  134.2500   134.1390    -1.2430    -1.8980   -20.4360    66.7790    15.3030    17.6850     9.7260     2.1480 
  134.3750   134.2620    -1.2490    -1.9140   -20.4230    67.3220    15.5960    18.0440    11.0650     2.1450 
  134.5000   134.3860    -1.2550    -1.9290   -20.5430    65.4710    15.8930    18.4300    11.8280     2.1380 
  134.6250   134.5100    -1.2600    -1.9450   -20.5740    63.7900    16.0920    18.7090    11.5660     2.1360 
  134.7500   134.6340    -1.2660    -1.9610   -19.7150    64.1020    16.1160    18.7970    11.1960     2.1420 
  134.8750   134.7580    -1.2710    -1.9770   -18.7230    65.2400    15.9590    18.6430    10.9950     2.1490 
  135.0000   134.8820    -1.2770    -1.9930   -17.9530    66.1710    15.6470    18.2800    11.0610     2.1430 
  135.1250   135.0060    -1.2830    -2.0090   -17.2730    66.4310    15.5050    18.1430    11.4930     2.1240 
  135.2500   135.1290    -1.2880    -2.0250   -16.5920    66.0050    15.6490    18.3780    11.7310     2.1140 
  135.3750   135.2530    -1.2940    -2.0410   -15.7780    66.9780    16.0560    18.9900    12.5540     2.1510 
  135.5000   135.3770    -1.2990    -2.0570   -14.9190    69.0070    16.4740    19.6090    17.7650     2.2260 
  135.6250   135.5010    -1.3050    -2.0720   -13.9710    72.0110    16.6370    19.8990    22.5420     2.2990 
  135.7500   135.6250    -1.3100    -2.0880   -12.7120    74.3300    16.9420    20.3950    18.6950     2.3460 
  135.8750   135.7490    -1.3160    -2.1040   -11.6530    75.9600    16.8050    20.3090    12.3000     2.3970 
