~V
VERS. 2.00: Ver 2.00
~W
STRT.M 1.0000:
STOP.M 198.0000:
STEP.M 0.1250:
NULL. -999.2500:
UWI. FD10802:
~C
DEPT.M :
TVD. :
DX. :
DY. :
SP.MV :
GR.API :
RI. :
RML.OHMM :
RXO.OHMM :
DEN.GM/CC :
~A
# ...
  183.5000   177.0230   -24.8800    26.7080    -7.9190    74.1870     5.8970     7.3720     6.6320     2.3470 
  183.6250   177.1380   -24.9150    26.7430    -7.9190    76.2400     5.7560     7.1300     6.1730     2.3410 
  183.7500   177.2530   -24.9510    26.7770    -7.9190    79.3120     5.6960     6.9900     5.7920     2.3220 
  183.8750   177.3670   -24.9870    26.8110    -7.9190    84.3120     5.8910     7.2230     5.6170     2.3040 
  184.0000   177.4820   -25.0230    26.8460    -7.9190    91.3930     6.3980     7.9180     5.9360     2.2960 
  184.1250   177.5970   -25.0590    26.8800    -7.9190    97.7090     7.0390     8.8060     6.3560     2.2960 
  184.2500   177.7110   -25.0940    26.9150    -7.9190    99.6570     7.4880     9.4320     6.5210     2.3020 
  184.3750   177.8260   -25.1300    26.9490    -7.9190    98.0290     7.5660     9.5130     6.7070     2.3110 
  184.5000   177.9410   -25.1660    26.9830    -7.9190    93.1730     7.0820     8.8120     6.4790     2.3060 
  184.6250   178.0550   -25.2020    27.0180    -7.9190    88.3370     6.2880     7.7270     5.4960     2.2920 
  184.7500   178.1700   -25.2380    27.0520    -7.9190    85.2370     5.5270     6.7690     4.7050     2.2750 
  184.8750   178.2850   -25.2740    27.0870    -7.9190    84.1580     5.0140     6.2020     4.5540     2.2680 
  185.0000   178.4000   -25.3090    27.1210    -7.9190    85.2380     4.8440     6.0900     4.7010     2.2660 
  185.1250   178.5140   -25.3450    27.1560    -7.9190    86.3050     4.8840     6.2160     4.8820     2.2640 
  185.2500   178.6290   -25.3810    27.1900    -7.9190    88.6860     5.0150     6.4300     4.8730     2.2640 
  185.3750   178.7440   -25.4170    27.2250    -7.9190    91.8680     5.2460     6.7680     4.9910     2.2710 
  185.5000   178.8580   -25.4520    27.2600    -7.9190    96.2200     5.5010     7.1360     5.4910     2.2800 
  185.6250   178.9730   -25.4880    27.2940    -7.9190    99.3170     5.7530     7.5000     5.9630     2.2790 
  185.7500   179.0880   -25.5240    27.3290    -7.9190   100.9230     5.8780     7.6710     6.0790     2.2650 
  185.8750   179.2020   -25.5600    27.3640    -7.9190   102.3420     5.9010     7.7100     5.8770     2.2420 
  186.0000   179.3170   -25.5950    27.3980    -7.9190   103.1560     5.7580     7.4850     5.7780     2.2130 
  186.1250   179.4320   -25.6310    27.4330    -7.9190   103.6740     5.4560     7.0400     5.5640     2.1900 
  186.2500   179.5460   -25.6670    27.4680    -7.9190   101.6550     5.1820     6.6170     5.0000     2.1850 
  186.3750   179.6610   -25.7020    27.5030    -7.9190    99.2960     4.8570     6.1410     4.5800     2.2020 
  186.5000   179.7750   -25.7380    27.5380    -7.9190    95.1830     4.7530     5.9920     4.3690     2.2240 
  186.6250   179.8900   -25.7740    27.5720    -7.9190    91.9160     4.7570     5.9930     4.6230     2.2350 
  186.7500   180.0050   -25.8090    27.6070    -7.9190    89.9860     4.8860     6.1400     5.1740     2.2310 
  186.8750   180.1190   -25.8450    27.6420    -7.9190    90.1720     5.0660     6.3290     5.1410     2.2320 
  187.0000   180.2340   -25.8810    27.6770    -7.9190    88.6520     5.3110     6.6080     4.3530     2.2420 
  187.1250   180.3490   -25.9160    27.7120    -7.9190    85.4030     5.5150     6.8180     3.5160     2.2610 
  187.2500   180.4630   -25.9520    27.7470    -7.9190    81.5940     5.6670     6.9820     3.4990     2.2700 
  187.3750   180.5780   -25.9870    27.7820    -7.9190    79.4810     5.7270     7.0120     4.1830     2.2700 
  187.5000   180.6920   -26.0230    27.8160    -7.9190    78.8480     5.6620     6.8790     5.0350     2.2620 
  187.6250   180.8070   -26.0590    27.8510    -7.9190    78.6690     5.5640     6.7330     5.9910     2.2610 
  187.7500   180.9220   -26.0940    27.8860    -7.9190    79.1360     5.4610     6.6020     6.7580     2.2600 
  187.8750   181.0360   -26.1300    27.9210    -7.9190    79.1220     5.3080     6.4150     6.6710     2.2590 
  188.0000   181.1510   -26.1660    27.9560    -7.9190    79.9170     5.1010     6.1700     5.8240     2.2560 
  188.1250   181.2660   -26.2010    27.9910    -7.9190    80.2420     4.8860     5.9150     5.1800     2.2500 
  188.2500   181.3800   -26.2370    28.0260    -7.9190    80.7530     4.7130     5.7110     5.3380     2.2440 
  188.3750   181.4950   -26.2730    28.0600    -7.9190    81.0630     4.6130     5.6030     5.8600     2.2360 
  188.5000   181.6090   -26.3080    28.0950    -7.9190    80.4190     4.5860     5.5740     6.3930     2.2240 
  188.6250   181.7240   -26.3440    28.1300    -7.9190    78.9220     4.6370     5.6390     6.9130     2.2090 
  188.7500   181.8390   -26.3800    28.1650    -7.9190    76.9580     4.7190     5.7460     6.7210     2.1950 
  188.8750   181.9530   -26.4160    28.2000    -7.9190    76.7940     4.8610     5.9330     6.1250     2.1960 
  189.0000   182.0680   -26.4510    28.2340    -7.9190    76.5840     5.0250     6.1310     5.9370     2.2100 
  189.1250   182.1830   -26.4870    28.2690    -7.9190    77.0390     5.2040     6.3440     5.8030     2.2250 
  189.2500   182.2970   -26.5230    28.3040    -7.9190    76.9380     5.3810     6.5500     5.8860     2.2250 
  189.3750   182.4120   -26.5580    28.3390    -7.9190    77.7900     5.5250     6.7170     6.8960     2.2230 
  189.5000   182.5260   -26.5940    28.3740    -7.9190    78.0250     5.5610     6.7580     8.0510     2.2280 
  189.6250   182.6410   -26.6300    28.4080    -7.9190    78.4300     5.5710     6.7820     8.0390     2.2360 
  189.7500   182.7560   -26.6660    28.4430    -7.9190    78.9070     5.4750     6.6410     7.3510     2.2360 
  189.8750   182.8700   -26.7010    28.4780    -7.9190    80.3700     5.3500     6.4650     6.6910     2.2320 
  190.0000   182.9850   -26.7370    28.5130    -7.9190    82.6970     5.2320     6.3020     5.9790     2.2330 
  190.1250   183.1000   -26.7730    28.5480    -7.9190    85.4010     5.1080     6.0930     5.4120     2.2380 
  190.2500   183.2140   -26.8090    28.5820    -7.9190    87.0240     5.0790     6.1260     5.7050     2.2510 
  190.3750   183.3290   -26.8440    28.6170    -7.9190    87.7180     5.0820     6.1830     6.5610     2.2560 
  190.5000   183.4430   -26.8800    28.6520    -7.9190    87.7180     5.1040     6.2470     6.3180     2.2340 
  190.6250   183.5580   -26.9160    28.6870    -7.9190    87.7180     5.1310     6.3590     5.0900     2.1940 
  190.7500   183.6730   -26.9510    28.7220    -7.9190    87.7180     5.1450     6.2960     4.3150     2.1690 
  190.8750   183.7870   -26.9870    28.7560    -7.9190    87.7180     5.1440     6.2760     4.2010     2.1840 
  191.0000   183.9020   -27.0230    28.7910    -7.9190    87.7180     5.1410     6.2590     4.5190     2.2320 
  191.1250   184.0170   -27.0590    28.8260    -7.9190    87.7180     5.1410     6.2590     4.9620     2.2690 
  191.2500   184.1310   -27.0940    28.8610    -7.9190    87.7180     5.1410     6.2800     5.2630     2.2630 
  191.3750   184.2460   -27.1300    28.8950    -7.9190    87.7180     5.1480     6.2980     5.9640     2.2290 
  191.5000   184.3600   -27.1660    28.9300    -7.9190    87.7180     5.1470     6.3130     6.8580     2.2130 
  191.6250   184.4750   -27.2010    28.9650    -7.9190    87.7180     5.1400     6.3180     6.7540     2.2200 
  191.7500   184.5900   -27.2370    29.0000    -7.9190    87.7180     5.1400     6.3190     5.9780     2.2330 
  191.8750   184.7040   -27.2730    29.0350    -7.9190    87.7180     5.1400     6.3160     6.0380     2.2350 
  192.0000   184.8190   -27.3090    29.0690    -7.9190    87.7180     5.1390     6.3230     6.7290     2.2400 
  192.1250   184.9340   -27.3440    29.1040    -7.9190    87.7180     5.1440     6.3270     6.4460     2.2580 
  192.2500   185.0480   -27.3800    29.1390    -7.9190    87.7180     5.1440     6.3260     5.6260     2.2800 
  192.3750   185.1630   -27.4160    29.1740    -7.9190    87.7180     5.1440     6.3250     5.4520     2.2930 
  192.5000   185.2770   -27.4520    29.2090    -7.9190    87.7180     5.1400     6.3290     5.5570     2.2870 
