~V
VERS. 2.00: Ver 2.00
~W
STRT.M 63.0000:
STOP.M 266.0000:
STEP.M 0.1250:
NULL. -999.2500:
UWI. FD10888:
~C
DEPT.M :
TVD. :
DX. :
DY. :
SP.MV :
GR.API :
RI. :
RML.OHMM :
RXO.OHMM :
DEN.GM/CC :
~A
# ...
   90.3750    90.3720    -0.2610    -0.2810   -17.7160    57.4670    11.7540    13.0420    11.8170     2.1690 
   90.5000    90.4970    -0.2630    -0.2820   -17.5880    55.3630    11.4720    12.9960    12.2340     2.1280 
   90.6250    90.6220    -0.2640    -0.2840   -17.4360    57.6670    11.2080    12.9580    12.0450     2.1150 
   90.7500    90.7470    -0.2660    -0.2850   -17.2100    62.8020    11.1180    12.9820    11.5050     2.1170 
   90.8750    90.8720    -0.2670    -0.2870   -16.9730    64.4860    11.2380    13.1210    11.2730     2.1210 
   91.0000    90.9970    -0.2690    -0.2880   -16.7370    63.1720    11.4870    13.3390    11.4450     2.1180 
   91.1250    91.1220    -0.2710    -0.2900   -16.5990    63.7310    11.7790    13.5660    11.7530     2.1070 
   91.2500    91.2470    -0.2720    -0.2910   -16.4710    66.5170    12.0480    13.7390    12.1850     2.0900 
   91.3750    91.3720    -0.2740    -0.2930   -16.4020    66.5510    12.2320    13.7860    12.7520     2.0780 
   91.5000    91.4970    -0.2760    -0.2940   -16.3670    61.0870    12.2970    13.6410    12.9810     2.0800 
   91.6250    91.6220    -0.2770    -0.2960   -16.3730    57.4230    12.2680    13.3730    12.4550     2.0990 
   91.7500    91.7470    -0.2790    -0.2970   -16.4670    58.2850    12.1750    13.0730    11.6940     2.1270 
   91.8750    91.8720    -0.2810    -0.2990   -16.5170    60.2840    12.0610    12.7570    11.4040     2.1520 
   92.0000    91.9970    -0.2820    -0.3000   -16.4860    60.7930    11.9660    12.5560    11.5620     2.1620 
   92.1250    92.1220    -0.2840    -0.3020   -16.4120    60.8410    11.9040    12.4510    11.8690     2.1550 
   92.2500    92.2470    -0.2860    -0.3030   -16.3750    60.4170    11.8650    12.3600    12.2450     2.1380 
   92.3750    92.3720    -0.2880    -0.3050   -16.3780    59.8260    11.8450    12.3040    12.7180     2.1220 
   92.5000    92.4970    -0.2890    -0.3060   -16.3940    61.6550    11.8470    12.1760    13.0080     2.1150 
   92.6250    92.6220    -0.2910    -0.3080   -16.4640    63.1120    11.8760    12.0930    12.8450     2.1180 
   92.7500    92.7470    -0.2930    -0.3090   -16.6190    62.0370    11.9290    12.1280    12.6150     2.1250 
   92.8750    92.8720    -0.2950    -0.3110   -16.8780    59.7150    11.9500    12.1810    12.8010     2.1350 
   93.0000    92.9970    -0.2970    -0.3120   -17.1630    60.2420    11.8860    12.1630    13.0930     2.1430 
   93.1250    93.1220    -0.2980    -0.3140   -17.4120    61.9480    11.6870    11.9700    12.8960     2.1450 
   93.2500    93.2470    -0.3000    -0.3150   -17.6500    61.7870    11.3780    11.6560    12.2760     2.1410 
   93.3750    93.3720    -0.3020    -0.3170   -17.9480    61.7490    11.0020    11.2810    11.6880     2.1370 
   93.5000    93.4970    -0.3040    -0.3180   -18.2620    62.3910    10.6220    10.9010    11.2630     2.1390 
   93.6250    93.6220    -0.3050    -0.3200   -18.5140    63.7200    10.2930    10.5640    10.6990     2.1400 
   93.7500    93.7470    -0.3070    -0.3210   -18.6870    66.5040    10.0210    10.2740     9.9030     2.1320 
   93.8750    93.8720    -0.3090    -0.3230   -18.8270    70.4110     9.8010    10.0390     9.1060     2.1100 
   94.0000    93.9970    -0.3110    -0.3240   -18.9700    72.5930     9.6080     9.8400     8.6470     2.0860 
   94.1250    94.1220    -0.3120    -0.3260   -19.0880    69.8500     9.4120     9.6470     8.7580     2.0730 
   94.2500    94.2470    -0.3140    -0.3280   -19.1420    64.7160     9.2110     9.4700     9.0410     2.0720 
   94.3750    94.3720    -0.3160    -0.3290   -19.1190    61.8980     9.0270     9.3090     8.8200     2.0730 
   94.5000    94.4970    -0.3180    -0.3310   -19.0990    63.2890     8.9130     9.2160     8.1350     2.0730 
   94.6250    94.6220    -0.3200    -0.3320   -19.1200    64.8920     8.9690     9.2870     7.6420     2.0740 
   94.7500    94.7470    -0.3210    -0.3340   -19.1480    63.7860     9.2120     9.5220     7.7460     2.0840 
   94.8750    94.8720    -0.3230    -0.3350   -19.0730    62.7980     9.5970     9.9070     8.5060     2.0990 
   95.0000    94.9970    -0.3250    -0.3370   -18.9060    65.1250    10.0920    10.4090     9.4910     2.1110 
   95.1250    95.1210    -0.3270    -0.3380   -18.7170    65.4860    10.6150    10.9630    13.1090     2.1130 
   95.2500    95.2460    -0.3290    -0.3400   -18.5410    61.9480    11.0950    11.4860    29.1240     2.1050 
   95.3750    95.3710    -0.3300    -0.3410   -18.4620    61.5180    11.4300    11.8620    56.8600     2.0920 
   95.5000    95.4960    -0.3320    -0.3430   -18.5120    63.9620    11.5240    11.9720    65.9430     2.0820 
   95.6250    95.6210    -0.3340    -0.3440   -18.5130    64.1090    11.3570    11.7900    42.8670     2.0800 
   95.7500    95.7460    -0.3360    -0.3460   -18.3820    61.1270    11.0880    11.4850    18.3240     2.0850 
   95.8750    95.8710    -0.3380    -0.3480   -18.2180    60.6410    10.8310    11.1910    10.2030     2.0940 
   96.0000    95.9960    -0.3400    -0.3490   -18.0410    61.5540    10.7000    11.0610     9.6370     2.1040 
   96.1250    96.1210    -0.3410    -0.3510   -17.7740    61.8260    10.7650    11.2350    10.2690     2.1060 
   96.2500    96.2460    -0.3430    -0.3520   -17.4350    62.0910    11.0050    11.6710    11.0280     2.0980 
   96.3750    96.3710    -0.3450    -0.3540   -17.1000    61.9580    11.3800    12.2550    12.0150     2.0830 
   96.5000    96.4960    -0.3470    -0.3550   -16.8470    59.6860    11.7840    12.7710    13.0670     2.0710 
   96.6250    96.6210    -0.3490    -0.3570   -16.7410    56.7640    12.1290    13.0630    13.7530     2.0740 
   96.7500    96.7460    -0.3510    -0.3590   -16.7060    57.9940    12.3470    13.1380    13.8550     2.0880 
   96.8750    96.8710    -0.3530    -0.3600   -16.6580    62.0130    12.4600    13.0770    13.4680     2.1050 
   97.0000    96.9960    -0.3550    -0.3620   -16.6230    62.6860    12.5020    12.9950    13.0980     2.1110 
   97.1250    97.1210    -0.3560    -0.3630   -16.6340    60.9280    12.5100    12.9070    13.0170     2.1030 
   97.2500    97.2460    -0.3580    -0.3650   -16.6590    60.8450    12.5070    12.8650    13.1130     2.0870 
   97.3750    97.3710    -0.3600    -0.3670   -16.6320    61.6200    12.5100    12.9540    13.3540     2.0730 
   97.5000    97.4960    -0.3620    -0.3680   -16.6260    61.7990    12.5380    13.1300    13.6270     2.0680 
   97.6250    97.6210    -0.3640    -0.3700   -16.6950    61.8460    12.5990    13.4380    13.6740     2.0760 
   97.7500    97.7460    -0.3660    -0.3720   -16.7910    60.6620    12.6810    13.7140    13.4100     2.0940 
   97.8750    97.8710    -0.3680    -0.3730   -16.9200    58.1350    12.7370    13.8450    13.1110     2.1130 
   98.0000    97.9960    -0.3700    -0.3750   -17.0770    58.9540    12.7310    13.8590    13.0790     2.1270 
   98.1250    98.1210    -0.3720    -0.3770   -17.1780    62.6240    12.6720    13.7430    13.1540     2.1340 
   98.2500    98.2460    -0.3740    -0.3790   -17.1670    65.3450    12.5370    13.5800    13.2370     2.1330 
   98.3750    98.3710    -0.3760    -0.3800   -17.0760    67.1650    12.3750    13.4260    13.5990     2.1250 
   98.5000    98.4960    -0.3780    -0.3820   -16.9890    69.4100    12.3010    13.3750    14.0820     2.1210 
   98.6250    98.6210    -0.3800    -0.3840   -16.9130    66.7710    12.4750    13.6440    14.2840     2.1360 
   98.7500    98.7460    -0.3820    -0.3860   -16.8890    59.7070    13.0640    14.3580    14.2770     2.1840 
   98.8750    98.8710    -0.3840    -0.3870   -16.9470    53.4200    13.9960    15.3710    14.1710     2.2640 
   99.0000    98.9960    -0.3860    -0.3890   -17.1000    51.9300    15.0040    16.4440    14.0270     2.3420 
   99.1250    99.1210    -0.3880    -0.3910   -17.3100    53.3040    15.7290    17.1570    14.1710     2.3750 
   99.2500    99.2460    -0.3900    -0.3930   -17.5330    54.9050    15.9360    17.3200    14.4800     2.3470 
   99.3750    99.3710    -0.3920    -0.3950   -17.7080    56.5500    15.5920    16.8250    14.3340     2.2690 
