~V
VERS. 2.00: Ver 2.00
~W
STRT.M 15.0000:
STOP.M 236.0000:
STEP.M 0.1250:
NULL. -999.2500:
UWI. FD10614:
~C
DEPT.M :
TVD. :
DX. :
DY. :
DEN.GM/CC :
GR.API :
RML.OHMM :
RI. :
RXO.OHMM :
CALI.CM :
SP.MV :
~A
# ...
   31.5000    31.4950    -0.2620    -0.3010     2.1300    59.2600    79.5330     7.9640     7.8860    27.3300   -29.1620 
   31.6250    31.6190    -0.2600    -0.3050     2.1000    59.6800    78.4570     7.8920     7.7250    27.3540   -29.5550 
   31.7500    31.7440    -0.2570    -0.3090     2.0950    59.6160    77.6110     7.9510     7.4810    27.2570   -29.6980 
   31.8750    31.8690    -0.2550    -0.3130     2.1040    61.6140    77.0090     8.0490     7.4030    27.0810   -29.6930 
   32.0000    31.9940    -0.2520    -0.3170     2.1170    65.9100    76.4970     8.1190     7.5360    26.9740   -29.6490 
   32.1250    32.1190    -0.2500    -0.3210     2.1290    69.6100    75.5980     8.0910     7.7710    26.9510   -29.5460 
   32.2500    32.2430    -0.2470    -0.3250     2.1390    71.3420    74.1270     7.9600     7.9560    26.9310   -29.4230 
   32.3750    32.3680    -0.2450    -0.3290     2.1510    73.1440    72.2870     7.7750     7.5450    26.8650   -29.3260 
   32.5000    32.4930    -0.2430    -0.3330     2.1670    75.2120    70.5080     7.6210     6.8060    26.7840   -29.2960 
   32.6250    32.6180    -0.2400    -0.3380     2.1770    73.8430    69.3490     7.5920     6.5730    26.8810   -29.3900 
   32.7500    32.7430    -0.2380    -0.3420     2.1650    70.7180    68.9910     7.6870     6.9680    27.2270   -29.5180 
   32.8750    32.8680    -0.2350    -0.3460     2.1260    68.5110    69.1940     7.8590     7.2750    27.5090   -29.6200 
   33.0000    32.9920    -0.2330    -0.3500     2.0680    67.5790    68.8070     8.0140     7.4430    27.4740   -29.6130 
   33.1250    33.1170    -0.2310    -0.3540     2.0180    66.7470    65.0310     7.9980     7.3080    27.3170   -29.5530 
   33.2500    33.2420    -0.2280    -0.3580     1.9970    65.9860    56.8050     7.7770     7.2360    27.2050   -29.5010 
   33.3750    33.3670    -0.2260    -0.3620     2.0110    65.1040    45.1580     7.4090     7.3420    27.1920   -29.4370 
   33.5000    33.4910    -0.2230    -0.3660     2.0470    63.6750    33.0140     7.0160     7.3870    27.2070   -29.3380 
   33.6250    33.6160    -0.2210    -0.3700     2.0870    63.3320    23.9700     6.7310     7.4690    27.2300   -29.1200 
   33.7500    33.7410    -0.2190    -0.3740     2.1090    63.9620    18.5150     6.5720     7.7370    27.3130   -28.8520 
   33.8750    33.8660    -0.2160    -0.3780     2.1040    64.7030    15.6220     6.5010     7.9120    27.4840   -28.5680 
   34.0000    33.9910    -0.2140    -0.3820     2.0750    67.5100    13.8260     6.4590     7.8520    27.6060   -28.3440 
   34.1250    34.1150    -0.2110    -0.3860     2.0430    71.8680    12.2220     6.4200     7.6560    27.5970   -28.2070 
   34.2500    34.2400    -0.2090    -0.3910     2.0310    74.6560    10.8240     6.3940     7.5270    27.5790   -28.1260 
   34.3750    34.3650    -0.2070    -0.3950     2.0420    74.0700     9.9450     6.3860     7.5950    27.7510   -28.0820 
   34.5000    34.4900    -0.2040    -0.3990     2.0590    71.5360     9.6040     6.3780     7.7780    28.0840   -28.0700 
   34.6250    34.6150    -0.2020    -0.4030     2.0420    71.0940     9.5150     6.3320     7.7950    28.4190   -28.0730 
   34.7500    34.7390    -0.1990    -0.4070     1.9830    72.0440     9.3490     6.2510     7.4640    28.4840   -28.0870 
   34.8750    34.8640    -0.1970    -0.4110     1.9000    72.3520     9.0450     6.1500     6.8500    28.1400   -28.0800 
   35.0000    34.9890    -0.1940    -0.4150     1.8340    70.3300     8.6590     6.0540     6.6490    27.5190   -28.0620 
   35.1250    35.1140    -0.1920    -0.4190     1.8310    67.4390     8.3080     6.0050     7.1440    27.1910   -28.0290 
   35.2500    35.2390    -0.1900    -0.4230     1.8860    66.6840     8.1000     6.0240     7.3500    27.0980   -27.9640 
   35.3750    35.3630    -0.1870    -0.4270     1.9720    68.3030     8.0990     6.1160     7.4020    27.1150   -27.8720 
   35.5000    35.4880    -0.1850    -0.4310     2.0520    72.0360     8.3090     6.2700     7.7110    27.1730   -27.7240 
   35.6250    35.6130    -0.1820    -0.4350     2.0840    75.2120     8.6990     6.4780     8.0620    27.3010   -27.5180 
   35.7500    35.7380    -0.1800    -0.4390     2.0660    76.1800     9.1380     6.7180     8.2810    27.4530   -27.2060 
   35.8750    35.8630    -0.1780    -0.4430     2.0200    75.1050     9.5130     6.9540     8.5640    27.4900   -26.8040 
   36.0000    35.9870    -0.1750    -0.4480     1.9860    74.0380     9.6950     7.1090     9.2890    27.3140   -26.2010 
   36.1250    36.1120    -0.1730    -0.4520     2.0220    74.6160     9.5110     7.0350    12.0810    26.9500   -25.3430 
   36.2500    36.2370    -0.1700    -0.4560     2.1240    77.8060     8.9730     6.6990    16.9000    26.6990   -24.2420 
   36.3750    36.3620    -0.1680    -0.4600     2.2540    86.8120     8.1600     6.1380    17.9040    26.7060   -22.9130 
   36.5000    36.4870    -0.1660    -0.4640     2.3560   101.5250     7.2360     5.4720    11.5400    27.0140   -21.4780 
   36.6250    36.6110    -0.1630    -0.4680     2.3730   115.0320     6.4190     4.8650     6.4720    27.4710   -20.0650 
   36.7500    36.7360    -0.1610    -0.4720     2.3200   120.0300     5.8300     4.4080     4.8070    27.7970   -18.7570 
   36.8750    36.8610    -0.1580    -0.4760     2.2320   116.2850     5.4980     4.1310     4.4740    27.8640   -17.5130 
   37.0000    36.9860    -0.1560    -0.4800     2.1530   110.5200     5.3930     4.0250     4.4560    27.6580   -16.4450 
   37.1250    37.1110    -0.1540    -0.4840     2.1230   110.0520     5.4650     4.0700     4.5000    27.3100   -15.6270 
   37.2500    37.2360    -0.1510    -0.4880     2.1420   113.1150     5.5950     4.1760     4.5890    27.0380   -15.0490 
   37.3750    37.3600    -0.1490    -0.4920     2.1970   115.7730     5.7000     4.2850     4.6240    27.0250   -14.7250 
   37.5000    37.4850    -0.1460    -0.4960     2.2570   116.4670     5.7100     4.3490     4.5920    27.2340   -14.5410 
   37.6250    37.6100    -0.1440    -0.5010     2.2830   117.1670     5.5450     4.3270     4.6290    27.5250   -14.3950 
   37.7500    37.7350    -0.1410    -0.5050     2.2650   116.4950     5.2200     4.2190     4.6880    27.7170   -14.2980 
   37.8750    37.8600    -0.1390    -0.5090     2.2130   114.1440     4.7820     4.0320     4.6770    27.6830   -14.2860 
   38.0000    37.9840    -0.1370    -0.5130     2.1540   113.1590     4.3350     3.8080     4.5740    27.4590   -14.3720 
   38.1250    38.1090    -0.1340    -0.5170     2.1150   115.1980     4.0830     3.6580     4.4550    27.1140   -14.5840 
   38.2500    38.2340    -0.1320    -0.5210     2.1100   117.5950     4.1880     3.7040     4.4700    26.9000   -14.9540 
   38.3750    38.3590    -0.1290    -0.5250     2.1460   116.9480     4.7770     4.0550     4.7210    26.8050   -15.4980 
   38.5000    38.4840    -0.1270    -0.5290     2.2210   111.1390     5.8910     4.7860     6.0470    26.7780   -16.2900 
   38.6250    38.6080    -0.1250    -0.5330     2.3140    98.7730     7.4050     5.9440    10.1000    26.7910   -17.3810 
   38.7500    38.7330    -0.1220    -0.5370     2.3790    84.2390     8.7660     7.1850    15.2690    26.8400   -18.6160 
   38.8750    38.8580    -0.1200    -0.5410     2.3820    72.5400     9.4310     7.9780    14.5850    26.9100   -19.8360 
   39.0000    38.9830    -0.1170    -0.5450     2.3110    66.5860     9.1130     7.8900    10.0780    26.9240   -20.8440 
   39.1250    39.1080    -0.1150    -0.5490     2.1940    68.8130     7.9930     7.0210     7.8790    26.7650   -21.4960 
   39.2500    39.2320    -0.1130    -0.5540     2.0970    76.4860     6.8770     6.1140     6.8370    26.5110   -21.8100 
   39.3750    39.3570    -0.1100    -0.5580     2.0630    84.7120     6.2940     5.5770     6.0540    26.3490   -21.8960 
   39.5000    39.4820    -0.1080    -0.5620     2.1060    88.2820     6.4840     5.5810     5.7380    26.3000   -21.8520 
   39.6250    39.6070    -0.1050    -0.5660     2.2060    84.4920     7.5060     6.2400     7.6990    26.3000   -21.7620 
