~V
VERS. 2.00: Ver 2.00
~W
STRT.M 43.0000:
STOP.M 257.0000:
STEP.M 0.1250:
NULL. -999.2500:
UWI. FD10872:
~C
DEPT.M :
TVD. :
DX. :
DY. :
SP.MV :
GR.API :
RI. :
RML.OHMM :
RXO.OHMM :
DEN.GM/CC :
~A
# ...
  134.2500   131.7890    14.4920   -10.8720   -11.5390    74.0410     6.9530     9.1000     5.8040     2.3300 
  134.3750   131.9050    14.5320   -10.8980   -11.6500    72.9030     7.9690    10.5360     7.1470     2.3620 
  134.5000   132.0200    14.5720   -10.9250   -11.7190    69.4870     8.9620    11.8740     8.5410     2.3920 
  134.6250   132.1360    14.6120   -10.9510   -11.7430    65.7890     9.8140    12.9660     8.5190     2.4100 
  134.7500   132.2510    14.6520   -10.9770   -11.7210    63.8630    10.3780    13.6370     8.5870     2.4100 
  134.8750   132.3670    14.6920   -11.0030   -11.6350    64.3890    10.6350    13.9430     9.3100     2.3950 
  135.0000   132.4820    14.7320   -11.0300   -11.4600    64.5040    10.7140    14.0510     9.5460     2.3800 
  135.1250   132.5970    14.7720   -11.0560   -11.1380    64.0920    10.6850    14.0570     9.8980     2.3720 
  135.2500   132.7130    14.8120   -11.0830   -10.6450    64.1300    10.6040    13.9860    10.7880     2.3620 
  135.3750   132.8280    14.8520   -11.1090    -9.9840    65.5640    10.4740    13.8340    10.3990     2.3410 
  135.5000   132.9430    14.8920   -11.1360    -9.2580    66.2810    10.3690    13.7310     8.9690     2.3060 
  135.6250   133.0590    14.9330   -11.1630    -8.6060    65.2070    10.4020    13.8330     9.4620     2.2640 
  135.7500   133.1740    14.9730   -11.1890    -8.1530    64.7480    10.7180    14.3260    10.8260     2.2270 
  135.8750   133.2890    15.0130   -11.2160    -7.9720    65.2890    11.1100    14.8770    10.3210     2.2040 
  136.0000   133.4040    15.0540   -11.2430    -7.9870    65.5620    11.4730    15.3450     9.8580     2.1930 
  136.1250   133.5200    15.0940   -11.2700    -8.0790    67.0800    11.7630    15.6800    10.7500     2.1870 
  136.2500   133.6350    15.1340   -11.2970    -8.1040    69.1220    12.0830    16.0490    11.1260     2.1850 
  136.3750   133.7500    15.1750   -11.3240    -7.9640    69.9630    12.5300    16.5990    10.7240     2.1830 
  136.5000   133.8650    15.2150   -11.3510    -7.6720    69.6250    13.0830    17.3190    11.5150     2.1810 
  136.6250   133.9800    15.2550   -11.3780    -7.2800    68.6490    13.7350    18.1850    14.0540     2.1800 
  136.7500   134.0960    15.2960   -11.4040    -6.8660    66.2160    14.5490    19.2140    15.7610     2.1770 
  136.8750   134.2110    15.3360   -11.4310    -6.4800    63.0570    15.4990    20.3790    15.2750     2.1740 
  137.0000   134.3260    15.3770   -11.4580    -6.1410    62.2690    16.5860    21.7230    14.0220     2.1700 
  137.1250   134.4410    15.4180   -11.4850    -5.8520    63.2610    17.7080    23.1000    13.8970     2.1650 
  137.2500   134.5560    15.4580   -11.5120    -5.5950    63.2100    18.9530    24.6580    15.1740     2.1560 
  137.3750   134.6710    15.4990   -11.5390    -5.3510    61.6860    20.3950    26.4470    16.2390     2.1440 
  137.5000   134.7860    15.5390   -11.5660    -5.0970    62.3200    21.8020    28.0910    17.1080     2.1320 
  137.6250   134.9020    15.5800   -11.5930    -4.8160    65.3000    23.0040    29.4670    18.5870     2.1240 
  137.7500   135.0170    15.6200   -11.6200    -4.5150    67.2300    23.7890    30.2560    19.5830     2.1210 
  137.8750   135.1320    15.6610   -11.6470    -4.2150    65.2250    24.1240    30.4570    19.3290     2.1230 
  138.0000   135.2470    15.7010   -11.6740    -3.9270    61.7160    23.9590    30.0100    18.1460     2.1260 
  138.1250   135.3620    15.7420   -11.7010    -3.6310    60.2910    23.5470    29.2530    16.6180     2.1300 
  138.2500   135.4770    15.7830   -11.7280    -3.2650    61.8960    23.1160    28.5660    15.5750     2.1330 
  138.3750   135.5920    15.8230   -11.7550    -2.7240    64.3790    23.1420    28.5590    15.0230     2.1380 
  138.5000   135.7070    15.8640   -11.7820    -1.9570    65.5220    23.8450    29.4390    14.4900     2.1440 
  138.6250   135.8220    15.9050   -11.8090    -0.9670    65.4240    25.1910    31.0470    15.5010     2.1490 
  138.7500   135.9370    15.9450   -11.8360     0.1200    66.0300    26.7970    32.7980    18.7530     2.1500 
  138.8750   136.0520    15.9860   -11.8630     1.1470    67.0200    28.0280    33.8180    20.4650     2.1500 
  139.0000   136.1670    16.0270   -11.8900     1.9950    67.5600    28.4360    33.7620    19.0980     2.1500 
  139.1250   136.2830    16.0680   -11.9170     2.6310    68.0360    27.7120    32.3530    18.5240     2.1500 
  139.2500   136.3980    16.1090   -11.9440     3.1510    68.0290    26.3580    30.3260    20.9170     2.1510 
  139.3750   136.5130    16.1490   -11.9710     3.6700    66.6600    25.0700    28.5080    22.1610     2.1500 
  139.5000   136.6280    16.1900   -11.9980     4.2650    64.8260    24.1710    27.1520    20.0390     2.1470 
  139.6250   136.7430    16.2310   -12.0250     4.9300    66.2790    23.6730    26.2740    18.4420     2.1430 
  139.7500   136.8580    16.2720   -12.0510     5.5880    72.2040    23.4390    25.7540    18.5360     2.1420 
  139.8750   136.9730    16.3120   -12.0780     6.1460    79.5580    23.7930    25.9390    17.4770     2.1490 
  140.0000   137.0880    16.3530   -12.1050     6.5800    83.3220    24.6490    26.7360    14.7760     2.1690 
  140.1250   137.2030    16.3940   -12.1320     6.8930    80.8320    25.7560    27.9390    13.7390     2.2070 
  140.2500   137.3180    16.4350   -12.1590     7.1260    75.6440    26.7830    29.1550    18.7360     2.2600 
  140.3750   137.4330    16.4760   -12.1850     7.3040    70.7590    27.1200    29.6160    46.2190     2.3150 
  140.5000   137.5480    16.5170   -12.2120     7.4370    68.3490    26.7210    29.1940    65.9840     2.3530 
  140.6250   137.6630    16.5580   -12.2390     7.5030    68.1800    24.9390    27.1030    39.8670     2.3570 
  140.7500   137.7780    16.5990   -12.2660     7.4850    68.8310    21.8410    23.4590    17.1510     2.3300 
  140.8750   137.8930    16.6400   -12.2920     7.3610    69.2790    18.2870    19.4350    18.2500     2.2880 
  141.0000   138.0080    16.6800   -12.3190     7.1390    69.4530    15.5080    16.3250    18.8280     2.2500 
  141.1250   138.1230    16.7210   -12.3460     6.8480    71.5510    14.1740    14.8490    16.1080     2.2290 
  141.2500   138.2380    16.7620   -12.3730     6.5850    75.4000    14.3510    15.0540    11.3770     2.2200 
  141.3750   138.3530    16.8030   -12.4000     6.4870    76.5340    15.8910    16.7290     9.3910     2.2130 
  141.5000   138.4680    16.8440   -12.4260     6.6710    72.4050    18.8790    20.0510    12.1220     2.2010 
  141.6250   138.5840    16.8850   -12.4530     7.2380    66.5240    23.0490    24.5740    18.2800     2.1820 
  141.7500   138.6990    16.9260   -12.4800     8.1000    63.9100    26.2850    28.0150    22.3100     2.1610 
  141.8750   138.8140    16.9670   -12.5070     9.0870    64.2740    27.0210    28.7460    22.2920     2.1450 
  142.0000   138.9290    17.0080   -12.5330     9.9750    65.1280    25.0360    26.5610    22.0590     2.1360 
  142.1250   139.0440    17.0490   -12.5600    10.5760    67.0560    21.6110    22.9500    21.4990     2.1350 
  142.2500   139.1590    17.0900   -12.5870    10.8770    70.2730    18.4590    19.6600    18.5200     2.1400 
  142.3750   139.2740    17.1300   -12.6140    10.9930    72.2200    16.3120    17.5080    13.2450     2.1500 
  142.5000   139.3890    17.1710   -12.6400    11.1650    71.9320    15.2840    16.5970    10.0550     2.1590 
  142.6250   139.5040    17.2120   -12.6670    11.6340    71.4170    15.6810    17.3040    10.6480     2.1650 
  142.7500   139.6190    17.2530   -12.6940    12.5020    71.4480    17.0680    19.1090    13.6890     2.1660 
  142.8750   139.7340    17.2940   -12.7200    13.7470    71.3530    19.0340    21.5210    17.0600     2.1610 
  143.0000   139.8490    17.3350   -12.7470    15.1550    69.4910    21.0310    23.9020    18.8780     2.1520 
  143.1250   139.9640    17.3760   -12.7740    16.4970    65.9740    22.6950    25.8730    20.7600     2.1390 
  143.2500   140.0790    17.4170   -12.8000    17.5910    62.8450    24.2750    27.7390    22.3780     2.1270 
