~V
VERS. 2.00: Ver 2.00
~W
STRT.M 33.0000:
STOP.M 273.0000:
STEP.M 0.1250:
NULL. -999.2500:
UWI. FD10880:
~C
DEPT.M :
TVD. :
DX. :
DY. :
SP.MV :
GR.API :
RI. :
RML.OHMM :
RXO.OHMM :
DEN.GM/CC :
~A
# ...
  188.1250   177.1510    50.1980     9.7510   -12.1970    63.2560     3.7580     5.0650     8.8080     2.3480 
  188.2500   177.2580    50.2600     9.7640   -12.6040    59.5450     4.2650     5.7670    11.5650     2.3220 
  188.3750   177.3660    50.3210     9.7770   -13.0520    59.7680     4.3010     5.8000    14.0930     2.2810 
  188.5000   177.4740    50.3830     9.7890   -13.7090    61.5940     3.8540     5.1220    16.6390     2.2370 
  188.6250   177.5820    50.4450     9.8020   -14.5100    63.8760     3.2510     4.2420    16.5290     2.2110 
  188.7500   177.6900    50.5070     9.8140   -14.9030    66.6670     2.7170     3.4690    12.1690     2.2090 
  188.8750   177.7980    50.5680     9.8270   -14.5300    69.3860     2.4340     3.1050     7.9160     2.2170 
  189.0000   177.9060    50.6300     9.8400   -13.5860    69.8320     2.4450     3.1980     5.8110     2.2180 
  189.1250   178.0140    50.6920     9.8530   -12.6680    69.2780     2.6300     3.5470     4.8540     2.2030 
  189.2500   178.1220    50.7530     9.8650   -12.4770    69.1820     2.9160     4.0020     6.3930     2.1780 
  189.3750   178.2300    50.8150     9.8780   -13.1130    69.1260     3.1730     4.3390     9.0010     2.1570 
  189.5000   178.3380    50.8770     9.8910   -14.1180    68.2800     3.2570     4.3840     9.4540     2.1470 
  189.6250   178.4460    50.9380     9.9040   -15.0420    68.7180     3.1750     4.2060     8.2900     2.1480 
  189.7500   178.5540    51.0000     9.9170   -15.5320    72.4460     2.9650     3.8660     7.3730     2.1530 
  189.8750   178.6620    51.0620     9.9300   -15.3000    75.9400     2.7410     3.5450     6.7780     2.1570 
  190.0000   178.7700    51.1230     9.9430   -14.5050    76.7540     2.5770     3.3190     6.1670     2.1580 
  190.1250   178.8780    51.1850     9.9550   -13.7300    75.0530     2.4850     3.1910     5.6810     2.1600 
  190.2500   178.9860    51.2470     9.9680   -13.2040    72.4290     2.4530     3.1660     5.5980     2.1650 
  190.3750   179.0940    51.3080     9.9810   -12.7940    70.7140     2.4500     3.1790     5.7030     2.1740 
  190.5000   179.2020    51.3700     9.9940   -12.4890    70.4210     2.4470     3.1800     5.6100     2.1850 
  190.6250   179.3100    51.4320    10.0070   -12.4140    70.2310     2.4200     3.1560     5.3690     2.1960 
  190.7500   179.4180    51.4930    10.0200   -12.4340    69.7720     2.3660     3.0690     5.1300     2.2070 
  190.8750   179.5260    51.5550    10.0320   -12.5160    70.4990     2.2910     2.9600     5.1510     2.2200 
  191.0000   179.6340    51.6160    10.0450   -12.6350    72.8360     2.2250     2.8540     5.7070     2.2280 
  191.1250   179.7420    51.6780    10.0580   -12.7020    74.3220     2.1700     2.7580     5.7230     2.2260 
  191.2500   179.8500    51.7400    10.0710   -12.7740    73.9160     2.1310     2.6960     4.7600     2.2120 
  191.3750   179.9580    51.8010    10.0830   -12.9090    72.3290     2.0970     2.6390     4.5990     2.1980 
  191.5000   180.0660    51.8630    10.0960   -13.0500    71.2810     2.0460     2.5750     5.0250     2.1900 
  191.6250   180.1740    51.9250    10.1080   -13.2420    72.7090     1.9960     2.5020     4.7590     2.1880 
  191.7500   180.2820    51.9860    10.1210   -13.4450    74.8590     1.9770     2.4630     4.3020     2.1900 
  191.8750   180.3900    52.0480    10.1340   -13.3500    76.2810     2.0400     2.5280     4.1250     2.1970 
  192.0000   180.4980    52.1100    10.1460   -12.7600    76.3300     2.2110     2.7530     4.1460     2.2120 
  192.1250   180.6060    52.1710    10.1590   -11.9700    75.4950     2.4560     3.1090     4.2430     2.2400 
  192.2500   180.7140    52.2330    10.1720   -11.3270    74.0660     2.7240     3.4960     5.0410     2.2800 
  192.3750   180.8220    52.2950    10.1840   -11.1870    72.4430     2.8820     3.7120     6.7060     2.3210 
  192.5000   180.9300    52.3560    10.1970   -11.5650    71.5380     2.8780     3.6590     7.6940     2.3400 
  192.6250   181.0380    52.4180    10.2100   -12.1870    71.8300     2.7070     3.3650     7.2770     2.3360 
  192.7500   181.1460    52.4790    10.2220   -12.9110    73.5980     2.4630     2.9890     6.3510     2.3230 
  192.8750   181.2540    52.5410    10.2350   -13.4960    76.1170     2.3230     2.7870     5.4880     2.3180 
  193.0000   181.3620    52.6020    10.2480   -13.5090    77.3660     2.3830     2.8710     4.7830     2.3170 
  193.1250   181.4700    52.6640    10.2610   -13.1740    76.4200     2.6290     3.2190     4.5160     2.3030 
  193.2500   181.5780    52.7250    10.2730   -13.0600    74.5200     3.0400     3.7590     5.6600     2.2660 
  193.3750   181.6860    52.7870    10.2860   -13.2650    71.5600     3.4900     4.3120     7.7270     2.2210 
  193.5000   181.7940    52.8480    10.2990   -13.6420    68.4770     3.8920     4.7570     8.4550     2.1860 
  193.6250   181.9030    52.9100    10.3120   -14.1500    66.3480     4.1580     4.9870     8.1930     2.1650 
  193.7500   182.0110    52.9710    10.3240   -14.6400    67.8540     4.3000     5.0520     8.2210     2.1570 
  193.8750   182.1190    53.0320    10.3370   -15.0930    71.4640     4.3710     5.0550     8.3830     2.1520 
  194.0000   182.2270    53.0940    10.3500   -15.4850    72.1620     4.4330     5.0820     8.6240     2.1500 
  194.1250   182.3350    53.1550    10.3620   -15.7540    69.4710     4.4960     5.1420     8.9290     2.1540 
  194.2500   182.4440    53.2160    10.3750   -15.9030    67.2690     4.5380     5.2020     9.3940     2.1650 
  194.3750   182.5520    53.2770    10.3880   -16.0420    66.9640     4.5370     5.2300     9.8010     2.1770 
  194.5000   182.6600    53.3380    10.4000   -16.2080    66.6140     4.4810     5.1830     9.4140     2.1820 
  194.6250   182.7690    53.3990    10.4130   -16.3410    66.2180     4.3890     5.0860     8.5440     2.1780 
  194.7500   182.8770    53.4600    10.4260   -16.5100    67.1090     4.2590     4.9470     8.1050     2.1740 
  194.8750   182.9850    53.5210    10.4380   -16.5850    67.5520     4.1390     4.8120     8.1420     2.1780 
  195.0000   183.0940    53.5820    10.4510   -16.2710    68.0390     4.0850     4.7550     8.2100     2.1940 
  195.1250   183.2020    53.6430    10.4640   -15.4860    70.1550     4.1250     4.7800     7.9940     2.2200 
  195.2500   183.3110    53.7040    10.4760   -14.4960    71.6230     4.3800     5.0510     7.4560     2.2550 
  195.3750   183.4190    53.7650    10.4890   -13.8280    69.3000     4.9620     5.7090     6.9730     2.2990 
  195.5000   183.5280    53.8250    10.5010   -13.9450    64.2820     5.7950     6.6730     7.0030     2.3380 
  195.6250   183.6360    53.8860    10.5140   -14.6720    60.4090     6.9620     8.0420    10.4410     2.3500 
  195.7500   183.7450    53.9470    10.5260   -15.6660    57.9190     8.2620     9.4950    18.6550     2.3190 
  195.8750   183.8540    54.0070    10.5390   -16.7000    55.5750     9.5170    10.8210    22.6850     2.2660 
  196.0000   183.9620    54.0680    10.5510   -17.5000    55.1090    10.5570    11.8440    18.9010     2.2200 
  196.1250   184.0710    54.1280    10.5640   -17.5780    56.6620    11.2420    12.4670    15.5840     2.1980 
  196.2500   184.1800    54.1880    10.5770   -17.2170    59.4220    11.7160    12.8740    14.9110     2.2000 
  196.3750   184.2880    54.2490    10.5890   -16.8800    61.4940    12.0750    13.2310    14.8920     2.2160 
  196.5000   184.3970    54.3090    10.6020   -16.4420    60.7100    12.4510    13.6130    14.8660     2.2390 
  196.6250   184.5060    54.3690    10.6150   -15.9750    58.4290    12.8960    14.0630    16.0680     2.2630 
  196.7500   184.6150    54.4300    10.6280   -15.6050    56.2570    13.3640    14.5410    18.4940     2.2810 
  196.8750   184.7240    54.4900    10.6400   -15.3070    55.5030    13.7510    14.9250    18.8470     2.2960 
  197.0000   184.8320    54.5500    10.6530   -15.0960    55.1970    13.9460    15.1330    20.5650     2.3080 
  197.1250   184.9410    54.6100    10.6650   -14.9000    56.0990    13.9150    15.0450    22.7090     2.3160 
