~V
VERS. 2.00: Ver 2.00
~W
STRT.M 30.0000:
STOP.M 223.0000:
STEP.M 0.1250:
NULL. -999.2500:
UWI. FD10814:
~C
DEPT.M :
TVD. :
DX. :
DY. :
SP.MV :
GR.API :
RI. :
RML.OHMM :
RXO.OHMM :
DEN.GM/CC :
~A
# ...
  103.0000   101.6820    -0.5280     9.6500   -28.2840    65.2700     9.0610     9.9170    13.6720     2.0760 
  103.1250   101.7970    -0.5290     9.7000   -29.0230    63.8510     7.8980     8.6650    11.4840     2.0790 
  103.2500   101.9110    -0.5300     9.7500   -29.7650    64.6390     6.7840     7.4770     9.4440     2.0800 
  103.3750   102.0260    -0.5310     9.7990   -30.4230    64.9380     5.9150     6.5580     7.9930     2.0790 
  103.5000   102.1410    -0.5320     9.8490   -30.8500    64.9200     5.2950     5.9390     6.7390     2.0770 
  103.6250   102.2550    -0.5330     9.8990   -30.9560    64.6460     4.9710     5.6170     5.9300     2.0700 
  103.7500   102.3700    -0.5330     9.9490   -30.8460    65.0540     4.8340     5.4870     6.1240     2.0630 
  103.8750   102.4840    -0.5340    10.0000   -30.5800    64.6480     4.8080     5.4570     6.9750     2.0590 
  104.0000   102.5980    -0.5350    10.0500   -30.2320    63.2260     4.8490     5.4740     7.3410     2.0620 
  104.1250   102.7130    -0.5360    10.1000   -29.9480    62.8270     4.9500     5.5530     7.2960     2.0700 
  104.2500   102.8270    -0.5370    10.1510   -29.6680    64.3350     5.0950     5.6680     7.0480     2.0800 
  104.3750   102.9410    -0.5380    10.2020   -29.4170    66.9780     5.2620     5.7830     6.2810     2.0880 
  104.5000   103.0560    -0.5390    10.2520   -29.1220    68.8750     5.4410     5.9010     5.9390     2.0930 
  104.6250   103.1700    -0.5400    10.3030   -28.7490    69.6770     5.6010     6.0180     6.6580     2.0960 
  104.7500   103.2840    -0.5400    10.3540   -28.2570    69.1990     5.7410     6.1410     7.3170     2.1000 
  104.8750   103.3980    -0.5410    10.4050   -27.5850    68.0770     5.8470     6.2360     7.4440     2.1030 
  105.0000   103.5120    -0.5420    10.4570   -26.8520    66.2710     5.9080     6.2540     7.3950     2.1060 
  105.1250   103.6260    -0.5430    10.5080   -25.9130    65.4920     5.8960     6.1700     7.1220     2.1070 
  105.2500   103.7400    -0.5440    10.5590   -24.6850    67.0280     5.7840     5.9790     6.7130     2.1150 
  105.3750   103.8540    -0.5450    10.6110   -23.0930    71.1360     5.4860     5.6570     6.3060     2.1340 
  105.5000   103.9680    -0.5460    10.6620   -21.1890    76.7210     5.0630     5.2450     6.0350     2.1670 
  105.6250   104.0820    -0.5470    10.7140   -19.0100    83.4670     4.5830     4.8060     5.7250     2.2050 
  105.7500   104.1950    -0.5480    10.7660   -16.7290    89.3800     4.1510     4.4120     4.7370     2.2330 
  105.8750   104.3090    -0.5490    10.8180   -14.6910    94.0110     3.8170     4.1120     4.6250     2.2410 
  106.0000   104.4230    -0.5500    10.8700   -13.4130    97.3580     3.5870     3.9010     4.4130     2.2400 
  106.1250   104.5360    -0.5510    10.9220   -12.8320   100.1020     3.4140     3.7470     4.3270     2.2440 
  106.2500   104.6500    -0.5520    10.9740   -12.3740   101.4860     3.2770     3.6070     4.0240     2.2550 
  106.3750   104.7640    -0.5530    11.0260   -12.0220   100.6660     3.1350     3.4770     3.8340     2.2660 
  106.5000   104.8770    -0.5540    11.0780   -11.9540    99.6070     3.0610     3.4320     3.8000     2.2700 
  106.6250   104.9910    -0.5550    11.1310   -12.2870    98.4790     3.2000     3.6740     3.8330     2.2740 
  106.7500   105.1040    -0.5560    11.1830   -12.8520    95.8670     3.8050     4.4370     3.8610     2.2950 
  106.8750   105.2180    -0.5570    11.2350   -13.5790    89.9400     5.0820     6.1050     4.4530     2.3500 
  107.0000   105.3310    -0.5580    11.2880   -14.4720    81.7890     7.3930     8.8610    11.2050     2.4170 
  107.1250   105.4440    -0.5590    11.3400   -15.6430    73.8720    11.0840    12.4980    22.1370     2.4340 
  107.2500   105.5580    -0.5610    11.3930   -16.9160    68.1280    14.8460    16.0240    25.2270     2.3690 
  107.3750   105.6710    -0.5620    11.4460   -18.2940    64.6240    17.5000    18.4080    21.9420     2.2510 
  107.5000   105.7840    -0.5630    11.4990   -19.5570    63.1490    18.4190    19.3090    20.8320     2.1480 
  107.6250   105.8980    -0.5640    11.5510   -20.5080    63.0460    17.8170    18.9580    21.6790     2.0960 
  107.7500   106.0110    -0.5650    11.6040   -21.2320    62.2160    17.0220    18.2630    22.4120     2.0770 
  107.8750   106.1240    -0.5660    11.6570   -21.7570    62.0200    16.6330    17.8250    23.0960     2.0770 
  108.0000   106.2370    -0.5680    11.7100   -22.1840    61.8230    16.5190    17.7420    23.0580     2.0830 
  108.1250   106.3510    -0.5690    11.7630   -22.4180    63.4090    16.5400    17.8960    23.0090     2.0900 
  108.2500   106.4640    -0.5700    11.8160   -22.5800    65.2130    16.5680    18.0960    23.6820     2.0910 
  108.3750   106.5770    -0.5710    11.8700   -22.6780    65.8250    16.4170    18.1570    23.4830     2.0900 
  108.5000   106.6900    -0.5720    11.9230   -22.7530    65.1360    16.0460    17.9020    23.6970     2.0890 
  108.6250   106.8030    -0.5730    11.9760   -22.7350    63.7980    15.3980    17.2770    24.2830     2.0890 
  108.7500   106.9160    -0.5750    12.0300   -22.7420    63.4750    14.6300    16.4830    22.2210     2.0960 
  108.8750   107.0290    -0.5760    12.0830   -22.8540    64.4310    13.9480    15.7600    21.4720     2.1080 
  109.0000   107.1420    -0.5770    12.1370   -22.9620    66.9960    13.5150    15.2650    22.4770     2.1210 
  109.1250   107.2550    -0.5780    12.1910   -23.0530    70.1700    13.3550    15.0840    22.6360     2.1250 
  109.2500   107.3680    -0.5790    12.2440   -23.1310    72.3920    13.4930    15.1930    24.3950     2.1210 
  109.3750   107.4800    -0.5800    12.2980   -23.1240    72.4410    13.8290    15.5520    24.9840     2.1130 
  109.5000   107.5930    -0.5810    12.3520   -22.8930    70.4380    14.3200    16.1060    22.9460     2.1090 
  109.6250   107.7060    -0.5820    12.4060   -22.4420    68.7870    14.9500    16.8440    22.0290     2.1110 
  109.7500   107.8190    -0.5830    12.4590   -21.7300    67.9900    15.5680    17.5710    22.8040     2.1130 
  109.8750   107.9320    -0.5840    12.5130   -20.7700    68.5230    15.6520    17.6250    27.6380     2.1180 
  110.0000   108.0440    -0.5850    12.5670   -19.5830    69.4930    14.5530    16.4550    37.2200     2.1220 
  110.1250   108.1570    -0.5860    12.6210   -18.2040    73.0290    12.3510    13.9930    39.9460     2.1420 
  110.2500   108.2700    -0.5870    12.6750   -16.7070    78.2890     9.5650    10.8910    29.8040     2.1740 
  110.3750   108.3830    -0.5890    12.7290   -15.2260    83.9270     7.0840     8.1140    15.1580     2.2150 
  110.5000   108.4950    -0.5900    12.7830   -14.1630    89.3260     5.4840     6.2290     8.0400     2.2440 
  110.6250   108.6080    -0.5910    12.8370   -13.6030    93.3630     4.6290     5.2740     5.4740     2.2580 
  110.7500   108.7210    -0.5920    12.8910   -13.4640    96.4900     4.3370     4.9800     5.1500     2.2630 
  110.8750   108.8330    -0.5930    12.9450   -13.6030    96.5910     4.4120     5.0890     4.7800     2.2720 
  111.0000   108.9460    -0.5940    12.9990   -13.8400    95.7030     4.6040     5.2910     5.0500     2.2860 
  111.1250   109.0590    -0.5950    13.0540   -13.9110    95.1680     4.7170     5.3690     5.5470     2.3020 
  111.2500   109.1710    -0.5960    13.1080   -13.7480    96.2210     4.6800     5.2470     5.2660     2.3040 
  111.3750   109.2840    -0.5970    13.1620   -13.4340    99.3480     4.4970     4.9720     4.4940     2.2910 
  111.5000   109.3970    -0.5980    13.2160   -13.0630   103.3170     4.2720     4.6660     4.1150     2.2710 
  111.6250   109.5090    -0.5990    13.2710   -12.8270   108.5290     4.1140     4.4460     4.0650     2.2580 
  111.7500   109.6220    -0.6000    13.3250   -12.7200   111.5630     4.0770     4.3690     3.9940     2.2500 
  111.8750   109.7340    -0.6010    13.3790   -12.7700   112.7650     4.1300     4.4060     3.9710     2.2470 
  112.0000   109.8470    -0.6020    13.4340   -12.9330   112.3540     4.2100     4.4950     4.0270     2.2480 
