~V
VERS. 2.00: Ver 2.00
~W
STRT.M 24.0000:
STOP.M 309.0000:
STEP.M 0.1250:
NULL. -999.2500:
UWI. FD10911:
~C
DEPT.M :
TVD. :
DX. :
DY. :
SP.MV :
GR.API :
RI. :
RML.OHMM :
RXO.OHMM :
DEN.GM/CC :
~A
# ...
  133.5000   130.6630     4.7020   -18.9380   -33.2250    67.6500     6.2140     7.2200     7.2390     2.1740 
  133.6250   130.7760     4.7270   -18.9840   -33.4790    67.4070     6.0040     6.9810     7.2840     2.1570 
  133.7500   130.8890     4.7520   -19.0310   -33.6810    68.6480     5.9050     6.8740     7.1800     2.1510 
  133.8750   131.0030     4.7770   -19.0770   -33.8480    68.7880     5.8700     6.8400     6.9720     2.1430 
  134.0000   131.1160     4.8020   -19.1240   -33.9930    69.4640     5.8720     6.8450     6.7150     2.1370 
  134.1250   131.2300     4.8270   -19.1700   -34.1240    69.8500     5.8980     6.8700     6.4980     2.1360 
  134.2500   131.3430     4.8510   -19.2170   -34.2540    71.8630     5.9470     6.9140     6.4570     2.1370 
  134.3750   131.4560     4.8760   -19.2630   -34.3930    72.3140     6.0150     6.9770     6.6450     2.1340 
  134.5000   131.5690     4.9010   -19.3100   -34.5440    71.1270     6.1010     7.0650     6.9080     2.1250 
  134.6250   131.6820     4.9260   -19.3570   -34.7010    68.5750     6.1880     7.1630     7.0400     2.1140 
  134.7500   131.7960     4.9510   -19.4040   -34.8510    65.7610     6.2590     7.2440     7.0510     2.1060 
  134.8750   131.9090     4.9760   -19.4510   -34.9800    64.2400     6.3000     7.2870     7.0580     2.1030 
  135.0000   132.0220     5.0010   -19.4980   -35.0830    62.0920     6.3080     7.2880     7.1090     2.1020 
  135.1250   132.1350     5.0260   -19.5450   -35.1710    62.2320     6.3010     7.2770     7.2040     2.1020 
  135.2500   132.2480     5.0510   -19.5920   -35.2670    62.1130     6.2940     7.2780     7.3270     2.1020 
  135.3750   132.3610     5.0760   -19.6400   -35.3860    62.3320     6.2950     7.2970     7.4850     2.1040 
  135.5000   132.4740     5.1010   -19.6870   -35.5290    60.9470     6.3080     7.3290     7.6330     2.1070 
  135.6250   132.5870     5.1260   -19.7340   -35.6740    60.9090     6.3270     7.3630     7.6150     2.1080 
  135.7500   132.6990     5.1510   -19.7820   -35.7940    62.4280     6.3420     7.3860     7.4470     2.1080 
  135.8750   132.8120     5.1760   -19.8300   -35.8720    63.1290     6.3430     7.3920     7.3320     2.1080 
  136.0000   132.9250     5.2020   -19.8770   -35.8940    62.1920     6.3220     7.3760     7.3430     2.1100 
  136.1250   133.0380     5.2270   -19.9250   -35.8580    61.8440     6.2800     7.3390     7.4320     2.1120 
  136.2500   133.1510     5.2520   -19.9730   -35.7470    64.8430     6.2190     7.2800     7.5100     2.1140 
  136.3750   133.2630     5.2770   -20.0210   -35.5570    68.8900     6.1470     7.2070     7.4850     2.1150 
  136.5000   133.3760     5.3020   -20.0680   -35.2770    72.6570     6.0720     7.1250     7.4020     2.1190 
  136.6250   133.4890     5.3280   -20.1160   -34.9260    73.6780     6.0010     7.0430     7.3850     2.1230 
  136.7500   133.6010     5.3530   -20.1640   -34.5340    74.4690     5.9330     6.9710     7.4930     2.1270 
  136.8750   133.7140     5.3790   -20.2120   -34.1440    73.7120     5.8710     6.9160     7.6640     2.1290 
  137.0000   133.8260     5.4040   -20.2610   -33.7950    71.6330     5.8140     6.8680     7.7550     2.1310 
  137.1250   133.9390     5.4300   -20.3090   -33.5050    68.3970     5.7550     6.8130     7.6730     2.1330 
  137.2500   134.0510     5.4550   -20.3570   -33.2890    69.4960     5.7030     6.7560     7.4970     2.1370 
  137.3750   134.1640     5.4810   -20.4050   -33.1480    73.3650     5.6710     6.7170     7.3650     2.1420 
  137.5000   134.2760     5.5070   -20.4530   -33.0890    76.4350     5.6730     6.7210     7.2290     2.1450 
  137.6250   134.3880     5.5320   -20.5020   -33.1050    77.5900     5.7130     6.7780     7.0830     2.1460 
  137.7500   134.5010     5.5580   -20.5500   -33.1980    78.7400     5.7880     6.8820     7.1260     2.1430 
  137.8750   134.6130     5.5840   -20.5990   -33.3570    80.8490     5.8760     6.9970     7.3620     2.1380 
  138.0000   134.7250     5.6100   -20.6470   -33.5700    78.8110     5.9600     7.0960     7.5640     2.1320 
  138.1250   134.8370     5.6360   -20.6960   -33.8040    75.4300     6.0240     7.1710     7.6440     2.1260 
  138.2500   134.9500     5.6620   -20.7440   -34.0360    71.4460     6.0640     7.2260     7.6380     2.1210 
  138.3750   135.0620     5.6880   -20.7930   -34.2410    69.2380     6.0940     7.2790     7.5120     2.1180 
  138.5000   135.1740     5.7130   -20.8420   -34.3980    67.4020     6.1320     7.3390     7.2570     2.1190 
  138.6250   135.2860     5.7390   -20.8910   -34.5010    65.8680     6.1820     7.4040     7.0450     2.1220 
  138.7500   135.3980     5.7650   -20.9400   -34.5450    64.3980     6.2480     7.4790     7.0480     2.1250 
  138.8750   135.5100     5.7910   -20.9890   -34.5220    63.8190     6.3240     7.5700     7.2080     2.1260 
  139.0000   135.6220     5.8170   -21.0380   -34.4320    63.9770     6.3920     7.6650     7.3690     2.1260 
  139.1250   135.7340     5.8430   -21.0870   -34.2910    63.6440     6.4370     7.7350     7.5270     2.1280 
  139.2500   135.8460     5.8690   -21.1360   -34.1290    63.0970     6.4470     7.7570     7.7650     2.1290 
  139.3750   135.9580     5.8950   -21.1860   -33.9820    65.1920     6.4280     7.7320     7.9500     2.1300 
  139.5000   136.0700     5.9210   -21.2350   -33.7840    68.3240     6.3850     7.6750     7.9060     2.1300 
  139.6250   136.1810     5.9480   -21.2840   -33.4910    71.0050     6.3290     7.6100     7.7040     2.1320 
  139.7500   136.2930     5.9740   -21.3340   -32.9790    70.8970     6.2570     7.5370     7.5010     2.1340 
  139.8750   136.4050     6.0000   -21.3830   -32.2710    71.7990     6.1480     7.4130     7.4180     2.1340 
  140.0000   136.5170     6.0270   -21.4330   -31.3260    73.9800     5.9620     7.1730     7.4670     2.1330 
  140.1250   136.6280     6.0530   -21.4820   -30.1980    75.5010     5.7350     6.8650     7.5430     2.1310 
  140.2500   136.7400     6.0790   -21.5320   -28.9770    74.2140     5.6210     6.7150     7.5030     2.1350 
  140.3750   136.8510     6.1060   -21.5820   -27.7010    72.9820     5.7390     6.8970     7.1340     2.1580 
  140.5000   136.9630     6.1320   -21.6320   -26.4230    74.2330     6.0260     7.3260     6.7250     2.2110 
  140.6250   137.0740     6.1590   -21.6820   -25.1540    77.6040     6.2240     7.6320     8.7050     2.2890 
  140.7500   137.1860     6.1850   -21.7310   -23.9280    81.1780     6.0510     7.4040    16.8190     2.3650 
  140.8750   137.2970     6.2120   -21.7810   -22.8480    85.6330     5.4760     6.6200    26.4550     2.4080 
  141.0000   137.4090     6.2390   -21.8310   -21.9950    90.2850     4.6890     5.5740    25.6180     2.3970 
  141.1250   137.5200     6.2660   -21.8820   -21.3820    94.0210     3.9790     4.6860    14.9890     2.3570 
  141.2500   137.6310     6.2920   -21.9320   -20.9980    94.7280     3.5520     4.2260     6.4710     2.3180 
  141.3750   137.7430     6.3190   -21.9820   -20.7680    93.5140     3.4180     4.1600     4.1020     2.2970 
  141.5000   137.8540     6.3460   -22.0320   -20.7020    92.3880     3.4950     4.3290     4.3310     2.2990 
  141.6250   137.9650     6.3720   -22.0830   -20.7880    92.3400     3.6390     4.5290     4.9700     2.3130 
  141.7500   138.0760     6.3990   -22.1330   -20.9800    94.4720     3.7700     4.6770     5.3830     2.3220 
  141.8750   138.1870     6.4260   -22.1840   -21.2160    95.7150     3.8830     4.7940     5.1120     2.3140 
  142.0000   138.2990     6.4520   -22.2350   -21.4150    95.3420     3.9860     4.9070     4.6570     2.2840 
  142.1250   138.4100     6.4790   -22.2860   -21.5420    91.8930     4.0740     5.0060     4.6560     2.2480 
  142.2500   138.5210     6.5060   -22.3370   -21.5970    87.6210     4.1190     5.0470     5.1250     2.2210 
  142.3750   138.6320     6.5320   -22.3880   -21.6110    84.9040     4.1160     5.0190     5.5720     2.2130 
  142.5000   138.7430     6.5590   -22.4390   -21.6050    85.4450     4.0980     4.9770     5.5160     2.2240 
