~V
VERS. 2.00: Ver 2.00
~W
STRT.M 20.0000:
STOP.M 242.0000:
STEP.M 0.1250:
NULL. -999.2500:
UWI. FD10624:
~C
DEPT.M :
TVD. :
DX. :
DY. :
GR.API :
RML.OHMM :
RI. :
RXO.OHMM :
CALI.CM :
DEN.GM/CC :
SP.MV :
~A
# ...
   61.2500    61.2180    -0.2740     0.9690    62.2980    11.3770     9.5870     9.0270    26.3980     2.3230   -11.5710 
   61.3750    61.3420    -0.2620     0.9790    60.9280    11.2950     9.5610     9.3590    26.5690     2.2500   -11.6440 
   61.5000    61.4660    -0.2500     0.9900    58.1150    11.5250     9.7990    10.6690    26.7490     2.1910   -11.7840 
   61.6250    61.5900    -0.2380     1.0000    57.9750    11.9190    10.2160    11.5310    26.9440     2.1520   -11.8940 
   61.7500    61.7140    -0.2260     1.0100    60.5510    12.2400    10.5960    11.5880    27.1270     2.1280   -11.9890 
   61.8750    61.8370    -0.2150     1.0200    61.6850    12.3820    10.8110    11.0440    27.2670     2.1160   -12.1000 
   62.0000    61.9610    -0.2030     1.0300    60.0700    12.3500    10.8410    10.5330    27.3420     2.1130   -12.1350 
   62.1250    62.0850    -0.1910     1.0410    58.6250    12.2290    10.7510    10.6130    27.3480     2.1120   -12.0800 
   62.2500    62.2090    -0.1790     1.0510    59.2690    12.1380    10.6550    10.5420    27.2980     2.1110   -12.0510 
   62.3750    62.3330    -0.1670     1.0610    59.7880    12.1280    10.6070    10.5850    27.2480     2.1120   -12.0380 
   62.5000    62.4570    -0.1550     1.0710    59.5380    12.2090    10.6270    10.4920    27.2490     2.1240   -11.9740 
   62.6250    62.5810    -0.1440     1.0820    59.1080    12.3610    10.7060    10.0880    27.3070     2.1480   -11.9030 
   62.7500    62.7050    -0.1320     1.0920    59.4930    12.5260    10.7970     9.9590    27.3690     2.1710   -11.7140 
   62.8750    62.8290    -0.1200     1.1020    60.4080    12.6780    10.8730    10.0910    27.3830     2.1750   -11.4490 
   63.0000    62.9530    -0.1080     1.1120    59.4650    12.8130    10.9310    10.3650    27.3400     2.1560   -11.2490 
   63.1250    63.0770    -0.0960     1.1230    57.0880    12.9620    11.0000    10.2480    27.2290     2.1290   -11.1170 
   63.2500    63.2010    -0.0840     1.1330    57.0080    13.1620    11.1230    10.4410    27.1210     2.1190   -11.0040 
   63.3750    63.3250    -0.0730     1.1430    59.3040    13.4320    11.3290    10.9990    27.0560     2.1340   -10.8850 
   63.5000    63.4490    -0.0610     1.1530    60.5180    13.7480    11.6170    13.0040    27.0750     2.1610   -10.7800 
   63.6250    63.5720    -0.0490     1.1630    58.0550    14.0020    11.9210    12.9250    27.1970     2.1760   -10.7450 
   63.7500    63.6960    -0.0370     1.1740    54.6970    14.0420    12.1050    12.6470    27.3260     2.1690   -10.8060 
   63.8750    63.8200    -0.0250     1.1840    53.1430    13.7510    12.0460    12.4090    27.3950     2.1490   -10.8720 
   64.0000    63.9440    -0.0130     1.1940    54.3080    13.1180    11.6940    12.2060    27.4280     2.1320   -10.8970 
   64.1250    64.0680    -0.0020     1.2040    56.0520    12.2590    11.1020    11.6790    27.4310     2.1320   -10.8640 
   64.2500    64.1920     0.0100     1.2150    57.3130    11.4420    10.4850    11.2910    27.3730     2.1450   -10.7770 
   64.3750    64.3160     0.0220     1.2250    59.3120    10.8450     9.9910    10.9360    27.2930     2.1640   -10.7550 
   64.5000    64.4400     0.0340     1.2350    63.5830    10.5550     9.7110    10.3170    27.2640     2.1800   -10.7880 
   64.6250    64.5640     0.0460     1.2450    67.4870    10.6040     9.7110    10.2620    27.3420     2.1850   -10.7750 
   64.7500    64.6880     0.0580     1.2560    67.5470    10.8560     9.9090    10.3770    27.4790     2.1770   -10.7730 
   64.8750    64.8120     0.0690     1.2660    64.6180    11.2130    10.2350    10.3730    27.6820     2.1590   -10.8100 
   65.0000    64.9360     0.0810     1.2760    62.2350    11.5790    10.5920    10.4460    27.8630     2.1380   -10.7950 
   65.1250    65.0600     0.0930     1.2860    61.6760    11.8500    10.8630    10.5180    28.0080     2.1290   -10.8630 
   65.2500    65.1830     0.1050     1.2960    60.7250    11.9790    10.9890    10.7540    28.0640     2.1360   -11.0150 
   65.3750    65.3070     0.1170     1.3070    59.0190    11.9370    10.9410    11.0870    28.0450     2.1550   -11.1120 
   65.5000    65.4310     0.1290     1.3170    57.7640    11.7150    10.7140    11.1760    28.1070     2.1690   -11.1680 
   65.6250    65.5550     0.1400     1.3270    55.3180    11.3160    10.3100    10.9150    28.4920     2.1540   -11.2450 
   65.7500    65.6790     0.1520     1.3370    52.2270    10.8580     9.8290    10.3690    29.0000     2.1110   -11.3000 
   65.8750    65.8030     0.1640     1.3480    50.7670    10.5030     9.4040     9.8830    29.1440     2.0510   -11.3830 
   66.0000    65.9270     0.1760     1.3580    51.8580    10.4820     9.2240     9.8280    28.8530     1.9890   -11.4830 
   66.1250    66.0510     0.1880     1.3680    53.1990    11.2160     9.6360    10.2520    28.2760     1.9380   -11.5030 
   66.2500    66.1750     0.2000     1.3780    54.2240    13.0580    10.8740    10.7330    27.7400     1.9140   -11.4910 
   66.3750    66.2990     0.2110     1.3890    55.3840    16.5350    13.3220    13.3710    27.0890     1.9370   -11.4500 
   66.5000    66.4230     0.2230     1.3990    55.7890    22.0710    17.4730    22.3330    26.2160     2.0300   -11.3810 
   66.6250    66.5470     0.2350     1.4090    55.2170    30.0440    24.1590    42.6360    25.5800     2.2010   -11.3060 
   66.7500    66.6710     0.2470     1.4190    54.7170    39.0170    32.6840    55.1660    25.3400     2.4000   -11.2090 
   66.8750    66.7940     0.2590     1.4290    53.5090    46.2930    40.9340    59.5350    25.3240     2.5720   -11.1010 
   67.0000    66.9180     0.2710     1.4400    51.3270    48.3510    44.8380    63.8170    25.3790     2.6760   -11.0660 
   67.1250    67.0420     0.2820     1.4500    51.9560    42.4530    39.9740    66.5580    25.4200     2.6970   -11.0220 
   67.2500    67.1660     0.2940     1.4600    57.0860    32.4430    30.3820    61.2920    25.3860     2.6710   -10.9300 
   67.3750    67.2900     0.3060     1.4700    64.8590    22.3210    20.7990    41.6080    25.3480     2.6220   -10.9320 
   67.5000    67.4140     0.3180     1.4810    73.0100    14.6440    13.6970    20.3410    25.4330     2.5590   -10.9340 
   67.6250    67.5380     0.3300     1.4910    80.6390    10.2280     9.5990     9.4380    25.7120     2.4910   -10.8990 
   67.7500    67.6620     0.3410     1.5010    87.3180     7.8220     7.2770     6.6620    25.9350     2.4260   -10.9780 
   67.8750    67.7860     0.3530     1.5110    92.1000     6.7230     6.0940     6.2230    26.0540     2.3740   -11.0790 
   68.0000    67.9100     0.3650     1.5220    92.6440     6.4210     5.6370     6.2400    26.1290     2.3360   -11.1020 
   68.1250    68.0340     0.3770     1.5320    89.1790     6.5720     5.6810     6.1910    26.1460     2.3060   -11.2180 
   68.2500    68.1580     0.3890     1.5420    84.2170     6.8300     5.9190     6.2740    26.1150     2.2770   -11.4140 
   68.3750    68.2820     0.4010     1.5520    81.1900     7.0470     6.1870     6.4040    26.0350     2.2500   -11.5660 
   68.5000    68.4050     0.4120     1.5620    81.4250     7.1660     6.3900     6.4110    25.9350     2.2330   -11.7980 
   68.6250    68.5290     0.4240     1.5730    81.4630     7.1810     6.4910     6.8550    25.8860     2.2320   -12.1790 
   68.7500    68.6530     0.4360     1.5830    79.9130     7.1400     6.5240     6.9510    25.9130     2.2380   -12.5380 
   68.8750    68.7770     0.4480     1.5930    77.5810     7.0700     6.5130     6.8230    25.9830     2.2430   -12.9790 
   69.0000    68.9010     0.4600     1.6030    78.2020     6.9920     6.4720     6.9520    26.0270     2.2380   -13.5630 
   69.1250    69.0250     0.4720     1.6140    82.3030     6.9220     6.3950     6.8520    26.0290     2.2270   -14.0210 
   69.2500    69.1490     0.4830     1.6240    85.3730     6.8590     6.2790     6.5280    26.0050     2.2180   -14.1680 
   69.3750    69.2730     0.4950     1.6340    85.3390     6.7930     6.1310     6.4890    25.9790     2.2170   -13.9900 
