~V
VERS. 2.00: Ver 2.00
~W
STRT.M 20.0000:
STOP.M 282.0000:
STEP.M 0.1250:
NULL. -999.2500:
UWI. FD10228:
~C
DEPT.M :
TVD. :
DX. :
DY. :
GR.API :
RML.OHMM :
RI. :
RXO.OHMM :
CALI.CM :
SP.MV :
DEN.GM/CC :
~A
# ...
   86.0000    85.9800    -1.1640     0.7390    88.7410     6.3810     4.7580     5.6830    24.4960    -9.2690     2.2820 
   86.1250    86.1050    -1.1670     0.7410    86.7120     6.7710     4.8620     5.6570    24.4240    -9.0220     2.2890 
   86.2500    86.2300    -1.1700     0.7430    85.2260     7.6700     5.4210     6.3980    24.2850    -8.9670     2.3220 
   86.3750    86.3550    -1.1730     0.7450    83.3400     8.8920     6.3550     8.5190    24.2050    -9.1000     2.3710 
   86.5000    86.4790    -1.1770     0.7470    81.6340    10.0720     7.4610    12.6480    24.0600    -9.3740     2.4190 
   86.6250    86.6040    -1.1800     0.7490    83.9510    10.5540     8.2680    16.3940    24.0150    -9.7100     2.4450 
   86.7500    86.7290    -1.1830     0.7510    87.8940    10.1250     8.4050    13.5820    23.9710   -10.0700     2.4320 
   86.8750    86.8540    -1.1860     0.7530    91.3360     9.0480     7.8810     9.3610    23.9470   -10.4670     2.3990 
   87.0000    86.9790    -1.1890     0.7540    94.3570     7.8560     7.0260     6.9900    24.0250   -10.9250     2.3640 
   87.1250    87.1040    -1.1920     0.7560    97.9210     7.0160     6.2210     6.1690    24.1660   -11.4510     2.3420 
   87.2500    87.2290    -1.1950     0.7580   101.6390     6.5510     5.6240     6.0500    24.2590   -11.9990     2.3360 
   87.3750    87.3540    -1.1980     0.7600   104.1320     6.3410     5.2310     6.0730    24.2800   -12.5750     2.3360 
   87.5000    87.4790    -1.2010     0.7620   104.2210     6.2260     4.9710     5.9730    24.3150   -13.1780     2.3320 
   87.6250    87.6040    -1.2050     0.7640   100.5090     6.0850     4.7720     5.6550    24.3440   -13.8710     2.3200 
   87.7500    87.7290    -1.2080     0.7660    97.8350     5.9540     4.6090     5.4230    24.3730   -14.6550     2.3020 
   87.8750    87.8540    -1.2110     0.7680    97.5800     5.9680     4.5410     5.5490    24.4200   -15.5040     2.2890 
   88.0000    87.9790    -1.2140     0.7700    96.9120     6.2670     4.6510     6.0100    24.4690   -16.3830     2.2930 
   88.1250    88.1040    -1.2170     0.7720    92.6930     7.0130     5.0580     6.7350    24.4060   -17.3020     2.3150 
   88.2500    88.2290    -1.2200     0.7740    86.2420     8.1380     5.7590     8.7760    24.3420   -18.2940     2.3460 
   88.3750    88.3540    -1.2230     0.7750    79.5110     9.5000     6.7180    13.7190    24.1090   -19.3180     2.3580 
   88.5000    88.4790    -1.2260     0.7770    73.3850    10.8180     7.7910    22.4240    23.9880   -20.3090     2.3340 
   88.6250    88.6040    -1.2290     0.7790    68.5970    11.6710     8.6810    21.1340    24.0730   -21.1300     2.2770 
   88.7500    88.7290    -1.2320     0.7810    64.4960    11.9810     9.2090    18.5820    24.2920   -21.7770     2.2090 
   88.8750    88.8530    -1.2360     0.7830    61.5890    11.8590     9.3720    17.6270    24.5620   -22.2550     2.1550 
   89.0000    88.9780    -1.2390     0.7850    60.8150    11.5190     9.3010    17.8740    24.6900   -22.5250     2.1230 
   89.1250    89.1030    -1.2420     0.7870    63.5320    11.1820     9.1700    17.7720    24.5650   -22.4840     2.1110 
   89.2500    89.2280    -1.2450     0.7890    65.9660    10.9360     9.0710    17.4390    24.4300   -22.1320     2.1100 
   89.3750    89.3530    -1.2480     0.7910    64.4980    10.7660     8.9750    16.9580    24.3120   -21.5320     2.1130 
   89.5000    89.4780    -1.2510     0.7930    60.2040    10.6450     8.8390    16.5000    24.1890   -20.7800     2.1180 
   89.6250    89.6030    -1.2540     0.7940    59.0330    10.5510     8.6420    16.5410    23.9700   -19.8850     2.1280 
   89.7500    89.7280    -1.2570     0.7960    62.5020    10.4520     8.4200    16.3150    23.9550   -18.8580     2.1480 
   89.8750    89.8530    -1.2600     0.7980    65.9930    10.3450     8.2210    14.9410    23.9770   -17.7400     2.1780 
   90.0000    89.9780    -1.2640     0.8000    67.6500    10.2550     8.0840    13.4920    23.9510   -16.6070     2.2150 
   90.1250    90.1030    -1.2670     0.8020    70.7950    10.2120     8.0330    12.8100    24.1020   -15.5750     2.2520 
   90.2500    90.2280    -1.2700     0.8040    75.3370    10.1900     8.0280    12.7900    24.4480   -14.6940     2.2740 
   90.3750    90.3530    -1.2730     0.8060    80.8140    10.1190     8.0130    13.3840    24.7690   -13.9490     2.2790 
   90.5000    90.4780    -1.2760     0.8080    85.4460     9.9040     7.9210    11.0760    24.9180   -13.3180     2.2710 
   90.6250    90.6030    -1.2780     0.8090    87.3940     9.4400     7.6830     9.2810    24.9790   -12.8970     2.2600 
   90.7500    90.7280    -1.2810     0.8110    88.2690     8.8000     7.3250     8.0930    24.8220   -12.7080     2.2590 
   90.8750    90.8530    -1.2830     0.8130    89.8230     8.1060     6.8950     7.6810    24.6070   -12.7250     2.2690 
   91.0000    90.9780    -1.2850     0.8140    92.6390     7.5120     6.4720     7.1570    24.6780   -12.9040     2.2850 
   91.1250    91.1030    -1.2870     0.8160    92.6450     7.1970     6.1800     6.6110    24.6570   -13.2230     2.2960 
   91.2500    91.2280    -1.2900     0.8180    90.5190     7.1710     6.0690     6.2080    24.6270   -13.6460     2.2940 
   91.3750    91.3530    -1.2920     0.8200    89.1250     7.4020     6.1550     6.3940    24.6450   -14.1830     2.2820 
   91.5000    91.4770    -1.2940     0.8210    88.2040     7.8130     6.4130     7.4070    24.5440   -14.8090     2.2700 
   91.6250    91.6020    -1.2960     0.8230    87.8960     8.2690     6.7780     9.1110    24.2800   -15.4700     2.2640 
   91.7500    91.7270    -1.2990     0.8250    86.8530     8.6140     7.1040     9.8450    24.0020   -16.1370     2.2680 
   91.8750    91.8520    -1.3010     0.8260    83.7810     8.7880     7.2960     9.8910    23.9800   -16.8400     2.2740 
   92.0000    91.9770    -1.3030     0.8280    79.8960     8.8270     7.3340     9.4790    24.1470   -17.5990     2.2740 
   92.1250    92.1020    -1.3060     0.8300    76.8770     8.8500     7.2840     9.5790    24.3760   -18.3640     2.2650 
   92.2500    92.2270    -1.3080     0.8310    75.1850     8.9760     7.2690     9.7830    24.4670   -19.1010     2.2420 
   92.3750    92.3520    -1.3100     0.8330    72.8840     9.2580     7.3610     9.9880    24.2170   -19.7740     2.2120 
   92.5000    92.4770    -1.3120     0.8350    71.1520     9.7310     7.5950    10.7650    23.9730   -20.3890     2.1800 
   92.6250    92.6020    -1.3150     0.8360    70.8830    10.5690     8.0570    12.0160    23.9310   -20.9950     2.1550 
   92.7500    92.7270    -1.3170     0.8380    69.9650    11.9690     8.8400    13.2550    23.9260   -21.5830     2.1520 
   92.8750    92.8520    -1.3190     0.8400    72.0080    14.1640    10.1200    14.5060    23.9310   -22.1110     2.1840 
   93.0000    92.9770    -1.3210     0.8410    77.0980    17.2500    12.0530    16.1320    23.9740   -22.5450     2.2590 
   93.1250    93.1020    -1.3240     0.8430    77.1310    20.9810    14.7230    19.4390    23.9120   -22.9220     2.3690 
   93.2500    93.2270    -1.3260     0.8450    70.3770    24.2190    17.5000    26.9760    23.8600   -23.2960     2.4770 
   93.3750    93.3520    -1.3280     0.8460    63.9680    25.6030    19.3890    35.4320    23.9170   -23.6930     2.5320 
   93.5000    93.4770    -1.3310     0.8480    63.3790    24.3470    19.4750    37.8750    24.0520   -24.1080     2.5080 
   93.6250    93.6020    -1.3330     0.8500    63.3990    21.0440    17.6720    28.4190    24.2730   -24.4790     2.4200 
   93.7500    93.7270    -1.3350     0.8510    61.4270    17.7240    15.3730    21.3770    24.4280   -24.8070     2.3110 
   93.8750    93.8520    -1.3370     0.8530    60.4820    15.3230    13.3860    19.1560    24.5330   -25.1080     2.2220 
   94.0000    93.9770    -1.3400     0.8550    62.3470    14.0430    12.0430    18.8000    24.5890   -25.4030     2.1660 
   94.1250    94.1020    -1.3420     0.8560    65.4780    13.7730    11.4510    17.8900    24.5420   -25.6550     2.1430 
