~V
VERS. 2.00: Ver 2.00
~W
STRT.M 63.0000:
STOP.M 256.0000:
STEP.M 0.1250:
NULL. -999.2500:
UWI. FD10901:
~C
DEPT.M :
TVD. :
DX. :
DY. :
SP.MV :
GR.API :
RI. :
RML.OHMM :
RXO.OHMM :
DEN.GM/CC :
~A
# ...
  136.0000   135.8730    -1.3210    -2.1200   -10.7720    77.0460    15.6930    19.0420    13.6100     2.4660 
  136.1250   135.9960    -1.3270    -2.1360   -10.2910    77.2630    13.7290    16.6860    20.0300     2.5090 
  136.2500   136.1200    -1.3320    -2.1520    -9.9000    78.7390    11.0820    13.4030    18.1640     2.4870 
  136.3750   136.2440    -1.3370    -2.1680    -9.4300    81.7830     8.7840    10.5030     9.4510     2.4210 
  136.5000   136.3680    -1.3430    -2.1840    -9.0720    85.4060     7.1210     8.4010     5.5800     2.3670 
  136.6250   136.4920    -1.3480    -2.2000    -8.8030    88.2850     5.9690     6.9700     5.6190     2.3500 
  136.7500   136.6160    -1.3540    -2.2160    -8.3110    90.8310     5.3000     6.2170     5.4100     2.3440 
  136.8750   136.7400    -1.3590    -2.2320    -8.1420    93.5550     5.1090     6.0430     5.0400     2.3350 
  137.0000   136.8630    -1.3640    -2.2480    -8.1290    96.1910     5.1780     6.1330     4.9100     2.3150 
  137.1250   136.9870    -1.3700    -2.2640    -8.1160    97.4890     5.2760     6.2070     4.9550     2.2930 
  137.2500   137.1110    -1.3750    -2.2800    -8.1030    97.6390     5.3490     6.2440     5.0750     2.2730 
  137.3750   137.2350    -1.3810    -2.2960    -8.2010    96.5390     5.3640     6.2030     5.0230     2.2670 
  137.5000   137.3590    -1.3860    -2.3120    -8.8330    95.4420     5.2540     5.9970     4.6990     2.2740 
  137.6250   137.4830    -1.3920    -2.3280    -9.4420    95.1500     5.0680     5.7050     4.4380     2.2910 
  137.7500   137.6070    -1.3970    -2.3440    -9.6070    95.7890     4.8900     5.4340     4.4220     2.3050 
  137.8750   137.7300    -1.4030    -2.3600    -9.1820    97.1310     4.7710     5.2510     4.4470     2.3090 
  138.0000   137.8540    -1.4080    -2.3770    -8.7130    97.5740     4.7600     5.2210     4.5560     2.3110 
  138.1250   137.9780    -1.4140    -2.3930    -8.3960    97.5660     4.8310     5.3040     4.7350     2.3170 
  138.2500   138.1020    -1.4200    -2.4090    -8.1450    97.0030     4.9130     5.4040     4.8210     2.3260 
  138.3750   138.2260    -1.4250    -2.4250    -7.9910    96.3220     4.9810     5.4930     4.9580     2.3310 
  138.5000   138.3500    -1.4310    -2.4410    -7.9700    94.8220     5.0290     5.5540     4.9290     2.3300 
  138.6250   138.4730    -1.4360    -2.4570    -7.9570    94.4580     5.0600     5.6070     4.6870     2.3250 
  138.7500   138.5970    -1.4420    -2.4730    -7.9440    95.5420     5.0920     5.6820     4.6910     2.3150 
  138.8750   138.7210    -1.4470    -2.4890    -7.9310    97.5070     5.1130     5.7550     4.8010     2.3090 
  139.0000   138.8450    -1.4530    -2.5050    -7.9620    96.8100     5.0900     5.7740     4.8420     2.3050 
  139.1250   138.9690    -1.4580    -2.5220    -8.3830    95.1100     5.0170     5.7270     4.7700     2.3110 
  139.2500   139.0930    -1.4640    -2.5380    -9.1150    92.6720     4.8930     5.6100     4.5730     2.3200 
  139.3750   139.2160    -1.4700    -2.5540    -9.8800    92.6090     4.8140     5.5640     4.5050     2.3300 
  139.5000   139.3400    -1.4750    -2.5700   -10.5350    92.5650     4.9440     5.8020     4.5200     2.3230 
  139.6250   139.4640    -1.4810    -2.5860   -11.2110    92.6440     5.2410     6.2210     4.7650     2.3000 
  139.7500   139.5880    -1.4860    -2.6020   -11.7100    89.8970     5.6700     6.8040     6.0180     2.2760 
  139.8750   139.7120    -1.4920    -2.6190   -12.0120    86.1110     6.4190     7.7300     8.9810     2.2900 
  140.0000   139.8350    -1.4970    -2.6350   -12.6450    82.4620     7.4610     8.9780    10.0520     2.3510 
  140.1250   139.9590    -1.5030    -2.6510   -13.6060    80.9670     9.0360    10.8760     8.4390     2.4570 
  140.2500   140.0830    -1.5080    -2.6670   -14.5490    78.8150    11.2260    13.6220    10.0470     2.5570 
  140.3750   140.2070    -1.5140    -2.6840   -15.1260    76.8340    14.4460    17.6690    16.6690     2.6120 
  140.5000   140.3310    -1.5200    -2.7000   -15.7470    74.1150    17.8310    21.7980    23.8960     2.5970 
  140.6250   140.4550    -1.5250    -2.7160   -16.1560    72.7330    20.6400    25.0110    24.2890     2.5170 
  140.7500   140.5780    -1.5310    -2.7320   -16.4100    71.6740    22.1450    26.4690    19.2230     2.3920 
  140.8750   140.7020    -1.5360    -2.7490   -16.5300    71.6240    22.2460    26.3230    18.0800     2.2690 
  141.0000   140.8260    -1.5420    -2.7650   -16.5170    71.0250    22.3580    26.4560    20.5780     2.1800 
  141.1250   140.9500    -1.5470    -2.7810   -16.4820    69.8520    23.4450    27.9850    21.8590     2.1440 
  141.2500   141.0740    -1.5530    -2.7980   -16.0460    68.1110    25.1170    30.1940    22.7140     2.1370 
  141.3750   141.1970    -1.5580    -2.8140   -15.3590    67.7450    26.6140    32.0390    23.6600     2.1380 
  141.5000   141.3210    -1.5640    -2.8310   -15.0740    68.6190    26.9370    32.2570    23.6940     2.1390 
  141.6250   141.4450    -1.5690    -2.8470   -15.1140    68.9270    25.6960    30.5250    22.5730     2.1420 
  141.7500   141.5690    -1.5740    -2.8640   -14.8600    69.3520    23.7540    28.0240    19.9220     2.1500 
  141.8750   141.6930    -1.5800    -2.8800   -14.6490    70.4140    21.8060    25.6150    16.4410     2.1580 
  142.0000   141.8160    -1.5850    -2.8970   -14.3940    72.0730    20.4100    23.9620    14.1230     2.1650 
  142.1250   141.9400    -1.5910    -2.9130   -13.9630    72.8250    19.9420    23.4640    14.0060     2.1690 
  142.2500   142.0640    -1.5960    -2.9300   -13.3570    72.8090    20.2960    23.9460    15.1200     2.1640 
  142.3750   142.1880    -1.6020    -2.9460   -13.0580    74.4100    21.5910    25.5320    16.2420     2.1570 
  142.5000   142.3110    -1.6070    -2.9630   -12.9350    75.2210    23.5080    27.8310    17.9710     2.1490 
  142.6250   142.4350    -1.6120    -2.9800   -12.5700    74.2680    26.1280    30.9340    20.6370     2.1510 
  142.7500   142.5590    -1.6180    -2.9960   -12.0520    70.5390    29.1760    34.5210    23.1650     2.1520 
  142.8750   142.6830    -1.6230    -3.0130   -11.8080    66.5430    32.2300    38.1030    26.6280     2.1520 
  143.0000   142.8060    -1.6280    -3.0300   -11.8280    64.4600    35.3810    41.7600    30.7080     2.1510 
  143.1250   142.9300    -1.6330    -3.0460   -12.2830    63.3620    38.2550    44.9410    32.0930     2.1510 
  143.2500   143.0540    -1.6390    -3.0630   -13.0020    62.6780    40.5660    47.3640    31.2150     2.1500 
  143.3750   143.1780    -1.6440    -3.0800   -13.6990    61.9480    41.9240    48.7040    31.1420     2.1480 
  143.5000   143.3020    -1.6490    -3.0970   -14.0590    62.5190    42.2860    48.9050    32.3650     2.1480 
  143.6250   143.4250    -1.6540    -3.1130   -13.8040    63.3070    40.6440    46.6080    32.9430     2.1540 
  143.7500   143.5490    -1.6590    -3.1300   -13.1540    64.5080    37.4090    42.6040    31.4440     2.1610 
  143.8750   143.6730    -1.6640    -3.1470   -12.5040    65.2130    33.4160    37.6760    29.5590     2.1680 
  144.0000   143.7970    -1.6690    -3.1640   -12.0730    66.0220    29.2260    32.7340    27.1010     2.1700 
  144.1250   143.9200    -1.6740    -3.1810   -11.7520    66.8640    26.2320    29.3370    22.3990     2.1680 
  144.2500   144.0440    -1.6790    -3.1980   -11.6510    66.7490    24.2330    27.0990    18.5020     2.1630 
  144.3750   144.1680    -1.6840    -3.2150   -11.6450    67.8130    23.1170    25.8450    16.7670     2.1660 
  144.5000   144.2920    -1.6890    -3.2320   -11.6900    69.2870    22.4730    25.0850    15.9610     2.1710 
  144.6250   144.4150    -1.6940    -3.2490   -11.4240    70.7860    22.8390    25.4300    14.8160     2.1700 
  144.7500   144.5390    -1.6990    -3.2660   -11.3630    70.3220    23.8810    26.4720    12.7320     2.1620 
  144.8750   144.6630    -1.7030    -3.2830   -11.4030    69.0200    26.0080    28.8110    13.6910     2.1570 
  145.0000   144.7860    -1.7080    -3.3010   -11.4300    67.9650    29.0450    32.2490    19.6800     2.1570 
