~V
VERS. 2.00: Ver 2.00
~W
STRT.M 33.0000:
STOP.M 287.0000:
STEP.M 0.1250:
NULL. -999.2500:
UWI. FD10889:
~C
DEPT.M :
TVD. :
DX. :
DY. :
SP.MV :
GR.API :
RI. :
RML.OHMM :
RXO.OHMM :
DEN.GM/CC :
~A
# ...
  233.7500   209.5950   -53.4030   -58.1940   -21.0120    51.8560    23.6410    27.2830    27.3560     2.3930 
  233.8750   209.6830   -53.4450   -58.2720   -20.8900    50.0100    22.7250    26.0410    18.6870     2.4530 
  234.0000   209.7720   -53.4870   -58.3490   -20.5490    50.7240    21.5890    24.6120    18.1720     2.4960 
  234.1250   209.8600   -53.5290   -58.4270   -20.1570    53.3550    20.4290    23.2560    24.2000     2.5250 
  234.2500   209.9490   -53.5710   -58.5050   -19.9030    54.4120    19.7680    22.6050    23.5750     2.5490 
  234.3750   210.0370   -53.6130   -58.5820   -19.7740    51.2230    19.6310    22.7370    21.6600     2.5780 
  234.5000   210.1260   -53.6550   -58.6600   -19.7350    44.9070    18.6330    21.6260    18.6960     2.6070 
  234.6250   210.2140   -53.6970   -58.7380   -19.6040    42.1120    16.1040    19.1190    19.5180     2.6270 
  234.7500   210.3030   -53.7390   -58.8150   -19.3520    47.5810    12.8170    15.2810    18.3220     2.6260 
  234.8750   210.3910   -53.7820   -58.8920   -19.0690    55.5640     8.8540    10.6610    15.9800     2.6000 
  235.0000   210.4800   -53.8240   -58.9700   -18.7380    61.6590     6.3350     7.4300    14.2600     2.5450 
  235.1250   210.5690   -53.8660   -59.0470   -18.3020    65.0420     4.5530     5.1360    13.2220     2.4690 
  235.2500   210.6570   -53.9080   -59.1250   -17.6890    66.3260     3.3800     3.8810    11.5820     2.3850 
  235.3750   210.7460   -53.9500   -59.2030   -17.1870    63.9690     2.7040     3.2670     8.6850     2.3110 
  235.5000   210.8340   -53.9910   -59.2800   -16.9240    61.3340     2.4890     3.1110     4.1980     2.2600 
  235.6250   210.9230   -54.0330   -59.3580   -16.8410    62.7260     2.4880     3.1620     3.0470     2.2350 
  235.7500   211.0120   -54.0760   -59.4350   -16.8730    67.2940     2.5800     3.2890     2.9980     2.2420 
  235.8750   211.1000   -54.1180   -59.5130   -16.7870    69.9900     2.7410     3.4850     3.0720     2.2720 
  236.0000   211.1890   -54.1600   -59.5900   -16.9880    68.7610     2.9660     3.7480     3.0440     2.3120 
  236.1250   211.2770   -54.2020   -59.6680   -17.3290    65.4250     3.2200     4.0370     3.3240     2.3470 
  236.2500   211.3660   -54.2440   -59.7450   -17.5950    64.9980     3.4630     4.3150     4.1000     2.3670 
  236.3750   211.4540   -54.2860   -59.8230   -17.8170    67.1200     3.6670     4.5440     4.7060     2.3740 
  236.5000   211.5430   -54.3270   -59.9010   -17.9120    71.8540     3.7930     4.6800     4.7100     2.3730 
  236.6250   211.6320   -54.3690   -59.9790   -18.0010    77.4460     3.8530     4.7470     4.5130     2.3680 
  236.7500   211.7200   -54.4100   -60.0560   -18.0480    84.5070     3.8560     4.7640     4.5330     2.3610 
  236.8750   211.8090   -54.4520   -60.1340   -18.1560    88.9760     3.8350     4.7870     4.6410     2.3550 
  237.0000   211.8970   -54.4940   -60.2120   -18.2970    88.0530     3.8150     4.8340     4.6870     2.3510 
  237.1250   211.9860   -54.5350   -60.2900   -18.4480    84.9960     3.8070     4.8970     4.7410     2.3490 
  237.2500   212.0740   -54.5770   -60.3680   -18.6160    81.9540     3.8110     4.9560     4.8000     2.3490 
  237.3750   212.1630   -54.6190   -60.4450   -18.7470    80.8220     3.8060     4.9620     4.9230     2.3500 
  237.5000   212.2510   -54.6600   -60.5230   -18.7040    85.4630     3.7870     4.9430     5.2280     2.3500 
  237.6250   212.3400   -54.7020   -60.6010   -18.5700    93.5270     3.7480     4.9040     5.4920     2.3490 
  237.7500   212.4280   -54.7440   -60.6790   -18.2580    99.8700     3.7040     4.8580     5.4260     2.3450 
  237.8750   212.5170   -54.7860   -60.7560   -17.9900   100.6030     3.6750     4.8510     5.2610     2.3380 
  238.0000   212.6050   -54.8280   -60.8340   -18.0920   101.7110     3.6810     4.8840     5.2770     2.3320 
  238.1250   212.6940   -54.8700   -60.9120   -18.3290   106.5650     3.7150     4.9490     5.3470     2.3280 
  238.2500   212.7820   -54.9120   -60.9900   -18.4450   108.1190     3.7640     5.0270     5.3010     2.3280 
  238.3750   212.8710   -54.9530   -61.0670   -18.5260   103.9860     3.8180     5.0820     5.2270     2.3290 
  238.5000   212.9590   -54.9960   -61.1450   -18.5960    99.2850     3.8710     5.1230     5.2830     2.3290 
  238.6250   213.0480   -55.0370   -61.2230   -18.7910    97.4380     3.9330     5.1770     5.3590     2.3270 
  238.7500   213.1360   -55.0800   -61.3000   -19.1380    97.0600     4.0180     5.2480     5.3580     2.3250 
  238.8750   213.2250   -55.1220   -61.3780   -19.4420    95.9170     4.1110     5.3400     5.6010     2.3280 
  239.0000   213.3130   -55.1640   -61.4550   -19.5890    96.0660     4.2440     5.4930     6.1990     2.3420 
  239.1250   213.4020   -55.2050   -61.5330   -19.6380    98.6430     4.4450     5.7130     6.5470     2.3640 
  239.2500   213.4900   -55.2470   -61.6110   -19.7160   102.6390     4.7040     5.9410     6.8400     2.3870 
  239.3750   213.5790   -55.2890   -61.6890   -19.8080   103.4400     5.0420     6.1660     6.4920     2.4000 
  239.5000   213.6680   -55.3310   -61.7660   -19.8790    98.3480     5.3810     6.4050     6.5970     2.3920 
  239.6250   213.7560   -55.3730   -61.8440   -20.0040    90.6850     5.6680     6.6130     7.3670     2.3680 
  239.7500   213.8450   -55.4150   -61.9210   -20.0110    87.4480     5.8650     6.8300     8.0110     2.3380 
  239.8750   213.9330   -55.4570   -61.9990   -20.1400    87.5690     5.9770     7.0270     7.5900     2.3150 
  240.0000   214.0220   -55.4980   -62.0760   -20.2450    86.1320     6.0930     7.0600     7.6210     2.3050 
  240.1250   214.1110   -55.5400   -62.1540   -20.3060    83.4630     6.2860     7.1510     7.7960     2.3000 
  240.2500   214.1990   -55.5820   -62.2310   -20.3520    83.4200     6.6530     7.3310     9.2130     2.2930 
  240.3750   214.2880   -55.6240   -62.3090   -20.2720    86.6010     7.2360     7.7760    10.5180     2.2810 
  240.5000   214.3770   -55.6650   -62.3870   -20.1550    87.0860     7.9750     8.5580     9.1490     2.2660 
  240.6250   214.4650   -55.7070   -62.4650   -20.1740    82.9930     8.8160     9.4600     8.3360     2.2510 
  240.7500   214.5540   -55.7480   -62.5430   -20.2370    80.2520     9.6320    10.3570     8.4220     2.2430 
  240.8750   214.6430   -55.7890   -62.6200   -20.2050    80.5590    10.3610    11.1280     9.3160     2.2410 
  241.0000   214.7310   -55.8310   -62.6980   -20.1770    79.3880    11.0350    11.8270    10.7720     2.2430 
  241.1250   214.8200   -55.8720   -62.7760   -20.1840    73.8120    11.5640    12.3850    11.5390     2.2440 
  241.2500   214.9090   -55.9140   -62.8540   -20.0890    68.8650    12.0040    12.8850    12.0280     2.2410 
  241.3750   214.9970   -55.9550   -62.9320   -19.7500    70.5350    12.3750    13.3050    12.2530     2.2350 
  241.5000   215.0860   -55.9960   -63.0100   -19.2030    75.9330    12.6990    13.6150    11.4100     2.2280 
  241.6250   215.1740   -56.0370   -63.0880   -18.7910    78.4430    13.0500    13.8120    13.1020     2.2180 
  241.7500   215.2630   -56.0780   -63.1660   -18.6720    77.9560    13.4670    14.0660    14.9180     2.2070 
  241.8750   215.3510   -56.1190   -63.2440   -18.6310    76.8050    13.9270    14.4100    16.5520     2.1980 
  242.0000   215.4400   -56.1610   -63.3220   -18.6360    74.1650    14.3840    14.8550    16.0030     2.2000 
  242.1250   215.5290   -56.2020   -63.4000   -18.7230    71.5190    14.8260    15.3570    14.9130     2.2100 
  242.2500   215.6170   -56.2430   -63.4780   -18.7330    71.8140    15.3020    15.8230    14.3190     2.2230 
  242.3750   215.7060   -56.2840   -63.5560   -18.7160    74.2750    15.9370    16.3920    14.7860     2.2270 
  242.5000   215.7940   -56.3260   -63.6340   -18.8750    73.2740    16.7750    19.7060    17.9520     2.2190 
  242.6250   215.8830   -56.3660   -63.7120   -19.0890    69.7790    18.1030    21.2240    19.5360     2.2020 
  242.7500   215.9710   -56.4070   -63.7900   -19.1190    67.2480    20.4000    23.9320    26.2410     2.1780 
