~V
VERS. 2.00: Ver 2.00
~W
STRT.M 15.0000:
STOP.M 282.0000:
STEP.M 0.1250:
NULL. -999.2500:
UWI. FD10218:
~C
DEPT.M :
TVD. :
DX. :
DY. :
DEN.GM/CC :
GR.API :
RML.OHMM :
RI. :
RXO.OHMM :
CALI.CM :
SP.MV :
~A
# ...
   31.5000    31.5000     0.0000     0.0000     2.1900    90.2830    19.1690     8.0280     6.2280    25.9910   -16.8830 
   31.6250    31.6250     0.0000     0.0000     2.1450    89.9330    19.1020     8.0040     5.9840    25.4930   -17.0090 
   31.7500    31.7500     0.0000     0.0000     2.1010    91.6230    19.4090     8.1800     6.5300    25.3780   -17.1620 
   31.8750    31.8750     0.0000     0.0000     2.0670    91.3650    19.7810     8.4690     7.1920    25.5760   -17.2880 
   32.0000    32.0000     0.0000     0.0000     2.0510    88.4870    19.8890     8.7340     7.5450    25.9620   -17.4660 
   32.1250    32.1250     0.0000     0.0000     2.0620    87.2810    19.4450     8.7930     7.3040    26.0350   -17.7450 
   32.2500    32.2500     0.0000     0.0000     2.0940    87.9440    18.5940     8.6240     6.6490    25.5390   -18.0480 
   32.3750    32.3750     0.0000     0.0000     2.1360    85.2190    17.6160     8.3150     6.3890    24.8960   -18.2640 
   32.5000    32.5000     0.0000     0.0000     2.1710    79.5350    16.8680     8.0230     7.1270    24.5850   -18.4280 
   32.6250    32.6250     0.0000     0.0000     2.1820    80.2560    16.7880     7.9560     7.3250    24.5400   -18.6310 
   32.7500    32.7500     0.0000    -0.0010     2.1680    84.3520    17.4300     8.2030     7.7740    24.6030   -18.8540 
   32.8750    32.8750     0.0000    -0.0010     2.1420    83.8250    18.6830     8.7870     8.4510    25.0650   -19.1100 
   33.0000    33.0000     0.0000    -0.0020     2.1150    79.4960    20.1990     9.6270     9.3290    25.7410   -19.3720 
   33.1250    33.1250     0.0000    -0.0020     2.0970    77.2870    21.3410    10.4810     9.6660    26.3280   -19.5280 
   33.2500    33.2500     0.0010    -0.0030     2.0870    76.1020    21.6770    11.0260     9.4360    26.5820   -19.5870 
   33.3750    33.3750     0.0010    -0.0030     2.0820    73.6750    21.1700    11.1060     9.0500    26.5480   -19.5870 
   33.5000    33.5000     0.0010    -0.0040     2.0770    72.9330    20.2050    10.8360     8.9190    26.2990   -19.4670 
   33.6250    33.6250     0.0010    -0.0040     2.0690    75.8540    19.4780    10.5720     8.6490    25.9370   -19.1310 
   33.7500    33.7500     0.0010    -0.0050     2.0660    76.6780    19.3510    10.5860     8.4430    25.7010   -18.6940 
   33.8750    33.8750     0.0010    -0.0050     2.0750    75.1250    19.6690    10.8980     8.7600    25.6610   -18.2250 
   34.0000    34.0000     0.0010    -0.0060     2.1070    73.4260    19.8650    11.2820    10.0170    25.5200   -17.6280 
   34.1250    34.1250     0.0010    -0.0060     2.1620    74.4090    19.0490    11.1730    12.6030    25.0070   -16.8730 
   34.2500    34.2500     0.0010    -0.0070     2.2180    76.8410    17.0580    10.2620    14.6210    24.5630   -16.0370 
   34.3750    34.3750     0.0020    -0.0070     2.2590    80.6000    14.2370     8.6950    13.0840    24.5140   -15.1400 
   34.5000    34.5000     0.0020    -0.0070     2.2730    87.7460    11.2620     6.9430     8.5940    24.6410   -14.1950 
   34.6250    34.6250     0.0020    -0.0080     2.2660    96.5490     8.8910     5.5130     5.1130    24.7400   -13.2150 
   34.7500    34.7500     0.0020    -0.0080     2.2550   101.0030     7.3250     4.5440     3.6490    24.7860   -12.1980 
   34.8750    34.8750     0.0020    -0.0090     2.2480    98.8020     6.5590     4.0380     3.2090    24.7410   -11.1810 
   35.0000    35.0000     0.0020    -0.0090     2.2410    94.4650     6.5140     3.9500     3.4260    24.6700   -10.3540 
   35.1250    35.1250     0.0020    -0.0100     2.2250    92.4340     7.1570     4.2700     3.5350    24.7860    -9.8690 
   35.2500    35.2500     0.0020    -0.0100     2.2000    90.6720     8.1540     4.8280     3.6190    25.0920    -9.6080 
   35.3750    35.3750     0.0020    -0.0110     2.1750    88.7960     9.1580     5.4570     4.2060    25.3970    -9.4930 
   35.5000    35.5000     0.0030    -0.0110     2.1630    86.8510     9.7690     5.9170     6.0320    25.5340    -9.4540 
   35.6250    35.6250     0.0030    -0.0120     2.1800    86.5420     9.5880     5.8980     7.3400    25.5260    -9.4640 
   35.7500    35.7500     0.0030    -0.0120     2.2180    87.7040     8.8270     5.4570     6.1900    25.5040    -9.5320 
   35.8750    35.8750     0.0030    -0.0130     2.2630    91.5370     7.8750     4.8130     4.1100    25.4180    -9.6600 
   36.0000    36.0000     0.0030    -0.0130     2.3000    96.9930     7.1880     4.2440     3.0670    25.2630    -9.8120 
   36.1250    36.1250     0.0030    -0.0140     2.3150    97.6070     7.2600     4.0240     2.8530    25.1460   -10.0690 
   36.2500    36.2500     0.0030    -0.0140     2.3050    93.1980     8.1660     4.2210     3.1180    25.1130   -10.5310 
   36.3750    36.3750     0.0030    -0.0150     2.2700    88.6150     9.8700     4.8790     4.3250    25.1740   -11.1340 
   36.5000    36.5000     0.0030    -0.0150     2.2140    85.5460    12.0720     5.9560     6.9780    25.3410   -11.7870 
   36.6250    36.6250     0.0030    -0.0160     2.1490    80.5530    13.9950     7.1880     9.1910    25.5520   -12.4040 
   36.7500    36.7500     0.0040    -0.0160     2.0970    75.1850    14.8120     7.9720    10.1000    25.6720   -12.9060 
   36.8750    36.8750     0.0040    -0.0170     2.0730    74.7590    14.1490     7.8550     9.8930    25.7360   -13.2380 
   37.0000    37.0000     0.0040    -0.0170     2.0820    79.8150    12.3090     6.8880     8.7410    25.7280   -13.3470 
   37.1250    37.1250     0.0040    -0.0180     2.1190    85.8450    10.2370     5.6450     6.2720    25.6310   -13.0840 
   37.2500    37.2500     0.0040    -0.0180     2.1610    90.3750     8.9380     4.7200     4.1310    25.3820   -12.5190 
   37.3750    37.3750     0.0040    -0.0180     2.2000    94.0250     8.8680     4.3260     3.2610    25.0440   -11.8260 
   37.5000    37.5000     0.0040    -0.0190     2.2410    95.1380    10.0980     4.5310     3.6300    24.7980   -11.1780 
   37.6250    37.6250     0.0040    -0.0190     2.2980    91.2270    12.4300     5.4140     5.8120    24.6560   -10.7210 
   37.7500    37.7500     0.0040    -0.0200     2.3620    85.2080    14.8740     6.6790    10.9300    24.4330   -10.5150 
   37.8750    37.8750     0.0050    -0.0200     2.4110    79.4680    16.4490     7.8330    19.2410    24.2780   -10.6010 
   38.0000    38.0000     0.0050    -0.0210     2.4180    78.9200    16.4800     8.2600    20.7800    24.3830   -10.9440 
   38.1250    38.1250     0.0050    -0.0210     2.3730    85.2790    14.9890     7.7100    13.7890    24.7560   -11.5090 
   38.2500    38.2500     0.0050    -0.0220     2.3060    91.7990    13.2370     6.8810     9.2060    25.0660   -12.2000 
   38.3750    38.3750     0.0050    -0.0220     2.2470    92.8180    12.1100     6.2600     6.5850    25.0850   -12.9960 
   38.5000    38.5000     0.0050    -0.0230     2.2120    88.5350    11.9980     6.0720     6.8560    24.9300   -13.8590 
   38.6250    38.6250     0.0050    -0.0230     2.1980    83.2530    12.9050     6.4300     8.4220    24.8450   -14.6850 
   38.7500    38.7500     0.0050    -0.0240     2.1850    78.4850    14.2370     7.1630    10.1320    24.8290   -15.3380 
   38.8750    38.8750     0.0050    -0.0240     2.1680    75.2810    15.5000     8.0760    10.5080    24.8510   -15.7060 
   39.0000    39.0000     0.0050    -0.0250     2.1510    76.7530    16.2170     8.8620    10.4490    24.8920   -15.8090 
   39.1250    39.1250     0.0060    -0.0250     2.1490    80.8210    15.8930     9.0780    10.9410    24.8520   -15.6430 
   39.2500    39.2500     0.0060    -0.0260     2.1670    83.3250    14.6860     8.6470    11.9010    24.7460   -15.1830 
   39.3750    39.3750     0.0060    -0.0260     2.2020    85.7680    12.9190     7.7170    10.8830    24.7420   -14.4070 
   39.5000    39.5000     0.0060    -0.0270     2.2420    90.3980    11.0450     6.5790     7.4310    24.8850   -13.3840 
   39.6250    39.6250     0.0060    -0.0270     2.2710    95.9340     9.5480     5.5520     4.7670    24.9570   -12.2180 
