~V
VERS. 2.00: Ver 2.00
~W
STRT.M 12.0000:
STOP.M 226.0000:
STEP.M 0.1250:
NULL. -999.2500:
UWI. FD10605:
~C
DEPT.M :
TVD. :
DX. :
DY. :
GR.API :
RML.OHMM :
RI. :
RXO.OHMM :
CALI.CM :
DEN.GM/CC :
SP.MV :
~A
# ...
  111.0000   108.8530    15.8720     6.9170    71.4800    29.7160    27.5400    25.4630    20.7660     2.1590    -2.2300 
  111.1250   108.9700    15.9090     6.9370    69.4140    28.8070    26.7640    25.3160    20.8920     2.1350    -1.5820 
  111.2500   109.0880    15.9460     6.9560    70.2400    28.2020    26.2370    24.7860    20.9690     2.1170    -0.9240 
  111.3750   109.2050    15.9830     6.9760    71.6850    27.8770    25.9570    23.4740    21.0350     2.1080    -0.2110 
  111.5000   109.3230    16.0200     6.9960    70.3930    27.7970    25.9140    21.4740    21.0470     2.1090     0.4550 
  111.6250   109.4410    16.0570     7.0150    67.9420    27.9310    26.0930    21.9180    20.9890     2.1150     1.0580 
  111.7500   109.5580    16.0940     7.0350    67.1390    28.1610    26.3770    23.4280    20.9810     2.1200     1.6340 
  111.8750   109.6760    16.1310     7.0550    67.4160    28.4070    26.6810    25.8890    21.0400     2.1220     2.2350 
  112.0000   109.7940    16.1680     7.0740    67.2320    28.6050    26.9260    27.6060    21.1040     2.1230     2.8320 
  112.1250   109.9110    16.2050     7.0940    65.8580    28.7210    27.0520    27.2660    21.1290     2.1280     3.5070 
  112.2500   110.0290    16.2420     7.1130    64.7400    28.7970    27.0940    26.5510    21.1310     2.1340     4.1180 
  112.3750   110.1460    16.2790     7.1330    64.3190    28.8820    27.1060    25.6600    21.1300     2.1410     4.6480 
  112.5000   110.2640    16.3160     7.1530    63.4350    29.0220    27.1380    25.2450    21.1380     2.1430     5.0810 
  112.6250   110.3820    16.3530     7.1720    62.3720    29.2500    27.2280    26.6350    21.1600     2.1400     5.4560 
  112.7500   110.4990    16.3900     7.1920    62.0460    29.5350    27.3570    28.3100    21.1850     2.1330     5.7560 
  112.8750   110.6170    16.4270     7.2120    62.4370    29.8410    27.5030    29.9750    21.1960     2.1260     5.9710 
  113.0000   110.7350    16.4640     7.2310    62.5570    30.1310    27.6480    30.5340    21.2050     2.1220     6.2290 
  113.1250   110.8520    16.5010     7.2510    63.3320    30.3770    27.7840    30.3680    21.2540     2.1220     6.4210 
  113.2500   110.9700    16.5380     7.2710    66.0360    30.5990    27.9260    29.9550    21.3130     2.1250     6.6190 
  113.3750   111.0880    16.5750     7.2900    67.8620    30.8400    28.1090    29.9100    21.2860     2.1290     6.8120 
  113.5000   111.2050    16.6120     7.3100    65.8860    31.1580    28.3840    29.3800    21.2340     2.1330     7.0420 
  113.6250   111.3230    16.6490     7.3290    63.4490    31.6130    28.8140    30.2450    21.2360     2.1360     7.2570 
  113.7500   111.4400    16.6860     7.3490    65.2690    32.1670    29.3620    31.5220    21.3040     2.1370     7.4380 
  113.8750   111.5580    16.7230     7.3690    68.3020    32.7260    29.9440    32.8990    21.3770     2.1380     7.5490 
  114.0000   111.6760    16.7600     7.3880    68.2280    33.1430    30.4270    34.1900    21.4160     2.1370     7.4980 
  114.1250   111.7930    16.7970     7.4080    67.1250    33.1620    30.5660    34.5420    21.4020     2.1360     7.3910 
  114.2500   111.9110    16.8340     7.4280    68.0110    32.6810    30.2270    33.2810    21.3660     2.1360     7.2160 
  114.3750   112.0290    16.8710     7.4470    67.1850    31.6720    29.3490    31.2150    21.3800     2.1380     7.0010 
  114.5000   112.1460    16.9080     7.4670    63.6810    30.2510    28.0240    29.6510    21.4550     2.1430     6.6930 
  114.6250   112.2640    16.9450     7.4860    64.0680    28.6750    26.4930    28.3510    21.5290     2.1500     6.3690 
  114.7500   112.3810    16.9820     7.5060    68.2150    27.2940    25.1180    26.1020    21.5940     2.1560     6.0280 
  114.8750   112.4990    17.0190     7.5260    71.0980    26.3380    24.1260    24.7510    21.7280     2.1590     5.7380 
  115.0000   112.6170    17.0560     7.5450    70.1830    25.9480    23.6490    25.1690    22.0930     2.1510     5.4300 
  115.1250   112.7340    17.0930     7.5650    67.8370    26.2880    23.8390    25.8720    22.7210     2.1260     5.0810 
  115.2500   112.8520    17.1300     7.5850    66.5740    27.2670    24.6100    25.8730    23.1860     2.1010     4.6950 
  115.3750   112.9700    17.1670     7.6040    66.1980    28.8960    25.9650    24.8350    23.2670     2.1010     4.2390 
  115.5000   113.0870    17.2040     7.6240    66.1980    31.1810    27.9080    23.0950    22.9180     2.1460     3.7720 
  115.6250   113.2050    17.2410     7.6440    65.6490    34.1260    30.4980    24.5380    22.0430     2.2420     3.2580 
  115.7500   113.3230    17.2780     7.6630    63.7240    37.2970    33.4360    29.0000    21.1010     2.3520     2.7920 
  115.8750   113.4400    17.3150     7.6830    59.3500    40.1050    36.2420    31.5440    20.5300     2.4390     2.2950 
  116.0000   113.5580    17.3520     7.7020    53.7080    41.8210    38.1900    33.1070    20.3810     2.4800     1.8990 
  116.1250   113.6750    17.3890     7.7220    51.7910    41.6390    38.3280    34.1780    20.5170     2.4590     1.6170 
  116.2500   113.7930    17.4260     7.7420    54.3720    40.0240    36.9550    32.8460    20.8340     2.3930     1.4560 
  116.3750   113.9110    17.4630     7.7610    58.0150    37.8010    34.8430    30.5940    21.3480     2.3000     1.4160 
  116.5000   114.0280    17.5000     7.7810    59.7210    36.0520    33.0310    26.5390    21.7840     2.2060     1.3550 
  116.6250   114.1460    17.5370     7.8010    60.8600    36.0450    32.7290    23.4460    21.8410     2.1650     1.3000 
  116.7500   114.2640    17.5740     7.8200    61.2560    37.9610    34.2750    25.3110    21.5440     2.2030     1.1340 
  116.8750   114.3810    17.6110     7.8400    59.5940    41.4460    37.6230    33.8390    21.0000     2.3170     0.9370 
  117.0000   114.4990    17.6480     7.8590    57.0360    45.4210    42.0630    42.7140    20.5280     2.4610     0.7040 
  117.1250   114.6160    17.6850     7.8790    56.5500    47.8900    45.7010    52.2210    20.3640     2.5630     0.4810 
  117.2500   114.7340    17.7220     7.8990    57.7790    47.7570    46.7310    46.7990    20.3940     2.5870     0.1970 
  117.3750   114.8520    17.7590     7.9180    58.9810    45.1660    44.8040    33.1270    20.5470     2.5400    -0.1270 
  117.5000   114.9690    17.7960     7.9380    59.7230    41.3720    41.2010    24.4320    20.9370     2.4620    -0.4170 
  117.6250   115.0870    17.8330     7.9580    59.5810    38.0620    37.9330    23.5640    21.6190     2.4000    -0.6790 
  117.7500   115.2050    17.8700     7.9770    59.0140    35.7300    35.7690    26.3130    22.1830     2.3710    -0.8640 
  117.8750   115.3220    17.9070     7.9970    58.9500    33.7180    34.1150    28.9330    22.3730     2.3700    -1.0380 
  118.0000   115.4400    17.9440     8.0160    59.8080    30.9480    31.6900    30.5720    22.3240     2.3820    -1.3100 
  118.1250   115.5580    17.9810     8.0360    62.1960    26.5810    27.2770    34.0360    22.0460     2.3910    -1.6960 
  118.2500   115.6750    18.0180     8.0560    68.0720    21.4360    21.9360    30.4590    21.5980     2.3930    -2.0920 
  118.3750   115.7930    18.0550     8.0750    76.9520    16.7030    17.1730    19.5300    21.2820     2.3940    -2.5140 
  118.5000   115.9100    18.0920     8.0950    85.1150    13.4480    13.9600    10.9910    21.2290     2.4080    -2.8480 
  118.6250   116.0280    18.1290     8.1150    88.2650    12.5490    12.8410     9.2620    21.3380     2.4490    -3.1400 
  118.7500   116.1460    18.1660     8.1340    86.9430    13.5970    13.4450    12.0130    21.5170     2.5080    -3.4150 
  118.8750   116.2630    18.2030     8.1540    81.2510    16.0890    15.6580    21.4640    21.6080     2.5650    -3.6750 
  119.0000   116.3810    18.2400     8.1740    72.5870    19.0880    19.0500    32.9640    21.4410     2.5980    -3.8150 
  119.1250   116.4990    18.2770     8.1930    66.2420    21.0020    22.0040    33.0380    21.1490     2.5870    -3.8330 
