~V
VERS. 2.00: Ver 2.00
~W
STRT.M 30.0000:
STOP.M 223.0000:
STEP.M 0.1250:
NULL. -999.2500:
UWI. FD10814:
~C
DEPT.M :
TVD. :
DX. :
DY. :
SP.MV :
GR.API :
RI. :
RML.OHMM :
RXO.OHMM :
DEN.GM/CC :
~A
# ...
  130.3750   126.2800    -0.8030    21.6530   -11.1720    61.1790    14.3720    16.3980    15.1550     2.4210 
  130.5000   126.3920    -0.8040    21.7090   -11.2750    62.8380    12.5200    14.3100    11.3600     2.3970 
  130.6250   126.5030    -0.8050    21.7650   -11.4190    62.3860    11.1480    12.7650     8.4940     2.3790 
  130.7500   126.6150    -0.8060    21.8210   -11.5560    62.0910    10.3330    11.9740     7.8430     2.3770 
  130.8750   126.7260    -0.8080    21.8780   -11.6680    62.3140    10.2560    11.9790     8.4160     2.3920 
  131.0000   126.8380    -0.8090    21.9340   -11.8740    63.4040    10.5790    12.4250     8.8710     2.4080 
  131.1250   126.9500    -0.8100    21.9900   -12.1810    62.9650    11.0650    13.0030     9.6920     2.4220 
  131.2500   127.0610    -0.8110    22.0470   -12.6430    63.4100    11.4970    13.5190    11.1830     2.4270 
  131.3750   127.1730    -0.8130    22.1030   -12.9870    66.7900    11.9320    14.0360    11.9080     2.4270 
  131.5000   127.2840    -0.8140    22.1600   -13.2800    72.4130    12.4730    14.6460    11.5530     2.4160 
  131.6250   127.3960    -0.8150    22.2160   -13.4180    77.0710    12.9920    15.2790    11.9720     2.4030 
  131.7500   127.5070    -0.8160    22.2730   -13.5550    78.1760    13.4850    15.8620    13.2080     2.3920 
  131.8750   127.6180    -0.8180    22.3290   -13.4710    78.1120    13.8340    16.2710    14.0070     2.3810 
  132.0000   127.7300    -0.8190    22.3860   -13.1740    79.4340    13.9600    16.4390    13.8500     2.3660 
  132.1250   127.8410    -0.8200    22.4430   -13.1230    83.6820    13.9220    16.4490    12.2680     2.3550 
  132.2500   127.9530    -0.8220    22.4990   -13.3260    88.7280    13.8690    16.4650    10.9470     2.3530 
  132.3750   128.0640    -0.8230    22.5560   -13.6130    91.0060    13.8830    16.5930    11.9330     2.3660 
  132.5000   128.1750    -0.8240    22.6130   -13.7430    89.7970    14.0530    16.8920    13.8390     2.3790 
  132.6250   128.2870    -0.8260    22.6700   -13.7890    86.6400    14.3740    17.2990    14.5620     2.3840 
  132.7500   128.3980    -0.8270    22.7260   -14.0310    84.2670    14.5770    17.5740    14.8710     2.3810 
  132.8750   128.5100    -0.8280    22.7830   -14.4260    82.6220    14.5690    17.5950    14.3900     2.3870 
  133.0000   128.6210    -0.8300    22.8400   -14.8370    80.9200    14.4130    17.4500    12.9690     2.3980 
  133.1250   128.7320    -0.8310    22.8960   -15.2510    79.1450    14.2790    17.3110    12.8360     2.4000 
  133.2500   128.8440    -0.8320    22.9530   -15.6200    78.3550    14.2640    17.2950    13.3130     2.3900 
  133.3750   128.9550    -0.8340    23.0100   -15.8960    77.9410    14.3760    17.4880    13.6010     2.3810 
  133.5000   129.0660    -0.8350    23.0670   -16.0600    78.0620    14.6920    17.9040    14.3530     2.3790 
  133.6250   129.1780    -0.8360    23.1230   -16.2530    78.8970    15.1530    18.5150    15.2910     2.3810 
  133.7500   129.2890    -0.8380    23.1800   -16.4530    78.8410    15.8000    19.2390    15.0620     2.3790 
  133.8750   129.4010    -0.8390    23.2370   -16.5340    78.2830    16.3400    19.8260    14.3200     2.3830 
  134.0000   129.5120    -0.8400    23.2930   -16.6020    76.6810    16.6430    20.1140    15.2710     2.3900 
  134.1250   129.6240    -0.8420    23.3500   -16.5410    77.3300    16.6910    20.1210    16.6060     2.4000 
  134.2500   129.7350    -0.8430    23.4070   -16.4690    78.0190    16.6700    20.0600    16.6790     2.4020 
  134.3750   129.8460    -0.8450    23.4630   -16.3840    79.6670    16.6980    20.0270    15.1550     2.4040 
  134.5000   129.9580    -0.8460    23.5200   -16.3640    78.9010    16.5720    19.9210    14.3410     2.4110 
  134.6250   130.0690    -0.8480    23.5760   -16.4260    77.3390    16.3430    19.6790    16.3490     2.4250 
  134.7500   130.1810    -0.8490    23.6330   -16.5970    74.6210    15.9540    19.1930    17.2060     2.4320 
  134.8750   130.2920    -0.8510    23.6890   -16.6900    74.0810    15.3460    18.4590    15.2430     2.4250 
  135.0000   130.4040    -0.8520    23.7460   -16.6710    75.6470    14.7310    17.6620    13.5800     2.4050 
  135.1250   130.5150    -0.8540    23.8020   -16.5270    78.8600    14.0880    16.9610    13.0420     2.3890 
  135.2500   130.6270    -0.8550    23.8590   -16.3620    80.5080    13.7130    16.5610    12.5870     2.3820 
  135.3750   130.7380    -0.8570    23.9150   -16.1650    81.1460    13.6430    16.5420    12.0460     2.3840 
  135.5000   130.8500    -0.8580    23.9720   -15.9990    80.4510    13.8830    16.8280    12.4580     2.3930 
  135.6250   130.9610    -0.8600    24.0280   -16.1770    80.4180    14.2120    17.1850    13.0010     2.4070 
  135.7500   131.0730    -0.8610    24.0850   -16.4120    79.1560    14.4450    17.4360    12.8280     2.4230 
  135.8750   131.1840    -0.8630    24.1410   -16.7290    78.5910    14.6320    17.5650    12.9820     2.4340 
  136.0000   131.2960    -0.8640    24.1970   -17.1000    77.7550    14.6810    17.5520    12.7750     2.4380 
  136.1250   131.4080    -0.8660    24.2530   -17.3520    79.5260    14.6550    17.4370    13.5370     2.4350 
  136.2500   131.5190    -0.8670    24.3100   -17.4720    81.9710    14.5630    17.2810    15.0650     2.4270 
  136.3750   131.6310    -0.8690    24.3660   -17.5500    84.3230    14.5070    17.1740    14.1700     2.4170 
  136.5000   131.7420    -0.8700    24.4220   -17.5840    85.0250    14.5290    17.1890    12.8620     2.4180 
  136.6250   131.8540    -0.8720    24.4790   -17.4990    85.4120    14.6940    17.3870    12.5480     2.4280 
  136.7500   131.9660    -0.8730    24.5350   -17.3870    86.2580    14.8720    17.5690    12.3880     2.4330 
  136.8750   132.0770    -0.8750    24.5910   -17.3570    87.7820    14.8020    17.4890    13.1170     2.4170 
  137.0000   132.1890    -0.8760    24.6480   -17.3960    88.3210    14.5420    17.0490    13.7790     2.3900 
  137.1250   132.3000    -0.8780    24.7040   -17.4250    87.8520    13.7870    16.1220    13.3460     2.3620 
  137.2500   132.4120    -0.8790    24.7610   -17.5690    85.9800    12.8960    14.9660    15.3010     2.3340 
  137.3750   132.5230    -0.8810    24.8170   -17.6990    83.5890    11.9020    13.7740    17.7040     2.2950 
  137.5000   132.6340    -0.8820    24.8740   -17.7750    81.3790    11.0610    12.7840    14.5090     2.2520 
  137.6250   132.7460    -0.8840    24.9310   -17.8140    80.1760    10.5840    12.1950    10.3580     2.2230 
  137.7500   132.8570    -0.8850    24.9880   -17.8590    79.0920    10.4530    12.0420     9.2490     2.2150 
  137.8750   132.9690    -0.8870    25.0440   -17.8690    77.1160    10.7540    12.3850     8.7250     2.2180 
  138.0000   133.0800    -0.8880    25.1010   -17.8320    74.7210    11.3580    13.0700     8.3550     2.2160 
  138.1250   133.1910    -0.8890    25.1580   -17.8720    75.2910    12.1050    13.9170     9.7800     2.2010 
  138.2500   133.3020    -0.8910    25.2150   -17.9460    77.0900    12.8220    14.6780    13.2670     2.1880 
  138.3750   133.4130    -0.8920    25.2730   -18.1390    80.2590    13.2580    15.0930    15.6770     2.1830 
  138.5000   133.5250    -0.8940    25.3300   -18.3490    81.1210    13.3530    15.1320    15.4920     2.1820 
  138.6250   133.6360    -0.8950    25.3870   -18.3640    81.9130    13.1460    14.8580    14.5850     2.1800 
  138.7500   133.7470    -0.8960    25.4450   -18.1460    82.2330    12.7350    14.4110    13.6390     2.1820 
  138.8750   133.8580    -0.8980    25.5020   -17.7100    81.6740    12.2550    13.9080    12.3230     2.1920 
  139.0000   133.9690    -0.8990    25.5600   -17.3580    79.8890    11.8070    13.4860    11.8130     2.2030 
  139.1250   134.0790    -0.9000    25.6170   -17.2220    77.2300    11.6250    13.3530    12.7280     2.2110 
  139.2500   134.1900    -0.9020    25.6750   -17.1240    76.9360    11.7790    13.6550    12.3690     2.2120 
  139.3750   134.3010    -0.9030    25.7330   -17.0290    77.8350    12.4540    14.5540    11.2100     2.2060 
