~V
VERS. 2.00: Ver 2.00
~W
STRT.M 63.0000:
STOP.M 266.0000:
STEP.M 0.1250:
NULL. -999.2500:
UWI. FD10888:
~C
DEPT.M :
TVD. :
DX. :
DY. :
SP.MV :
GR.API :
RI. :
RML.OHMM :
RXO.OHMM :
DEN.GM/CC :
~A
# ...
   99.5000    99.4960    -0.3940    -0.3960   -17.9210    56.7560    14.6790    15.7380    13.8020     2.1850 
   99.6250    99.6210    -0.3960    -0.3980   -18.3370    56.0590    13.1560    14.0950    13.3550     2.1270 
   99.7500    99.7460    -0.3980    -0.4000   -18.9190    56.9890    11.2210    11.9460    12.6380     2.1080 
   99.8750    99.8700    -0.4000    -0.4020   -19.6900    60.8020     9.1370     9.7660    10.5860     2.1320 
  100.0000    99.9950    -0.4020    -0.4040   -20.5930    63.8260     7.2860     7.7420     7.5350     2.1820 
  100.1250   100.1200    -0.4040    -0.4050   -21.5530    68.0190     5.9650     6.3050     5.1990     2.2360 
  100.2500   100.2450    -0.4060    -0.4070   -22.3270    76.2340     5.1710     5.4920     4.3730     2.2760 
  100.3750   100.3700    -0.4080    -0.4090   -22.8180    82.3430     4.8340     5.1390     4.5390     2.2890 
  100.5000   100.4950    -0.4100    -0.4110   -23.0780    78.9720     4.8080     5.1060     4.9630     2.2820 
  100.6250   100.6200    -0.4120    -0.4120   -23.0740    72.8870     4.9320     5.2710     5.3270     2.2670 
  100.7500   100.7450    -0.4140    -0.4140   -22.9540    73.2300     5.0860     5.4760     5.4240     2.2560 
  100.8750   100.8700    -0.4160    -0.4160   -22.8790    77.4090     5.1960     5.5710     5.2780     2.2550 
  101.0000   100.9950    -0.4180    -0.4170   -22.8100    79.4840     5.2210     5.5540     5.2100     2.2610 
  101.1250   101.1200    -0.4200    -0.4190   -22.6940    79.4030     5.1840     5.4510     5.3670     2.2660 
  101.2500   101.2450    -0.4220    -0.4200   -22.5640    80.3000     5.1260     5.3600     5.3830     2.2690 
  101.3750   101.3700    -0.4240    -0.4220   -22.4140    81.3280     5.1210     5.3680     5.0960     2.2660 
  101.5000   101.4950    -0.4250    -0.4240   -22.2770    82.7030     5.2030     5.4710     5.1240     2.2570 
  101.6250   101.6200    -0.4270    -0.4250   -22.1440    81.9160     5.4340     5.7250     5.6700     2.2380 
  101.7500   101.7450    -0.4290    -0.4270   -21.8590    78.4440     5.7980     6.1250     6.1540     2.2150 
  101.8750   101.8700    -0.4310    -0.4280   -21.4740    73.3900     6.2980     6.7070     6.4860     2.2000 
  102.0000   101.9950    -0.4330    -0.4300   -21.0430    69.4900     7.0090     7.4740     6.7400     2.1980 
  102.1250   102.1200    -0.4350    -0.4310   -20.6520    70.6590     7.8640     8.3570     7.0330     2.2020 
  102.2500   102.2450    -0.4370    -0.4320   -20.3020    74.8100     8.6270     9.1070     8.5600     2.1960 
  102.3750   102.3700    -0.4390    -0.4340   -19.8920    75.6990     9.0590     9.4820    12.0220     2.1780 
  102.5000   102.4950    -0.4410    -0.4350   -19.4860    73.3880     9.0800     9.4530    14.3920     2.1590 
  102.6250   102.6200    -0.4420    -0.4370   -19.3130    69.7440     8.7320     9.0570    12.4590     2.1510 
  102.7500   102.7450    -0.4440    -0.4380   -19.5730    67.3900     8.3070     8.6000     8.7190     2.1540 
  102.8750   102.8700    -0.4460    -0.4400   -20.0500    68.8520     7.9630     8.3110     7.0950     2.1580 
  103.0000   102.9950    -0.4480    -0.4410   -20.3140    72.9350     7.7720     8.2190     7.6590     2.1570 
  103.1250   103.1200    -0.4500    -0.4430   -20.3140    76.2050     7.6380     8.1890     8.5700     2.1560 
  103.2500   103.2450    -0.4520    -0.4440   -20.3390    74.3310     7.3150     7.8930     8.5920     2.1620 
  103.3750   103.3700    -0.4540    -0.4460   -20.4500    71.8520     6.6670     7.1590     7.5770     2.1810 
  103.5000   103.4950    -0.4560    -0.4470   -20.6150    70.4090     5.8670     6.2300     6.2720     2.2120 
  103.6250   103.6200    -0.4570    -0.4490   -20.7020    72.7410     5.3260     5.6260     5.4150     2.2410 
  103.7500   103.7450    -0.4590    -0.4500   -20.6610    77.8350     5.3040     5.7260     5.2110     2.2540 
  103.8750   103.8700    -0.4610    -0.4520   -20.4360    81.1090     5.9540     6.5620     6.0430     2.2400 
  104.0000   103.9950    -0.4630    -0.4530   -20.0620    77.1840     7.3370     8.1150     8.2780     2.2010 
  104.1250   104.1200    -0.4650    -0.4550   -19.6410    68.6990     9.1360    10.2910    11.0810     2.1500 
  104.2500   104.2450    -0.4670    -0.4560   -19.4030    62.1400    10.5730    12.0500    12.6060     2.1130 
  104.3750   104.3700    -0.4690    -0.4580   -19.5480    61.1780    10.7170    12.3890    12.1250     2.1150 
  104.5000   104.4950    -0.4710    -0.4590   -20.1130    64.0250     9.6480    11.2980    10.3440     2.1510 
  104.6250   104.6200    -0.4730    -0.4610   -21.0010    68.3550     7.8920     9.1910     7.9510     2.2010 
  104.7500   104.7450    -0.4740    -0.4620   -21.9250    72.1600     6.2990     7.2280     6.0090     2.2380 
  104.8750   104.8700    -0.4760    -0.4640   -22.6720    73.8150     5.3140     6.1010     5.1930     2.2560 
  105.0000   104.9950    -0.4780    -0.4650   -23.1410    76.1780     4.7640     5.5540     4.9550     2.2640 
  105.1250   105.1190    -0.4800    -0.4670   -23.4010    81.9580     4.5540     5.1960     4.8100     2.2700 
  105.2500   105.2440    -0.4820    -0.4680   -23.6000    88.3400     4.5710     5.0910     4.8190     2.2720 
  105.3750   105.3690    -0.4840    -0.4700   -23.7600    91.3810     4.6970     5.2950     5.0020     2.2720 
  105.5000   105.4940    -0.4860    -0.4710   -23.8050    90.6780     4.8560     5.5050     5.1690     2.2750 
  105.6250   105.6190    -0.4880    -0.4730   -23.7350    88.8290     4.9690     5.6550     5.3080     2.2900 
  105.7500   105.7440    -0.4900    -0.4740   -23.6950    84.3170     4.9920     5.6820     5.4330     2.3190 
  105.8750   105.8690    -0.4920    -0.4760   -23.7230    81.5580     4.9850     5.6510     5.3160     2.3560 
  106.0000   105.9940    -0.4930    -0.4770   -23.8190    83.5830     4.9900     5.6190     4.9700     2.3880 
  106.1250   106.1190    -0.4950    -0.4780   -23.9670    85.8940     5.0370     5.6510     5.2800     2.4050 
  106.2500   106.2440    -0.4970    -0.4800   -24.0780    84.8460     5.1230     5.7740     6.6570     2.3990 
  106.3750   106.3690    -0.4990    -0.4810   -24.1650    84.4700     5.2100     5.9410     7.5780     2.3670 
  106.5000   106.4940    -0.5010    -0.4830   -24.2080    85.5920     5.2400     6.0330     6.9720     2.3190 
  106.6250   106.6190    -0.5030    -0.4840   -24.2670    83.5130     5.1240     5.9270     5.9540     2.2770 
  106.7500   106.7440    -0.5050    -0.4850   -24.2470    80.1900     4.8890     5.6420     5.4400     2.2530 
  106.8750   106.8690    -0.5070    -0.4870   -24.1410    81.4220     4.6010     5.2740     5.0350     2.2490 
  107.0000   106.9940    -0.5090    -0.4880   -24.0250    85.9530     4.4310     5.0500     4.5310     2.2490 
  107.1250   107.1190    -0.5110    -0.4890   -23.9430    86.4710     4.4430     5.0580     4.2900     2.2440 
  107.2500   107.2440    -0.5130    -0.4910   -23.8640    84.6760     4.5570     5.1920     4.5430     2.2310 
  107.3750   107.3690    -0.5150    -0.4920   -23.7280    83.9870     4.7030     5.3820     5.0960     2.2180 
  107.5000   107.4940    -0.5170    -0.4930   -23.6250    84.8520     4.7970     5.5200     5.5050     2.2160 
  107.6250   107.6190    -0.5190    -0.4950   -23.6120    83.5330     4.7370     5.4480     5.4970     2.2300 
  107.7500   107.7440    -0.5210    -0.4960   -23.6370    80.8500     4.5270     5.1880     5.1430     2.2550 
  107.8750   107.8690    -0.5230    -0.4970   -23.6290    77.5620     4.2630     4.8660     4.6850     2.2810 
  108.0000   107.9940    -0.5250    -0.4980   -23.5840    77.2740     4.0670     4.6280     4.3320     2.2990 
  108.1250   108.1190    -0.5260    -0.5000   -23.5070    83.0930     4.0010     4.5540     4.2920     2.3030 
  108.2500   108.2440    -0.5280    -0.5010   -23.4470    89.2600     4.0630     4.6430     4.6260     2.2980 
  108.3750   108.3690    -0.5300    -0.5020   -23.4220    88.8220     4.2530     4.8850     4.9750     2.2850 
  108.5000   108.4940    -0.5320    -0.5040   -23.4180    85.1470     4.5090     5.1920     5.0620     2.2660 
