~V
VERS. 2.00: Ver 2.00
~W
STRT.M 65.0000:
STOP.M 248.0000:
STEP.M 0.1250:
NULL. -999.2500:
UWI. FD10900:
~C
DEPT.M :
TVD. :
DX. :
DY. :
SP.MV :
GR.API :
RI. :
RML.OHMM :
RXO.OHMM :
DEN.GM/CC :
~A
# ...
  201.8750   199.6790   -17.6250    12.3540   -17.4130    54.8720     1.2100     1.6600     2.3920     2.3170 
  202.0000   199.7990   -17.6500    12.3750   -17.3830    56.1230     1.2290     1.7190     2.4760     2.3220 
  202.1250   199.9200   -17.6750    12.3950   -17.3020    56.3650     1.2220     1.7410     2.6140     2.3020 
  202.2500   200.0410   -17.7000    12.4150   -17.1790    57.1550     1.1740     1.6980     2.6700     2.2490 
  202.3750   200.1620   -17.7250    12.4350   -17.1040    61.2080     1.0930     1.5950     2.5280     2.1850 
  202.5000   200.2830   -17.7500    12.4550   -17.0060    68.3210     0.9950     1.4590     2.2300     2.1410 
  202.6250   200.4040   -17.7750    12.4750   -16.9320    74.2510     0.9070     1.3340     1.9380     2.1340 
  202.7500   200.5240   -17.7990    12.4950   -16.9280    73.6450     0.8510     1.2560     1.7810     2.1600 
  202.8750   200.6450   -17.8240    12.5160   -16.9640    68.6600     0.8390     1.2480     1.7750     2.2010 
  203.0000   200.7660   -17.8490    12.5360   -16.9630    62.9260     0.8810     1.3300     1.8680     2.2420 
  203.1250   200.8870   -17.8740    12.5560   -16.9040    61.0290     0.9700     1.4850     1.9710     2.2750 
  203.2500   201.0080   -17.8990    12.5760   -16.8910    64.0610     1.0920     1.6820     2.1000     2.3010 
  203.3750   201.1290   -17.9240    12.5960   -16.8310    71.6020     1.2170     1.8700     2.3950     2.3190 
  203.5000   201.2500   -17.9480    12.6160   -16.7100    83.4150     1.3190     2.0000     2.8940     2.3270 
  203.6250   201.3700   -17.9730    12.6360   -16.6490    93.8880     1.3840     2.0600     3.3790     2.3280 
  203.7500   201.4910   -17.9980    12.6570   -16.5870   101.7460     1.4140     2.0600     3.5580     2.3270 
  203.8750   201.6120   -18.0230    12.6770   -16.4740   102.7830     1.4300     2.0470     3.3630     2.3300 
  204.0000   201.7330   -18.0480    12.6970   -16.2560   102.5240     1.4500     2.0560     3.0630     2.3410 
  204.1250   201.8540   -18.0730    12.7170   -16.0580   101.4420     1.4740     2.0870     3.0270     2.3590 
  204.2500   201.9750   -18.0970    12.7370   -15.9690   102.3950     1.4910     2.1170     3.3100     2.3720 
  204.3750   202.0950   -18.1220    12.7570   -15.8430   102.4200     1.4890     2.1130     3.5420     2.3650 
  204.5000   202.2160   -18.1470    12.7780   -15.7590   101.1360     1.4540     2.0540     3.3250     2.3380 
  204.6250   202.3370   -18.1720    12.7980   -15.6950   100.3200     1.3990     1.9580     2.8440     2.3080 
  204.7500   202.4580   -18.1970    12.8180   -15.6190   100.2530     1.3370     1.8600     2.4900     2.2900 
  204.8750   202.5790   -18.2210    12.8380   -15.5300   101.2150     1.2880     1.7920     2.3170     2.2890 
  205.0000   202.7000   -18.2460    12.8580   -15.5100   100.7030     1.2650     1.7710     2.2930     2.3000 
  205.1250   202.8200   -18.2710    12.8790   -15.5580    99.3280     1.2620     1.7790     2.3980     2.3160 
  205.2500   202.9410   -18.2960    12.8990   -15.6030    97.6010     1.2660     1.7950     2.5090     2.3240 
  205.3750   203.0620   -18.3210    12.9190   -15.6750    97.7740     1.2630     1.7990     2.4750     2.3180 
  205.5000   203.1830   -18.3460    12.9390   -15.7110    99.2770     1.2390     1.7730     2.3080     2.2980 
  205.6250   203.3040   -18.3700    12.9600   -15.7710    99.5640     1.1900     1.7140     2.1700     2.2730 
  205.7500   203.4250   -18.3950    12.9800   -15.9640    98.8090     1.1210     1.6290     2.1010     2.2570 
  205.8750   203.5450   -18.4200    13.0000   -16.1730    97.5240     1.0470     1.5240     2.0130     2.2560 
  206.0000   203.6660   -18.4450    13.0200   -16.3180    99.3170     0.9820     1.4140     1.9110     2.2730 
  206.1250   203.7870   -18.4700    13.0410   -16.4420   100.5330     0.9480     1.3320     1.8490     2.2980 
  206.2500   203.9080   -18.4950    13.0610   -16.6290   102.3920     0.9730     1.3310     1.8590     2.3290 
  206.3750   204.0290   -18.5190    13.0810   -16.8910   100.6580     1.0860     1.4640     2.0340     2.3690 
  206.5000   204.1490   -18.5440    13.1020   -17.1100    95.9740     1.3320     1.7950     3.1260     2.4230 
  206.6250   204.2700   -18.5690    13.1220   -17.4010    86.4590     1.7330     2.3480     5.8770     2.4720 
  206.7500   204.3910   -18.5940    13.1420   -17.7190    76.4300     2.2830     3.0810     8.8140     2.4820 
  206.8750   204.5120   -18.6190    13.1620   -18.0500    69.8630     2.8520     3.7930     9.3700     2.4420 
  207.0000   204.6330   -18.6440    13.1830   -18.4080    67.2200     3.2930     4.2880     8.0440     2.3630 
  207.1250   204.7530   -18.6690    13.2030   -18.9090    65.3890     3.5510     4.5210     7.2030     2.2800 
  207.2500   204.8740   -18.6940    13.2230   -19.5810    63.8510     3.6300     4.5330     7.0940     2.2200 
  207.3750   204.9950   -18.7190    13.2440   -20.3680    64.1220     3.6200     4.4610     7.0290     2.1860 
  207.5000   205.1160   -18.7430    13.2640   -21.2050    67.2990     3.5670     4.3570     7.0830     2.1700 
  207.6250   205.2370   -18.7680    13.2840   -21.9800    70.5880     3.4930     4.2360     7.1680     2.1600 
  207.7500   205.3570   -18.7930    13.3050   -22.6460    72.2010     3.4390     4.1330     6.9980     2.1540 
  207.8750   205.4780   -18.8180    13.3250   -23.2090    72.6250     3.4240     4.0710     6.7500     2.1530 
  208.0000   205.5990   -18.8430    13.3450   -23.6100    72.6220     3.4240     4.0510     6.5920     2.1520 
  208.1250   205.7200   -18.8680    13.3660   -23.7670    73.2730     3.4080     4.0540     6.5020     2.1500 
  208.2500   205.8410   -18.8930    13.3860   -23.6860    74.7420     3.3700     4.0640     6.3940     2.1460 
  208.3750   205.9610   -18.9180    13.4060   -23.4900    76.5590     3.3280     4.0620     6.1120     2.1430 
  208.5000   206.0820   -18.9430    13.4260   -23.3180    76.8480     3.2990     4.0250     5.7770     2.1440 
  208.6250   206.2030   -18.9680    13.4460   -23.2030    76.3290     3.2610     3.9470     5.6610     2.1490 
  208.7500   206.3240   -18.9930    13.4670   -23.2000    75.7960     3.1870     3.8290     5.8460     2.1590 
  208.8750   206.4450   -19.0180    13.4870   -23.3090    76.0500     3.0770     3.6800     6.1610     2.1720 
  209.0000   206.5650   -19.0430    13.5070   -23.5250    75.4990     2.9460     3.5130     6.1880     2.1860 
  209.1250   206.6860   -19.0680    13.5270   -23.6430    74.3500     2.8250     3.3550     5.7430     2.1930 
  209.2500   206.8070   -19.0930    13.5470   -23.6790    73.8710     2.7320     3.2270     5.1670     2.1940 
  209.3750   206.9280   -19.1180    13.5670   -23.7940    73.2030     2.6660     3.1390     4.8610     2.1940 
  209.5000   207.0490   -19.1430    13.5870   -24.0470    74.4560     2.6250     3.0940     4.9020     2.1970 
  209.6250   207.1690   -19.1680    13.6080   -24.3070    76.1590     2.5950     3.0670     5.0800     2.2020 
  209.7500   207.2900   -19.1930    13.6280   -24.5080    79.4380     2.5500     3.0140     5.1700     2.2030 
  209.8750   207.4110   -19.2180    13.6480   -24.6370    81.8010     2.4770     2.9120     5.1260     2.2020 
  210.0000   207.5320   -19.2430    13.6680   -24.7160    84.7140     2.3900     2.7850     4.9590     2.2040 
  210.1250   207.6530   -19.2680    13.6880   -24.8220    86.1160     2.3320     2.6910     4.6500     2.2120 
  210.2500   207.7730   -19.2930    13.7080   -24.9440    87.0580     2.3430     2.6890     4.2860     2.2240 
  210.3750   207.8940   -19.3180    13.7280   -25.0840    87.0410     2.4370     2.7960     4.1930     2.2320 
  210.5000   208.0150   -19.3430    13.7480   -25.1490    88.1930     2.6110     3.0080     4.5850     2.2330 
  210.6250   208.1360   -19.3680    13.7680   -25.1840    88.3190     2.8300     3.2720     5.1590     2.2270 
  210.7500   208.2570   -19.3940    13.7880   -25.3080    86.9050     3.0440     3.5190     5.6420     2.2140 
  210.8750   208.3770   -19.4190    13.8080   -25.5440    82.3290     3.2300     3.7220     6.0860     2.1960 
