~V
VERS. 2.00: Ver 2.00
~W
STRT.M 20.0000:
STOP.M 206.0000:
STEP.M 0.1250:
NULL. -999.2500:
UWI. FD10809:
~C
DEPT.M :
TVD. :
DX. :
DY. :
SP.MV :
GR.API :
RI. :
RML.OHMM :
DEN.GM/CC :
RXO.OHMM :
~A
# ...
  166.0000   149.1570     3.1820    58.4850    -1.9350    69.5180    84.1710    95.0130     2.1880   107.2500 
  166.1250   149.2560     3.1790    58.5610    -1.3130    71.0420    67.5840    77.5260     2.2030    86.5810 
  166.2500   149.3550     3.1770    58.6370    -0.7660    72.8890    58.6990    66.3190     2.2120    59.5500 
  166.3750   149.4550     3.1740    58.7130    -0.2320    74.3190    54.8750    60.8610     2.2100    41.9570 
  166.5000   149.5540     3.1720    58.7890     0.2920    73.0470    55.7290    59.7360     2.1980    41.0490 
  166.6250   149.6530     3.1690    58.8640     0.8400    70.2610    58.0340    60.1090     2.1880    45.9280 
  166.7500   149.7530     3.1670    58.9400     1.2820    68.0500    58.7660    59.3980     2.1870    47.9010 
  166.8750   149.8520     3.1640    59.0160     1.5080    68.0110    56.6610    56.0370     2.1990    49.8280 
  167.0000   149.9510     3.1610    59.0920     1.3500    70.0390    49.8120    49.6860     2.2180    52.4060 
  167.1250   150.0500     3.1590    59.1680     0.9380    74.2650    41.5190    41.7400     2.2400    42.9820 
  167.2500   150.1490     3.1560    59.2440     0.2360    78.3730    32.9240    33.7660     2.2630    32.8210 
  167.3750   150.2490     3.1530    59.3200    -0.9770    82.2460    25.4140    27.2040     2.2830    33.5400 
  167.5000   150.3480     3.1500    59.3960    -2.6290    83.4260    21.1550    23.2520     2.2970    28.7500 
  167.6250   150.4470     3.1470    59.4730    -3.9720    83.7470    19.7780    22.0370     2.2920    18.8370 
  167.7500   150.5460     3.1440    59.5490    -4.9630    80.0180    20.9350    23.9250     2.2670    15.7370 
  167.8750   150.6450     3.1410    59.6250    -6.2030    74.3940    24.2640    29.3880     2.2330    32.4150 
  168.0000   150.7440     3.1380    59.7010    -7.5440    68.6450    32.5050    39.7050     2.2110    71.6440 
  168.1250   150.8430     3.1350    59.7770    -8.7590    66.0090    46.9560    54.0690     2.2000    89.2680 
  168.2500   150.9420     3.1320    59.8530    -9.7820    65.0680    63.6540    70.7930     2.1830    69.9110 
  168.3750   151.0410     3.1290    59.9300   -10.6920    64.1890    80.4030    87.8370     2.1580    73.1250 
  168.5000   151.1400     3.1260    60.0060   -11.3370    62.6030    95.2120   103.0130     2.1380   110.7820 
  168.6250   151.2390     3.1230    60.0820   -11.7910    60.5610   104.4910   113.9460     2.1340   110.5460 
  168.7500   151.3380     3.1200    60.1580   -12.1230    60.0520   108.5120   118.3470     2.1370    80.0420 
  168.8750   151.4370     3.1170    60.2340   -12.4520    61.5200   105.9550   116.6290     2.1480    83.9510 
  169.0000   151.5360     3.1140    60.3110   -12.8540    63.5120    98.6800   110.1140     2.1610    92.6770 
  169.1250   151.6350     3.1110    60.3870   -13.3300    64.6450    92.2180   100.9560     2.1760    73.3550 
  169.2500   151.7340     3.1080    60.4630   -13.8920    64.0500    82.1380    89.4400     2.1820    51.2920 
  169.3750   151.8330     3.1060    60.5400   -14.4430    64.3620    68.8400    75.6300     2.1900    45.2240 
  169.5000   151.9320     3.1030    60.6160   -14.9190    66.5660    52.8000    60.1050     2.2080    50.6150 
  169.6250   152.0310     3.1000    60.6920   -15.2900    72.7490    37.3890    45.2360     2.2440    59.2470 
  169.7500   152.1300     3.0970    60.7680   -15.6840    80.5090    28.4610    33.5810     2.2820    55.2900 
  169.8750   152.2290     3.0950    60.8440   -16.1580    85.9020    22.2890    25.3960     2.3090    32.8810 
  170.0000   152.3290     3.0920    60.9210   -16.7060    86.2060    18.0300    20.0890     2.3210    16.9030 
  170.1250   152.4280     3.0890    60.9970   -17.2600    84.9820    15.2800    16.6680     2.3290    13.6250 
  170.2500   152.5270     3.0860    61.0730   -17.7400    85.6330    13.8950    14.7020     2.3330    11.4350 
  170.3750   152.6260     3.0830    61.1490   -18.1180    87.6340    13.1010    13.6500     2.3310     9.3790 
  170.5000   152.7250     3.0810    61.2260   -18.2670    89.7740    12.8200    13.3850     2.3250     8.4750 
  170.6250   152.8240     3.0780    61.3020   -18.2810    91.2840    13.2860    13.8300     2.3160     8.6000 
  170.7500   152.9230     3.0760    61.3780   -18.1560    90.6740    14.4870    14.9310     2.3040     8.8740 
  170.8750   153.0220     3.0730    61.4540   -17.9660    88.4680    15.9280    16.3850     2.2890     9.0320 
  171.0000   153.1210     3.0710    61.5300   -17.5520    85.6250    17.3330    17.9730     2.2840    14.9870 
  171.1250   153.2200     3.0680    61.6070   -16.8810    84.3530    18.6650    19.6250     2.2890    23.1140 
  171.2500   153.3190     3.0660    61.6830   -15.9960    84.2600    19.9440    21.5800     2.2920    20.3920 
  171.3750   153.4180     3.0640    61.7590   -15.0700    84.8170    21.6480    24.4520     2.2780    13.3230 
  171.5000   153.5170     3.0610    61.8350   -14.2340    83.4200    24.6120    29.6340     2.2490    14.5040 
  171.6250   153.6160     3.0590    61.9120   -13.3780    80.1710    31.1250    38.5180     2.2150    26.8420 
  171.7500   153.7150     3.0560    61.9880   -12.3010    74.9510    43.4760    52.6690     2.1870    46.8570 
  171.8750   153.8140     3.0540    62.0640   -11.0650    70.1120    61.1160    71.4460     2.1660    58.6040 
  172.0000   153.9130     3.0510    62.1400    -9.8400    66.7690    81.3790    93.6460     2.1530    58.9340 
  172.1250   154.0120     3.0490    62.2170    -8.5760    64.8040   102.8680   117.9310     2.1420    66.0360 
  172.2500   154.1110     3.0460    62.2930    -7.4220    64.2350   124.8280   143.4360     2.1330    89.8960 
  172.3750   154.2100     3.0430    62.3690    -6.3280    63.5230   145.4100   167.9390     2.1270   115.6120 
  172.5000   154.3090     3.0410    62.4450    -5.2700    63.3860   163.5040   188.2290     2.1240   123.4550 
  172.6250   154.4080     3.0380    62.5220    -4.1990    62.1920   174.7390   202.3280     2.1240   114.3660 
  172.7500   154.5070     3.0350    62.5980    -3.1210    61.8190   179.3320   209.2130     2.1290   110.3950 
  172.8750   154.6060     3.0320    62.6740    -2.1170    60.6050   179.5350   210.5080     2.1350   128.6230 
  173.0000   154.7050     3.0290    62.7510    -1.2340    61.0310   176.2520   207.4160     2.1410   142.0950 
  173.1250   154.8040     3.0260    62.8270    -0.4590    61.9780   171.1540   201.8290     2.1480   132.9390 
  173.2500   154.9030     3.0230    62.9030     0.3870    63.8520   165.3900   195.3710     2.1550   118.9560 
  173.3750   155.0020     3.0200    62.9800     1.2910    65.1780   160.8790   189.9040     2.1590   107.6770 
  173.5000   155.1010     3.0170    63.0560     2.2390    63.5970   159.1100   187.0570     2.1600    97.6720 
  173.6250   155.2000     3.0130    63.1320     2.8640    62.2080   160.7450   187.1460     2.1580    90.3820 
  173.7500   155.2990     3.0100    63.2090     3.1540    61.8040   165.0650   189.7490     2.1540    91.8680 
  173.8750   155.3980     3.0070    63.2850     3.4610    63.3490   170.5890   193.3700     2.1500    98.3760 
  174.0000   155.4960     3.0040    63.3610     3.9290    63.9400   175.8480   196.5650     2.1490    93.7210 
  174.1250   155.5950     3.0010    63.4380     4.4820    63.3280   179.4790   198.4640     2.1530    78.7110 
  174.2500   155.6940     2.9980    63.5140     5.0530    61.7080   181.3520   199.1250     2.1550    70.3400 
  174.3750   155.7930     2.9950    63.5900     5.5130    59.8190   183.0730   200.1030     2.1530    71.3180 
  174.5000   155.8920     2.9920    63.6670     5.8060    59.1500   187.4060   203.8990     2.1500    78.0600 
  174.6250   155.9910     2.9880    63.7430     6.1810    59.2830   195.7210   211.4470     2.1480    86.6470 
  174.7500   156.0900     2.9850    63.8200     6.5180    59.6900   206.7600   221.3950     2.1450    92.4830 
  174.8750   156.1890     2.9820    63.8960     6.8450    59.2510   217.0180   230.4330     2.1410    94.3510 
  175.0000   156.2870     2.9780    63.9730     6.9890    59.4160   223.2640   235.4220     2.1380    96.1330 
