~V
VERS. 2.00: Ver 2.00
~W
STRT.M 32.0000:
STOP.M 275.0000:
STEP.M 0.1250:
NULL. -999.2500:
UWI. FD10902:
~C
DEPT.M :
TVD. :
DX. :
DY. :
SP.MV :
GR.API :
RI. :
RML.OHMM :
RXO.OHMM :
DEN.GM/CC :
~A
   32.0000    32.0000     0.0000     0.0000    95.0730    45.9280     0.0480     0.0640     1.9430     2.4510 
   32.1250    32.1250     0.0030     0.0000    76.4090    44.4940     0.0480     0.0470     1.9520     2.4680 
   32.2500    32.2500     0.0060     0.0000    59.4330    46.4320     0.0940     0.0770     1.5350     2.4410 
   32.3750    32.3750     0.0090     0.0000    45.3690    52.2070     0.2220     0.1770     1.1900     2.3420 
   32.5000    32.5000     0.0120     0.0010    34.7360    59.1410     0.5150     0.4340     2.1720     2.2380 
   32.6250    32.6250     0.0150     0.0010    27.1200    65.1780     1.1710     1.0770     4.0840     2.1960 
   32.7500    32.7500     0.0180     0.0010    21.9210    71.0950     2.4390     2.7030     6.6710     2.2310 
   32.8750    32.8750     0.0210     0.0010    18.0900    77.7240     3.9500     4.9830    12.1440     2.2990 
   33.0000    33.0000     0.0240     0.0020    15.4460    85.1220     5.0950     6.4300    14.9730     2.3620 
   33.1250    33.1250     0.0270     0.0020    13.7460    92.2550     5.5310     6.7840    10.1100     2.3730 
   33.2500    33.2500     0.0310     0.0020    12.5710    99.4380     5.1170     5.7070     5.1550     2.3140 
   33.3750    33.3750     0.0340     0.0030    11.7010   104.7020     4.4240     4.3040     3.9680     2.2450 
   33.5000    33.5000     0.0370     0.0030    11.0990   105.9020     3.9680     3.6870     3.7720     2.2160 
   33.6250    33.6250     0.0400     0.0030    10.7480   105.5510     3.7750     3.4950     3.7710     2.2230 
   33.7500    33.7490     0.0430     0.0030    10.2500   106.4610     3.8620     3.6110     3.7760     2.2360 
   33.8750    33.8740     0.0470     0.0040     9.5240   108.2530     4.0420     3.8130     3.7790     2.2380 
   34.0000    33.9990     0.0500     0.0040     8.6290   108.5500     4.1970     3.9730     3.8010     2.2410 
   34.1250    34.1240     0.0530     0.0040     7.7330   107.4920     4.2510     4.0170     4.0130     2.2540 
   34.2500    34.2490     0.0570     0.0040     6.8090   108.0860     4.2290     4.0080     4.4710     2.2830 
   34.3750    34.3740     0.0600     0.0050     5.7940   109.7330     4.1790     3.9720     4.4150     2.3010 
   34.5000    34.4990     0.0630     0.0050     4.8000   109.6910     4.1620     4.0030     3.9330     2.2890 
   34.6250    34.6240     0.0670     0.0050     4.1390   106.7290     4.2590     4.1660     3.8660     2.2480 
   34.7500    34.7490     0.0700     0.0050     4.0370   102.1360     4.4590     4.4510     4.1320     2.2100 
   34.8750    34.8740     0.0740     0.0060     4.1890    97.2380     4.7220     4.8350     4.3170     2.1920 
   35.0000    34.9990     0.0770     0.0060     4.1940    94.6490     4.9600     5.1980     4.2450     2.1980 
   35.1250    35.1240     0.0800     0.0060     3.8980    95.1870     5.1040     5.4600     4.1650     2.2100 
   35.2500    35.2490     0.0840     0.0060     3.4970    97.2070     5.0180     5.4400     4.2310     2.2230 
   35.3750    35.3740     0.0880     0.0060     2.9480    98.7300     4.8120     5.2610     4.1690     2.2360 
   35.5000    35.4990     0.0910     0.0070     1.9970   100.4160     4.5730     5.0690     3.9670     2.2580 
   35.6250    35.6240     0.0950     0.0070     0.7270   103.6430     4.5170     5.0930     3.9690     2.2800 
   35.7500    35.7490     0.0980     0.0070    -0.5380   104.5600     4.6540     5.3650     4.4250     2.2960 
   35.8750    35.8740     0.1020     0.0070    -1.4500   101.2920     4.9370     5.8390     4.9820     2.2990 
   36.0000    35.9990     0.1060     0.0070    -2.2030    94.3060     5.4540     6.6270     5.1970     2.2880 
   36.1250    36.1240     0.1090     0.0070    -2.8680    88.6320     6.0190     7.4620     5.4020     2.2670 
   36.2500    36.2480     0.1130     0.0080    -3.3410    83.3210     6.4480     8.1030     5.7900     2.2390 
   36.3750    36.3730     0.1170     0.0080    -3.5560    78.9080     6.6580     8.4450     5.9120     2.2130 
   36.5000    36.4980     0.1210     0.0080    -3.6410    74.9310     6.6540     8.4900     5.8530     2.1910 
   36.6250    36.6230     0.1240     0.0080    -3.7160    72.8890     6.5230     8.3850     6.1020     2.1740 
   36.7500    36.7480     0.1280     0.0080    -3.8500    72.0320     6.4740     8.3940     6.5440     2.1630 
   36.8750    36.8730     0.1320     0.0080    -3.9910    72.2340     6.5270     8.5780     6.7960     2.1540 
   37.0000    36.9980     0.1360     0.0080    -4.0650    72.6280     6.7890     9.1110     7.2710     2.1440 
   37.1250    37.1230     0.1400     0.0080    -4.0580    71.6190     7.2620     9.9660    11.5270     2.1390 
   37.2500    37.2480     0.1440     0.0080    -4.0260    69.3670     7.7290    10.8150    20.2850     2.1410 
   37.3750    37.3730     0.1480     0.0080    -3.9300    67.4420     7.9980    11.3360    21.9410     2.1520 
   37.5000    37.4980     0.1520     0.0080    -3.4160    67.8640     7.9490    11.3460    13.3070     2.1590 
   37.6250    37.6230     0.1560     0.0080    -2.7700    68.9690     7.6460    10.9720     7.2480     2.1570 
   37.7500    37.7480     0.1600     0.0080    -2.1090    69.5960     7.2220    10.4200     6.6030     2.1530 
   37.8750    37.8730     0.1640     0.0080    -1.4170    69.8210     6.7760     9.8690     7.1010     2.1520 
   38.0000    37.9980     0.1680     0.0080    -0.6550    69.6940     6.4130     9.4780     7.6120     2.1640 
   38.1250    38.1230     0.1720     0.0080     0.0610    69.3830     6.1470     9.2370     7.1580     2.1770 
   38.2500    38.2470     0.1760     0.0080     0.4960    70.2240     5.9030     9.0070     6.2920     2.1980 
   38.3750    38.3720     0.1810     0.0080     0.4570    74.0620     5.6260     8.6980     5.8910     2.2160 
   38.5000    38.4970     0.1850     0.0080    -0.0500    79.6570     5.3640     8.3980     5.7370     2.2330 
   38.6250    38.6220     0.1890     0.0070    -0.7570    84.6770     5.1650     8.1980     5.5200     2.2360 
   38.7500    38.7470     0.1930     0.0070    -1.4670    86.5570     5.0770     8.1690     5.5330     2.2270 
   38.8750    38.8720     0.1980     0.0070    -2.0930    86.1870     5.0780     8.2680     5.7720     2.2130 
   39.0000    38.9970     0.2020     0.0070    -2.6510    83.7010     5.1350     8.4240     5.9610     2.1980 
   39.1250    39.1220     0.2060     0.0060    -3.1810    80.7910     5.2060     8.5450     6.1570     2.1890 
   39.2500    39.2470     0.2110     0.0060    -3.6700    78.5610     5.2700     8.5980     6.3330     2.1810 
   39.3750    39.3720     0.2150     0.0060    -4.0970    78.2470     5.4740     8.8920     6.3690     2.1930 
   39.5000    39.4970     0.2200     0.0050    -4.6300    79.0480     5.9310     9.6340     6.7000     2.2350 
   39.6250    39.6220     0.2240     0.0050    -5.3620    78.2980     6.5720    10.7520     8.8850     2.3220 
   39.7500    39.7470     0.2280     0.0050    -6.2010    74.7380     7.2910    12.0520    11.5670     2.4080 
   39.8750    39.8710     0.2330     0.0040    -6.8810    70.5020     7.8200    13.0080    11.0110     2.4380 
   40.0000    39.9960     0.2380     0.0040    -7.3340    69.2980     7.9690    13.2190     8.6570     2.3640 
   40.1250    40.1210     0.2420     0.0030    -7.5970    71.4510     7.6270    12.5310     7.4970     2.2580 
   40.2500    40.2460     0.2470     0.0030    -7.7560    74.3220     7.0370    11.4740     7.2780     2.1850 
   40.3750    40.3710     0.2510     0.0020    -8.0380    76.0080     6.4120    10.4400     7.3120     2.1570 
   40.5000    40.4960     0.2560     0.0010    -8.3970    76.1240     6.0620    10.0080     7.4360     2.1500 
   40.6250    40.6210     0.2610     0.0010    -8.7570    76.0340     6.0200    10.1120     7.4990     2.1430 
   40.7500    40.7460     0.2650     0.0000    -9.1400    75.0700     6.0960    10.3660     7.2890     2.1390 
   40.8750    40.8710     0.2700    -0.0010    -9.6010    74.6520     6.1870    10.6060     6.9910     2.1390 
   41.0000    40.9960     0.2750    -0.0010   -10.0220    74.7280     6.2520    10.7650     7.0080     2.1420 
