~V
VERS. 2.00: Ver 2.00
~W
STRT.M 64.0000:
STOP.M 246.0000:
STEP.M 0.1250:
NULL. -999.2500:
UWI. FD10853:
~C
DEPT.M :
TVD. :
DX. :
DY. :
SP.MV :
GR.API :
RI. :
RML.OHMM :
RXO.OHMM :
DEN.GM/CC :
~A
# ...
  191.7500   189.6930   -18.0790    -6.2220   -17.3100    66.3100     1.8260     1.9680     2.1670     2.2740 
  191.8750   189.8140   -18.1090    -6.2340   -17.3960    69.3470     2.1550     2.3270     2.5970     2.3220 
  192.0000   189.9350   -18.1390    -6.2460   -17.7370    72.8530     2.5850     2.7530     3.4940     2.3630 
  192.1250   190.0550   -18.1690    -6.2580   -18.2490    73.9250     3.0200     3.1570     4.1290     2.3850 
  192.2500   190.1760   -18.1990    -6.2710   -18.7710    73.1740     3.3550     3.4460     3.9640     2.3850 
  192.3750   190.2970   -18.2290    -6.2830   -19.2020    74.9440     3.5470     3.5810     3.7040     2.3880 
  192.5000   190.4180   -18.2590    -6.2950   -19.4830    81.0510     3.5710     3.5560     3.8240     2.3960 
  192.6250   190.5380   -18.2890    -6.3070   -19.6410    89.5370     3.5060     3.4600     4.0380     2.4030 
  192.7500   190.6590   -18.3190    -6.3190   -19.8360    96.9990     3.4470     3.4100     4.0410     2.3910 
  192.8750   190.7800   -18.3490    -6.3310   -20.1310   103.7880     3.4130     3.4280     3.9630     2.3660 
  193.0000   190.9000   -18.3790    -6.3440   -20.5110   110.4490     3.4150     3.5190     4.0900     2.3410 
  193.1250   191.0210   -18.4090    -6.3560   -20.9090   116.1750     3.4250     3.6350     4.4340     2.3240 
  193.2500   191.1420   -18.4390    -6.3680   -21.3110   120.4710     3.4370     3.7450     4.6990     2.3140 
  193.3750   191.2630   -18.4690    -6.3800   -21.6840   120.1440     3.4320     3.8090     4.6900     2.3110 
  193.5000   191.3830   -18.5000    -6.3920   -21.9820   117.5140     3.3900     3.8040     4.5600     2.3230 
  193.6250   191.5040   -18.5300    -6.4040   -22.2980   114.9420     3.3440     3.7730     4.4330     2.3470 
  193.7500   191.6250   -18.5600    -6.4160   -22.5590   114.8880     3.3850     3.8380     4.3660     2.3800 
  193.8750   191.7450   -18.5900    -6.4280   -22.8420   115.0090     3.5900     4.1020     4.3730     2.4050 
  194.0000   191.8660   -18.6200    -6.4400   -23.1620   110.9420     4.0590     4.6930     4.6510     2.4130 
  194.1250   191.9870   -18.6510    -6.4530   -23.3710   103.4510     4.7810     5.6040     5.9850     2.3990 
  194.2500   192.1070   -18.6810    -6.4650   -23.3930    94.3070     5.7570     6.8030     8.3200     2.3730 
  194.3750   192.2280   -18.7110    -6.4770   -23.2850    86.2600     6.7960     8.0160    10.2720     2.3540 
  194.5000   192.3490   -18.7410    -6.4890   -23.0740    81.1680     7.6750     8.9620    11.6550     2.3460 
  194.6250   192.4700   -18.7710    -6.5010   -22.5440    77.8680     8.4300     9.7090    12.5930     2.3410 
  194.7500   192.5900   -18.8020    -6.5130   -21.8230    75.8590     8.9350    10.1700    12.7260     2.3360 
  194.8750   192.7110   -18.8320    -6.5250   -21.7870    74.0210     9.4000    10.6340    13.1630     2.3260 
  195.0000   192.8320   -18.8620    -6.5370   -22.2100    72.3340     9.8280    11.1080    14.4110     2.3120 
  195.1250   192.9520   -18.8920    -6.5490   -22.6710    70.9900    10.2050    11.5610    15.0190     2.2850 
  195.2500   193.0730   -18.9230    -6.5610   -23.0880    69.1450    10.5560    12.0040    14.6100     2.2620 
  195.3750   193.1940   -18.9530    -6.5720   -23.4490    68.2960    10.8850    12.4340    14.2870     2.2490 
  195.5000   193.3140   -18.9840    -6.5840   -23.7250    67.8770    11.2110    12.8530    14.9920     2.2490 
  195.6250   193.4350   -19.0140    -6.5960   -23.8490    67.1160    11.4160    13.1060    16.5870     2.2520 
  195.7500   193.5560   -19.0440    -6.6080   -23.9080    64.9780    11.4180    13.0760    17.6350     2.2590 
  195.8750   193.6760   -19.0750    -6.6200   -23.8880    64.0360    11.2240    12.7580    17.0740     2.2670 
  196.0000   193.7970   -19.1050    -6.6310   -23.9020    64.6990    10.8560    12.2040    14.7860     2.2690 
  196.1250   193.9180   -19.1360    -6.6430   -23.8930    66.3620    10.4670    11.6290    12.6130     2.2610 
  196.2500   194.0380   -19.1670    -6.6540   -23.7490    65.9010    10.2250    11.2640    12.6770     2.2540 
  196.3750   194.1590   -19.1970    -6.6660   -23.5370    65.2920    10.2960    11.2910    13.5430     2.2480 
  196.5000   194.2800   -19.2280    -6.6780   -23.4300    65.7050    10.6010    11.6050    13.5680     2.2450 
  196.6250   194.4000   -19.2590    -6.6890   -23.4050    67.5690    11.0590    12.0950    13.6670     2.2480 
  196.7500   194.5210   -19.2890    -6.7000   -23.4170    69.2430    11.5360    12.5810    14.3370     2.2490 
  196.8750   194.6410   -19.3200    -6.7120   -23.3590    70.0360    11.8460    12.8560    15.1890     2.2460 
  197.0000   194.7620   -19.3510    -6.7230   -23.2780    70.3620    11.9540    12.8850    15.9400     2.2370 
  197.1250   194.8830   -19.3820    -6.7340   -23.2880    69.8380    11.8730    12.6770    16.1120     2.2360 
  197.2500   195.0030   -19.4130    -6.7460   -23.3760    69.2830    11.6220    12.2590    15.2840     2.2470 
  197.3750   195.1240   -19.4440    -6.7570   -23.5050    67.9190    11.3790    11.8730    14.0280     2.2510 
  197.5000   195.2440   -19.4750    -6.7680   -23.6100    65.4610    11.3240    11.7270    13.8540     2.2440 
  197.6250   195.3650   -19.5060    -6.7790   -23.7320    63.3010    11.6210    11.9990    14.6350     2.2280 
  197.7500   195.4860   -19.5370    -6.7900   -23.8710    62.8740    12.2800    12.6880    15.0660     2.2190 
  197.8750   195.6060   -19.5680    -6.8010   -24.0690    64.5720    13.3090    13.7590    15.6280     2.2160 
  198.0000   195.7270   -19.5990    -6.8120   -24.3120    64.9690    14.5550    15.0240    17.4360     2.2210 
  198.1250   195.8470   -19.6300    -6.8230   -24.5780    65.0360    15.7120    16.1650    19.9610     2.2360 
  198.2500   195.9680   -19.6610    -6.8340   -24.7530    64.8510    16.5840    16.9480    21.7080     2.2590 
  198.3750   196.0890   -19.6920    -6.8450   -24.9240    66.6590    16.7680    16.9690    21.5190     2.2760 
  198.5000   196.2090   -19.7230    -6.8560   -25.1160    67.6420    16.0800    16.0690    19.4800     2.2760 
  198.6250   196.3300   -19.7530    -6.8670   -25.2440    67.5760    14.8020    14.5870    17.6220     2.2670 
  198.7500   196.4500   -19.7840    -6.8780   -25.2610    68.3990    13.4630    13.1380    16.6020     2.2520 
  198.8750   196.5710   -19.8150    -6.8890   -25.2340    70.6360    12.5410    12.1840    15.1640     2.2460 
  199.0000   196.6920   -19.8460    -6.9000   -25.1830    72.0360    12.4110    12.1030    13.9190     2.2530 
  199.1250   196.8120   -19.8770    -6.9110   -25.1460    70.0110    13.0390    12.8220    14.3570     2.2760 
  199.2500   196.9330   -19.9080    -6.9220   -25.0920    66.2190    14.1580    14.0190    17.1980     2.2930 
  199.3750   197.0530   -19.9390    -6.9330   -25.0380    63.5080    15.5440    15.4160    21.9960     2.2840 
  199.5000   197.1740   -19.9710    -6.9440   -25.0210    61.7190    16.6990    16.4740    24.4800     2.2420 
  199.6250   197.2950   -20.0020    -6.9550   -25.0880    60.5540    17.2860    16.8820    21.9370     2.2010 
  199.7500   197.4150   -20.0330    -6.9650   -25.2650    60.0400    17.3350    16.7750    18.9690     2.1800 
  199.8750   197.5360   -20.0640    -6.9760   -25.3560    60.3490    17.2500    16.5980    18.6410     2.1770 
  200.0000   197.6560   -20.0950    -6.9870   -25.3630    59.7900    17.4610    16.7960    19.2050     2.1790 
  200.1250   197.7770   -20.1270    -6.9970   -25.3330    59.5430    17.9760    17.3120    19.6720     2.1810 
  200.2500   197.8970   -20.1580    -7.0080   -25.2550    59.6060    18.5290    17.8420    20.3000     2.1870 
  200.3750   198.0180   -20.1890    -7.0190   -25.1380    60.7050    18.8460    18.0970    21.0400     2.1920 
  200.5000   198.1380   -20.2210    -7.0290   -25.0340    61.6470    18.6410    17.8270    21.2810     2.2010 
  200.6250   198.2590   -20.2520    -7.0400   -24.9240    63.7570    18.0890    17.2320    20.5270     2.2140 
  200.7500   198.3790   -20.2830    -7.0510   -24.8140    65.9310    17.4500    16.5890    19.1140     2.2300 
