~V
VERS. 2.00: Ver 2.00
~W
STRT.M 24.0000:
STOP.M 309.0000:
STEP.M 0.1250:
NULL. -999.2500:
UWI. FD10911:
~C
DEPT.M :
TVD. :
DX. :
DY. :
SP.MV :
GR.API :
RI. :
RML.OHMM :
RXO.OHMM :
DEN.GM/CC :
~A
# ...
   60.5000    60.4090    -1.4840    -1.7510   -21.8730    68.0240     5.2490     6.4500     6.6580     2.0970 
   60.6250    60.5330    -1.4880    -1.7650   -22.2730    67.3990     5.3140     6.5210     6.6120     2.0930 
   60.7500    60.6580    -1.4920    -1.7780   -22.5410    64.3880     5.3760     6.5670     6.5380     2.0990 
   60.8750    60.7820    -1.4950    -1.7920   -22.7320    62.0610     5.4600     6.6420     6.5770     2.1090 
   61.0000    60.9060    -1.4990    -1.8060   -22.8820    61.7190     5.5550     6.7290     8.5060     2.1230 
   61.1250    61.0300    -1.5030    -1.8190   -23.0040    63.9510     5.6270     6.7830    14.3830     2.1330 
   61.2500    61.1540    -1.5060    -1.8330   -23.1000    66.3700     5.6950     6.8290    19.8230     2.1380 
   61.3750    61.2790    -1.5100    -1.8470   -23.1780    67.8950     5.8120     6.9410    17.7430     2.1370 
   61.5000    61.4030    -1.5130    -1.8610   -23.2620    69.2290     5.9820     7.1370    11.4750     2.1380 
   61.6250    61.5270    -1.5170    -1.8750   -23.3650    70.7570     6.1550     7.3590     8.9500     2.1550 
   61.7500    61.6510    -1.5200    -1.8890   -23.4820    71.6840     6.2600     7.5040     9.5230     2.2000 
   61.8750    61.7750    -1.5240    -1.9030   -23.5850    71.3800     6.2340     7.4740     9.2040     2.2530 
   62.0000    61.8990    -1.5270    -1.9170   -23.6500    69.3850     6.0630     7.2540     7.9290     2.2740 
   62.1250    62.0240    -1.5310    -1.9320   -23.6770    67.8810     5.8170     6.9390     7.1040     2.2450 
   62.2500    62.1480    -1.5340    -1.9460   -23.6880    65.5170     5.5650     6.6300     6.8700     2.1890 
   62.3750    62.2720    -1.5380    -1.9600   -23.7040    64.2850     5.3820     6.4230     6.8240     2.1430 
   62.5000    62.3960    -1.5410    -1.9750   -23.7220    62.3190     5.2990     6.3410     6.8070     2.1210 
   62.6250    62.5200    -1.5440    -1.9890   -23.7190    60.3950     5.2570     6.3040     6.7430     2.1120 
   62.7500    62.6440    -1.5480    -2.0040   -23.6680    58.6900     5.2270     6.2680     6.6370     2.1080 
   62.8750    62.7680    -1.5510    -2.0190   -23.5600    59.3330     5.2140     6.2340     6.5330     2.1060 
   63.0000    62.8920    -1.5540    -2.0330   -23.3980    61.9420     5.2150     6.2000     6.4790     2.1090 
   63.1250    63.0160    -1.5570    -2.0480   -23.2000    64.7190     5.2100     6.1500     6.4750     2.1130 
   63.2500    63.1400    -1.5600    -2.0630   -22.9760    64.9810     5.1880     6.0790     6.4720     2.1130 
   63.3750    63.2640    -1.5630    -2.0780   -22.7310    64.9400     5.1550     5.9920     6.4470     2.1110 
   63.5000    63.3890    -1.5670    -2.0930   -22.4550    66.0490     5.1250     5.8950     6.3900     2.1080 
   63.6250    63.5130    -1.5700    -2.1080   -22.1400    69.3280     5.1200     5.8190     6.3160     2.1090 
   63.7500    63.6370    -1.5730    -2.1230   -21.7800    72.9670     5.1610     5.8000     6.2670     2.1130 
   63.8750    63.7610    -1.5760    -2.1380   -21.3860    75.4000     5.2390     5.8390     6.2390     2.1180 
   64.0000    63.8850    -1.5790    -2.1540   -20.9500    76.5610     5.2990     5.8750     6.2770     2.1200 
   64.1250    64.0090    -1.5820    -2.1690   -20.4570    77.6390     5.2680     5.8230     6.3670     2.1210 
   64.2500    64.1330    -1.5850    -2.1850   -19.8630    78.3540     5.0780     5.5990     6.1510     2.1250 
   64.3750    64.2570    -1.5880    -2.2000   -19.1350    78.8460     4.7340     5.2050     5.4570     2.1380 
   64.5000    64.3810    -1.5910    -2.2160   -18.2420    80.8030     4.3080     4.7320     4.6830     2.1640 
   64.6250    64.5050    -1.5940    -2.2310   -17.2190    83.9820     3.9070     4.3060     4.1800     2.1970 
   64.7500    64.6290    -1.5970    -2.2470   -16.1490    88.7580     3.6080     4.0150     3.8690     2.2320 
   64.8750    64.7530    -1.6000    -2.2630   -15.1710    92.8210     3.4240     3.8570     3.7060     2.2600 
   65.0000    64.8770    -1.6030    -2.2780   -14.4320    96.3610     3.3490     3.8000     3.7620     2.2690 
   65.1250    65.0010    -1.6060    -2.2940   -13.9750    97.6110     3.3640     3.8230     3.8310     2.2610 
   65.2500    65.1250    -1.6090    -2.3100   -13.8050    95.1650     3.5030     3.9790     3.7310     2.2450 
   65.3750    65.2480    -1.6110    -2.3260   -13.8380    92.3890     3.8400     4.3870     3.7490     2.2410 
   65.5000    65.3720    -1.6140    -2.3420   -14.0310    90.7000     4.5110     5.2370     4.4260     2.2610 
   65.6250    65.4960    -1.6170    -2.3580   -14.3440    90.6730     5.5080     6.5080     6.0220     2.3010 
   65.7500    65.6200    -1.6200    -2.3740   -14.7770    89.7300     6.7230     8.0330     8.7760     2.3560 
   65.8750    65.7440    -1.6230    -2.3910   -15.2950    90.8850     7.8820     9.4440    11.5230     2.4130 
   66.0000    65.8680    -1.6250    -2.4070   -15.8590    96.5770     8.6770    10.3380    11.9000     2.4550 
   66.1250    65.9920    -1.6280    -2.4230   -16.4160   104.4630     8.9680    10.5880    11.0970     2.4710 
   66.2500    66.1160    -1.6310    -2.4400   -16.9540   108.4840     8.7450    10.2600    13.3060     2.4730 
   66.3750    66.2400    -1.6330    -2.4560   -17.4910   108.2830     8.2550     9.6790    17.1170     2.4800 
   66.5000    66.3640    -1.6360    -2.4730   -18.0470   108.1950     7.6850     9.0450    16.4070     2.4890 
   66.6250    66.4870    -1.6390    -2.4890   -18.6140   110.3120     7.1480     8.4410    11.6490     2.4770 
   66.7500    66.6110    -1.6410    -2.5060   -19.1730   111.5050     6.6750     7.8930     8.1500     2.4250 
   66.8750    66.7350    -1.6440    -2.5230   -19.7170   108.2110     6.2740     7.4300     7.2310     2.3490 
   67.0000    66.8590    -1.6460    -2.5400   -20.2470   102.2830     6.0060     7.1480     7.1850     2.2760 
   67.1250    66.9830    -1.6490    -2.5560   -20.7620    97.0950     5.8890     7.0550     7.1400     2.2230 
   67.2500    67.1070    -1.6520    -2.5730   -21.2500    92.7130     5.8640     7.0610     7.1480     2.1930 
   67.3750    67.2300    -1.6540    -2.5900   -21.7030    88.2980     5.8550     7.0710     7.1760     2.1800 
   67.5000    67.3540    -1.6570    -2.6070   -22.1110    87.1360     5.8410     7.0590     7.1220     2.1780 
   67.6250    67.4780    -1.6590    -2.6240   -22.4810    92.1260     5.8140     7.0150     7.0170     2.1830 
   67.7500    67.6020    -1.6620    -2.6420   -22.8200    98.1560     5.7680     6.9330     6.9410     2.1850 
   67.8750    67.7260    -1.6640    -2.6590   -23.1490    98.1790     5.6990     6.8240     6.8930     2.1740 
   68.0000    67.8490    -1.6670    -2.6760   -23.4810    91.6610     5.6090     6.7010     6.8890     2.1510 
   68.1250    67.9730    -1.6690    -2.6930   -23.8130    84.9060     5.5100     6.5760     6.9170     2.1260 
   68.2500    68.0970    -1.6710    -2.7110   -24.1200    79.6380     5.4070     6.4620     6.8270     2.1100 
   68.3750    68.2210    -1.6740    -2.7280   -24.3710    75.8130     5.3040     6.3570     6.5950     2.1010 
   68.5000    68.3440    -1.6760    -2.7460   -24.5400    71.6910     5.2100     6.2570     6.4370     2.0980 
   68.6250    68.4680    -1.6780    -2.7640   -24.6310    70.3680     5.1270     6.1630     6.4260     2.0990 
   68.7500    68.5920    -1.6800    -2.7810   -24.6540    70.7960     5.0540     6.0840     6.3940     2.1040 
   68.8750    68.7160    -1.6820    -2.7990   -24.6400    72.6680     4.9950     6.0360     6.3000     2.1100 
   69.0000    68.8390    -1.6840    -2.8170   -24.6080    73.5050     4.9620     6.0390     6.2680     2.1120 
   69.1250    68.9630    -1.6860    -2.8350   -24.5810    74.3250     4.9580     6.0800     6.3360     2.1080 
   69.2500    69.0870    -1.6890    -2.8530   -24.5670    73.9980     4.9750     6.1330     6.4940     2.1030 
   69.3750    69.2100    -1.6910    -2.8710   -24.5680    73.1430     4.9980     6.1800     6.6550     2.0980 
   69.5000    69.3340    -1.6930    -2.8890   -24.5820    71.6780     5.0180     6.2150     6.6250     2.0940 
