~V
VERS. 2.00: Ver 2.00
~W
STRT.M 30.0000:
STOP.M 262.0000:
STEP.M 0.1250:
NULL. -999.2500:
UWI. FD10852:
~C
DEPT.M :
TVD. :
DX. :
DY. :
SP.MV :
GR.API :
RI. :
RML.OHMM :
RXO.OHMM :
DEN.GM/CC :
~A
# ...
  221.6250   200.2910   -78.6150    -3.8970    -3.5610    55.2530    26.7020    31.6860    24.8800     2.3080 
  221.7500   200.3930   -78.6870    -3.9000    -3.5110    58.8170    24.9530    29.6630    24.8390     2.3090 
  221.8750   200.4950   -78.7590    -3.9030    -3.7390    65.0470    23.4980    27.9540    24.4580     2.2520 
  222.0000   200.5980   -78.8310    -3.9070    -4.2580    68.4220    21.7410    25.9080    24.4290     2.1960 
  222.1250   200.7000   -78.9020    -3.9100    -4.9610    68.2650    20.5460    24.5840    24.1150     2.1750 
  222.2500   200.8020   -78.9740    -3.9130    -5.7820    66.6380    20.0200    24.0740    24.0260     2.1740 
  222.3750   200.9050   -79.0460    -3.9160    -6.7660    64.2100    20.0870    24.2860    24.8710     2.1730 
  222.5000   201.0070   -79.1170    -3.9190    -7.9150    61.9680    21.0080    25.4440    25.8450     2.1720 
  222.6250   201.1090   -79.1890    -3.9220    -9.1400    60.8940    22.1670    26.8100    26.1880     2.1660 
  222.7500   201.2120   -79.2610    -3.9250   -10.4410    60.5730    23.4340    28.2520    26.1140     2.1570 
  222.8750   201.3140   -79.3330    -3.9290   -11.7250    58.9950    24.6150    29.5010    26.1370     2.1520 
  223.0000   201.4160   -79.4040    -3.9320   -12.6470    56.3120    25.3680    30.2280    26.2730     2.1540 
  223.1250   201.5190   -79.4760    -3.9350   -13.0060    54.9200    25.8970    30.6750    26.5030     2.1560 
  223.2500   201.6210   -79.5480    -3.9370   -12.8590    55.2200    26.0410    30.6610    26.7540     2.1530 
  223.3750   201.7230   -79.6190    -3.9400   -12.5760    55.2090    25.8930    30.3690    26.6470     2.1470 
  223.5000   201.8260   -79.6910    -3.9430   -12.5040    54.2570    25.6000    29.9910    26.1500     2.1450 
  223.6250   201.9280   -79.7630    -3.9460   -12.8250    54.6720    25.0030    29.2950    25.7130     2.1560 
  223.7500   202.0300   -79.8350    -3.9490   -13.5010    56.3940    23.9110    28.0350    25.4430     2.1700 
  223.8750   202.1330   -79.9060    -3.9520   -14.2020    58.2230    22.4720    26.3170    25.0520     2.1760 
  224.0000   202.2350   -79.9780    -3.9550   -14.5940    60.0280    20.8420    24.3650    24.2970     2.1780 
  224.1250   202.3370   -80.0500    -3.9580   -14.5150    61.6280    19.4110    22.6310    23.2230     2.1860 
  224.2500   202.4400   -80.1220    -3.9610   -14.1280    62.8390    18.2860    21.2840    22.2810     2.1980 
  224.3750   202.5420   -80.1930    -3.9640   -13.8740    63.3520    17.7470    20.6350    21.9000     2.2060 
  224.5000   202.6440   -80.2650    -3.9670   -13.8790    62.8190    17.9580    20.8500    22.0540     2.2030 
  224.6250   202.7470   -80.3370    -3.9700   -14.0890    60.9540    18.9540    21.8800    22.3690     2.1850 
  224.7500   202.8490   -80.4090    -3.9730   -14.5610    57.6840    20.6020    23.5680    22.4620     2.1570 
  224.8750   202.9510   -80.4810    -3.9760   -15.2040    55.4810    22.6260    25.5760    22.3100     2.1330 
  225.0000   203.0530   -80.5520    -3.9780   -15.8870    55.4450    24.7250    27.5530    22.2920     2.1220 
  225.1250   203.1560   -80.6240    -3.9810   -16.4750    56.9170    26.5680    29.1830    22.3290     2.1230 
  225.2500   203.2580   -80.6960    -3.9840   -16.8730    58.2640    28.0040    30.3080    22.0810     2.1260 
  225.3750   203.3600   -80.7680    -3.9870   -17.0890    57.9940    28.9160    30.8520    21.8850     2.1280 
  225.5000   203.4620   -80.8400    -3.9900   -17.1960    57.3150    29.3230    30.9060    22.2110     2.1270 
  225.6250   203.5640   -80.9120    -3.9920   -17.3220    57.1920    29.4570    30.7730    22.6490     2.1240 
  225.7500   203.6660   -80.9840    -3.9950   -17.4770    57.1920    29.3260    30.5200    22.3630     2.1210 
  225.8750   203.7690   -81.0560    -3.9980   -17.6720    57.1910    29.0570    30.2110    21.3000     2.1190 
  226.0000   203.8710   -81.1280    -4.0010   -17.8300    57.4480    28.5080    29.6530    20.3010     2.1150 
  226.1250   203.9730   -81.2000    -4.0040   -17.6740    57.8470    27.6060    28.7220    20.1800     2.1120 
  226.2500   204.0750   -81.2720    -4.0060   -16.9800    57.8180    26.3260    27.3760    20.6600     2.1180 
  226.3750   204.1770   -81.3450    -4.0090   -15.9360    57.1670    25.2630    26.3100    20.9430     2.1370 
  226.5000   204.2790   -81.4170    -4.0120   -14.8530    56.4140    24.9760    26.1290    20.4540     2.1650 
  226.6250   204.3810   -81.4890    -4.0150   -14.0260    56.6870    25.3090    26.5910    19.9780     2.2200 
  226.7500   204.4830   -81.5610    -4.0180   -13.5170    58.9150    26.6000    28.0640    21.5710     2.3110 
  226.8750   204.5850   -81.6330    -4.0210   -13.1870    60.6810    28.9360    30.5040    24.2610     2.3950 
  227.0000   204.6870   -81.7060    -4.0240   -12.9080    59.8430    32.1250    33.8170    25.2570     2.4250 
  227.1250   204.7890   -81.7780    -4.0270   -12.5140    57.2340    36.5430    38.5060    25.0270     2.4360 
  227.2500   204.8910   -81.8500    -4.0300   -11.7730    56.4080    41.8170    44.4050    25.5100     2.4740 
  227.3750   204.9920   -81.9230    -4.0330   -10.7770    57.3350    47.0600    49.8660    26.4620     2.5320 
  227.5000   205.0940   -81.9950    -4.0350    -9.9050    58.9410    49.4150    51.8670    27.1730     2.5700 
  227.6250   205.1960   -82.0680    -4.0390    -9.2100    59.9750    48.9770    50.4580    27.8100     2.5590 
  227.7500   205.2980   -82.1400    -4.0420    -8.6550    61.9950    44.1760    44.1110    27.7000     2.4960 
  227.8750   205.4000   -82.2130    -4.0450    -8.2780    65.3510    38.0320    37.2320    26.2400     2.4320 
  228.0000   205.5010   -82.2850    -4.0480    -8.0400    69.3460    32.8590    31.7810    23.6260     2.4210 
  228.1250   205.6030   -82.3580    -4.0510    -7.8940    72.7030    30.0520    29.1940    21.4360     2.4520 
  228.2500   205.7050   -82.4300    -4.0540    -7.8350    74.4410    29.8110    29.2570    21.7530     2.4800 
  228.3750   205.8070   -82.5030    -4.0560    -7.7740    73.6680    31.4280    30.9640    23.8030     2.4960 
  228.5000   205.9080   -82.5760    -4.0590    -7.6790    72.8210    33.2430    32.7220    25.4240     2.4980 
  228.6250   206.0100   -82.6480    -4.0620    -7.6130    74.6420    35.0090    34.4140    25.6930     2.4890 
  228.7500   206.1120   -82.7210    -4.0640    -7.6250    78.3230    36.1790    35.4460    25.0190     2.4560 
  228.8750   206.2130   -82.7940    -4.0670    -7.6450    80.7130    36.1840    35.3920    24.2700     2.4180 
  229.0000   206.3150   -82.8660    -4.0690    -7.6440    80.5580    34.7510    34.0160    24.0690     2.4130 
  229.1250   206.4160   -82.9390    -4.0720    -7.5240    80.0770    32.6040    32.0090    24.5400     2.4430 
  229.2500   206.5180   -83.0120    -4.0750    -7.0980    80.2810    30.7090    30.2380    24.7110     2.4780 
  229.3750   206.6200   -83.0850    -4.0770    -6.3610    79.5560    29.5400    29.1970    24.1340     2.4840 
  229.5000   206.7210   -83.1580    -4.0800    -5.4640    76.8160    29.0410    28.8740    23.9890     2.4690 
  229.6250   206.8230   -83.2300    -4.0840    -4.6930    73.3320    29.5180    29.8550    25.0210     2.4670 
  229.7500   206.9240   -83.3030    -4.0870    -4.3880    72.0740    30.3770    30.8780    26.0360     2.4790 
  229.8750   207.0260   -83.3760    -4.0900    -4.5710    71.1580    30.8330    31.3080    25.9680     2.4930 
  230.0000   207.1270   -83.4490    -4.0930    -4.9800    68.9590    30.8030    31.0100    25.7020     2.5010 
  230.1250   207.2290   -83.5220    -4.0960    -5.3970    66.6810    30.7650    30.6390    25.5010     2.5100 
  230.2500   207.3300   -83.5950    -4.0990    -5.5640    66.7790    32.0600    32.2430    25.4120     2.5100 
  230.3750   207.4320   -83.6670    -4.1020    -5.2770    68.2540    34.4440    35.4110    26.1760     2.5060 
  230.5000   207.5330   -83.7400    -4.1050    -4.7360    68.1290    35.7320    37.3510    27.3780     2.5320 
  230.6250   207.6350   -83.8130    -4.1080    -4.2880    65.7190    32.5630    34.2900    27.9800     2.5860 
