~V
VERS. 2.00: Ver 2.00
~W
STRT.M 33.0000:
STOP.M 287.0000:
STEP.M 0.1250:
NULL. -999.2500:
UWI. FD10889:
~C
DEPT.M :
TVD. :
DX. :
DY. :
SP.MV :
GR.API :
RI. :
RML.OHMM :
RXO.OHMM :
DEN.GM/CC :
~A
# ...
  151.6250   146.9220   -23.5650   -15.2690    -5.8990    52.3410    16.6680    19.4990    16.8900     2.0930 
  151.7500   147.0320   -23.6090   -15.3090    -6.0920    49.7870    16.9480    19.7330    18.1310     2.1010 
  151.8750   147.1420   -23.6530   -15.3490    -6.1390    47.4710    16.9100    19.5650    20.0860     2.1030 
  152.0000   147.2520   -23.6970   -15.3890    -6.1310    47.3200    16.6910    19.1960    24.1450     2.0980 
  152.1250   147.3620   -23.7410   -15.4290    -6.1360    50.4680    16.5080    18.9100    24.3610     2.0890 
  152.2500   147.4720   -23.7840   -15.4690    -6.1210    54.5030    16.5790    18.9570    19.5870     2.0820 
  152.3750   147.5820   -23.8280   -15.5100    -5.9940    56.1280    16.9220    19.3700    16.8180     2.0810 
  152.5000   147.6920   -23.8720   -15.5500    -5.6710    55.5370    17.4940    20.0700    17.6130     2.0830 
  152.6250   147.8010   -23.9150   -15.5910    -5.2240    55.1970    18.0000    20.6800    20.0770     2.0850 
  152.7500   147.9110   -23.9590   -15.6310    -4.9150    55.8670    18.2720    20.9900    24.2910     2.0860 
  152.8750   148.0210   -24.0020   -15.6720    -4.9250    55.7690    18.2760    20.9390    26.9530     2.0860 
  153.0000   148.1310   -24.0460   -15.7130    -5.0370    53.1070    18.1520    20.7410    24.1280     2.0840 
  153.1250   148.2410   -24.0900   -15.7530    -4.9560    49.6560    18.2790    20.8830    19.2290     2.0770 
  153.2500   148.3510   -24.1330   -15.7940    -4.6390    47.0810    18.8880    21.6430    18.3230     2.0640 
  153.3750   148.4600   -24.1770   -15.8350    -4.3250    47.5280    19.8000    22.7750    19.8630     2.0500 
  153.5000   148.5700   -24.2210   -15.8760    -4.0900    52.3920    20.7880    23.9580    21.8410     2.0400 
  153.6250   148.6800   -24.2640   -15.9170    -4.0230    57.4000    21.3340    24.5640    24.5190     2.0340 
  153.7500   148.7900   -24.3080   -15.9580    -3.9420    58.5990    21.1120    24.2450    22.0340     2.0310 
  153.8750   148.8990   -24.3520   -15.9990    -4.0100    58.2190    20.2100    23.1630    20.1310     2.0300 
  154.0000   149.0090   -24.3950   -16.0400    -4.1730    58.8120    18.9290    21.7120    21.2970     2.0330 
  154.1250   149.1180   -24.4390   -16.0820    -4.6340    60.5120    17.7500    20.4510    19.7360     2.0400 
  154.2500   149.2280   -24.4830   -16.1230    -5.0250    61.9430    16.9150    19.6430    18.8260     2.0470 
  154.3750   149.3380   -24.5270   -16.1640    -5.0850    65.1210    16.4900    19.3240    18.6710     2.0520 
  154.5000   149.4470   -24.5700   -16.2060    -4.9460    68.3580    16.4760    19.4570    16.7690     2.0600 
  154.6250   149.5570   -24.6140   -16.2470    -4.7050    67.4120    16.7360    19.8430    16.5770     2.0760 
  154.7500   149.6660   -24.6570   -16.2890    -4.4370    63.1320    17.0550    20.2420    17.9770     2.0940 
  154.8750   149.7760   -24.7010   -16.3310    -4.0810    59.2750    17.3270    20.5270    19.3880     2.1020 
  155.0000   149.8850   -24.7440   -16.3730    -3.9540    57.9980    17.3170    20.3660    18.3740     2.0950 
  155.1250   149.9940   -24.7880   -16.4150    -4.0710    58.1670    17.0470    19.8250    18.2780     2.0790 
  155.2500   150.1040   -24.8320   -16.4570    -4.1200    58.0060    16.6040    19.0490    17.7730     2.0630 
  155.3750   150.2130   -24.8750   -16.4990    -4.1290    59.0440    16.2410    18.4000    17.8110     2.0550 
  155.5000   150.3220   -24.9180   -16.5410    -4.1560    61.6760    16.1980    18.2210    17.4530     2.0540 
  155.6250   150.4320   -24.9620   -16.5840    -4.5020    62.8040    16.5810    18.5960    19.5900     2.0570 
  155.7500   150.5410   -25.0050   -16.6260    -5.1190    61.8490    17.4640    19.6030    19.5320     2.0600 
  155.8750   150.6500   -25.0490   -16.6690    -5.7430    60.7610    18.4200    20.6970    21.2940     2.0630 
  156.0000   150.7590   -25.0920   -16.7120    -6.4170    61.3920    18.7210    20.9170    16.7640     2.0680 
  156.1250   150.8680   -25.1360   -16.7540    -7.2010    61.0080    18.0740    19.8130    14.5920     2.0830 
  156.2500   150.9770   -25.1790   -16.7970    -8.3350    59.2660    15.7970    17.1070    13.2230     2.1110 
  156.3750   151.0860   -25.2230   -16.8400    -9.6120    60.4050    12.9150    13.7560    11.2840     2.1440 
  156.5000   151.1950   -25.2670   -16.8830   -10.7240    65.7850    10.3480    11.0350     8.9960     2.1700 
  156.6250   151.3040   -25.3100   -16.9270   -11.2930    71.9300     8.6010     9.3120     8.2100     2.1820 
  156.7500   151.4130   -25.3540   -16.9710   -11.3260    75.5410     8.5710     9.2850     8.7800     2.1860 
  156.8750   151.5210   -25.3980   -17.0140   -10.9580    73.9450     9.4880    10.4520    10.2480     2.1910 
  157.0000   151.6300   -25.4410   -17.0580   -10.1710    65.3930    11.5700    12.9530    12.3570     2.1930 
  157.1250   151.7380   -25.4850   -17.1020    -9.1840    57.0810    14.2280    16.0710    13.4800     2.1830 
  157.2500   151.8470   -25.5290   -17.1460    -8.3820    55.7590    16.9810    19.1780    16.0840     2.1550 
  157.3750   151.9550   -25.5730   -17.1900    -7.5060    58.5760    19.4160    21.7080    19.0300     2.1190 
  157.5000   152.0630   -25.6180   -17.2340    -6.4920    58.3840    21.0230    23.2630    22.3920     2.0870 
  157.6250   152.1710   -25.6620   -17.2790    -5.5630    55.4330    22.3280    24.4890    26.2760     2.0690 
  157.7500   152.2790   -25.7060   -17.3240    -4.6660    52.6530    23.2600    25.4010    30.0400     2.0660 
  157.8750   152.3870   -25.7510   -17.3680    -3.8880    52.1150    24.1180    26.3120    30.2210     2.0730 
  158.0000   152.4950   -25.7950   -17.4130    -3.4640    52.3160    24.8820    27.1640    28.0560     2.0850 
  158.1250   152.6030   -25.8400   -17.4580    -3.0470    52.0230    25.4220    27.8710    26.3400     2.0970 
  158.2500   152.7100   -25.8850   -17.5030    -2.7570    52.5230    25.8160    28.4900    26.7630     2.1050 
  158.3750   152.8180   -25.9290   -17.5490    -2.8570    55.6180    25.9080    28.7840    31.2960     2.1110 
  158.5000   152.9260   -25.9740   -17.5940    -3.0160    58.2440    25.6420    28.6410    30.9800     2.1200 
  158.6250   153.0330   -26.0190   -17.6400    -3.3450    57.4220    25.2430    28.3110    27.7440     2.1300 
  158.7500   153.1400   -26.0630   -17.6860    -3.7030    55.2710    24.8930    28.0200    26.5320     2.1380 
  158.8750   153.2480   -26.1080   -17.7320    -3.9350    55.6900    24.6710    27.8790    27.6380     2.1420 
  159.0000   153.3550   -26.1530   -17.7780    -3.7880    57.1450    24.4130    27.6620    27.0770     2.1420 
  159.1250   153.4620   -26.1980   -17.8240    -3.7180    57.7740    23.9030    27.1000    25.1510     2.1380 
  159.2500   153.5690   -26.2430   -17.8710    -3.8950    57.2280    22.8640    25.8230    24.2490     2.1280 
  159.3750   153.6760   -26.2880   -17.9170    -4.2370    55.2970    21.4370    24.0510    21.6770     2.1140 
  159.5000   153.7830   -26.3330   -17.9640    -4.7190    52.4810    19.9650    22.2450    20.7560     2.0990 
  159.6250   153.8900   -26.3780   -18.0100    -5.2480    51.1280    18.9470    21.0110    21.0440     2.0840 
  159.7500   153.9960   -26.4230   -18.0570    -5.5650    52.9280    18.6610    20.6630    20.2310     2.0680 
  159.8750   154.1030   -26.4690   -18.1030    -5.5930    54.2640    18.9590    20.9960    20.1800     2.0510 
  160.0000   154.2100   -26.5140   -18.1500    -5.3020    53.7420    19.5730    21.6640    21.3090     2.0390 
  160.1250   154.3160   -26.5600   -18.1970    -4.9530    53.3160    20.2070    22.3370    21.9450     2.0360 
  160.2500   154.4230   -26.6060   -18.2430    -4.6950    53.2720    20.7790    22.9290    24.8400     2.0450 
  160.3750   154.5290   -26.6520   -18.2900    -4.6540    53.4130    21.3560    23.5010    29.0620     2.0590 
  160.5000   154.6360   -26.6980   -18.3370    -4.9950    55.0390    22.0220    24.2160    28.7620     2.0730 
  160.6250   154.7420   -26.7440   -18.3850    -5.6920    58.3500    22.8220    25.1340    28.6460     2.0830 
