~V
VERS. 2.00: Ver 2.00
~W
STRT.M 25.0000:
STOP.M 295.0000:
STEP.M 0.1250:
NULL. -999.2500:
UWI. FD10906:
~C
DEPT.M :
TVD. :
DX. :
DY. :
SP.MV :
GR.API :
RI. :
RML.OHMM :
RXO.OHMM :
DEN.GM/CC :
~A
# ...
   79.7500    78.8740    -7.5870     4.5760   -23.0830    72.6840     5.1780     6.7490     6.8370     2.1510 
   79.8750    78.9930    -7.6210     4.5870   -23.2340    71.5280     5.2750     6.9140     7.4720     2.1480 
   80.0000    79.1130    -7.6560     4.5970   -23.4340    69.9030     5.3630     7.0450     8.1210     2.1430 
   80.1250    79.2330    -7.6900     4.6070   -23.7230    68.6200     5.4210     7.1030     8.3560     2.1400 
   80.2500    79.3520    -7.7250     4.6170   -24.1080    69.2090     5.4360     7.0790     8.1620     2.1390 
   80.3750    79.4720    -7.7600     4.6260   -24.5310    70.3590     5.4180     7.0110     7.9220     2.1410 
   80.5000    79.5920    -7.7950     4.6360   -24.9220    71.2260     5.3840     6.9450     7.8440     2.1450 
   80.6250    79.7110    -7.8300     4.6460   -25.2480    70.9970     5.3530     6.9220     7.9140     2.1460 
   80.7500    79.8310    -7.8650     4.6560   -25.5130    70.2410     5.3370     6.9540     8.0410     2.1420 
   80.8750    79.9510    -7.9000     4.6660   -25.7590    68.3130     5.3430     7.0250     8.0930     2.1370 
   81.0000    80.0700    -7.9350     4.6760   -26.0150    67.4960     5.3760     7.1280     8.1140     2.1350 
   81.1250    80.1900    -7.9700     4.6850   -26.2910    67.6920     5.4280     7.2460     8.1260     2.1440 
   81.2500    80.3090    -8.0050     4.6950   -26.5780    70.6580     5.4840     7.3490     7.9360     2.1650 
   81.3750    80.4290    -8.0410     4.7050   -26.8520    71.1450     5.5240     7.4100     7.6290     2.1880 
   81.5000    80.5480    -8.0760     4.7150   -27.0840    70.1320     5.5370     7.4050     7.4870     2.1970 
   81.6250    80.6670    -8.1120     4.7250   -27.2650    68.5640     5.5230     7.3470     7.5550     2.1850 
   81.7500    80.7870    -8.1480     4.7340   -27.3870    70.4700     5.4920     7.2680     7.7710     2.1620 
   81.8750    80.9060    -8.1840     4.7440   -27.4680    72.1480     5.4640     7.2060     8.0430     2.1440 
   82.0000    81.0260    -8.2190     4.7530   -27.5260    71.0970     5.4520     7.1920     8.2100     2.1350 
   82.1250    81.1450    -8.2550     4.7630   -27.5790    69.1040     5.4570     7.2200     8.1940     2.1310 
   82.2500    81.2640    -8.2910     4.7730   -27.6330    69.0630     5.4690     7.2600     8.0860     2.1290 
   82.3750    81.3840    -8.3270     4.7820   -27.6730    70.6790     5.4770     7.2770     7.9420     2.1280 
   82.5000    81.5030    -8.3640     4.7910   -27.6580    71.5100     5.4730     7.2600     7.7040     2.1300 
   82.6250    81.6220    -8.4000     4.8010   -27.5530    70.9450     5.4610     7.2300     7.4950     2.1310 
   82.7500    81.7410    -8.4360     4.8100   -27.3310    70.0420     5.4460     7.2080     7.5320     2.1330 
   82.8750    81.8610    -8.4730     4.8190   -27.0170    70.9980     5.4320     7.2000     7.7230     2.1380 
   83.0000    81.9800    -8.5090     4.8290   -26.6480    72.8830     5.4150     7.1970     7.7930     2.1430 
   83.1250    82.0990    -8.5460     4.8380   -26.2660    75.2380     5.3950     7.1840     7.7380     2.1430 
   83.2500    82.2180    -8.5830     4.8470   -25.9000    75.4020     5.3670     7.1550     7.7600     2.1390 
   83.3750    82.3370    -8.6190     4.8560   -25.5650    74.3150     5.3300     7.1150     7.7820     2.1370 
   83.5000    82.4560    -8.6560     4.8650   -25.2780    71.9700     5.2850     7.0690     7.6150     2.1350 
   83.6250    82.5750    -8.6930     4.8740   -25.0340    70.4780     5.2380     7.0220     7.4600     2.1340 
   83.7500    82.6940    -8.7300     4.8830   -24.8270    69.6990     5.1940     6.9780     7.5460     2.1350 
   83.8750    82.8130    -8.7670     4.8910   -24.6410    69.2470     5.1580     6.9420     7.7380     2.1400 
   84.0000    82.9320    -8.8050     4.9000   -24.4700    67.4690     5.1350     6.9220     7.8570     2.1470 
   84.1250    83.0510    -8.8420     4.9090   -24.3130    66.7610     5.1290     6.9180     7.8530     2.1540 
   84.2500    83.1700    -8.8790     4.9180   -24.1690    68.1090     5.1440     6.9280     7.7620     2.1580 
   84.3750    83.2890    -8.9170     4.9270   -24.0410    71.0720     5.1800     6.9470     7.7370     2.1570 
   84.5000    83.4080    -8.9540     4.9350   -23.9430    72.7490     5.2370     6.9750     7.9190     2.1520 
   84.6250    83.5270    -8.9920     4.9440   -23.8780    72.8510     5.3120     7.0190     8.2270     2.1500 
   84.7500    83.6460    -9.0290     4.9530   -23.8380    73.0640     5.4070     7.0960     8.4440     2.1550 
   84.8750    83.7650    -9.0670     4.9610   -23.7980    73.6800     5.5260     7.2210     8.4120     2.1630 
   85.0000    83.8840    -9.1050     4.9700   -23.7350    73.9560     5.6790     7.4110     8.1900     2.1690 
   85.1250    84.0020    -9.1430     4.9790   -23.6380    72.3580     5.8560     7.6490     8.0250     2.1750 
   85.2500    84.1210    -9.1810     4.9870   -23.4910    70.7120     6.0220     7.8770     8.0340     2.1820 
   85.3750    84.2400    -9.2190     4.9960   -23.2830    70.1120     6.1170     7.9980     8.1450     2.1900 
   85.5000    84.3590    -9.2570     5.0040   -22.9730    71.5070     6.0560     7.8860     8.2800     2.1960 
   85.6250    84.4770    -9.2950     5.0130   -22.5250    73.4190     5.8070     7.5040     8.3170     2.1980 
   85.7500    84.5960    -9.3340     5.0210   -21.8740    74.7270     5.3710     6.8770     8.0340     2.1950 
   85.8750    84.7150    -9.3720     5.0290   -21.0110    76.7790     4.8340     6.1410     7.3280     2.1950 
   86.0000    84.8330    -9.4110     5.0380   -19.9230    80.9060     4.2870     5.4230     6.2530     2.2060 
   86.1250    84.9520    -9.4490     5.0460   -18.6710    87.4430     3.8100     4.8080     5.2300     2.2290 
   86.2500    85.0710    -9.4880     5.0540   -17.3340    92.1210     3.4450     4.3310     4.7050     2.2550 
   86.3750    85.1890    -9.5270     5.0620   -16.0410    95.1190     3.1920     3.9890     4.5540     2.2730 
   86.5000    85.3080    -9.5660     5.0700   -14.9440    96.2950     3.0690     3.8190     4.3980     2.2830 
   86.6250    85.4260    -9.6040     5.0780   -14.1360    98.9540     3.0790     3.8310     4.1670     2.2870 
   86.7500    85.5450    -9.6430     5.0860   -13.6730    99.1770     3.2410     4.0460     4.3010     2.2880 
   86.8750    85.6630    -9.6830     5.0950   -13.4860    96.8420     3.5210     4.4080     5.2360     2.2850 
   87.0000    85.7820    -9.7220     5.1030   -13.5310    90.3290     3.8550     4.8180     6.5510     2.2730 
   87.1250    85.9000    -9.7610     5.1110   -13.7410    84.1710     4.1380     5.1440     7.0540     2.2550 
   87.2500    86.0180    -9.8000     5.1190   -14.0910    81.4870     4.2780     5.2770     6.4740     2.2400 
   87.3750    86.1370    -9.8400     5.1270   -14.5220    81.3640     4.2630     5.2220     5.8030     2.2340 
   87.5000    86.2550    -9.8790     5.1350   -14.9560    82.5120     4.1340     5.0430     5.5710     2.2380 
   87.6250    86.3730    -9.9190     5.1420   -15.3120    81.1500     3.9760     4.8490     5.4760     2.2390 
   87.7500    86.4920    -9.9580     5.1500   -15.5350    82.2580     3.8530     4.7230     5.2500     2.2340 
   87.8750    86.6100    -9.9980     5.1580   -15.6350    82.9460     3.7950     4.6930     4.9710     2.2240 
   88.0000    86.7280   -10.0380     5.1660   -15.6640    83.8560     3.8090     4.7610     4.8220     2.2150 
   88.1250    86.8460   -10.0780     5.1730   -15.7050    80.8780     3.8820     4.8990     4.9200     2.2080 
   88.2500    86.9650   -10.1180     5.1810   -15.8310    78.6680     4.0190     5.1080     5.3030     2.2040 
   88.3750    87.0830   -10.1580     5.1880   -16.0560    77.3470     4.2100     5.3770     5.7720     2.2090 
   88.5000    87.2010   -10.1980     5.1960   -16.3400    77.6970     4.4310     5.6750     6.1250     2.2370 
   88.6250    87.3190   -10.2380     5.2030   -16.5890    77.1780     4.6330     5.9450     6.8680     2.2900 
   88.7500    87.4370   -10.2780     5.2110   -16.7020    77.7470     4.7610     6.1120     8.4500     2.3470 
