~V
VERS. 2.00: Ver 2.00
~W
STRT.M 30.0000:
STOP.M 210.0000:
STEP.M 0.1250:
NULL. -999.2500:
UWI. FD10800:
~C
DEPT.M :
TVD. :
DX. :
DY. :
SP.MV :
GR.API :
RI. :
RML.OHMM :
RXO.OHMM :
DEN.GM/CC :
~A
# ...
  157.7500   151.1380   -29.6790     7.2020   -29.0170    72.8180    56.7610    58.4030    27.6700     2.1530 
  157.8750   151.2450   -29.7440     7.2050   -28.8180    73.3570    54.8080    56.2030    26.7870     2.1470 
  158.0000   151.3520   -29.8080     7.2070   -28.7230    73.6840    53.3360    54.5810    26.5580     2.1530 
  158.1250   151.4590   -29.8720     7.2090   -28.6610    72.2190    52.7780    54.0040    25.1680     2.1690 
  158.2500   151.5670   -29.9370     7.2120   -28.6140    70.9990    53.1870    54.5080    24.5230     2.1830 
  158.3750   151.6740   -30.0010     7.2150   -28.6350    69.4520    54.6330    56.1660    26.9540     2.1850 
  158.5000   151.7810   -30.0650     7.2170   -28.7750    69.2410    57.0390    58.8970    29.5580     2.1780 
  158.6250   151.8880   -30.1300     7.2190   -29.0150    68.4600    59.9630    62.1950    31.2210     2.1670 
  158.7500   151.9950   -30.1940     7.2210   -29.2450    68.3880    62.8100    65.4440    32.6950     2.1610 
  158.8750   152.1020   -30.2580     7.2240   -29.4870    69.6050    65.1830    68.2560    33.7480     2.1590 
  159.0000   152.2090   -30.3230     7.2260   -29.7560    71.3530    67.2790    70.8720    34.6720     2.1580 
  159.1250   152.3170   -30.3870     7.2280   -30.1230    71.5690    69.2660    73.5140    34.3760     2.1500 
  159.2500   152.4240   -30.4520     7.2300   -30.5400    68.9010    71.2370    76.2540    33.2340     2.1440 
  159.3750   152.5310   -30.5160     7.2320   -30.9590    66.2320    73.1740    79.0920    33.7360     2.1370 
  159.5000   152.6380   -30.5800     7.2340   -31.3640    64.3380    75.3660    82.2420    32.0510     2.1350 
  159.6250   152.7450   -30.6450     7.2370   -31.7630    64.0930    77.7580    85.5050    27.6510     2.1270 
  159.7500   152.8520   -30.7090     7.2390   -32.1350    64.4180    80.0160    88.4560    28.4480     2.1240 
  159.8750   152.9590   -30.7740     7.2420   -32.4290    65.0530    81.9110    90.8300    32.6810     2.1230 
  160.0000   153.0660   -30.8380     7.2440   -32.6230    64.8320    83.5990    92.9240    33.8580     2.1280 
  160.1250   153.1730   -30.9030     7.2460   -32.7150    63.6290    84.9810    94.5650    33.9590     2.1340 
  160.2500   153.2800   -30.9680     7.2480   -32.7070    61.8410    85.7790    95.5230    35.6120     2.1430 
  160.3750   153.3870   -31.0320     7.2510   -32.5570    62.2750    85.6110    95.3800    37.8730     2.1470 
  160.5000   153.4940   -31.0970     7.2530   -32.4330    63.8080    84.7510    94.4990    39.5970     2.1520 
  160.6250   153.6010   -31.1620     7.2560   -32.3950    65.7560    83.6830    93.3770    40.5090     2.1440 
  160.7500   153.7080   -31.2260     7.2580   -32.4850    65.0130    82.4640    92.1190    40.8920     2.1320 
  160.8750   153.8150   -31.2910     7.2610   -32.5900    63.2720    81.3790    90.9810    39.2120     2.1200 
  161.0000   153.9220   -31.3550     7.2640   -32.6970    62.0220    80.0150    89.4710    35.1120     2.1140 
  161.1250   154.0290   -31.4200     7.2670   -32.7310    63.0950    78.8320    88.1930    31.8160     2.1090 
  161.2500   154.1360   -31.4850     7.2700   -32.6460    64.2700    78.0080    87.2730    30.5620     2.1030 
  161.3750   154.2430   -31.5490     7.2730   -32.4150    65.1570    77.5450    86.7430    30.6070     2.0950 
  161.5000   154.3500   -31.6140     7.2760   -32.1040    65.6530    76.9850    85.9640    31.3300     2.0900 
  161.6250   154.4560   -31.6790     7.2790   -31.8300    66.1880    76.4290    85.0420    31.8610     2.0930 
  161.7500   154.5630   -31.7430     7.2820   -31.6860    65.1560    75.3650    83.3060    32.9140     2.1050 
  161.8750   154.6700   -31.8080     7.2840   -31.7130    64.2700    73.2570    80.2100    33.5350     2.1160 
  162.0000   154.7770   -31.8730     7.2860   -31.8780    64.9950    69.7020    75.5020    33.1850     2.1230 
  162.1250   154.8840   -31.9370     7.2890   -32.1040    67.5410    65.6610    70.3730    33.9450     2.1250 
  162.2500   154.9910   -32.0020     7.2910   -32.2670    68.5370    62.1390    65.9900    34.1050     2.1330 
  162.3750   155.0980   -32.0670     7.2930   -32.2640    67.1650    59.9130    63.1690    31.0210     2.1380 
  162.5000   155.2050   -32.1310     7.2950   -32.0570    66.2300    58.0150    60.7190    29.0500     2.1430 
  162.6250   155.3120   -32.1960     7.2980   -31.6080    67.7360    56.2230    58.5490    33.5500     2.1490 
  162.7500   155.4190   -32.2610     7.3000   -30.9880    69.7210    54.5790    56.6180    38.1920     2.1680 
  162.8750   155.5260   -32.3250     7.3020   -30.2970    70.1590    51.7150    52.9830    35.4430     2.1910 
  163.0000   155.6330   -32.3900     7.3040   -29.6530    69.6580    45.8790    46.3890    29.8190     2.2140 
  163.1250   155.7400   -32.4540     7.3070   -29.0680    70.0820    38.5030    38.3670    26.5100     2.2290 
  163.2500   155.8470   -32.5190     7.3090   -28.4910    72.3540    31.1510    30.5940    25.5730     2.2400 
  163.3750   155.9540   -32.5840     7.3120   -28.0150    74.3280    27.1890    26.9850    22.3220     2.2440 
  163.5000   156.0610   -32.6480     7.3150   -27.7210    74.3950    26.5860    26.5120    16.8280     2.2290 
  163.6250   156.1680   -32.7130     7.3170   -27.6450    72.6890    28.5140    28.8410    20.4330     2.2020 
  163.7500   156.2750   -32.7770     7.3200   -27.7530    71.0720    33.7680    34.7040    32.5380     2.1760 
  163.8750   156.3820   -32.8420     7.3230   -28.0210    71.2730    41.3910    42.8880    39.8670     2.1610 
  164.0000   156.4890   -32.9070     7.3250   -28.2630    72.7330    48.9000    50.8720    40.2240     2.1520 
  164.1250   156.5960   -32.9710     7.3270   -28.4230    74.3950    54.2930    56.4380    40.8810     2.1460 
  164.2500   156.7030   -33.0360     7.3290   -28.6350    74.9650    57.1420    59.5580    42.4180     2.1450 
  164.3750   156.8100   -33.1010     7.3310   -29.0460    74.9710    58.6940    61.5880    39.5310     2.1450 
  164.5000   156.9170   -33.1650     7.3330   -29.5360    74.6180    59.7140    63.2250    32.6340     2.1440 
  164.6250   157.0240   -33.2300     7.3340   -29.9180    74.1970    60.7060    65.0340    24.0700     2.1380 
  164.7500   157.1310   -33.2950     7.3360   -30.2160    73.5790    62.0480    67.3160    15.7580     2.1340 
  164.8750   157.2370   -33.3590     7.3380   -30.5680    71.9340    64.6590    71.1000    10.9800     2.1330 
  165.0000   157.3440   -33.4240     7.3400   -30.9080    71.3920    68.6290    76.4120     9.4860     2.1330 
  165.1250   157.4510   -33.4890     7.3410   -31.1140    69.9160    73.3750    82.6150    10.0240     2.1290 
  165.2500   157.5580   -33.5540     7.3430   -31.2510    69.3460    78.5520    89.1520    11.5570     2.1340 
  165.3750   157.6650   -33.6190     7.3450   -31.4920    66.6310    81.6290    92.7970    12.7040     2.1400 
  165.5000   157.7720   -33.6830     7.3470   -31.7730    65.5940    83.1030    94.5700    14.0880     2.1440 
  165.6250   157.8790   -33.7480     7.3480   -31.8250    65.7370    83.6350    95.1650    17.4500     2.1450 
  165.7500   157.9860   -33.8130     7.3500   -31.6980    67.7650    83.7150    95.4500    21.7410     2.1470 
  165.8750   158.0920   -33.8780     7.3520   -31.6690    68.1880    84.3950    96.4430    22.7970     2.1490 
  166.0000   158.1990   -33.9430     7.3540   -31.8880    68.0480    86.3310    98.8410    19.2050     2.1450 
  166.1250   158.3060   -34.0080     7.3560   -32.3090    68.0860    88.5720   101.2620    15.0800     2.1390 
  166.2500   158.4130   -34.0730     7.3590   -32.6520    68.6020    90.7520   103.6260    14.2220     2.1290 
  166.3750   158.5190   -34.1380     7.3610   -32.7730    67.8720    92.7630   105.6340    16.3360     2.1210 
  166.5000   158.6260   -34.2030     7.3630   -32.7890    66.5560    93.3500   106.0400    18.2270     2.1210 
  166.6250   158.7330   -34.2680     7.3650   -32.8050    65.1480    94.5200   107.2350    18.2980     2.1320 
  166.7500   158.8400   -34.3330     7.3670   -32.9000    64.5900    95.8510   108.4970    18.0670     2.1450 
