~V
VERS. 2.00: Ver 2.00
~W
STRT.M 32.0000:
STOP.M 269.0000:
STEP.M 0.1250:
NULL. -999.2500:
UWI. FD10881:
~C
DEPT.M :
TVD. :
DX. :
DY. :
SP.MV :
GR.API :
RI. :
RML.OHMM :
RXO.OHMM :
~A
# ...
  152.0000   148.2430   -22.4570   -10.5620    -6.6700    58.3420    19.2840    21.3440    28.1150 
  152.1250   148.3560   -22.5070   -10.5850    -5.8530    55.1920    21.6400    23.7300    31.2930 
  152.2500   148.4680   -22.5580   -10.6080    -4.9500    53.1520    22.3420    24.2750    28.9650 
  152.3750   148.5800   -22.6080   -10.6300    -4.3620    53.2520    21.9510    23.8110    24.9590 
  152.5000   148.6920   -22.6590   -10.6530    -4.3990    54.1220    21.2970    23.1620    23.3440 
  152.6250   148.8040   -22.7090   -10.6750    -4.8760    54.3610    20.8250    22.7980    23.2760 
  152.7500   148.9160   -22.7600   -10.6980    -5.4920    56.2610    20.8480    22.9890    23.0500 
  152.8750   149.0280   -22.8110   -10.7210    -5.9790    59.5130    21.1900    23.5110    22.5020 
  153.0000   149.1390   -22.8620   -10.7440    -6.0490    60.5550    21.8080    24.3250    22.6530 
  153.1250   149.2510   -22.9130   -10.7660    -5.6610    58.8130    22.7940    25.5650    24.9390 
  153.2500   149.3630   -22.9640   -10.7890    -5.1720    57.1430    24.2240    27.2950    30.1750 
  153.3750   149.4750   -23.0150   -10.8120    -4.8790    56.5840    26.0350    29.4130    36.1150 
  153.5000   149.5860   -23.0670   -10.8350    -4.6920    56.2170    27.9110    31.4890    39.6490 
  153.6250   149.6980   -23.1180   -10.8580    -4.6190    54.5110    29.4930    33.1400    40.6510 
  153.7500   149.8100   -23.1690   -10.8810    -4.7620    51.0570    30.5030    34.1320    39.6970 
  153.8750   149.9210   -23.2210   -10.9040    -5.0210    48.9560    30.8390    34.3220    41.0470 
  154.0000   150.0330   -23.2720   -10.9270    -5.3550    50.6590    30.2120    33.4630    44.6440 
  154.1250   150.1440   -23.3240   -10.9510    -5.7210    53.2870    29.0110    32.0380    43.4210 
  154.2500   150.2550   -23.3760   -10.9740    -6.0040    53.9900    27.4580    30.3240    40.4780 
  154.3750   150.3670   -23.4280   -10.9970    -6.2640    53.1110    25.7320    28.4980    38.9960 
  154.5000   150.4780   -23.4790   -11.0210    -6.6230    52.3220    24.1220    26.7210    35.2150 
  154.6250   150.5890   -23.5310   -11.0440    -7.0450    51.0680    22.4980    24.8980    34.0710 
  154.7500   150.7010   -23.5840   -11.0670    -7.4940    49.2250    20.9130    23.0130    33.6070 
  154.8750   150.8120   -23.6360   -11.0910    -7.8880    48.3150    19.6140    21.4790    27.2060 
  155.0000   150.9230   -23.6880   -11.1140    -8.0590    49.7230    18.6640    20.3750    22.2780 
  155.1250   151.0340   -23.7410   -11.1370    -7.8650    53.3400    18.2890    19.9800    21.6350 
  155.2500   151.1450   -23.7930   -11.1610    -7.3010    56.1450    18.7810    20.5800    21.2070 
  155.3750   151.2560   -23.8460   -11.1850    -6.6420    55.3830    19.8630    21.7990    22.4040 
  155.5000   151.3660   -23.8980   -11.2090    -6.1920    52.2160    21.3030    23.3260    26.1260 
  155.6250   151.4770   -23.9510   -11.2330    -6.2300    49.6600    22.5080    24.4990    29.8850 
  155.7500   151.5880   -24.0040   -11.2570    -6.7420    48.8570    23.0950    24.9700    31.9580 
  155.8750   151.6990   -24.0570   -11.2810    -7.4040    50.7020    22.9680    24.6690    31.7880 
  156.0000   151.8090   -24.1100   -11.3060    -8.0290    53.6620    21.9480    23.4360    30.6220 
  156.1250   151.9200   -24.1630   -11.3300    -8.4190    55.0250    20.4940    21.7670    29.5460 
  156.2500   152.0300   -24.2160   -11.3550    -8.3060    53.2100    18.8660    19.9870    28.3310 
  156.3750   152.1400   -24.2690   -11.3790    -7.9220    51.4950    17.2390    18.2630    26.2380 
  156.5000   152.2510   -24.3220   -11.4040    -7.6000    53.0620    16.1360    17.1570    22.5590 
  156.6250   152.3610   -24.3760   -11.4290    -7.3370    55.0660    15.5060    16.5940    19.9930 
  156.7500   152.4710   -24.4290   -11.4530    -7.1510    54.6060    15.4830    16.6900    20.0790 
  156.8750   152.5820   -24.4830   -11.4780    -7.1210    52.2830    15.8840    17.2320    20.2840 
  157.0000   152.6920   -24.5370   -11.5030    -7.2330    49.7150    16.4710    17.8900    21.8080 
  157.1250   152.8020   -24.5900   -11.5280    -7.4750    48.9890    16.9230    18.3520    24.5960 
  157.2500   152.9120   -24.6440   -11.5530    -7.7650    50.6450    17.0920    18.4770    23.6860 
  157.3750   153.0220   -24.6980   -11.5780    -8.0150    53.5580    17.0920    18.4240    21.1970 
  157.5000   153.1320   -24.7520   -11.6030    -8.2210    54.2010    17.2180    18.5710    22.1570 
  157.6250   153.2420   -24.8060   -11.6280    -8.4880    52.0660    17.7820    19.2440    23.5270 
  157.7500   153.3520   -24.8590   -11.6540    -8.8370    48.9230    18.8560    20.5260    22.8930 
  157.8750   153.4610   -24.9130   -11.6790    -9.1770    47.0680    20.0700    21.9570    24.0220 
  158.0000   153.5710   -24.9670   -11.7050    -9.5780    46.6790    20.8800    22.8920    28.6110 
  158.1250   153.6810   -25.0210   -11.7310    -9.8770    47.4780    20.8820    22.8580    33.3170 
  158.2500   153.7910   -25.0750   -11.7570    -9.7770    48.6140    19.8020    21.5700    37.1530 
  158.3750   153.9000   -25.1290   -11.7830    -9.1690    48.5220    18.3360    19.8750    36.2110 
  158.5000   154.0100   -25.1830   -11.8100    -8.3460    48.3670    16.9460    18.3590    28.3120 
  158.6250   154.1190   -25.2370   -11.8360    -7.7260    49.2620    16.1700    17.5920    22.7740 
  158.7500   154.2290   -25.2920   -11.8630    -7.6150    50.5200    15.8960    17.3710    21.5480 
  158.8750   154.3380   -25.3460   -11.8890    -8.0460    51.0830    15.7900    17.3240    21.7330 
  159.0000   154.4480   -25.4000   -11.9160    -8.7320    52.7620    15.7710    17.2850    23.6650 
  159.1250   154.5570   -25.4550   -11.9430    -9.3830    55.2970    15.7550    17.2130    24.8220 
  159.2500   154.6660   -25.5090   -11.9690    -9.7810    56.2420    15.8510    17.2690    22.9980 
  159.3750   154.7750   -25.5640   -11.9960    -9.6730    54.9490    16.1800    17.6300    19.7620 
  159.5000   154.8850   -25.6180   -12.0230    -9.1830    53.4960    16.6430    18.1920    19.2050 
  159.6250   154.9940   -25.6730   -12.0500    -8.7920    52.0260    17.0790    18.7320    23.3880 
  159.7500   155.1030   -25.7280   -12.0770    -8.4890    50.7580    17.2200    18.9020    28.5750 
  159.8750   155.2120   -25.7830   -12.1040    -8.2440    50.0530    16.8110    18.4150    29.9610 
  160.0000   155.3210   -25.8380   -12.1310    -8.1350    51.7720    15.9040    17.4040    27.1240 
  160.1250   155.4300   -25.8930   -12.1580    -8.1910    54.0670    14.7400    16.1500    23.2910 
  160.2500   155.5380   -25.9480   -12.1850    -8.3160    53.6060    13.6420    15.0090    23.9580 
  160.3750   155.6470   -26.0030   -12.2120    -8.4600    51.9510    12.8010    14.1600    23.9860 
  160.5000   155.7560   -26.0590   -12.2400    -8.6270    52.4550    12.3690    13.7840    18.6630 
  160.6250   155.8640   -26.1140   -12.2670    -8.7800    54.5090    12.2530    13.7500    15.8690 
  160.7500   155.9730   -26.1700   -12.2940    -8.9330    54.2490    12.3230    13.9020    16.4940 
  160.8750   156.0820   -26.2250   -12.3220    -9.1270    53.0600    12.5150    14.1670    17.3840 
  161.0000   156.1900   -26.2810   -12.3490    -9.3130    54.1410    12.7480    14.4430    18.4080 
  161.1250   156.2990   -26.3370   -12.3770    -9.6070    55.6490    12.9890    14.7170    19.6650 
  161.2500   156.4070   -26.3920   -12.4050    -9.9280    55.7200    13.1800    14.9200    19.5940 
  161.3750   156.5150   -26.4480   -12.4330   -10.0350    54.1800    13.2920    15.0340    19.6050 
  161.5000   156.6230   -26.5040   -12.4610    -9.7510    52.2830    13.3210    15.0600    23.6650 
  161.6250   156.7320   -26.5600   -12.4890    -9.1750    51.6130    13.2240    14.9820    25.5210 
  161.7500   156.8400   -26.6160   -12.5170    -8.5740    53.3190    13.1030    14.8930    21.9360 
  161.8750   156.9480   -26.6720   -12.5450    -8.3010    55.8020    12.9120    14.7270    19.5970 
