~V
VERS. 2.00: Ver 2.00
~W
STRT.M 22.0000:
STOP.M 238.0000:
STEP.M 0.1250:
NULL. -999.2500:
UWI. FD10612:
~C
DEPT.M :
TVD. :
DX. :
DY. :
GR.API :
RML.OHMM :
RI. :
RXO.OHMM :
CALI.CM :
DEN.GM/CC :
SP.MV :
~A
# ...
   79.7500    79.4890     3.2040     2.7810    54.5680    19.7750    19.1380    13.8700    23.8210     2.1610    -7.8840 
   79.8750    79.6130     3.2190     2.7930    54.4520    18.7920    18.4410    13.4460    23.8150     2.1510    -8.3700 
   80.0000    79.7360     3.2330     2.8040    55.8650    17.5030    17.4490    12.8890    23.7060     2.1580    -8.9760 
   80.1250    79.8600     3.2470     2.8160    57.3210    15.7510    15.9340    11.9080    23.5020     2.1710    -9.8160 
   80.2500    79.9830     3.2610     2.8270    58.3030    13.6730    13.9970    10.7860    23.3470     2.1850   -10.7640 
   80.3750    80.1070     3.2750     2.8390    61.0580    11.4940    11.8810     9.6280    23.3160     2.2020   -11.7360 
   80.5000    80.2300     3.2900     2.8500    66.7240     9.5020     9.9000     8.3510    23.3750     2.2250   -12.6760 
   80.6250    80.3540     3.3040     2.8620    72.1950     8.0120     8.3760     6.6970    23.4130     2.2510   -13.7290 
   80.7500    80.4770     3.3180     2.8730    75.4180     7.0220     7.3210     5.9430    23.3870     2.2720   -14.9350 
   80.8750    80.6010     3.3320     2.8840    76.6080     6.4430     6.6620     5.8390    23.2920     2.2820   -16.0420 
   81.0000    80.7240     3.3470     2.8960    77.5890     6.1210     6.2670     5.9030    23.1380     2.2850   -17.0700 
   81.1250    80.8480     3.3610     2.9070    78.9910     5.9160     6.0130     6.1370    23.0040     2.2880   -17.9970 
   81.2500    80.9720     3.3750     2.9190    80.3520     5.7550     5.8140     6.4550    22.8900     2.2970   -18.6680 
   81.3750    81.0950     3.3890     2.9300    81.6390     5.7180     5.7190     6.4190    22.8420     2.3090   -19.1770 
   81.5000    81.2190     3.4030     2.9420    81.8900     5.9670     5.8550     5.4890    22.8650     2.3220   -19.5530 
   81.6250    81.3420     3.4180     2.9530    80.3040     6.7880     6.4620     5.7220    22.9630     2.3370   -19.7000 
   81.7500    81.4660     3.4320     2.9650    76.6480     8.1760     7.5980     7.4570    23.0620     2.3560   -19.7060 
   81.8750    81.5890     3.4460     2.9760    71.0430     9.9520     9.2270    10.7140    23.1080     2.3730   -19.6070 
   82.0000    81.7130     3.4600     2.9880    66.7300    11.6430    11.0210    14.8820    23.0990     2.3740   -19.3710 
   82.1250    81.8360     3.4750     2.9990    68.2790    12.4100    12.0570    13.7490    23.0890     2.3470   -19.1210 
   82.2500    81.9600     3.4890     3.0100    72.0490    12.0050    11.7960    11.0820    23.0850     2.3070   -18.9450 
   82.3750    82.0830     3.5030     3.0220    73.3670    10.6670    10.4860     9.0970    23.0850     2.2750   -18.8560 
   82.5000    82.2070     3.5170     3.0330    73.6940     9.0030     8.8560     7.9880    23.0840     2.2700   -18.7920 
   82.6250    82.3300     3.5310     3.0450    76.2450     7.7000     7.5760     7.0130    23.0970     2.2900   -18.8420 
   82.7500    82.4540     3.5460     3.0560    78.2370     6.9800     6.7940     6.3110    23.1320     2.3120   -18.8990 
   82.8750    82.5770     3.5600     3.0680    76.7380     6.7910     6.4700     6.1880    23.1650     2.3170   -18.9640 
   83.0000    82.7010     3.5740     3.0790    73.3630     6.9500     6.4830     6.5520    23.1590     2.3050   -19.1480 
   83.1250    82.8250     3.5880     3.0910    72.9970     7.2180     6.6720     6.8750    23.1280     2.2880   -19.3320 
   83.2500    82.9480     3.6030     3.1020    75.6580     7.3720     6.8330     6.8380    23.0860     2.2820   -19.5450 
   83.3750    83.0720     3.6170     3.1140    79.8270     7.3580     6.8830     6.3660    23.0450     2.2910   -19.6900 
   83.5000    83.1950     3.6310     3.1250    84.3030     7.2460     6.8540     5.9650    23.0200     2.3070   -19.7690 
   83.6250    83.3190     3.6450     3.1360    86.2170     7.1990     6.8710     6.1050    23.0100     2.3150   -19.8370 
   83.7500    83.4420     3.6590     3.1480    83.6010     7.2940     7.0030     6.6100    23.0090     2.3100   -20.0660 
   83.8750    83.5660     3.6740     3.1590    76.6030     7.4850     7.2170     7.1680    23.0170     2.2980   -20.5320 
   84.0000    83.6890     3.6880     3.1710    69.5370     7.6510     7.4060     7.4360    23.0270     2.2920   -21.0840 
   84.1250    83.8130     3.7020     3.1820    68.9200     7.6440     7.4170     7.6100    23.0230     2.3020   -21.6390 
   84.2500    83.9360     3.7160     3.1940    73.6650     7.4660     7.2350     7.4300    23.0120     2.3200   -22.0030 
   84.3750    84.0600     3.7310     3.2050    78.4110     7.1870     6.9250     6.3880    23.0580     2.3330   -22.2250 
   84.5000    84.1830     3.7450     3.2170    80.2010     6.8930     6.5790     5.8290    23.1220     2.3320   -22.5000 
   84.6250    84.3070     3.7590     3.2280    80.3390     6.6070     6.2370     5.9160    23.1770     2.3200   -22.6510 
   84.7500    84.4300     3.7730     3.2400    82.8420     6.2780     5.8640     6.3490    23.2150     2.3140   -22.6780 
   84.8750    84.5540     3.7870     3.2510    87.7160     5.8690     5.4300     6.2670    23.2140     2.3220   -22.5990 
   85.0000    84.6780     3.8020     3.2620    92.0250     5.4270     4.9770     5.7230    23.1780     2.3450   -22.4000 
   85.1250    84.8010     3.8160     3.2740    92.8430     5.1380     4.6550     5.0420    23.1360     2.3750   -22.1890 
   85.2500    84.9250     3.8300     3.2850    91.2670     5.2020     4.6030     4.6620    23.0990     2.4020   -22.0650 
   85.3750    85.0480     3.8440     3.2970    88.0300     5.7900     4.9460     5.4410    23.0790     2.4180   -22.0900 
   85.5000    85.1720     3.8580     3.3080    82.3520     7.0000     5.7860     7.7870    23.1060     2.4130   -22.1270 
   85.6250    85.2950     3.8730     3.3200    75.5680     8.8400     7.2510    11.3710    23.2580     2.3730   -22.2990 
   85.7500    85.4190     3.8870     3.3310    71.8080    10.8390     9.0780    10.9860    23.5080     2.3130   -22.6030 
   85.8750    85.5420     3.9010     3.3430    71.1230    12.4170    10.7810     9.9350    23.5900     2.2510   -23.0070 
   86.0000    85.6660     3.9150     3.3540    71.6960    13.0230    11.6910     9.9500    23.3860     2.2120   -23.4680 
   86.1250    85.7890     3.9300     3.3660    72.6410    12.2930    11.2640    10.9500    23.0980     2.2170   -23.7600 
   86.2500    85.9130     3.9440     3.3770    74.5600    10.8090    10.0570    10.9080    22.9700     2.2550   -23.9650 
   86.3750    86.0360     3.9580     3.3880    77.9630     9.1310     8.6220     8.7540    22.9570     2.3120   -24.1070 
   86.5000    86.1600     3.9720     3.4000    84.2610     7.6970     7.3410     6.7630    22.9750     2.3690   -24.2130 
   86.6250    86.2830     3.9860     3.4110    92.9520     6.7930     6.4490     6.5000    22.9600     2.4080   -24.3040 
   86.7500    86.4070     4.0010     3.4230    97.3520     6.3440     5.9130     6.1670    22.9350     2.4190   -24.3120 
   86.8750    86.5310     4.0150     3.4340    94.0190     6.2580     5.6910     5.5010    22.8870     2.4030   -24.1780 
   87.0000    86.6540     4.0290     3.4460    86.1040     6.4120     5.7070     5.3010    22.8100     2.3710   -23.9150 
   87.1250    86.7780     4.0430     3.4570    81.2330     6.6780     5.8670     5.7910    22.7070     2.3440   -23.8490 
   87.2500    86.9010     4.0580     3.4690    82.4640     6.9270     6.0430     6.0310    22.6100     2.3350   -23.8740 
   87.3750    87.0250     4.0720     3.4800    86.9850     7.0940     6.1770     5.8620    22.5560     2.3450   -23.8920 
   87.5000    87.1480     4.0860     3.4920    90.4490     7.1420     6.2310     5.6220    22.5450     2.3630   -23.9810 
   87.6250    87.2720     4.1000     3.5030    90.4900     7.0480     6.1680     5.7490    22.6100     2.3730   -23.9920 
   87.7500    87.3950     4.1140     3.5140    89.9160     6.9030     6.0460     5.9690    22.7200     2.3690   -23.9270 
   87.8750    87.5190     4.1290     3.5260    91.2610     6.8310     5.9590     6.1430    22.7950     2.3580   -23.9190 
