~V
VERS. 2.00: Ver 2.00
~W
STRT.M 24.0000:
STOP.M 309.0000:
STEP.M 0.1250:
NULL. -999.2500:
UWI. FD10911:
~C
DEPT.M :
TVD. :
DX. :
DY. :
SP.MV :
GR.API :
RI. :
RML.OHMM :
RXO.OHMM :
DEN.GM/CC :
~A
# ...
  261.2500   238.4020    39.6140   -77.7820   -24.4730    69.4310    57.4740    59.8080    64.2590     2.1780 
  261.3750   238.5040    39.6520   -77.8430   -24.5120    68.3890    58.6460    61.2020    79.3410     2.1780 
  261.5000   238.6070    39.6890   -77.9040   -24.5430    65.7680    58.9820    61.4520    83.5000     2.1780 
  261.6250   238.7100    39.7270   -77.9640   -24.5720    64.2590    58.3490    60.5180    75.7960     2.1770 
  261.7500   238.8120    39.7640   -78.0250   -24.5880    65.3650    57.3570    59.1510    68.4620     2.1800 
  261.8750   238.9150    39.8020   -78.0850   -24.5660    67.4770    57.0370    58.5570    63.1780     2.1940 
  262.0000   239.0180    39.8390   -78.1460   -24.4600    67.8370    58.5190    59.9710    64.2060     2.2360 
  262.1250   239.1210    39.8770   -78.2060   -24.2650    67.2270    62.8110    64.4640    72.4330     2.3150 
  262.2500   239.2230    39.9140   -78.2670   -24.0170    64.7350    70.9460    73.0710    83.6540     2.4250 
  262.3750   239.3260    39.9520   -78.3280   -23.7950    63.2720    81.3690    83.9770    98.5690     2.5350 
  262.5000   239.4290    39.9890   -78.3880   -23.6850    62.3780    90.7940    93.6410   117.8850     2.6120 
  262.6250   239.5310    40.0270   -78.4490   -23.7010    63.4960    95.7100    98.4770   126.5760     2.6510 
  262.7500   239.6340    40.0640   -78.5100   -23.8130    64.6540    93.7870    96.2440   114.6840     2.6490 
  262.8750   239.7370    40.1010   -78.5700   -23.9470    65.4220    87.0480    89.2520   100.6760     2.6040 
  263.0000   239.8400    40.1390   -78.6310   -24.0330    64.6450    78.5830    80.7670    87.7500     2.5070 
  263.1250   239.9420    40.1760   -78.6910   -24.0310    63.5960    71.3390    73.7590    70.0790     2.3840 
  263.2500   240.0450    40.2140   -78.7520   -23.9130    62.7180    66.9590    69.7970    53.9460     2.2740 
  263.3750   240.1480    40.2510   -78.8130   -23.7110    61.9670    64.9740    68.2370    51.8050     2.2030 
  263.5000   240.2500    40.2880   -78.8730   -23.4720    61.3300    64.6340    68.2270    64.1670     2.1750 
  263.6250   240.3530    40.3260   -78.9340   -23.2660    62.2420    65.3830    69.2010    83.6410     2.1720 
  263.7500   240.4560    40.3630   -78.9950   -23.1340    64.2890    67.2350    71.2060    98.6240     2.1790 
  263.8750   240.5580    40.4000   -79.0560   -23.0690    66.9320    70.1310    74.2710   105.6100     2.1860 
  264.0000   240.6610    40.4370   -79.1170   -23.0560    66.0490    74.2300    78.6040   105.8370     2.1880 
  264.1250   240.7640    40.4740   -79.1770   -23.0750    63.7600    79.4830    84.1450    98.1720     2.1810 
  264.2500   240.8670    40.5120   -79.2380   -23.1360    61.0710    85.9360    90.8980    90.4750     2.1690 
  264.3750   240.9690    40.5490   -79.2990   -23.2440    61.6230    92.8820    98.1210    97.9680     2.1540 
  264.5000   241.0720    40.5860   -79.3600   -23.3920    62.5900    99.3880   104.8800   122.1580     2.1440 
  264.6250   241.1750    40.6230   -79.4210   -23.5540    62.7010   105.0380   110.7750   151.1160     2.1400 
  264.7500   241.2770    40.6600   -79.4820   -23.7050    60.2690   109.6070   115.5200   173.7300     2.1420 
  264.8750   241.3800    40.6980   -79.5420   -23.8250    58.1800   112.8850   118.6830   174.5840     2.1470 
  265.0000   241.4830    40.7350   -79.6030   -23.9020    57.5050   113.5860   118.7410   144.4220     2.1520 
  265.1250   241.5850    40.7720   -79.6640   -23.9300    56.8550   110.5170   114.6240   114.8400     2.1560 
  265.2500   241.6880    40.8100   -79.7250   -23.8740    54.9780   103.6710   106.6410    99.0090     2.1570 
  265.3750   241.7900    40.8470   -79.7850   -23.7040    53.5780    95.3880    97.4990    88.1610     2.1560 
  265.5000   241.8930    40.8850   -79.8460   -23.4090    55.8920    88.1990    89.9080    81.1600     2.1570 
  265.6250   241.9960    40.9220   -79.9060   -23.0580    58.5090    83.6300    85.2430    78.6920     2.1610 
  265.7500   242.0980    40.9600   -79.9670   -22.7690    59.6040    81.8570    83.5170    82.1040     2.1680 
  265.8750   242.2010    40.9980   -80.0270   -22.6280    58.3900    81.6630    83.4030    90.7230     2.1740 
  266.0000   242.3040    41.0360   -80.0880   -22.6430    59.1180    82.0440    83.8620    97.1600     2.1760 
  266.1250   242.4060    41.0740   -80.1480   -22.7400    60.3440    82.1240    84.0310    94.8090     2.1760 
  266.2500   242.5090    41.1120   -80.2090   -22.8530    60.3880    81.3860    83.4300    85.3930     2.1760 
  266.3750   242.6120    41.1500   -80.2690   -22.9420    60.2980    79.9850    82.2590    75.6140     2.1720 
  266.5000   242.7140    41.1880   -80.3290   -22.9920    59.9240    78.6370    81.3060    68.2210     2.1650 
  266.6250   242.8170    41.2260   -80.3900   -22.9910    60.4460    78.4260    81.6700    68.1970     2.1600 
  266.7500   242.9200    41.2640   -80.4500   -22.9110    59.3630    80.6440    84.7000    73.0430     2.1600 
  266.8750   243.0220    41.3020   -80.5110   -22.7430    57.8000    86.6580    91.9550    78.1740     2.1690 
  267.0000   243.1250    41.3400   -80.5710   -22.4730    55.3340    99.7140   107.2400   113.4710     2.2000 
  267.1250   243.2280    41.3780   -80.6310   -22.1170    53.8040   122.5720   133.6060   206.3030     2.2690 
  267.2500   243.3300    41.4150   -80.6920   -21.6900    53.3720   157.5790   173.0660   333.0540     2.3820 
  267.3750   243.4330    41.4530   -80.7520   -21.2130    53.6720   198.0660   217.2740   408.1690     2.5110 
  267.5000   243.5360    41.4910   -80.8120   -20.7030    54.6250   229.3680   249.3120   368.0140     2.6160 
  267.6250   243.6380    41.5290   -80.8730   -20.1700    54.7740   238.0520   255.4790   274.4470     2.6780 
  267.7500   243.7410    41.5670   -80.9330   -19.6210    55.1250   219.3690   232.7000   252.4870     2.7010 
  267.8750   243.8440    41.6050   -80.9940   -19.0650    56.0380   185.7600   198.3560   318.2270     2.7040 
  268.0000   243.9460    41.6430   -81.0540   -18.5270    58.0970   151.9650   168.8710   366.3440     2.6960 
  268.1250   244.0490    41.6800   -81.1150   -18.0430    60.8120   126.5620   144.8210   322.5560     2.6820 
  268.2500   244.1520    41.7180   -81.1750   -17.6500    62.2070   108.6310   124.2750   232.0640     2.6690 
  268.3750   244.2540    41.7560   -81.2360   -17.3570    62.7430    93.5320   106.4070   164.3970     2.6580 
  268.5000   244.3570    41.7930   -81.2960   -17.1600    63.0580    79.3400    89.6300   109.0630     2.6360 
  268.6250   244.4600    41.8310   -81.3570   -17.0300    63.2420    66.3140    74.2410    81.6690     2.5850 
  268.7500   244.5620    41.8680   -81.4170   -16.9540    63.8590    55.4750    61.3770    85.8340     2.4950 
  268.8750   244.6650    41.9060   -81.4780   -16.9150    63.9690    47.1310    51.4380    84.0860     2.3920 
  269.0000   244.7680    41.9430   -81.5390   -16.9160    64.3340    41.8020    45.0530    60.8950     2.3050 
  269.1250   244.8710    41.9810   -81.5990   -16.9500    64.7650    39.2600    41.8720    44.8180     2.2500 
  269.2500   244.9730    42.0180   -81.6600   -17.0050    65.6870    39.0410    41.2700    41.0330     2.2280 
  269.3750   245.0760    42.0550   -81.7200   -17.0490    66.8040    39.7700    41.6910    41.3270     2.2240 
  269.5000   245.1790    42.0930   -81.7810   -17.0550    67.0360    40.3620    42.0040    43.5750     2.2260 
  269.6250   245.2820    42.1300   -81.8420   -17.0150    66.7350    40.2020    41.6220    43.1930     2.2240 
  269.7500   245.3840    42.1680   -81.9020   -16.9280    68.7400    39.2020    40.5110    40.2220     2.2270 
  269.8750   245.4870    42.2050   -81.9630   -16.8120    71.9130    37.7950    39.1280    37.8230     2.2450 
  270.0000   245.5900    42.2420   -82.0230   -16.6840    73.3520    36.4030    37.9390    36.7350     2.2860 
  270.1250   245.6930    42.2800   -82.0840   -16.5720    71.6040    35.4590    37.3910    36.9620     2.3270 
  270.2500   245.7960    42.3170   -82.1440   -16.5090    68.7980    35.5150    38.0680    39.0890     2.3320 
