~V
VERS. 2.00: Ver 2.00
~W
STRT.M 53.0000:
STOP.M 258.0000:
STEP.M 0.1250:
NULL. -999.2500:
UWI. FD10870:
~C
DEPT.M :
TVD. :
DX. :
DY. :
SP.MV :
GR.API :
RI. :
RML.OHMM :
RXO.OHMM :
DEN.GM/CC :
~A
# ...
  208.1250   199.2620   -38.2480     7.6140     5.8210    76.9130     3.4210     3.2600    10.4940     2.4400 
  208.2500   199.3660   -38.3010     7.6580     5.7920    72.7740     2.4130     2.3550     3.7710     2.3810 
  208.3750   199.4710   -38.3540     7.7020     5.6990    70.5340     2.0310     2.0510     2.5870     2.3600 
  208.5000   199.5750   -38.4070     7.7460     5.5820    71.3700     2.0010     2.0490     2.5320     2.3530 
  208.6250   199.6790   -38.4600     7.7910     5.4100    75.7590     2.1420     2.1890     2.6690     2.3550 
  208.7500   199.7830   -38.5130     7.8350     5.2970    81.0400     2.3840     2.4060     2.7710     2.3760 
  208.8750   199.8870   -38.5670     7.8800     5.2970    83.5160     2.7300     2.7150     2.9970     2.4100 
  209.0000   199.9910   -38.6200     7.9240     5.3610    83.8740     3.1700     3.1130     3.7010     2.4280 
  209.1250   200.0950   -38.6730     7.9690     5.2610    84.8990     3.6020     3.4810     4.4560     2.4190 
  209.2500   200.1990   -38.7260     8.0130     5.1140    90.1330     3.9250     3.7390     4.6630     2.4080 
  209.3750   200.3020   -38.7800     8.0580     4.8970    96.8770     4.1160     3.8760     4.8380     2.4170 
  209.5000   200.4060   -38.8330     8.1030     4.6730   100.9470     4.1710     3.9160     5.1550     2.4380 
  209.6250   200.5100   -38.8870     8.1480     4.5220   101.4760     4.1650     3.9610     5.2050     2.4490 
  209.7500   200.6130   -38.9410     8.1920     4.3950   102.2590     4.1650     4.0410     5.4790     2.4450 
  209.8750   200.7170   -38.9950     8.2370     4.2390   106.0130     4.1220     4.0940     5.8670     2.4330 
  210.0000   200.8200   -39.0490     8.2820     3.9910   112.9910     4.0360     4.1000     5.6160     2.4170 
  210.1250   200.9240   -39.1020     8.3270     3.6590   121.9360     3.9690     4.1110     5.2950     2.4100 
  210.2500   201.0270   -39.1560     8.3720     3.1810   127.6360     4.0160     4.2320     5.2970     2.4150 
  210.3750   201.1310   -39.2100     8.4170     2.5110   127.7340     4.2750     4.5890     5.0950     2.4520 
  210.5000   201.2340   -39.2640     8.4620     1.8690   122.6580     4.8380     5.2950     4.9620     2.5010 
  210.6250   201.3370   -39.3180     8.5080     1.2650   115.4290     5.8120     6.4670     6.2300     2.5330 
  210.7500   201.4400   -39.3720     8.5530     0.7670   105.1980     7.1220     7.9760     8.8410     2.5080 
  210.8750   201.5440   -39.4260     8.5990     0.2430    94.5540     8.5710     9.6270    10.7520     2.4430 
  211.0000   201.6470   -39.4800     8.6440    -0.3420    84.4800    10.1640    11.4030    11.4670     2.3770 
  211.1250   201.7500   -39.5340     8.6900    -0.6190    78.7870    11.8780    13.2800    12.5920     2.3480 
  211.2500   201.8530   -39.5880     8.7350    -0.5730    75.5680    13.5280    15.0640    14.4090     2.3470 
  211.3750   201.9560   -39.6420     8.7810    -0.2680    73.8170    15.1240    16.7480    14.8150     2.3620 
  211.5000   202.0590   -39.6960     8.8270    -0.0470    72.7710    16.3430    17.9800    16.0950     2.3780 
  211.6250   202.1620   -39.7500     8.8730     0.2480    73.1840    17.0560    18.6690    17.6140     2.3840 
  211.7500   202.2650   -39.8040     8.9190     0.6450    76.1740    17.6970    19.3590    18.7410     2.3770 
  211.8750   202.3680   -39.8590     8.9640     1.0940    79.1500    18.4260    20.2600    19.8090     2.3520 
  212.0000   202.4710   -39.9130     9.0100     1.6180    79.5820    19.6090    21.7380    21.8680     2.3210 
  212.1250   202.5730   -39.9670     9.0560     2.1570    77.5380    21.5060    23.9640    25.5740     2.2960 
  212.2500   202.6760   -40.0210     9.1020     2.5160    74.1760    23.6970    26.3880    27.8810     2.2780 
  212.3750   202.7790   -40.0750     9.1480     2.8320    72.3370    25.8960    28.6750    27.0650     2.2750 
  212.5000   202.8820   -40.1300     9.1940     3.1540    71.7650    27.7600    30.5260    26.9060     2.2780 
  212.6250   202.9850   -40.1840     9.2390     3.3760    73.1700    29.1600    31.8560    27.5410     2.2850 
  212.7500   203.0870   -40.2390     9.2850     3.4590    74.3560    30.0600    32.6530    27.7170     2.2920 
  212.8750   203.1900   -40.2930     9.3310     3.4230    74.2220    30.4470    32.9550    29.2750     2.2960 
  213.0000   203.2930   -40.3480     9.3770     3.3710    73.9940    30.5990    33.0240    31.2920     2.2980 
  213.1250   203.3960   -40.4020     9.4230     3.1720    74.5440    30.6290    32.9900    32.8780     2.2860 
  213.2500   203.4980   -40.4560     9.4700     2.9330    76.4540    30.6880    33.0160    33.6350     2.2700 
  213.3750   203.6010   -40.5110     9.5160     2.9370    78.6520    30.7570    33.0620    32.5400     2.2520 
  213.5000   203.7030   -40.5650     9.5620     3.2690    79.2020    30.6740    32.9270    31.7990     2.2460 
  213.6250   203.8060   -40.6200     9.6080     3.2610    77.5860    30.5160    32.7040    31.5220     2.2530 
  213.7500   203.9090   -40.6740     9.6540     3.1060    75.6650    30.3790    32.4820    30.8120     2.2650 
  213.8750   204.0110   -40.7280     9.7010     3.3320    74.3000    30.2760    32.2890    30.6330     2.2770 
  214.0000   204.1140   -40.7830     9.7470     3.4690    73.0400    30.1920    32.1300    30.8150     2.2880 
  214.1250   204.2160   -40.8370     9.7940     3.5570    72.1720    30.0510    31.8820    33.1010     2.2930 
  214.2500   204.3190   -40.8910     9.8400     3.7060    73.0310    29.5890    31.2080    34.9980     2.2840 
  214.3750   204.4210   -40.9460     9.8870     4.0080    75.4800    28.6610    29.9850    32.8680     2.2720 
  214.5000   204.5240   -41.0000     9.9330     4.1440    78.3900    27.4350    28.4210    30.3930     2.2710 
  214.6250   204.6260   -41.0550     9.9790     4.1170    80.4690    26.0060    26.6880    28.7120     2.2860 
  214.7500   204.7290   -41.1090    10.0250     4.1370    83.1100    24.7910    25.2600    27.3780     2.3000 
  214.8750   204.8320   -41.1640    10.0720     4.0960    85.7080    23.8560    24.1240    27.8830     2.3060 
  215.0000   204.9340   -41.2180    10.1180     3.6320    86.9700    23.2620    23.3470    29.1960     2.3050 
  215.1250   205.0370   -41.2730    10.1640     2.9130    86.2210    23.0870    23.0030    30.2660     2.3050 
  215.2500   205.1390   -41.3270    10.2100     2.5200    84.2820    23.2880    23.0520    29.8040     2.3040 
  215.3750   205.2420   -41.3820    10.2570     2.2480    83.7470    23.9320    23.5870    28.0100     2.3010 
  215.5000   205.3440   -41.4360    10.3030     1.9130    84.1730    24.7150    24.2180    27.8910     2.2960 
  215.6250   205.4470   -41.4910    10.3490     1.7690    85.8940    25.0500    24.3560    28.6810     2.3000 
  215.7500   205.5490   -41.5450    10.3960     1.5330    87.7960    24.3110    23.3540    28.4850     2.3110 
  215.8750   205.6520   -41.6000    10.4420     1.3530    88.9580    22.3820    21.1980    29.3160     2.3310 
  216.0000   205.7540   -41.6540    10.4880     1.4240    89.2550    19.8990    18.5830    29.5260     2.3500 
  216.1250   205.8570   -41.7090    10.5340     1.6330    90.0100    17.4720    16.1490    25.0360     2.3710 
  216.2500   205.9590   -41.7630    10.5800     1.8790    92.1760    15.8260    14.5840    19.2220     2.3840 
  216.3750   206.0620   -41.8180    10.6270     1.8030    95.1360    15.1250    13.9700    16.1080     2.3830 
  216.5000   206.1640   -41.8720    10.6740     1.7470    94.5220    15.2010    14.0780    15.2330     2.3700 
  216.6250   206.2670   -41.9260    10.7200     1.8250    90.7450    15.8430    14.7030    15.5790     2.3550 
  216.7500   206.3690   -41.9800    10.7670     1.9090    85.5620    16.9100    15.7150    16.2840     2.3460 
  216.8750   206.4720   -42.0350    10.8140     1.9470    83.2720    18.1050    16.8470    16.9880     2.3470 
  217.0000   206.5740   -42.0890    10.8600     1.8960    81.8940    19.6420    18.3110    17.5470     2.3510 
  217.1250   206.6770   -42.1440    10.9070     1.7410    81.2340    21.4400    20.0070    19.3750     2.3450 
