~V
VERS. 2.00: Ver 2.00
~W
STRT.M 44.0000:
STOP.M 206.0000:
STEP.M 0.1250:
NULL. -999.2500:
UWI. FD10808:
~C
DEPT.M :
TVD. :
DX. :
DY. :
SP.MV :
GR.API :
RI. :
RML.OHMM :
RXO.OHMM :
DEN.GM/CC :
~A
# ...
   62.2500    62.2380    -0.1280     0.5540   -11.3380    81.7220     4.3220     7.7820     6.3970     2.1790 
   62.3750    62.3620    -0.1300     0.5640   -10.8110    82.8260     4.4180     7.9970     6.4610     2.2240 
   62.5000    62.4870    -0.1320     0.5730   -10.6440    80.4320     4.5150     8.1960     6.8950     2.2530 
   62.6250    62.6120    -0.1340     0.5820   -10.7290    78.6270     4.5400     8.2520     6.8430     2.2450 
   62.7500    62.7360    -0.1360     0.5920   -10.7150    78.8600     4.4880     8.1290     6.3640     2.2050 
   62.8750    62.8610    -0.1380     0.6020   -10.4480    80.6220     4.3520     7.8600     6.1230     2.1630 
   63.0000    62.9860    -0.1390     0.6110   -10.0040    81.3110     4.1850     7.5580     6.0490     2.1360 
   63.1250    63.1100    -0.1410     0.6210    -9.5280    81.4000     4.0490     7.3320     5.8680     2.1250 
   63.2500    63.2350    -0.1430     0.6310    -9.0750    81.7530     3.9810     7.2280     5.7020     2.1210 
   63.3750    63.3590    -0.1450     0.6420    -8.7230    82.6140     3.9740     7.2380     5.6470     2.1220 
   63.5000    63.4840    -0.1470     0.6520    -8.3470    83.2980     3.9960     7.3120     5.6480     2.1270 
   63.6250    63.6080    -0.1500     0.6630    -7.9960    83.8500     4.0390     7.4150     5.6900     2.1280 
   63.7500    63.7330    -0.1520     0.6730    -7.6660    84.7520     4.0720     7.4880     5.7300     2.1240 
   63.8750    63.8570    -0.1540     0.6840    -7.3290    84.6580     4.0620     7.4700     5.7010     2.1240 
   64.0000    63.9820    -0.1560     0.6950    -7.0290    84.6390     4.0110     7.3670     5.6230     2.1260 
   64.1250    64.1060    -0.1580     0.7060    -6.6200    84.2180     3.9420     7.2100     5.5500     2.1320 
   64.2500    64.2310    -0.1600     0.7180    -6.2490    84.3330     3.8790     7.0360     5.4570     2.1330 
   64.3750    64.3550    -0.1630     0.7290    -6.0120    84.1440     3.8450     6.8730     5.3740     2.1350 
   64.5000    64.4800    -0.1650     0.7400    -6.0090    82.6520     3.8660     6.7270     5.4140     2.1350 
   64.6250    64.6040    -0.1670     0.7520    -6.1740    79.7470     3.9290     6.5880     5.5660     2.1410 
   64.7500    64.7290    -0.1700     0.7640    -6.3350    77.6380     4.0020     6.4510     5.7290     2.1490 
   64.8750    64.8530    -0.1720     0.7760    -6.3950    77.7710     4.0720     6.3060     6.2860     2.1560 
   65.0000    64.9770    -0.1750     0.7880    -6.5360    79.5110     4.0940     6.1370     6.7090     2.1560 
   65.1250    65.1020    -0.1770     0.8000    -7.0380    81.2460     4.0730     5.9350     6.6350     2.1470 
   65.2500    65.2260    -0.1800     0.8120    -7.8150    80.5020     4.0130     5.7210     6.6130     2.1410 
   65.3750    65.3510    -0.1820     0.8250    -8.5710    79.9220     3.9590     5.5320     6.0930     2.1400 
   65.5000    65.4750    -0.1850     0.8370    -9.1410    80.0410     3.9210     5.4010     5.5440     2.1440 
   65.6250    65.5990    -0.1880     0.8500    -9.6550    82.1730     3.9460     5.3570     5.5980     2.1470 
   65.7500    65.7240    -0.1910     0.8630   -10.3860    82.7580     4.0160     5.3770     5.8580     2.1470 
   65.8750    65.8480    -0.1930     0.8760   -11.4120    81.6890     4.1100     5.4340     6.2550     2.1430 
   66.0000    65.9720    -0.1960     0.8890   -12.4750    79.9260     4.2250     5.5060     6.7130     2.1390 
   66.1250    66.0960    -0.1990     0.9020   -13.3860    79.6810     4.3420     5.5620     7.0990     2.1450 
   66.2500    66.2210    -0.2020     0.9150   -13.9950    79.4570     4.4490     5.5770     7.3070     2.1660 
   66.3750    66.3450    -0.2050     0.9290   -14.2390    78.1470     4.5260     5.5420     7.3680     2.2070 
   66.5000    66.4690    -0.2080     0.9420   -14.1550    76.0020     4.5960     5.5300     7.3890     2.2380 
   66.6250    66.5930    -0.2120     0.9560   -13.8140    74.5590     4.8070     5.7180     7.4430     2.2410 
   66.7500    66.7170    -0.2150     0.9700   -13.2500    74.0230     5.3010     6.1820     7.5640     2.2230 
   66.8750    66.8420    -0.2180     0.9840   -12.2250    72.3440     5.9000     6.7460     8.3970     2.2450 
   67.0000    66.9660    -0.2210     0.9980   -10.7820    70.7550     6.2800     7.0940    11.3770     2.3040 
   67.1250    67.0900    -0.2250     1.0120    -9.0120    71.5830     6.2860     6.9370    14.4770     2.3590 
   67.2500    67.2140    -0.2280     1.0270    -7.1680    76.1980     5.6870     6.2500    12.7430     2.3470 
   67.3750    67.3380    -0.2320     1.0410    -5.4630    83.9330     4.8280     5.2690     9.1300     2.2940 
   67.5000    67.4620    -0.2350     1.0560    -4.0490    93.9140     3.9890     4.3380     7.5330     2.2530 
   67.6250    67.5860    -0.2390     1.0710    -2.9710   103.1980     3.3500     3.6860     5.2190     2.2490 
   67.7500    67.7100    -0.2420     1.0860    -2.0590   110.0030     3.0660     3.3700     3.3610     2.2500 
   67.8750    67.8340    -0.2460     1.1010    -1.2910   111.3180     3.0210     3.3080     3.3420     2.2310 
   68.0000    67.9580    -0.2500     1.1160    -0.9100   110.7970     3.0510     3.3210     3.4910     2.2130 
   68.1250    68.0820    -0.2530     1.1310    -0.9610   108.3680     3.0770     3.3400     3.5800     2.2090 
   68.2500    68.2060    -0.2570     1.1470    -1.3240   106.6100     3.1510     3.3980     3.7030     2.2190 
   68.3750    68.3300    -0.2610     1.1620    -2.1500   104.9330     3.3410     3.5690     3.7320     2.2240 
   68.5000    68.4540    -0.2650     1.1780    -3.2610   102.7280     3.6620     3.9160     3.7390     2.2340 
   68.6250    68.5780    -0.2680     1.1940    -4.7190    98.4950     4.1490     4.4620     4.5630     2.2590 
   68.7500    68.7020    -0.2720     1.2100    -6.4250    92.3070     4.7400     5.0900     6.1250     2.2820 
   68.8750    68.8260    -0.2760     1.2260    -8.1210    84.8020     5.3200     5.6170     7.0970     2.2680 
   69.0000    68.9500    -0.2800     1.2420    -9.2640    77.7510     5.5760     5.8310     7.4230     2.2140 
   69.1250    69.0740    -0.2840     1.2580    -9.6290    71.8910     5.4040     5.6250     7.7740     2.1560 
   69.2500    69.1980    -0.2880     1.2750    -9.6510    69.8780     4.9820     5.2290     7.8860     2.1340 
   69.3750    69.3210    -0.2920     1.2920    -9.2650    70.9330     4.7290     5.0610     7.2210     2.1650 
   69.5000    69.4450    -0.2960     1.3080    -8.5490    74.0190     4.9980     5.4370     6.6150     2.2320 
   69.6250    69.5690    -0.3000     1.3250    -7.8820    76.1850     5.8630     6.4260    12.4120     2.3300 
   69.7500    69.6930    -0.3050     1.3420    -7.8720    75.9680     7.0030     7.7110    26.3240     2.4160 
   69.8750    69.8170    -0.3090     1.3590    -8.7880    72.2240     8.0200     8.7560    38.0900     2.4350 
   70.0000    69.9400    -0.3130     1.3760   -10.3070    67.8880     8.2900     9.0060    35.0480     2.3620 
   70.1250    70.0640    -0.3170     1.3940   -11.8230    65.2350     7.6430     8.2920    19.1930     2.2470 
   70.2500    70.1880    -0.3220     1.4110   -13.0470    64.6940     6.5760     7.1010     8.6680     2.1600 
   70.3750    70.3110    -0.3260     1.4290   -13.8730    64.2770     5.5020     6.0460     7.2120     2.1260 
   70.5000    70.4350    -0.3300     1.4460   -14.4410    64.1440     5.0460     5.5150     7.1450     2.1180 
   70.6250    70.5590    -0.3350     1.4640   -14.9450    65.2100     4.9780     5.4620     7.1840     2.1160 
   70.7500    70.6820    -0.3390     1.4820   -15.4320    66.9260     5.1080     5.5980     7.3430     2.1220 
   70.8750    70.8060    -0.3430     1.5000   -15.9160    68.4880     5.2630     5.7690     7.5630     2.1330 
   71.0000    70.9300    -0.3480     1.5180   -16.3890    68.1370     5.4120     5.9180     7.6060     2.1450 
   71.1250    71.0530    -0.3530     1.5370   -16.8440    66.9300     5.5350     6.0310     7.4670     2.1520 
   71.2500    71.1770    -0.3570     1.5550   -17.2880    63.9480     5.6140     6.1040     7.6480     2.1570 
