~V
VERS. 2.00: Ver 2.00
~W
STRT.M 55.0000:
STOP.M 289.0000:
STEP.M 0.1250:
NULL. -999.2500:
UWI. FD10909:
~C
DEPT.M :
TVD. :
DX. :
DY. :
SP.MV :
GR.API :
RI. :
RML.OHMM :
RXO.OHMM :
DEN.GM/CC :
~A
# ...
  146.2500   144.9360    12.3070     2.1370   -20.4360    63.9140    15.2450    16.0630    16.3810     2.1210 
  146.3750   145.0550    12.3450     2.1460   -20.7450    61.7900    15.2610    16.0780    17.2340     2.1200 
  146.5000   145.1730    12.3830     2.1550   -21.0270    61.4260    15.5630    16.3890    18.7480     2.1220 
  146.6250   145.2920    12.4210     2.1640   -21.2470    63.0340    15.9680    16.8030    20.1800     2.1200 
  146.7500   145.4110    12.4600     2.1730   -21.3870    65.3300    16.4100    17.2570    20.4010     2.1180 
  146.8750   145.5290    12.4980     2.1820   -21.4520    67.8180    16.8220    17.6800    19.2460     2.1200 
  147.0000   145.6480    12.5360     2.1910   -21.4360    69.0660    17.1470    18.0130    17.8600     2.1220 
  147.1250   145.7660    12.5750     2.2000   -21.3490    68.3470    17.2610    18.1300    17.4460     2.1230 
  147.2500   145.8850    12.6130     2.2100   -21.1910    66.1760    16.9170    17.7760    18.0700     2.1210 
  147.3750   146.0040    12.6520     2.2190   -20.9680    65.9000    16.1090    16.9480    18.8020     2.1230 
  147.5000   146.1220    12.6910     2.2280   -20.6530    69.0650    14.9340    15.8370    18.7510     2.1320 
  147.6250   146.2410    12.7290     2.2370   -20.2220    74.4010    13.7060    14.8380    17.8540     2.1470 
  147.7500   146.3590    12.7680     2.2460   -19.6490    78.5230    12.8630    14.1490    16.6590     2.1640 
  147.8750   146.4780    12.8070     2.2550   -18.9830    79.7570    12.6130    13.9210    15.7910     2.1750 
  148.0000   146.5960    12.8450     2.2640   -18.3390    77.7930    12.9860    14.3190    15.8050     2.1740 
  148.1250   146.7150    12.8840     2.2730   -17.8740    73.7140    13.7590    15.1450    17.0860     2.1660 
  148.2500   146.8330    12.9230     2.2820   -17.7540    70.4350    14.6490    16.0960    19.6750     2.1600 
  148.3750   146.9520    12.9620     2.2910   -18.0000    68.7580    15.3340    16.8270    22.3520     2.1590 
  148.5000   147.0700    13.0010     2.3000   -18.5500    68.1220    15.5840    17.0930    23.3820     2.1620 
  148.6250   147.1880    13.0400     2.3090   -19.2030    69.0260    15.4550    16.9560    22.2900     2.1600 
  148.7500   147.3070    13.0790     2.3180   -19.7750    69.4460    15.2190    16.7040    20.3330     2.1560 
  148.8750   147.4250    13.1180     2.3270   -20.1760    70.1090    15.1870    16.6700    19.2930     2.1520 
  149.0000   147.5440    13.1570     2.3360   -20.4120    69.2480    15.4980    17.0020    19.3100     2.1490 
  149.1250   147.6620    13.1970     2.3450   -20.5850    67.9510    16.0470    17.5890    19.8030     2.1430 
  149.2500   147.7800    13.2360     2.3540   -20.7890    66.1290    16.6310    18.2110    20.8740     2.1310 
  149.3750   147.8990    13.2750     2.3630   -21.0640    64.8280    17.0940    18.7070    21.8100     2.1170 
  149.5000   148.0170    13.3150     2.3720   -21.3890    63.5310    17.3710    19.0020    21.5970     2.1080 
  149.6250   148.1350    13.3540     2.3810   -21.6910    64.0630    17.4740    19.1120    20.7840     2.1050 
  149.7500   148.2530    13.3930     2.3890   -21.8980    65.8530    17.4770    19.1150    20.2470     2.1060 
  149.8750   148.3720    13.4330     2.3980   -21.9750    67.5600    17.5090    19.1500    19.6700     2.1050 
  150.0000   148.4900    13.4720     2.4070   -21.9090    66.8450    17.5900    19.2360    18.5140     2.1000 
  150.1250   148.6080    13.5120     2.4160   -21.7230    64.9140    17.5580    19.2010    17.6390     2.0960 
  150.2500   148.7260    13.5520     2.4250   -21.4260    64.1300    17.2610    18.8840    17.8980     2.1000 
  150.3750   148.8450    13.5910     2.4340   -21.0390    64.8630    16.7120    18.2980    18.4010     2.1110 
  150.5000   148.9630    13.6310     2.4430   -20.5630    67.0930    16.0440    17.5850    18.1270     2.1340 
  150.6250   149.0810    13.6710     2.4520   -20.0130    70.1760    15.5120    17.0170    17.1150     2.1710 
  150.7500   149.1990    13.7100     2.4610   -19.4060    74.3800    15.2480    16.7350    16.1220     2.2170 
  150.8750   149.3170    13.7500     2.4700   -18.7850    81.7510    15.2210    16.7060    15.9720     2.2560 
  151.0000   149.4350    13.7900     2.4780   -18.2260    89.9670    15.3760    16.8720    16.5540     2.2740 
  151.1250   149.5540    13.8300     2.4870   -17.8020    95.8490    15.5910    17.1010    17.0470     2.2730 
  151.2500   149.6720    13.8700     2.4950   -17.5860    97.4810    15.7650    17.2870    17.1220     2.2550 
  151.3750   149.7900    13.9100     2.5040   -17.5810    96.0890    15.8830    17.4130    17.2020     2.2270 
  151.5000   149.9080    13.9510     2.5130   -17.7890    92.4380    16.0400    17.5800    18.0340     2.1930 
  151.6250   150.0260    13.9910     2.5210   -18.1620    84.9600    16.3230    17.8830    19.7400     2.1630 
  151.7500   150.1440    14.0310     2.5300   -18.6690    77.3180    16.7010    18.2870    21.5480     2.1460 
  151.8750   150.2620    14.0720     2.5380   -19.2450    70.9680    17.0350    18.6440    22.3680     2.1410 
  152.0000   150.3800    14.1120     2.5470   -19.8220    67.9360    17.1960    18.8160    21.7210     2.1430 
  152.1250   150.4980    14.1520     2.5550   -20.3420    65.2820    17.2030    18.8230    20.3860     2.1450 
  152.2500   150.6160    14.1930     2.5640   -20.7670    64.0280    17.1400    18.7550    19.4720     2.1420 
  152.3750   150.7340    14.2330     2.5730   -21.0950    63.2540    17.0600    18.6700    19.5710     2.1360 
  152.5000   150.8520    14.2740     2.5810   -21.3260    62.6310    16.9840    18.5890    20.3930     2.1260 
  152.6250   150.9690    14.3150     2.5900   -21.4750    62.6740    16.8830    18.4810    21.0260     2.1150 
  152.7500   151.0870    14.3560     2.5980   -21.5480    62.8140    16.7460    18.3350    21.1140     2.1060 
  152.8750   151.2050    14.3960     2.6060   -21.5710    63.5760    16.6210    18.2020    21.0240     2.1000 
  153.0000   151.3230    14.4370     2.6150   -21.5540    62.2390    16.5590    18.1350    21.1540     2.1010 
  153.1250   151.4410    14.4780     2.6230   -21.5010    60.5790    16.5940    18.1720    21.5460     2.1100 
  153.2500   151.5590    14.5190     2.6320   -21.3980    60.3280    16.6600    18.2430    22.0340     2.1210 
  153.3750   151.6760    14.5600     2.6400   -21.2340    61.3250    16.6140    18.1930    22.6220     2.1310 
  153.5000   151.7940    14.6010     2.6480   -20.9980    63.5150    16.3460    17.9070    23.4120     2.1380 
  153.6250   151.9120    14.6420     2.6570   -20.6980    64.3020    15.9100    17.4420    24.0040     2.1420 
  153.7500   152.0300    14.6830     2.6660   -20.3430    64.1670    15.4350    16.9340    23.6280     2.1410 
  153.8750   152.1470    14.7250     2.6740   -19.9560    63.8420    15.0420    16.5140    22.4250     2.1380 
  154.0000   152.2650    14.7660     2.6830   -19.5690    64.1450    14.8000    16.2560    21.2460     2.1390 
  154.1250   152.3830    14.8070     2.6910   -19.2150    65.8440    14.6710    16.1190    20.3800     2.1420 
  154.2500   152.5000    14.8480     2.7000   -18.9300    65.9840    14.6020    16.0450    19.5800     2.1430 
  154.3750   152.6180    14.8900     2.7080   -18.7210    65.6200    14.5570    15.9970    19.1010     2.1410 
  154.5000   152.7360    14.9310     2.7170   -18.5860    64.3000    14.5330    15.9710    19.3890     2.1360 
  154.6250   152.8530    14.9720     2.7260   -18.4930    63.3320    14.6460    16.0920    20.0900     2.1300 
  154.7500   152.9710    15.0140     2.7340   -18.4120    61.9440    14.9610    16.4280    20.6590     2.1220 
  154.8750   153.0880    15.0550     2.7430   -18.3120    60.1500    15.2740    16.7630    20.9570     2.1100 
  155.0000   153.2060    15.0970     2.7520   -18.1620    59.5100    15.3670    16.8620    21.0650     2.1010 
  155.1250   153.3240    15.1380     2.7600   -17.9380    61.0180    14.9600    16.4270    20.7360     2.1010 
  155.2500   153.4410    15.1800     2.7690   -17.6040    65.2350    13.7920    15.1170    19.0480     2.1150 
