~V
VERS. 2.00: Ver 2.00
~W
STRT.M 34.0000:
STOP.M 260.0000:
STEP.M 0.1250:
NULL. -999.2500:
UWI. FD10858:
~C
DEPT.M :
TVD. :
DX. :
DY. :
SP.MV :
GR.API :
RI. :
RML.OHMM :
RXO.OHMM :
DEN.GM/CC :
~A
# ...
  152.6250   145.4090   -23.3620   -25.3680   -16.9080    46.6890    18.9010    21.7900    19.3290     2.5360 
  152.7500   145.5170   -23.4060   -25.4140   -17.0560    46.3150    18.8910    21.7720    19.8260     2.5550 
  152.8750   145.6250   -23.4490   -25.4590   -17.0890    47.0780    18.8410    21.7160    18.9940     2.5710 
  153.0000   145.7330   -23.4930   -25.5040   -17.0340    49.2560    18.8370    21.7120    17.3940     2.5780 
  153.1250   145.8410   -23.5370   -25.5500   -16.9320    51.5430    18.8000    21.6630    17.0020     2.5780 
  153.2500   145.9490   -23.5800   -25.5950   -16.8360    53.1040    18.7500    21.6820    16.5200     2.5740 
  153.3750   146.0570   -23.6240   -25.6400   -16.7940    53.6600    18.8970    22.0390    15.7940     2.5720 
  153.5000   146.1650   -23.6680   -25.6840   -16.8300    53.2190    19.1290    22.5440    15.7580     2.5760 
  153.6250   146.2730   -23.7130   -25.7290   -16.9530    52.2840    19.0220    22.6740    16.8650     2.5930 
  153.7500   146.3820   -23.7570   -25.7740   -17.1390    51.9790    18.2530    21.9920    18.0050     2.6200 
  153.8750   146.4900   -23.8010   -25.8190   -17.3550    51.6150    16.7440    20.3630    17.8580     2.6420 
  154.0000   146.5980   -23.8450   -25.8640   -17.5540    49.9490    14.9330    18.3030    16.7090     2.6470 
  154.1250   146.7060   -23.8880   -25.9090   -17.6910    48.6680    13.2630    16.3090    14.0330     2.6290 
  154.2500   146.8140   -23.9320   -25.9540   -17.7450    48.3060    12.0640    14.8080    10.5180     2.5970 
  154.3750   146.9220   -23.9760   -25.9990   -17.7040    48.5620    11.5210    14.1070     8.8820     2.5610 
  154.5000   147.0300   -24.0200   -26.0440   -17.5900    49.2250    11.6070    14.1490     8.6420     2.5330 
  154.6250   147.1380   -24.0630   -26.0900   -17.4270    50.1780    12.1210    14.6640     8.9250     2.5170 
  154.7500   147.2460   -24.1070   -26.1350   -17.2570    50.1470    12.6520    15.1670    10.2490     2.5110 
  154.8750   147.3540   -24.1510   -26.1800   -17.1200    48.1650    12.9140    15.3360    12.3280     2.5060 
  155.0000   147.4620   -24.1950   -26.2250   -17.0360    47.2130    12.9200    15.2200    14.6040     2.4960 
  155.1250   147.5700   -24.2380   -26.2700   -17.0120    48.3650    12.7130    14.8930    14.9630     2.4780 
  155.2500   147.6780   -24.2820   -26.3150   -17.0220    49.1580    12.4980    14.6200    13.1410     2.4600 
  155.3750   147.7860   -24.3260   -26.3600   -17.0290    48.6980    12.4240    14.5880    11.7610     2.4480 
  155.5000   147.8940   -24.3700   -26.4050   -17.0030    48.3750    12.5420    14.8410    11.5430     2.4470 
  155.6250   148.0020   -24.4140   -26.4500   -16.9250    50.3470    12.7220    15.1770    12.6220     2.4510 
  155.7500   148.1100   -24.4580   -26.4940   -16.8050    52.5440    12.7640    15.2980    13.7240     2.4530 
  155.8750   148.2180   -24.5020   -26.5390   -16.6620    52.9300    12.5290    15.0390    13.1240     2.4490 
  156.0000   148.3270   -24.5460   -26.5840   -16.5270    52.1320    12.0880    14.4970    12.1540     2.4410 
  156.1250   148.4350   -24.5900   -26.6290   -16.4240    52.6160    11.5330    13.8150    11.3880     2.4350 
  156.2500   148.5430   -24.6340   -26.6740   -16.3620    53.7850    11.0410    13.2300    10.1310     2.4350 
  156.3750   148.6510   -24.6780   -26.7190   -16.3350    53.1320    10.8050    12.9720     9.4900     2.4420 
  156.5000   148.7590   -24.7220   -26.7640   -16.3180    51.3870    10.8800    13.0870     9.8380     2.4550 
  156.6250   148.8670   -24.7660   -26.8080   -16.2790    50.1590    11.2610    13.5640    10.2020     2.4670 
  156.7500   148.9750   -24.8100   -26.8530   -16.1890    49.2380    11.8560    14.2980    10.4530     2.4730 
  156.8750   149.0830   -24.8550   -26.8970   -16.0290    47.2040    12.4950    15.1260    10.9490     2.4700 
  157.0000   149.1910   -24.8990   -26.9420   -15.8030    45.4640    13.1220    15.9590    11.4300     2.4640 
  157.1250   149.2990   -24.9430   -26.9870   -15.5330    46.5900    13.4330    16.3670    12.0520     2.4590 
  157.2500   149.4070   -24.9870   -27.0310   -15.2660    48.8110    13.1310    15.9910    12.8600     2.4530 
  157.3750   149.5150   -25.0310   -27.0760   -15.0600    48.8870    12.3530    15.0030    12.8550     2.4430 
  157.5000   149.6230   -25.0750   -27.1210   -14.9460    48.0670    11.3380    13.7230    12.7340     2.4330 
  157.6250   149.7310   -25.1190   -27.1660   -14.9310    49.3630    10.3450    12.5470    11.5300     2.4270 
  157.7500   149.8400   -25.1630   -27.2100   -14.9740    52.5820     9.6900    11.8350     8.9010     2.4230 
  157.8750   149.9480   -25.2080   -27.2550   -15.0190    54.0960     9.3200    11.5070     8.6070     2.4170 
  158.0000   150.0560   -25.2520   -27.3000   -15.0180    54.2310     9.2660    11.5700    10.0620     2.4110 
  158.1250   150.1640   -25.2960   -27.3440   -14.9380    54.6840     9.5590    12.0170     9.9210     2.4120 
  158.2500   150.2720   -25.3410   -27.3880   -14.7800    56.8990    10.0500    12.6750     9.1460     2.4270 
  158.3750   150.3800   -25.3860   -27.4320   -14.5520    59.1820    10.6990    13.5480     9.8990     2.4510 
  158.5000   150.4880   -25.4310   -27.4770   -14.2830    59.1400    11.4450    14.5270    11.1430     2.4750 
  158.6250   150.5960   -25.4750   -27.5210   -14.0160    57.0220    12.1100    15.3650    11.7630     2.4880 
  158.7500   150.7040   -25.5200   -27.5650   -13.7980    56.0410    12.5890    15.9380    12.6560     2.4890 
  158.8750   150.8120   -25.5640   -27.6100   -13.6830    57.0970    12.8340    16.1750    14.0940     2.4770 
  159.0000   150.9200   -25.6080   -27.6550   -13.6830    56.3980    12.8900    16.1750    14.5640     2.4620 
  159.1250   151.0280   -25.6520   -27.7000   -13.7910    53.2090    12.9290    16.2350    13.0640     2.4550 
  159.2500   151.1360   -25.6960   -27.7450   -13.9480    51.3310    13.0680    16.4770    11.7820     2.4620 
  159.3750   151.2440   -25.7400   -27.7900   -14.0860    52.2070    13.1610    16.7100    11.7980     2.4780 
  159.5000   151.3520   -25.7840   -27.8350   -14.1470    54.5530    13.1080    16.7310    12.8200     2.4900 
  159.6250   151.4600   -25.8280   -27.8800   -14.0860    55.7970    12.7920    16.3260    14.2060     2.4860 
  159.7500   151.5680   -25.8720   -27.9250   -13.9110    55.5830    12.0520    15.3140    13.6440     2.4670 
  159.8750   151.6760   -25.9160   -27.9690   -13.6430    54.4260    11.1760    14.1370    11.2750     2.4470 
  160.0000   151.7840   -25.9600   -28.0140   -13.3380    54.9970    10.4260    13.1690     9.3330     2.4380 
  160.1250   151.8930   -26.0040   -28.0580   -13.0410    57.3950     9.8950    12.5290     8.4930     2.4430 
  160.2500   152.0010   -26.0480   -28.1020   -12.7760    58.6910     9.7670    12.4250     8.6020     2.4530 
  160.3750   152.1100   -26.0930   -28.1460   -12.5370    57.2370     9.9170    12.6250     9.5460     2.4590 
  160.5000   152.2180   -26.1370   -28.1890   -12.2850    54.3630    10.1810    12.9480    10.0560     2.4560 
  160.6250   152.3270   -26.1800   -28.2330   -11.9690    50.9790    10.5880    13.4600     9.7330     2.4500 
  160.7500   152.4360   -26.2240   -28.2760   -11.5560    47.8840    11.0370    14.0300     9.8180     2.4500 
  160.8750   152.5440   -26.2670   -28.3190   -11.0310    47.2040    11.4880    14.6130    10.8110     2.4600 
  161.0000   152.6530   -26.3110   -28.3630   -10.4260    48.6380    11.7970    14.9760    11.4440     2.4740 
  161.1250   152.7620   -26.3540   -28.4060    -9.7890    50.0050    11.8030    14.9180    11.1800     2.4840 
  161.2500   152.8710   -26.3970   -28.4490    -9.1820    50.0830    11.5230    14.5060    11.1320     2.4850 
  161.3750   152.9810   -26.4400   -28.4920    -8.6670    50.0420    11.0900    13.9250    11.2020     2.4740 
  161.5000   153.0900   -26.4840   -28.5350    -8.2680    50.9580    10.7720    13.5200    10.9420     2.4600 
  161.6250   153.1990   -26.5270   -28.5780    -7.9970    51.0410    10.7910    13.6240     9.8300     2.4530 
