~V
VERS. 2.00: Ver 2.00
~W
STRT.M 33.0000:
STOP.M 273.0000:
STEP.M 0.1250:
NULL. -999.2500:
UWI. FD10880:
~C
DEPT.M :
TVD. :
DX. :
DY. :
SP.MV :
GR.API :
RI. :
RML.OHMM :
RXO.OHMM :
DEN.GM/CC :
~A
# ...
  233.7500   216.8170    72.2170    14.5760    -7.5870    65.2180    65.2190    69.1450   127.5950     2.5100 
  233.8750   216.9250    72.2780    14.5890    -7.2230    63.3410    65.2070    69.1270   107.2020     2.5160 
  234.0000   217.0340    72.3380    14.6030    -6.9040    63.4030    64.6010    68.3840    78.1310     2.5210 
  234.1250   217.1430    72.3990    14.6170    -6.6600    64.1780    63.7660    67.4350    70.1580     2.5290 
  234.2500   217.2510    72.4590    14.6300    -6.4580    63.5840    63.4370    67.0620    71.6790     2.5400 
  234.3750   217.3600    72.5200    14.6430    -6.2730    63.0370    64.0730    67.8590    78.9390     2.5480 
  234.5000   217.4680    72.5810    14.6570    -6.1410    64.4570    65.7070    69.7190    87.8170     2.5470 
  234.6250   217.5770    72.6410    14.6700    -5.9820    66.8410    67.5980    71.8060   107.6340     2.5380 
  234.7500   217.6850    72.7020    14.6830    -5.7820    67.9190    68.3460    72.5710   128.8610     2.5280 
  234.8750   217.7940    72.7620    14.6970    -5.6260    68.1580    66.8310    70.8850   118.2290     2.5280 
  235.0000   217.9020    72.8230    14.7110    -5.5260    68.1600    63.3680    67.1620   100.4550     2.5350 
  235.1250   218.0110    72.8830    14.7240    -5.2660    67.2930    58.8300    62.3670    94.1460     2.5410 
  235.2500   218.1200    72.9430    14.7380    -4.7240    66.1830    54.0850    57.5120    82.3300     2.5420 
  235.3750   218.2280    73.0040    14.7510    -3.8660    64.8230    50.1620    53.6490    70.5320     2.5360 
  235.5000   218.3370    73.0640    14.7650    -2.9670    63.6530    47.3600    51.0460    65.5430     2.5240 
  235.6250   218.4450    73.1250    14.7780    -2.4890    63.2600    46.1220    49.9850    61.9740     2.5090 
  235.7500   218.5540    73.1850    14.7920    -2.7600    63.2540    45.8750    49.8760    59.9700     2.5020 
  235.8750   218.6620    73.2460    14.8050    -3.4660    63.2020    46.1260    50.2670    61.8310     2.5050 
  236.0000   218.7710    73.3070    14.8180    -4.3220    63.1520    46.6090    50.8270    61.7210     2.5150 
  236.1250   218.8790    73.3670    14.8320    -5.0730    65.7630    47.0600    51.3940    65.9830     2.5270 
  236.2500   218.9880    73.4280    14.8450    -5.3700    70.4120    47.1620    51.5970    75.2880     2.5340 
  236.3750   219.0960    73.4880    14.8580    -5.1810    71.9190    46.7380    51.4410    74.9980     2.5350 
  236.5000   219.2050    73.5490    14.8710    -4.9250    67.6340    46.1750    51.6180    70.1440     2.5280 
  236.6250   219.3140    73.6090    14.8850    -4.8360    62.2960    45.6940    51.9950    71.6370     2.5180 
  236.7500   219.4220    73.6700    14.8980    -4.7590    61.5410    42.5110    48.1540    69.9920     2.5110 
  236.8750   219.5310    73.7300    14.9110    -4.7640    64.5570    34.5120    38.8090    66.3490     2.5070 
  237.0000   219.6390    73.7910    14.9240    -4.9880    64.9660    24.3370    26.6660    65.5840     2.4960 
  237.1250   219.7480    73.8510    14.9380    -5.3780    58.8710    13.7990    14.6590    60.9900     2.4640 
  237.2500   219.8560    73.9120    14.9510    -5.8020    46.7400     8.1070     8.7220    48.7410     2.4100 
  237.3750   219.9650    73.9720    14.9650    -6.2260    34.6820     6.0950     6.7120    45.0830     2.3630 
  237.5000   220.0730    74.0330    14.9780    -6.6500    27.3610     5.2480     6.0440    57.4500     2.3610 
  237.6250   220.1820    74.0940    14.9910    -7.1110    23.3770     4.9740     6.0520    46.8710     2.3990 
  237.7500   220.2900    74.1540    15.0040    -7.5910    20.1050     4.9330     6.2750    17.6570     2.4320 
  237.8750   220.3990    74.2150    15.0170    -8.1040    17.7020     4.7400     6.1170     5.6960     2.4240 
  238.0000   220.5070    74.2760    15.0300    -8.7320    18.0370     4.3420     5.5930     9.8670     2.3710 
  238.1250   220.6160    74.3360    15.0440    -9.4470    20.6520     3.7460     4.7550    16.1370     2.3080 
  238.2500   220.7240    74.3970    15.0570    -9.9470    23.5890     3.1550     4.0270    13.5300     2.2670 
  238.3750   220.8330    74.4580    15.0710    -9.7860    25.5770     2.7960     3.6320     7.4760     2.2550 
  238.5000   220.9410    74.5180    15.0840    -8.9690    27.1870     2.6010     3.4250     4.6920     2.2700 
  238.6250   221.0500    74.5790    15.0970    -8.0700    28.2670     2.4370     3.2530     3.9060     2.2950 
  238.7500   221.1580    74.6400    15.1110    -7.6530    27.7710     2.3440     3.1750     3.9330     2.3130 
  238.8750   221.2670    74.7000    15.1240    -7.9310    26.6110     2.3250     3.2200     3.8220     2.3170 
  239.0000   221.3750    74.7610    15.1380    -8.5180    26.9330     2.3390     3.3030     3.6510     2.3170 
  239.1250   221.4840    74.8220    15.1510    -9.1890    28.3890     2.3540     3.3870     3.6860     2.3230 
  239.2500   221.5920    74.8820    15.1640    -9.7180    29.0330     2.3630     3.4510     4.0050     2.3260 
  239.3750   221.7010    74.9430    15.1780    -9.7460    28.6890     2.3720     3.5010     4.3580     2.3170 
  239.5000   221.8090    75.0040    15.1910    -9.3250    28.8570     2.3910     3.5620     4.4800     2.2980 
  239.6250   221.9170    75.0640    15.2040    -8.9110    29.5650     2.4190     3.6370     4.2450     2.2900 
  239.7500   222.0260    75.1250    15.2180    -8.6150    29.9980     2.4410     3.7050     3.7620     2.3070 
  239.8750   222.1340    75.1860    15.2310    -8.2910    29.8610     2.4480     3.7630     3.6450     2.3280 
  240.0000   222.2430    75.2470    15.2440    -8.0180    29.8000     2.4450     3.7880     3.9490     2.3290 
  240.1250   222.3510    75.3070    15.2570    -8.0060    30.0520     2.4390     3.8150     4.1700     2.3080 
  240.2500   222.4600    75.3680    15.2700    -8.1450    30.2510     2.4440     3.8560     4.2670     2.2800 
  240.3750   222.5680    75.4290    15.2840    -8.3520    30.3450     2.4520     3.8950     4.2430     2.2610 
  240.5000   222.6770    75.4890    15.2970    -8.6060    31.5290     2.4600     3.9530     4.0840     2.2550 
  240.6250   222.7850    75.5500    15.3100    -8.8030    33.5480     2.4710     4.0260     4.0350     2.2590 
  240.7500   222.8940    75.6100    15.3230    -9.0390    34.4500     2.4860     4.0910     4.1190     2.2700 
  240.8750   223.0020    75.6710    15.3360    -9.3150    34.3150     2.4990     4.1370     4.1130     2.2840 
  241.0000   223.1110    75.7320    15.3490    -9.6000    34.8460     2.5070     4.1560     4.0600     2.2950 
  241.1250   223.2200    75.7920    15.3620   -10.0170    36.0840     2.5020     4.1410     4.0890     2.2970 
  241.2500   223.3280    75.8530    15.3760   -10.3690    36.2360     2.4820     4.1160     4.1210     2.2870 
  241.3750   223.4370    75.9130    15.3890   -10.3390    35.1590     2.4550     4.0990     4.1270     2.2680 
  241.5000   223.5450    75.9740    15.4020    -9.8080    34.9850     2.4310     4.0810     4.0420     2.2510 
  241.6250   223.6540    76.0340    15.4150    -9.0710    35.7960     2.4100     4.0790     3.8480     2.2400 
  241.7500   223.7620    76.0950    15.4280    -8.4270    36.4740     2.3980     4.0920     3.8060     2.2350 
  241.8750   223.8710    76.1550    15.4410    -8.2470    36.1140     2.3870     4.1060     3.8900     2.2350 
  242.0000   223.9800    76.2160    15.4550    -8.5620    34.7600     2.3700     4.0950     3.7930     2.2420 
  242.1250   224.0880    76.2760    15.4680    -9.1420    33.7590     2.3550     4.0630     3.6120     2.2500 
  242.2500   224.1970    76.3360    15.4810    -9.7540    33.4180     2.3440     4.0320     3.6240     2.2570 
  242.3750   224.3060    76.3970    15.4940   -10.0850    33.5500     2.3470     4.0360     3.7110     2.2700 
  242.5000   224.4140    76.4570    15.5070    -9.8810    33.3970     2.3660     4.0760     3.8130     2.2980 
  242.6250   224.5230    76.5180    15.5200    -9.4680    32.2920     2.3940     4.1200     4.1190     2.3290 
  242.7500   224.6320    76.5780    15.5330    -9.1950    30.0170     2.4100     4.1380     4.3280     2.3380 
