~V
VERS. 2.00: Ver 2.00
~W
STRT.M 15.0000:
STOP.M 236.0000:
STEP.M 0.1250:
NULL. -999.2500:
UWI. FD10614:
~C
DEPT.M :
TVD. :
DX. :
DY. :
DEN.GM/CC :
GR.API :
RML.OHMM :
RI. :
RXO.OHMM :
CALI.CM :
SP.MV :
~A
# ...
  171.7500   163.2860    35.2620    17.0540     2.4330    74.3400    20.3400    18.5140    15.1980    20.3800   -12.0180 
  171.8750   163.3930    35.3200    17.0840     2.4030    73.1600    21.5970    19.2600    14.1130    20.3580   -11.8780 
  172.0000   163.5000    35.3780    17.1130     2.3680    71.6400    24.4740    21.4720    14.3710    20.3450   -11.7780 
  172.1250   163.6070    35.4350    17.1420     2.3350    69.7240    29.1540    25.6060    18.3710    20.3440   -11.7090 
  172.2500   163.7140    35.4930    17.1720     2.3070    67.0480    34.7710    31.1220    23.4500    20.3450   -11.7430 
  172.3750   163.8210    35.5500    17.2010     2.2840    65.0470    40.2790    37.0890    27.7800    20.3450   -11.7870 
  172.5000   163.9280    35.6080    17.2310     2.2650    64.4280    44.4890    42.0420    32.3070    20.3450   -11.9190 
  172.6250   164.0350    35.6650    17.2600     2.2500    63.9860    46.3080    44.3610    31.4010    20.3450   -12.1600 
  172.7500   164.1420    35.7230    17.2890     2.2420    65.0160    46.4130    44.5830    28.2480    20.3450   -12.3630 
  172.8750   164.2490    35.7810    17.3190     2.2420    68.7140    45.7840    43.8140    25.5460    20.3450   -12.5080 
  173.0000   164.3560    35.8380    17.3480     2.2490    71.4840    45.4130    43.1680    24.4340    20.3460   -12.6240 
  173.1250   164.4630    35.8960    17.3780     2.2600    68.1190    46.0510    43.4770    25.2540    20.3530   -12.6680 
  173.2500   164.5700    35.9530    17.4070     2.2680    62.1440    47.5590    44.7090    27.8700    20.3710   -12.6200 
  173.3750   164.6770    36.0110    17.4360     2.2710    59.2450    49.5440    46.5450    31.8460    20.3940   -12.5520 
  173.5000   164.7840    36.0680    17.4660     2.2700    60.3710    51.4350    48.4250    34.3170    20.4070   -12.4340 
  173.6250   164.8910    36.1260    17.4950     2.2700    62.1400    52.5090    49.5960    33.6360    20.4100   -12.2570 
  173.7500   164.9970    36.1840    17.5240     2.2750    63.1180    52.5930    49.7960    30.0280    20.4100   -12.1130 
  173.8750   165.1040    36.2410    17.5540     2.2810    62.8850    51.8070    49.1060    25.3230    20.4100   -11.9900 
  174.0000   165.2110    36.2990    17.5830     2.2830    61.7330    50.5190    47.8830    22.3710    20.4100   -11.8700 
  174.1250   165.3180    36.3560    17.6130     2.2780    60.4700    49.1980    46.6140    21.9830    20.4060   -11.7940 
  174.2500   165.4250    36.4140    17.6420     2.2690    60.0860    48.1690    45.6350    23.9660    20.3990   -11.7320 
  174.3750   165.5320    36.4710    17.6710     2.2620    59.6560    47.5300    45.0400    26.4700    20.3990   -11.7340 
  174.5000   165.6390    36.5290    17.7010     2.2610    58.3760    47.2840    44.8200    27.5930    20.4020   -11.8410 
  174.6250   165.7460    36.5870    17.7300     2.2730    57.2560    47.4420    45.0170    26.2510    20.4000   -12.0620 
  174.7500   165.8530    36.6440    17.7600     2.2930    58.3830    47.8090    45.5130    23.4720    20.3960   -12.3280 
  174.8750   165.9600    36.7020    17.7890     2.3160    60.9760    48.1070    46.0820    21.3640    20.3950   -12.6050 
  175.0000   166.0670    36.7590    17.8180     2.3330    62.0640    47.9130    46.2910    20.5830    20.3880   -12.8990 
  175.1250   166.1740    36.8170    17.8480     2.3330    61.1980    46.6020    45.4100    22.4080    20.3760   -13.1390 
  175.2500   166.2810    36.8740    17.8770     2.3150    60.6850    44.1810    43.3020    26.7310    20.3740   -13.3570 
  175.3750   166.3880    36.9320    17.9070     2.2860    63.0640    40.9230    40.1870    28.9490    20.3780   -13.5330 
  175.5000   166.4950    36.9890    17.9360     2.2560    67.5820    37.3760    36.6440    26.0220    20.3860   -13.6670 
  175.6250   166.6020    37.0470    17.9650     2.2360    69.1970    34.2650    33.4600    21.0780    20.3940   -13.7500 
  175.7500   166.7090    37.1050    17.9950     2.2240    67.9270    31.9530    31.0400    18.4460    20.3960   -13.8360 
  175.8750   166.8160    37.1620    18.0240     2.2180    67.0610    30.5280    29.4900    17.3840    20.3860   -13.9230 
  176.0000   166.9230    37.2200    18.0540     2.2160    68.7670    29.8890    28.7320    16.9240    20.3640   -13.9560 
  176.1250   167.0300    37.2770    18.0830     2.2180    69.2880    29.8840    28.6340    17.3490    20.3580   -14.0270 
  176.2500   167.1370    37.3350    18.1120     2.2190    66.9860    30.1810    28.8490    18.2650    20.3640   -14.1080 
  176.3750   167.2440    37.3920    18.1420     2.2200    65.5760    30.6300    29.2180    19.0440    20.3760   -14.1840 
  176.5000   167.3510    37.4500    18.1710     2.2250    66.3110    31.1360    29.6530    18.8000    20.3860   -14.2170 
  176.6250   167.4580    37.5080    18.2010     2.2390    66.7870    31.6120    30.0750    18.4130    20.3910   -14.2440 
  176.7500   167.5650    37.5650    18.2300     2.2600    66.2320    31.9950    30.4060    17.5570    20.4110   -14.2350 
  176.8750   167.6720    37.6230    18.2590     2.2820    66.0360    32.2580    30.6010    17.2810    20.4540   -14.2520 
  177.0000   167.7790    37.6800    18.2890     2.2940    65.9880    32.4230    30.6650    17.5390    20.5160   -14.3090 
  177.1250   167.8860    37.7380    18.3180     2.2890    65.5110    32.5720    30.6640    18.3860    20.5720   -14.4020 
  177.2500   167.9930    37.7950    18.3480     2.2750    65.3740    32.8100    30.7090    18.8840    20.6300   -14.5130 
  177.3750   168.1000    37.8530    18.3770     2.2630    66.3630    33.1900    30.8690    19.1990    20.6640   -14.6560 
  177.5000   168.2070    37.9110    18.4060     2.2610    67.9600    33.7020    31.1570    19.8680    20.6690   -14.8520 
  177.6250   168.3140    37.9680    18.4360     2.2700    67.9270    34.2430    31.5150    21.5130    20.6500   -15.0000 
  177.7500   168.4210    38.0260    18.4650     2.2800    66.5720    34.6460    31.7970    22.8550    20.6230   -15.1230 
  177.8750   168.5280    38.0830    18.4950     2.2810    64.4250    34.7840    31.8800    23.5170    20.6100   -15.2040 
  178.0000   168.6350    38.1410    18.5240     2.2720    62.9300    34.6120    31.7170    23.1580    20.6070   -15.2750 
  178.1250   168.7420    38.1980    18.5530     2.2670    63.5480    34.1440    31.3280    22.1950    20.6070   -15.3240 
  178.2500   168.8490    38.2560    18.5830     2.2820    63.9470    33.5220    30.8470    21.6600    20.6070   -15.3130 
  178.3750   168.9550    38.3140    18.6120     2.3160    63.2390    32.8020    30.3290    21.2490    20.6070   -15.2450 
  178.5000   169.0620    38.3710    18.6420     2.3530    63.0260    31.9860    29.7690    20.7320    20.6070   -15.0980 
  178.6250   169.1690    38.4290    18.6710     2.3670    64.4500    31.0360    29.0940    20.7060    20.6070   -15.0370 
  178.7500   169.2760    38.4860    18.7000     2.3480    65.4740    30.0000    28.3060    20.1570    20.6070   -14.9960 
  178.8750   169.3830    38.5440    18.7300     2.3080    66.0440    28.9490    27.4680    18.7770    20.6070   -15.0300 
  179.0000   169.4900    38.6010    18.7590     2.2660    68.3430    27.9330    26.6410    17.6560    20.6070   -15.0980 
  179.1250   169.5970    38.6590    18.7890     2.2440    71.5930    26.9260    25.7820    17.5170    20.6070   -15.2130 
  179.2500   169.7040    38.7170    18.8180     2.2400    72.9680    25.8250    24.7870    17.6770    20.6090   -15.3350 
  179.3750   169.8110    38.7740    18.8470     2.2460    73.0960    24.5330    23.5560    18.1000    20.6190   -15.4770 
  179.5000   169.9180    38.8320    18.8770     2.2550    73.9030    23.0070    22.0340    17.9070    20.6440   -15.6270 
  179.6250   170.0250    38.8890    18.9060     2.2610    74.7410    21.2740    20.2340    16.0660    20.6670   -15.7450 
  179.7500   170.1320    38.9470    18.9350     2.2630    74.5690    19.5280    18.3840    13.5790    20.6900   -15.7790 
  179.8750   170.2390    39.0040    18.9650     2.2650    73.3300    17.9730    16.7060    12.1790    20.7260   -15.7380 
