~V
VERS. 2.00: Ver 2.00
~W
STRT.M 64.0000:
STOP.M 246.0000:
STEP.M 0.1250:
NULL. -999.2500:
UWI. FD10853:
~C
DEPT.M :
TVD. :
DX. :
DY. :
SP.MV :
GR.API :
RI. :
RML.OHMM :
RXO.OHMM :
DEN.GM/CC :
~A
   64.0000    64.0000     0.0000     0.0000   124.1020    41.4040     0.1820     0.2320     0.7420     2.3970 
   64.1250    64.1250     0.0010    -0.0010   127.2690    42.6230     0.1860     0.2330     0.7410     2.3910 
   64.2500    64.2500     0.0020    -0.0030   130.1780    43.4020     0.1890     0.2320     0.7100     2.3830 
   64.3750    64.3750     0.0030    -0.0040   132.5310    43.5950     0.1890     0.2290     0.6660     2.3700 
   64.5000    64.5000     0.0040    -0.0060   134.1180    44.5640     0.1880     0.2260     0.6550     2.3540 
   64.6250    64.6250     0.0050    -0.0070   134.4460    45.9720     0.1860     0.2230     0.6660     2.3410 
   64.7500    64.7500     0.0060    -0.0080   133.7180    46.4320     0.1840     0.2230     0.6720     2.3280 
   64.8750    64.8750     0.0070    -0.0100   132.2430    47.4350     0.1830     0.2260     0.6690     2.3210 
   65.0000    65.0000     0.0080    -0.0110   130.3610    48.7650     0.1710     0.2270     0.6910     2.3260 
   65.1250    65.1250     0.0090    -0.0130   128.0730    50.4550     0.1510     0.2180     0.7250     2.3420 
   65.2500    65.2500     0.0100    -0.0140   125.6620    49.2230     0.1170     0.1780     0.6970     2.3670 
   65.3750    65.3750     0.0110    -0.0160   123.1680    48.2060     0.0760     0.1260     0.6420     2.3880 
   65.5000    65.5000     0.0120    -0.0170   120.4670    47.5910     0.0510     0.0700     0.6580     2.4010 
   65.6250    65.6250     0.0120    -0.0190   117.1420    49.3200     0.0440     0.0420     0.6470     2.4170 
   65.7500    65.7500     0.0130    -0.0200   113.0650    50.8810     0.1060     0.0760     0.6430     2.4420 
   65.8750    65.8750     0.0140    -0.0210   108.1820    53.9570     0.3050     0.2320     1.4290     2.4190 
   66.0000    66.0000     0.0150    -0.0230   102.1770    58.0240     0.8460     0.7510     3.2950     2.2900 
   66.1250    66.1250     0.0160    -0.0240    93.8490    63.5240     2.3820     2.2320     4.6470     2.1020 
   66.2500    66.2500     0.0170    -0.0260    82.4080    68.1980     7.2680    26.1790     4.6450     1.9750 
   66.3750    66.3750     0.0180    -0.0270    67.6460    72.3650    10.5650    32.3490     4.2030     1.9400 
   66.5000    66.5000     0.0190    -0.0290    51.0020    74.9520    11.5160    32.9000     3.7950     1.9440 
   66.6250    66.6250     0.0200    -0.0300    35.4180    77.8810    10.4020    30.6420     3.4880     1.9020 
   66.7500    66.7500     0.0200    -0.0320    23.1770    80.0320     6.6890     5.3850     3.3030     1.7820 
   66.8750    66.8750     0.0210    -0.0340    14.4200    82.2490     5.7270     4.1420     3.1570     1.6150 
   67.0000    67.0000     0.0220    -0.0350     8.1660    82.5820     5.6300     4.0620     3.1460     1.4720 
   67.1250    67.1250     0.0230    -0.0370     3.8190    82.9340     5.5970     4.0680     3.2400     1.4080 
   67.2500    67.2500     0.0240    -0.0380     0.6310    84.2240     5.5200     4.0360     3.1850     1.4510 
   67.3750    67.3750     0.0240    -0.0400    -1.7290    87.1330     5.3840     3.9540     3.0730     1.5740 
   67.5000    67.5000     0.0250    -0.0410    -3.5060    88.1790     5.2900     3.8790     3.1980     1.7450 
   67.6250    67.6250     0.0260    -0.0430    -4.6810    86.3010     5.3580     3.9390     3.4330     1.9130 
   67.7500    67.7500     0.0270    -0.0450    -5.3230    83.4040     5.6810     4.2340     3.7130     2.0410 
   67.8750    67.8750     0.0280    -0.0460    -5.4810    82.0170     6.4300     4.9350     4.6250     2.1110 
   68.0000    68.0000     0.0280    -0.0480    -5.3100    82.1520     7.7690     6.1990     6.9750     2.1220 
   68.1250    68.1250     0.0290    -0.0500    -4.8010    81.2840     9.7150     8.0420    10.4040     2.0990 
   68.2500    68.2500     0.0300    -0.0510    -4.0990    79.1440    12.0850    10.3170    13.3260     2.0770 
   68.3750    68.3750     0.0310    -0.0530    -3.3800    76.5230    14.2590    12.4440    14.6860     2.0710 
   68.5000    68.5000     0.0310    -0.0550    -2.7630    73.9100    15.5980    13.8490    14.8090     2.0750 
   68.6250    68.6250     0.0320    -0.0560    -2.2900    71.2660    16.1540    14.5980    14.2750     2.0760 
   68.7500    68.7500     0.0330    -0.0580    -1.9600    69.6130    16.2470    15.0000    13.9450     2.0840 
   68.8750    68.8750     0.0340    -0.0600    -1.8750    70.4690    16.5840    15.7140    14.4350     2.1040 
   69.0000    69.0000     0.0340    -0.0610    -2.0000    72.0470    17.4870    17.0680    15.2890     2.1320 
   69.1250    69.1240     0.0350    -0.0630    -2.3190    73.3710    18.6170    18.6920    16.0490     2.1560 
   69.2500    69.2490     0.0360    -0.0650    -2.6750    71.5270    19.4750    19.9720    15.7740     2.1810 
   69.3750    69.3740     0.0360    -0.0670    -3.0630    68.8340    19.6250    20.3320    14.1470     2.1970 
   69.5000    69.4990     0.0370    -0.0680    -3.4410    67.0010    18.8910    19.5770    13.0510     2.1900 
   69.6250    69.6240     0.0370    -0.0700    -3.9240    67.6980    17.6380    18.1630    13.3450     2.1580 
   69.7500    69.7490     0.0380    -0.0720    -4.4380    70.4790    16.4400    16.8530    13.6820     2.1290 
   69.8750    69.8740     0.0390    -0.0740    -4.9760    71.5010    15.6690    16.1790    13.8230     2.1190 
   70.0000    69.9990     0.0390    -0.0750    -5.4550    72.9700    15.2970    15.9080    14.0550     2.1220 
   70.1250    70.1240     0.0400    -0.0770    -5.9390    73.5880    14.6060    15.2220    13.7280     2.1210 
   70.2500    70.2490     0.0400    -0.0790    -6.5440    74.7630    13.3250    13.8110    12.4490     2.1160 
   70.3750    70.3740     0.0410    -0.0810    -7.2460    76.5150    11.4770    11.7360    10.5140     2.1260 
   70.5000    70.4990     0.0420    -0.0830    -8.0460    80.4250     9.5880     9.7340     8.3420     2.1530 
   70.6250    70.6240     0.0420    -0.0840    -8.9480    87.5410     8.1790     8.3030     6.7420     2.1860 
   70.7500    70.7490     0.0430    -0.0860    -9.9750    94.9340     7.2510     7.4440     6.3210     2.2050 
   70.8750    70.8740     0.0430    -0.0880   -11.1080    99.3660     6.6400     6.9350     6.4650     2.2220 
   71.0000    70.9990     0.0440    -0.0900   -12.3630   100.6660     6.1570     6.5290     6.4260     2.2480 
   71.1250    71.1240     0.0440    -0.0920   -13.4800   101.1310     5.7350     6.1520     6.0140     2.2840 
   71.2500    71.2490     0.0450    -0.0940   -14.3290   105.6710     5.2960     5.7160     5.2930     2.3100 
   71.3750    71.3740     0.0450    -0.0960   -14.9070   110.7010     4.9130     5.3280     4.5620     2.3160 
   71.5000    71.4990     0.0460    -0.0980   -15.4180   113.0080     4.6830     5.1150     4.1620     2.3180 
   71.6250    71.6240     0.0460    -0.0990   -15.7770   109.8600     4.6570     5.1450     4.1740     2.3230 
   71.7500    71.7490     0.0470    -0.1010   -15.9980   105.1530     4.9170     5.4950     4.4210     2.3340 
   71.8750    71.8740     0.0470    -0.1030   -16.0650   101.7330     5.2970     5.9800     4.7800     2.3320 
   72.0000    71.9990     0.0470    -0.1050   -16.0620    99.8630     5.7060     6.4870     5.7380     2.3100 
   72.1250    72.1240     0.0480    -0.1070   -16.0150    99.5740     5.9870     6.8320     6.8800     2.2760 
   72.2500    72.2490     0.0480    -0.1090   -16.0080    97.8180     6.0930     6.9650     6.8400     2.2450 
   72.3750    72.3740     0.0480    -0.1110   -15.9720    94.3320     6.0980     6.9910     6.0360     2.2290 
   72.5000    72.4990     0.0490    -0.1130   -15.8890    89.6910     6.0510     6.9600     5.6180     2.2280 
   72.6250    72.6240     0.0490    -0.1150   -15.8010    86.8060     6.0080     6.9560     5.7870     2.2310 
   72.7500    72.7490     0.0490    -0.1170   -15.7430    86.4660     6.0400     7.0680     6.4330     2.2320 
   72.8750    72.8740     0.0500    -0.1190   -15.7310    86.6580     6.0660     7.1500     6.8670     2.2330 
   73.0000    72.9990     0.0500    -0.1210   -15.7030    88.1430     5.9960     7.0930     6.6240     2.2420 
