~V
VERS. 2.00: Ver 2.00
~W
STRT.M 50.0000:
STOP.M 219.0000:
STEP.M 0.1250:
NULL. -999.2500:
UWI. FD10804:
~C
DEPT.M :
TVD. :
DX. :
DY. :
SP.MV :
GR.API :
RI. :
RML.OHMM :
RXO.OHMM :
DEN.GM/CC :
~A
# ...
  168.6250   165.7530   -17.1300   -13.6910  -100.6900    64.8530   161.1000   170.2080   127.9970     2.1680 
  168.7500   165.8690   -17.1670   -13.7210  -100.1320    64.8660   176.1690   184.7170   141.1540     2.1630 
  168.8750   165.9840   -17.2040   -13.7520   -99.6310    63.6000   193.3460   202.5880   136.9730     2.1540 
  169.0000   166.0990   -17.2410   -13.7830   -99.2210    62.3440   212.0660   221.8600   140.6690     2.1460 
  169.1250   166.2150   -17.2780   -13.8130   -98.9290    61.4190   231.6740   240.8320   148.2270     2.1400 
  169.2500   166.3300   -17.3160   -13.8440   -98.7240    61.4370   250.7360   257.9440   149.6700     2.1360 
  169.3750   166.4450   -17.3530   -13.8750   -98.5890    61.5360   262.5210   270.0530   148.1080     2.1310 
  169.5000   166.5610   -17.3900   -13.9050   -98.5160    62.4630   266.4830   275.8320   146.2520     2.1280 
  169.6250   166.6760   -17.4280   -13.9360   -98.4990    63.6360   264.9830   275.2720   146.2910     2.1270 
  169.7500   166.7910   -17.4650   -13.9670   -98.5460    63.8970   257.2480   268.3460   151.9480     2.1290 
  169.8750   166.9060   -17.5020   -13.9970   -98.6980    62.9650   242.6530   255.0310   158.5370     2.1350 
  170.0000   167.0220   -17.5400   -14.0280   -98.9700    61.1520   225.6440   237.9680   159.6500     2.1460 
  170.1250   167.1370   -17.5770   -14.0580   -99.4260    61.0920   210.4540   221.2660   139.4030     2.1610 
  170.2500   167.2520   -17.6150   -14.0890  -100.1000    62.1820   201.4450   211.1200    99.6930     2.1800 
  170.3750   167.3670   -17.6520   -14.1190  -100.9750    65.0430   199.7910   210.1640    80.1580     2.1880 
  170.5000   167.4830   -17.6900   -14.1500  -101.9450    67.4330   205.3810   217.5490    90.8320     2.1780 
  170.6250   167.5980   -17.7280   -14.1810  -102.8690    68.5310   220.3700   234.7460    97.2720     2.1570 
  170.7500   167.7130   -17.7650   -14.2110  -103.6350    67.1140   244.2960   259.0860    70.7020     2.1410 
  170.8750   167.8280   -17.8030   -14.2410  -104.2060    65.2670   268.6010   282.5830    48.0070     2.1510 
  171.0000   167.9440   -17.8410   -14.2720  -104.6580    63.0230   281.0380   296.3190    81.1550     2.1760 
  171.1250   168.0590   -17.8780   -14.3020  -105.0760    61.6800   278.4420   296.6060   130.6970     2.2030 
  171.2500   168.1740   -17.9160   -14.3330  -105.5280    60.7700   267.4390   287.2700   135.5300     2.2040 
  171.3750   168.2890   -17.9540   -14.3630  -106.0360    61.6830   252.2180   270.1840   106.9720     2.1830 
  171.5000   168.4040   -17.9920   -14.3940  -106.5530    63.4630   229.0950   248.6700    85.1740     2.1580 
  171.6250   168.5200   -18.0300   -14.4240  -107.0470    64.2740   209.8760   226.5170    87.6400     2.1500 
  171.7500   168.6350   -18.0670   -14.4540  -107.5230    64.1260   187.6320   204.3250   118.2310     2.1570 
  171.8750   168.7500   -18.1050   -14.4850  -108.0100    64.7880   168.1570   184.4990   130.3710     2.1810 
  172.0000   168.8650   -18.1430   -14.5160  -108.5510    67.2790   155.4810   167.9750   112.3710     2.2170 
  172.1250   168.9800   -18.1810   -14.5460  -109.1840    70.2640   142.0350   153.3120   122.7370     2.2380 
  172.2500   169.0950   -18.2190   -14.5770  -109.8900    72.2080   132.3180   141.2900   130.2600     2.2320 
  172.3750   169.2110   -18.2570   -14.6070  -110.6010    72.0090   125.5410   132.6650    96.0410     2.2020 
  172.5000   169.3260   -18.2950   -14.6380  -111.2320    71.3650   120.8080   125.1680    57.4720     2.1830 
  172.6250   169.4410   -18.3330   -14.6680  -111.7080    70.4840   113.2980   116.7150    40.5490     2.1790 
  172.7500   169.5560   -18.3710   -14.6990  -111.9980    71.4370   105.0150   107.1790    42.6780     2.1870 
  172.8750   169.6710   -18.4090   -14.7290  -112.1070    72.3920    94.8180    96.8250    55.8500     2.1960 
  173.0000   169.7860   -18.4470   -14.7600  -112.0970    74.2670    85.0660    86.8220    68.9130     2.2050 
  173.1250   169.9010   -18.4850   -14.7900  -112.0050    74.8810    76.4880    78.6420    69.8760     2.2090 
  173.2500   170.0160   -18.5230   -14.8210  -111.8580    74.8410    70.8140    72.7080    59.7610     2.2100 
  173.3750   170.1310   -18.5610   -14.8510  -111.6670    72.6910    66.6940    69.1590    52.6510     2.2090 
  173.5000   170.2460   -18.5990   -14.8820  -111.4630    71.0830    65.2770    68.1120    54.4470     2.2100 
  173.6250   170.3610   -18.6380   -14.9120  -111.2740    70.1950    66.8750    70.2340    51.6180     2.2150 
  173.7500   170.4760   -18.6760   -14.9430  -111.1610    71.1000    71.8500    75.2880    48.0260     2.2160 
  173.8750   170.5910   -18.7140   -14.9730  -111.2040    71.8950    78.9970    82.8860    57.3910     2.2090 
  174.0000   170.7060   -18.7530   -15.0030  -111.4160    72.4470    87.6400    92.3350    66.4390     2.1950 
  174.1250   170.8210   -18.7910   -15.0340  -111.8490    71.7240    97.4380   103.1150    68.5820     2.1840 
  174.2500   170.9360   -18.8300   -15.0640  -112.5060    69.7060   107.4460   113.9110    73.3630     2.1790 
  174.3750   171.0510   -18.8690   -15.0940  -113.3590    67.8220   115.7470   122.9540    76.1530     2.1800 
  174.5000   171.1660   -18.9070   -15.1250  -114.3280    66.9270   121.0900   128.8240    74.4760     2.1810 
  174.6250   171.2810   -18.9460   -15.1550  -115.3320    67.8420   122.3680   130.3430    74.6220     2.1830 
  174.7500   171.3960   -18.9840   -15.1860  -116.2460    68.6230   119.7320   128.2780    77.0570     2.1840 
  174.8750   171.5110   -19.0230   -15.2160  -116.9820    69.8520   115.3850   124.0530    80.7040     2.1890 
  175.0000   171.6260   -19.0620   -15.2470  -117.5350    70.7980   110.5070   118.7550    81.9970     2.1980 
  175.1250   171.7410   -19.1000   -15.2780  -117.9070    71.8030   104.4240   112.1650    80.3830     2.2040 
  175.2500   171.8560   -19.1390   -15.3080  -118.1570    71.6200    97.1950   104.5120    79.2760     2.2050 
  175.3750   171.9700   -19.1770   -15.3390  -118.3280    71.3280    89.6810    96.6170    75.1590     2.2080 
  175.5000   172.0850   -19.2160   -15.3700  -118.4570    71.9940    83.2640    89.7450    65.4880     2.2170 
  175.6250   172.2000   -19.2540   -15.4010  -118.5690    73.4410    78.9410    85.3430    57.4510     2.2240 
  175.7500   172.3150   -19.2930   -15.4320  -118.6890    73.1950    77.9820    84.1180    58.8710     2.2250 
  175.8750   172.4300   -19.3310   -15.4630  -118.8490    70.8090    80.2950    86.2400    67.7600     2.2160 
  176.0000   172.5440   -19.3700   -15.4940  -119.0650    68.8640    84.7590    90.4210    71.4910     2.2020 
  176.1250   172.6590   -19.4090   -15.5250  -119.3590    68.3200    89.8590    95.1140    73.1950     2.1860 
  176.2500   172.7740   -19.4470   -15.5560  -119.7180    68.6250    93.8540    98.4250    82.8170     2.1780 
  176.3750   172.8890   -19.4860   -15.5870  -120.1350    68.5920    94.4770    98.9000    88.1980     2.1780 
  176.5000   173.0040   -19.5240   -15.6180  -120.5670    68.9550    92.7350    97.0400    83.2370     2.1810 
  176.6250   173.1180   -19.5630   -15.6500  -120.9670    69.6400    89.0410    93.4660    75.3590     2.1830 
  176.7500   173.2330   -19.6010   -15.6810  -121.3190    70.2310    84.1380    89.0610    68.6130     2.1870 
  176.8750   173.3480   -19.6390   -15.7130  -121.5960    69.7180    80.5030    85.3550    63.4690     2.1930 
  177.0000   173.4620   -19.6780   -15.7440  -121.8230    69.1010    78.3360    83.2170    61.6520     2.1960 
  177.1250   173.5770   -19.7160   -15.7760  -122.0290    69.2430    77.9780    82.6630    63.5190     2.1970 
  177.2500   173.6920   -19.7540   -15.8070  -122.2410    69.2420    78.5170    83.0150    63.9840     2.1980 
  177.3750   173.8070   -19.7930   -15.8390  -122.4980    69.4590    79.4580    83.8370    61.2870     2.2050 
  177.5000   173.9210   -19.8310   -15.8700  -122.8110    69.1130    80.6350    85.0010    56.7850     2.2080 
  177.6250   174.0360   -19.8700   -15.9020  -123.1950    68.5300    82.3180    86.7070    48.7710     2.2070 
