~V
VERS. 2.00: Ver 2.00
~W
STRT.M 50.0000:
STOP.M 287.0000:
STEP.M 0.1250:
NULL. -999.2500:
UWI. FD10894:
~C
DEPT.M :
TVD. :
DX. :
DY. :
SP.MV :
GR.API :
RI. :
RML.OHMM :
RXO.OHMM :
DEN.GM/CC :
~A
# ...
  250.7500   238.9900    57.8620    11.9520   -16.2570    65.7530    44.8200    46.6080    56.7520     2.5200 
  250.8750   239.1030    57.9160    11.9630   -16.4410    66.1600    41.1790    42.6980    55.9820     2.5190 
  251.0000   239.2150    57.9700    11.9730   -16.6700    66.7890    35.8820    37.0660    48.1140     2.5190 
  251.1250   239.3270    58.0230    11.9840   -16.9270    65.7230    31.2990    32.3710    43.1030     2.5140 
  251.2500   239.4400    58.0770    11.9950   -17.1880    64.8490    28.0680    29.0950    40.2330     2.5110 
  251.3750   239.5520    58.1310    12.0050   -17.4240    64.9770    26.4010    27.5870    31.0030     2.5130 
  251.5000   239.6650    58.1840    12.0160   -17.6060    65.5110    25.9620    27.4670    30.1360     2.5210 
  251.6250   239.7770    58.2380    12.0270   -17.6930    66.4870    26.5640    28.3890    31.1910     2.5280 
  251.7500   239.8890    58.2920    12.0380   -17.6630    68.2730    26.9700    28.9210    32.7300     2.5280 
  251.8750   240.0020    58.3460    12.0480   -17.4930    68.8610    26.5850    28.4550    31.4090     2.5230 
  252.0000   240.1140    58.3990    12.0590   -17.2110    68.3330    25.3860    27.0760    30.1360     2.5190 
  252.1250   240.2260    58.4530    12.0710   -16.8570    68.4360    23.9750    25.5440    27.9400     2.5200 
  252.2500   240.3390    58.5070    12.0820   -16.5000    69.6910    23.0300    24.5550    26.6260     2.5210 
  252.3750   240.4510    58.5600    12.0920   -16.2060    69.1290    22.7590    24.3120    25.5490     2.5200 
  252.5000   240.5630    58.6140    12.1030   -16.0080    66.7480    22.7920    24.4260    28.5220     2.5170 
  252.6250   240.6760    58.6680    12.1140   -15.9200    64.5000    23.4720    25.3350    29.7270     2.5150 
  252.7500   240.7880    58.7220    12.1250   -15.9080    63.6230    24.3940    26.5000    31.1910     2.5180 
  252.8750   240.9000    58.7750    12.1360   -15.9410    64.9430    25.1060    27.3690    34.1120     2.5270 
  253.0000   241.0130    58.8290    12.1470   -15.9810    66.8490    25.4500    27.7710    33.6430     2.5360 
  253.1250   241.1250    58.8830    12.1580   -16.0120    67.5980    24.6720    26.8790    29.9360     2.5410 
  253.2500   241.2370    58.9370    12.1690   -16.0320    68.1130    23.2400    25.2340    24.5160     2.5400 
  253.3750   241.3500    58.9910    12.1800   -16.0490    68.5090    21.4860    23.2410    25.1230     2.5330 
  253.5000   241.4620    59.0440    12.1910   -16.0650    67.3690    19.8610    21.4480    21.5170     2.5230 
  253.6250   241.5740    59.0980    12.2020   -16.0760    64.8030    18.7510    20.2600    22.9740     2.5150 
  253.7500   241.6860    59.1520    12.2130   -16.0790    63.6630    18.1530    19.7780    28.4960     2.5110 
  253.8750   241.7990    59.2060    12.2240   -16.0720    64.5890    17.6800    19.4490    31.0590     2.5080 
  254.0000   241.9110    59.2590    12.2350   -16.0700    64.5510    16.6360    18.4110    28.1360     2.5020 
  254.1250   242.0230    59.3130    12.2460   -16.1040    62.9180    15.3690    17.0710    23.0050     2.4860 
  254.2500   242.1360    59.3670    12.2570   -16.2000    62.2290    13.9420    15.4340    18.6390     2.4600 
  254.3750   242.2480    59.4210    12.2680   -16.3810    64.3830    13.0100    14.4030    18.5800     2.4330 
  254.5000   242.3600    59.4740    12.2790   -16.6340    68.3450    12.8160    14.2070    18.9620     2.4190 
  254.6250   242.4730    59.5280    12.2900   -16.9250    72.7020    13.6310    15.2530    18.2460     2.4300 
  254.7500   242.5850    59.5820    12.3010   -17.1960    75.7420    15.3820    17.3380    20.2730     2.4590 
  254.8750   242.6970    59.6360    12.3120   -17.3900    75.3330    17.4930    19.8260    23.8980     2.4920 
  255.0000   242.8100    59.6890    12.3230   -17.4820    73.2300    20.0270    22.8860    31.7690     2.5120 
  255.1250   242.9220    59.7430    12.3340   -17.4690    72.1380    21.9110    25.1590    44.7940     2.5090 
  255.2500   243.0340    59.7970    12.3450   -17.4000    71.8620    21.5770    24.7850    47.6590     2.4890 
  255.3750   243.1470    59.8510    12.3560   -17.3300    70.4280    19.5520    22.3950    39.2760     2.4610 
  255.5000   243.2590    59.9040    12.3680   -17.3050    68.7080    15.7650    17.8670    33.9210     2.4320 
  255.6250   243.3710    59.9580    12.3790   -17.3520    69.1300    11.6990    13.1250    27.8610     2.4030 
  255.7500   243.4830    60.0120    12.3900   -17.4520    71.4550     8.7450     9.7680    18.2510     2.3710 
  255.8750   243.5960    60.0650    12.4010   -17.5710    74.1360     6.8920     7.7310    10.7330     2.3350 
  256.0000   243.7080    60.1190    12.4120   -17.6710    74.9980     5.7360     6.5340     7.6490     2.3020 
  256.1250   243.8210    60.1730    12.4230   -17.7320    73.7470     5.2480     6.1110     7.1450     2.2840 
  256.2500   243.9330    60.2260    12.4340   -17.7680    71.3820     5.0820     6.0180     6.5640     2.2840 
  256.3750   244.0450    60.2800    12.4450   -17.8170    67.4400     5.0260     5.9750     6.3040     2.2990 
  256.5000   244.1580    60.3340    12.4560   -17.9250    62.6860     5.1050     6.0590     6.2280     2.3190 
  256.6250   244.2700    60.3870    12.4670   -18.1400    60.1940     5.3390     6.2940     6.3040     2.3390 
  256.7500   244.3820    60.4410    12.4790   -18.4790    61.0100     5.7940     6.8020     6.6400     2.3590 
  256.8750   244.4950    60.4940    12.4900   -18.9490    62.2170     6.5280     7.6490     7.3430     2.3810 
  257.0000   244.6070    60.5480    12.5010   -19.5220    61.7140     7.3250     8.5880     8.4770     2.4050 
  257.1250   244.7200    60.6010    12.5120   -20.1700    60.0740     8.1120     9.5080     9.6570     2.4300 
  257.2500   244.8320    60.6550    12.5240   -20.8520    58.9010     8.5540    10.0260    11.5590     2.4470 
  257.3750   244.9450    60.7080    12.5350   -21.5380    60.9750     8.5850    10.0780    14.6620     2.4430 
  257.5000   245.0570    60.7620    12.5460   -22.2050    66.1000     8.2120     9.6730    15.7130     2.4110 
  257.6250   245.1690    60.8150    12.5570   -22.8340    71.2520     7.6440     9.0860    13.7720     2.3560 
  257.7500   245.2820    60.8680    12.5680   -23.4120    73.3420     7.0100     8.4560    12.7150     2.2920 
  257.8750   245.3940    60.9220    12.5790   -23.9180    73.1910     6.5560     8.0400    12.5170     2.2400 
  258.0000   245.5070    60.9750    12.5900   -24.3350    73.2540     6.2730     7.8180    11.1520     2.2070 
  258.1250   245.6190    61.0290    12.6010   -24.6320    74.6030     6.1570     7.7930     9.3790     2.1960 
  258.2500   245.7320    61.0820    12.6120   -24.8040    75.9510     6.1860     7.9360     8.3550     2.2020 
  258.3750   245.8440    61.1360    12.6230   -24.8420    75.9550     6.3380     8.2310     8.1040     2.2150 
  258.5000   245.9570    61.1890    12.6340   -24.7780    74.2700     6.5580     8.5880     8.1950     2.2280 
  258.6250   246.0690    61.2430    12.6450   -24.6390    73.4400     6.7740     8.8690     8.9330     2.2350 
  258.7500   246.1820    61.2960    12.6560   -24.4700    75.2520     6.9670     9.0970    10.0560     2.2350 
  258.8750   246.2940    61.3490    12.6670   -24.3040    78.3660     7.0570     9.1590    10.5770     2.2290 
  259.0000   246.4060    61.4030    12.6790   -24.1590    80.1790     7.0670     9.1370    10.4990     2.2220 
  259.1250   246.5190    61.4560    12.6900   -24.0460    79.6590     7.0320     9.0910    10.1210     2.2170 
  259.2500   246.6310    61.5090    12.7020   -23.9660    79.0870     6.9600     9.0020     9.8620     2.2150 
  259.3750   246.7440    61.5630    12.7130   -23.9190    80.1720     6.8980     8.9370     9.6980     2.2140 
  259.5000   246.8560    61.6160    12.7240   -23.9000    81.6670     6.8550     8.8960     9.1590     2.2120 
  259.6250   246.9690    61.6700    12.7360   -23.9110    82.8030     6.8420     8.8960     8.7400     2.2110 
  259.7500   247.0810    61.7230    12.7470   -23.9440    82.8380     6.8580     8.9240     8.8730     2.2130 
