~V
VERS. 2.00: Ver 2.00
~W
STRT.M 44.0000:
STOP.M 206.0000:
STEP.M 0.1250:
NULL. -999.2500:
UWI. FD10808:
~C
DEPT.M :
TVD. :
DX. :
DY. :
SP.MV :
GR.API :
RI. :
RML.OHMM :
RXO.OHMM :
DEN.GM/CC :
~A
# ...
  153.5000   145.8220   -14.3200    31.3110    -4.8010    72.7920    50.7210    58.6480    55.0030     2.1890 
  153.6250   145.9260   -14.3510    31.3720    -4.6040    70.2760    75.8300    85.5540    90.8530     2.1760 
  153.7500   146.0310   -14.3820    31.4340    -4.3020    69.2880   104.9530   112.8350   124.4020     2.1680 
  153.8750   146.1350   -14.4130    31.4950    -4.0070    68.9500   127.3120   131.9010   144.9120     2.1610 
  154.0000   146.2400   -14.4440    31.5560    -3.8480    68.8170   138.1900   141.9020   151.2680     2.1570 
  154.1250   146.3440   -14.4750    31.6170    -3.7750    67.7510   137.9360   142.6080   154.6690     2.1570 
  154.2500   146.4490   -14.5060    31.6790    -3.6780    66.6180   131.6490   136.5990   162.0310     2.1610 
  154.3750   146.5530   -14.5370    31.7400    -3.6380    66.5340   124.1940   129.2330   160.8860     2.1620 
  154.5000   146.6570   -14.5680    31.8020    -3.6580    67.2060   116.9950   123.4620   145.4680     2.1600 
  154.6250   146.7620   -14.5990    31.8630    -3.7390    68.3250   111.7750   119.0290   120.8080     2.1570 
  154.7500   146.8660   -14.6300    31.9250    -3.7360    68.5920   107.2510   115.6130   105.4640     2.1570 
  154.8750   146.9700   -14.6610    31.9860    -3.7190    68.0150   104.8280   113.1470   108.8360     2.1600 
  155.0000   147.0750   -14.6920    32.0480    -3.6480    66.7470   102.6560   111.0950   106.7220     2.1630 
  155.1250   147.1790   -14.7230    32.1090    -3.4850    65.1760   101.1950   109.4330    95.1710     2.1660 
  155.2500   147.2830   -14.7540    32.1710    -3.2040    64.9090   100.4060   108.1770    90.9310     2.1660 
  155.3750   147.3870   -14.7850    32.2320    -2.8030    65.3300   100.7040   107.4140    91.6680     2.1640 
  155.5000   147.4920   -14.8170    32.2940    -2.3900    66.8970   101.1410   106.7850    90.2590     2.1650 
  155.6250   147.5960   -14.8480    32.3550    -1.9980    67.2520   100.8450   106.0550    89.6480     2.1660 
  155.7500   147.7000   -14.8790    32.4170    -1.4780    69.3140   100.7240   105.4020    90.4160     2.1670 
  155.8750   147.8040   -14.9100    32.4780    -1.0200    71.1690   100.2780   103.2690    85.5200     2.1650 
  156.0000   147.9080   -14.9410    32.5400    -0.7450    74.2430    94.8910    97.7630    78.6450     2.1630 
  156.1250   148.0130   -14.9720    32.6020    -0.4960    75.4780    86.5920    89.4570    81.6670     2.1640 
  156.2500   148.1170   -15.0030    32.6640    -0.2570    74.4260    77.7270    81.2880    89.1270     2.1750 
  156.3750   148.2210   -15.0340    32.7250    -0.0350    72.7950    72.3820    77.1280    84.3240     2.1900 
  156.5000   148.3250   -15.0650    32.7870     0.3160    71.4330    73.6170    79.7760    63.9680     2.1990 
  156.6250   148.4290   -15.0970    32.8490     0.7430    70.6030    83.5480    91.8640    71.6850     2.1860 
  156.7500   148.5330   -15.1280    32.9100     1.1230    68.8970   102.9320   111.8590   124.3520     2.1680 
  156.8750   148.6380   -15.1590    32.9720     1.4570    67.0380   125.8610   134.7810   162.0840     2.1550 
  157.0000   148.7420   -15.1900    33.0340     1.6180    66.2340   146.8030   152.3690   160.4630     2.1520 
  157.1250   148.8460   -15.2210    33.0960     1.7270    65.8080   156.6810   159.9520   148.1020     2.1510 
  157.2500   148.9500   -15.2520    33.1570     1.8620    65.3240   158.5580   162.1460   144.0590     2.1490 
  157.3750   149.0540   -15.2830    33.2190     1.9610    64.4380   157.7870   162.0470   140.6640     2.1500 
  157.5000   149.1580   -15.3140    33.2810     2.1850    64.0470   156.1630   161.3360   135.8940     2.1570 
  157.6250   149.2620   -15.3450    33.3430     2.4690    64.3330   155.1630   161.0830   133.0290     2.1660 
  157.7500   149.3660   -15.3770    33.4050     2.8150    64.8720   154.8730   161.7340   131.4780     2.1730 
  157.8750   149.4700   -15.4080    33.4670     3.0950    65.4190   156.2290   163.7780   137.3770     2.1760 
  158.0000   149.5740   -15.4390    33.5290     3.2730    66.0500   159.0230   167.3740   144.6070     2.1740 
  158.1250   149.6780   -15.4690    33.5910     3.5710    66.8730   163.8250   172.6460   151.5930     2.1680 
  158.2500   149.7820   -15.5000    33.6530     4.0530    66.6560   169.5240   179.0630   158.1350     2.1580 
  158.3750   149.8860   -15.5310    33.7150     4.5510    64.7590   176.0830   186.2600   159.8500     2.1510 
  158.5000   149.9900   -15.5620    33.7770     4.8800    62.0520   183.0980   193.2550   166.9120     2.1500 
  158.6250   150.0950   -15.5920    33.8390     4.9800    60.0710   188.2520   198.6800   184.0240     2.1520 
  158.7500   150.1990   -15.6230    33.9010     4.8630    59.0080   191.8170   202.1780   193.5720     2.1550 
  158.8750   150.3030   -15.6540    33.9630     4.7210    59.3090   193.2110   204.0450   187.5910     2.1520 
  159.0000   150.4070   -15.6850    34.0250     4.6940    59.6220   194.4340   205.6020   182.0610     2.1440 
  159.1250   150.5110   -15.7160    34.0870     4.8400    60.7730   196.6970   207.9550   178.0080     2.1380 
  159.2500   150.6150   -15.7470    34.1490     5.1180    61.9830   200.2230   211.2210   161.1770     2.1400 
  159.3750   150.7190   -15.7780    34.2110     5.7770    63.3430   204.2060   215.2520   159.2240     2.1470 
  159.5000   150.8230   -15.8090    34.2720     6.4980    63.1230   209.2860   219.8320   178.8220     2.1540 
  159.6250   150.9270   -15.8410    34.3340     7.3010    62.0630   214.2710   224.5100   171.4410     2.1560 
  159.7500   151.0310   -15.8720    34.3960     8.4370    61.3870   219.2130   228.5680   169.1340     2.1530 
  159.8750   151.1360   -15.9030    34.4580     9.0440    61.6020   222.1330   230.9480   201.1660     2.1540 
  160.0000   151.2400   -15.9340    34.5190     9.3220    61.4360   223.1680   231.4390   221.6650     2.1520 
  160.1250   151.3440   -15.9650    34.5810     9.6070    60.8040   222.3460   230.2780   226.2700     2.1460 
  160.2500   151.4480   -15.9970    34.6430    10.0920    59.7350   220.6000   228.6560   216.1070     2.1370 
  160.3750   151.5520   -16.0280    34.7050    10.5730    59.2350   218.0620   228.1650   186.7900     2.1330 
  160.5000   151.6560   -16.0590    34.7660    11.1300    58.7580   215.4620   227.9560   172.8420     2.1360 
  160.6250   151.7600   -16.0900    34.8280    11.7110    59.4600   214.4540   227.2160   183.4650     2.1380 
  160.7500   151.8640   -16.1210    34.8900    12.3670    60.8420   214.5910   226.8500   192.9730     2.1390 
  160.8750   151.9680   -16.1520    34.9520    13.0710    62.1700   214.8560   226.8810   200.3320     2.1400 
  161.0000   152.0720   -16.1830    35.0140    13.7300    62.9900   215.6170   227.0150   205.6870     2.1440 
  161.1250   152.1760   -16.2140    35.0760    14.2730    64.0710   216.0230   227.3180   203.0360     2.1480 
  161.2500   152.2800   -16.2450    35.1380    14.7240    65.2490   217.3940   228.0580   194.7150     2.1500 
  161.3750   152.3840   -16.2760    35.2000    14.8220    65.5680   218.8340   228.9800   187.3940     2.1490 
  161.5000   152.4880   -16.3080    35.2620    14.5480    65.4110   219.8620   229.6840   195.3150     2.1510 
  161.6250   152.5920   -16.3390    35.3240    14.0830    65.6540   220.3190   230.0010   211.2850     2.1500 
  161.7500   152.6960   -16.3700    35.3860    13.6660    66.2180   220.2000   229.8670   217.7620     2.1470 
  161.8750   152.8000   -16.4010    35.4480    13.1910    65.7250   219.5280   229.0960   213.5780     2.1460 
  162.0000   152.9040   -16.4320    35.5110    12.3570    63.5830   218.1120   227.6370   206.3600     2.1450 
  162.1250   153.0080   -16.4630    35.5730    11.0740    62.3180   215.9010   225.4550   201.0200     2.1450 
  162.2500   153.1120   -16.4950    35.6350     9.4380    62.8000   212.9250   222.7960   195.8370     2.1440 
  162.3750   153.2150   -16.5260    35.6970     7.6450    64.6410   209.8470   220.0970   193.1560     2.1440 
  162.5000   153.3190   -16.5570    35.7590     5.7690    65.5460   207.1770   217.9230   193.6660     2.1410 
