~V
VERS. 2.00: Ver 2.00
~W
STRT.M 44.0000:
STOP.M 206.0000:
STEP.M 0.1250:
NULL. -999.2500:
UWI. FD10808:
~C
DEPT.M :
TVD. :
DX. :
DY. :
SP.MV :
GR.API :
RI. :
RML.OHMM :
RXO.OHMM :
DEN.GM/CC :
~A
# ...
   53.1250    53.1240    -0.0470     0.1320    -2.8060    88.9140     3.2320     5.3310     4.5990     2.1780 
   53.2500    53.2490    -0.0470     0.1350    -2.6050    90.0720     3.0710     5.1400     4.2390     2.1700 
   53.3750    53.3740    -0.0480     0.1380    -2.6490    91.0570     3.1650     5.3650     3.8470     2.1850 
   53.5000    53.4990    -0.0490     0.1420    -3.1510    89.8450     3.4060     5.8310     3.9660     2.2100 
   53.6250    53.6240    -0.0500     0.1450    -4.1530    87.0840     3.6810     6.3310     5.0810     2.2380 
   53.7500    53.7490    -0.0500     0.1490    -5.3930    83.8340     3.8990     6.6490     6.0360     2.2410 
   53.8750    53.8730    -0.0510     0.1520    -6.2310    83.0000     3.9230     6.6530     5.7410     2.2170 
   54.0000    53.9980    -0.0520     0.1560    -6.5190    84.0180     3.8540     6.4950     5.2550     2.1820 
   54.1250    54.1230    -0.0530     0.1600    -6.6360    84.9410     3.8400     6.4690     4.9350     2.1640 
   54.2500    54.2480    -0.0530     0.1640    -6.9370    83.8440     4.0240     6.8100     4.8060     2.1550 
   54.3750    54.3730    -0.0540     0.1680    -7.5850    80.9210     4.4240     7.5930     9.4160     2.1470 
   54.5000    54.4980    -0.0550     0.1710    -8.5780    76.5870     4.9600     8.5570    19.5200     2.1310 
   54.6250    54.6230    -0.0560     0.1750    -9.7880    72.2280     5.3790     9.2250    23.2330     2.1190 
   54.7500    54.7480    -0.0560     0.1790   -11.0370    69.4270     5.4220     9.2640    16.3420     2.1130 
   54.8750    54.8730    -0.0570     0.1840   -12.1210    68.9500     5.1100     8.6470     9.2860     2.1190 
   55.0000    54.9980    -0.0580     0.1880   -12.8250    71.8030     4.5840     7.7440     6.6820     2.1370 
   55.1250    55.1230    -0.0590     0.1920   -13.2660    77.4910     4.1270     7.0180     5.5400     2.1610 
   55.2500    55.2480    -0.0600     0.1960   -13.7950    82.1770     3.9400     6.7060     5.1960     2.1750 
   55.3750    55.3730    -0.0610     0.2010   -14.7630    81.3730     3.9660     6.7700     5.8480     2.1670 
   55.5000    55.4980    -0.0620     0.2050   -15.9290    76.2890     4.1280     7.0670     6.3230     2.1470 
   55.6250    55.6230    -0.0630     0.2090   -16.7830    71.0010     4.4480     7.6750     6.5460     2.1440 
   55.7500    55.7470    -0.0630     0.2140   -17.1670    68.6270     5.0360     8.6620     7.2760     2.1830 
   55.8750    55.8720    -0.0640     0.2190   -17.1870    66.8360     5.7670     9.8560     7.9570     2.2820 
   56.0000    55.9970    -0.0650     0.2230   -17.0550    65.2300     6.3470    10.8220    13.0850     2.4050 
   56.1250    56.1220    -0.0660     0.2280   -16.8640    62.7100     6.5820    11.0700    23.8760     2.4790 
   56.2500    56.2470    -0.0670     0.2330   -16.6460    60.7330     6.2800    10.4910    24.2990     2.4480 
   56.3750    56.3720    -0.0680     0.2370   -16.4250    60.7220     5.7190     9.5270    12.9320     2.3220 
   56.5000    56.4970    -0.0690     0.2420   -16.2730    62.2420     5.3700     8.9330     6.8840     2.1860 
   56.6250    56.6220    -0.0700     0.2470   -15.9430    63.9540     5.4230     9.1710     7.0580     2.1270 
   56.7500    56.7470    -0.0710     0.2520   -15.4970    65.5280     5.8400    10.0650    11.3560     2.1660 
   56.8750    56.8720    -0.0720     0.2570   -14.9800    65.1640     6.3380    11.0380    24.8230     2.2570 
   57.0000    56.9960    -0.0730     0.2620   -14.5820    65.4910     6.5900    11.4420    31.9920     2.3120 
   57.1250    57.1210    -0.0740     0.2680   -14.6380    66.9680     6.3520    10.9750    20.2120     2.2750 
   57.2500    57.2460    -0.0750     0.2730   -15.1390    71.0760     5.8400    10.0030     8.8090     2.1930 
   57.3750    57.3710    -0.0760     0.2780   -15.8120    75.5060     5.3030     9.0550     7.3920     2.1220 
   57.5000    57.4960    -0.0770     0.2840   -16.5530    77.6430     4.9500     8.5130     8.1830     2.0880 
   57.6250    57.6210    -0.0780     0.2890   -17.3910    76.9320     4.9460     8.4630     8.1670     2.0690 
   57.7500    57.7460    -0.0790     0.2950   -18.1750    73.2550     5.0510     8.6390     7.4400     2.0560 
   57.8750    57.8710    -0.0800     0.3010   -18.7920    69.4930     5.1610     8.8330     7.1320     2.0500 
   58.0000    57.9950    -0.0810     0.3060   -19.2160    67.6830     5.2350     8.9890     7.2440     2.0530 
   58.1250    58.1200    -0.0820     0.3120   -19.5400    68.2240     5.2830     9.0940     7.3410     2.0620 
   58.2500    58.2450    -0.0830     0.3180   -19.7420    69.3780     5.2930     9.1200     7.4010     2.0750 
   58.3750    58.3700    -0.0840     0.3240   -19.7240    68.0620     5.2300     8.9980     7.4360     2.0860 
   58.5000    58.4950    -0.0850     0.3300   -19.5730    65.7830     5.0620     8.7260     7.4740     2.0890 
   58.6250    58.6200    -0.0860     0.3370   -19.2210    64.4660     4.8500     8.3820     7.6530     2.0710 
   58.7500    58.7450    -0.0880     0.3430   -18.7500    66.7490     4.6720     8.0860     7.6730     2.0380 
   58.8750    58.8690    -0.0890     0.3490   -18.3990    71.6600     4.5740     7.9340     7.2720     2.0060 
   59.0000    58.9940    -0.0900     0.3560   -18.4590    75.3650     4.5620     7.9560     7.2910     1.9950 
   59.1250    59.1190    -0.0910     0.3620   -18.9080    74.4730     4.6290     8.1230     8.1850     2.0070 
   59.2500    59.2440    -0.0920     0.3690   -19.5580    70.7220     4.7250     8.3310     8.6500     2.0320 
   59.3750    59.3690    -0.0940     0.3750   -19.9190    66.6830     4.8050     8.4750     8.2690     2.0520 
   59.5000    59.4930    -0.0950     0.3820   -19.9960    64.2340     4.8350     8.5060     7.9710     2.0640 
   59.6250    59.6180    -0.0960     0.3890   -19.8010    64.1060     4.8090     8.4270     7.8050     2.0720 
   59.7500    59.7430    -0.0980     0.3960   -19.4340    65.0540     4.7510     8.3190     7.6240     2.0780 
   59.8750    59.8680    -0.0990     0.4030   -19.0350    66.8930     4.7000     8.2400     7.6340     2.0800 
   60.0000    59.9930    -0.1000     0.4100   -18.5660    67.6840     4.6580     8.1910     7.7230     2.0760 
   60.1250    60.1170    -0.1020     0.4170   -18.1140    67.1980     4.6320     8.1680     7.6290     2.0680 
   60.2500    60.2420    -0.1030     0.4240   -17.8380    65.2940     4.6200     8.1650     7.6440     2.0660 
   60.3750    60.3670    -0.1040     0.4320   -17.7380    64.8880     4.6210     8.1910     7.8970     2.0690 
   60.5000    60.4920    -0.1060     0.4390   -17.6280    65.5400     4.6350     8.2470     7.9370     2.0750 
   60.6250    60.6170    -0.1070     0.4470   -17.4470    66.5000     4.6490     8.3010     7.8340     2.0800 
   60.7500    60.7410    -0.1090     0.4540   -17.1330    66.4720     4.6480     8.3080     7.8040     2.0840 
   60.8750    60.8660    -0.1100     0.4620   -16.7060    67.3760     4.6090     8.2290     7.8300     2.0870 
   61.0000    60.9910    -0.1120     0.4700   -16.2520    69.3520     4.5310     8.0740     7.8670     2.0860 
   61.1250    61.1160    -0.1130     0.4780   -15.7810    71.9870     4.4330     7.8900     7.7660     2.0810 
   61.2500    61.2400    -0.1150     0.4860   -15.3980    73.7180     4.3380     7.7330     7.7020     2.0750 
   61.3750    61.3650    -0.1160     0.4940   -15.0730    74.2680     4.2760     7.6500     7.8340     2.0720 
   61.5000    61.4900    -0.1180     0.5020   -14.8660    74.1170     4.2610     7.6460     8.0400     2.0730 
   61.6250    61.6140    -0.1200     0.5110   -14.6730    72.4950     4.2790     7.6870     8.1900     2.0750 
   61.7500    61.7390    -0.1210     0.5190   -14.2840    70.7000     4.3040     7.7130     8.1080     2.0840 
   61.8750    61.8640    -0.1230     0.5280   -13.6570    70.3750     4.2890     7.6780     7.7900     2.0950 
   62.0000    61.9880    -0.1250     0.5370   -12.9210    72.5420     4.2490     7.6240     7.3730     2.1150 
   62.1250    62.1130    -0.1270     0.5450   -12.1160    77.6190     4.2590     7.6500     6.8610     2.1410 
