~V
VERS. 2.00: Ver 2.00
~W
STRT.M 20.0000:
STOP.M 282.0000:
STEP.M 0.1250:
NULL. -999.2500:
UWI. FD10228:
~C
DEPT.M :
TVD. :
DX. :
DY. :
GR.API :
RML.OHMM :
RI. :
RXO.OHMM :
CALI.CM :
SP.MV :
DEN.GM/CC :
~A
# ...
  259.2500   254.7410    30.9110     5.7120    56.6620     9.6440     7.5140     7.9130    17.9940    -4.9740     2.3840 
  259.3750   254.8590    30.9530     5.7170    54.7330     9.5220     7.4700     7.4700    18.2760    -4.9720     2.3820 
  259.5000   254.9770    30.9940     5.7230    53.8250     9.2980     7.3720     7.2330    18.3450    -4.9560     2.3750 
  259.6250   255.0950    31.0360     5.7280    54.2960     9.0770     7.2530     6.9580    18.3600    -4.9410     2.3620 
  259.7500   255.2130    31.0770     5.7330    55.4150     8.9350     7.1510     6.5810    18.4260    -4.9380     2.3450 
  259.8750   255.3300    31.1180     5.7390    55.4330     8.8740     7.0840     6.3110    18.5830    -4.9170     2.3300 
  260.0000   255.4480    31.1600     5.7440    54.1230     8.8570     7.0580     6.1660    18.9260    -4.8960     2.3190 
  260.1250   255.5660    31.2010     5.7490    54.6190     8.8510     7.0750     6.1030    18.5740    -4.9480     2.3150 
  260.2500   255.6840    31.2430     5.7540    55.9490     8.8600     7.1240     6.1120    18.3460    -4.9910     2.3200 
  260.3750   255.8020    31.2840     5.7600    56.2630     8.9080     7.2060     6.1900    18.1680    -5.0150     2.3290 
  260.5000   255.9200    31.3250     5.7650    55.4510     9.0080     7.3240     6.3730    18.1050    -5.0670     2.3410 
  260.6250   256.0370    31.3670     5.7700    54.4270     9.1390     7.4690     6.5680    18.0870    -5.1040     2.3520 
  260.7500   256.1550    31.4080     5.7760    53.1600     9.2550     7.6060     6.7070    18.0860    -5.1110     2.3610 
  260.8750   256.2730    31.4490     5.7810    53.8710     9.3260     7.7070     6.8300    18.0860    -5.1260     2.3670 
  261.0000   256.3910    31.4910     5.7860    56.7110     9.3440     7.7490     6.9570    18.0860    -5.1600     2.3700 
  261.1250   256.5090    31.5320     5.7920    56.2020     9.3140     7.7310     6.9690    18.0860    -5.1390     2.3710 
  261.2500   256.6270    31.5740     5.7970    52.4420     9.2770     7.6990     6.9280    18.0860    -5.1210     2.3710 
  261.3750   256.7440    31.6150     5.8020    50.5200     9.2700     7.6890     7.0430    18.0860    -5.1390     2.3710 
  261.5000   256.8620    31.6560     5.8070    51.4330     9.3190     7.7290     7.3080    18.0860    -5.1550     2.3710 
  261.6250   256.9800    31.6980     5.8130    52.7670     9.4290     7.8330     7.7700    18.0860    -5.1520     2.3710 
  261.7500   257.0980    31.7390     5.8180    54.4180     9.5640     7.9750     7.8450    18.0840    -5.1580     2.3710 
  261.8750   257.2160    31.7810     5.8230    57.5120     9.6880     8.1260     7.6020    18.0750    -5.1830     2.3700 
  262.0000   257.3340    31.8220     5.8290    60.4200     9.7730     8.2570     7.5820    18.0470    -5.2040     2.3710 
  262.1250   257.4510    31.8630     5.8340    61.8360     9.8060     8.3420     7.5380    18.0840    -5.2340     2.3710 
  262.2500   257.5690    31.9050     5.8390    61.5940     9.8100     8.3870     7.4960    18.1130    -5.2720     2.3690 
  262.3750   257.6870    31.9460     5.8450    60.8130     9.7990     8.4030     7.4670    18.1930    -5.3200     2.3650 
  262.5000   257.8050    31.9870     5.8500    60.0370     9.7810     8.4030     7.4700    18.3160    -5.3700     2.3600 
  262.6250   257.9230    32.0290     5.8550    60.2310     9.7740     8.4060     7.3840    18.4300    -5.4040     2.3590 
  262.7500   258.0400    32.0700     5.8600    62.0740     9.8070     8.4330     7.3800    18.4600    -5.4380     2.3640 
  262.8750   258.1580    32.1120     5.8660    64.5430     9.9050     8.5000     7.5840    18.4240    -5.4810     2.3730 
  263.0000   258.2760    32.1530     5.8710    63.2990    10.0850     8.6160     7.8200    18.3340    -5.4990     2.3810 
  263.1250   258.3940    32.1940     5.8760    59.2940    10.3750     8.8130     7.8900    18.3260    -5.5030     2.3830 
  263.2500   258.5120    32.2360     5.8820    58.5730    10.7830     9.1160     7.8090    18.4000    -5.5300     2.3790 
  263.3750   258.6300    32.2770     5.8870    60.2870    11.3470     9.5720     7.8140    18.4640    -5.5300     2.3740 
  263.5000   258.7470    32.3190     5.8920    61.6270    12.1140    10.2240     8.0040    18.4370    -5.5000     2.3740 
  263.6250   258.8650    32.3600     5.8980    61.3610    13.1550    11.1240     8.6400    18.4290    -5.5200     2.3810 
  263.7500   258.9830    32.4010     5.9030    60.5520    14.3760    12.1860     9.9500    18.5570    -5.5620     2.3910 
  263.8750   259.1010    32.4430     5.9080    60.8200    15.6280    13.2970    11.5550    18.7710    -5.5760     2.3990 
  264.0000   259.2190    32.4840     5.9140    62.9420    16.7190    14.3110    12.6180    18.6470    -5.6050     2.4020 
  264.1250   259.3370    32.5260     5.9190    66.4260    17.4450    15.0680    13.4010    18.5620    -5.6940     2.4050 
  264.2500   259.4540    32.5670     5.9240    69.0820    17.8600    15.5860    13.9610    18.3960    -5.7640     2.4120 
  264.3750   259.5720    32.6080     5.9290    71.9500    18.0840    15.9330    14.3220    18.1370    -5.8070     2.4250 
  264.5000   259.6900    32.6500     5.9350    73.4710    18.2590    16.2110    14.6310    17.8360    -5.8740     2.4410 
  264.6250   259.8080    32.6910     5.9400    70.1510    18.4880    16.5170    14.6460    17.7390    -5.9460     2.4590 
  264.7500   259.9260    32.7320     5.9450    66.0260    18.7900    16.8720    14.3720    17.7970    -6.0090     2.4720 
  264.8750   260.0440    32.7740     5.9510    63.5970    19.1570    17.2540    13.9340    17.8200    -6.0670     2.4780 
  265.0000   260.1610    32.8150     5.9560    61.4170    19.5540    17.6200    13.5430    17.8310    -6.1380     2.4770 
  265.1250   260.2790    32.8570     5.9610    61.3160    19.8880    17.9050    13.3570    17.8730    -6.1790     2.4700 
  265.2500   260.3970    32.8980     5.9670    64.2940    20.0670    18.0800    13.3340    17.9120    -6.2360     2.4570 
  265.3750   260.5150    32.9390     5.9720    66.9470    20.0530    18.1300    13.4500    17.9090    -6.3250     2.4430 
  265.5000   260.6330    32.9810     5.9770    65.8090    19.8910    18.0760    13.6650    17.7500    -6.4070     2.4310 
  265.6250   260.7500    33.0230     5.9820    62.7100    19.7280    17.9960    13.9830    17.5630    -6.4700     2.4250 
  265.7500   260.8680    33.0650     5.9870    61.7910    19.7200    18.0140    14.1460    17.5010    -6.5300     2.4290 
  265.8750   260.9860    33.1070     5.9930    62.5710    19.9290    18.2260    14.0110    17.4940    -6.6030     2.4390 
  266.0000   261.1030    33.1480     5.9980    63.0910    20.3410    18.6670    14.1100    17.4930    -6.6640     2.4520 
  266.1250   261.2210    33.1900     6.0030    62.4350    20.8710    19.3010    15.8910    17.4880    -6.7040     2.4650 
  266.2500   261.3390    33.2320     6.0080    61.5220    21.3370    19.9410    19.3750    17.4940    -6.7200     2.4720 
  266.3750   261.4560    33.2740     6.0130    62.0180    21.5900    20.4060    21.1220    17.4990    -6.7310     2.4730 
  266.5000   261.5740    33.3160     6.0180    62.5460    21.5520    20.5690    20.2370    17.5210    -6.7630     2.4700 
  266.6250   261.6920    33.3580     6.0230    62.0220    21.2290    20.3740    18.0110    17.5630    -6.7780     2.4640 
  266.7500   261.8090    33.4000     6.0290    62.2410    20.8160    20.0110    17.0610    17.5700    -6.7730     2.4590 
  266.8750   261.9270    33.4420     6.0340    64.5910    20.4690    19.6430    16.0910    17.5710    -6.7670     2.4560 
  267.0000   262.0450    33.4840     6.0390    67.3660    20.2980    19.3980    15.2970    17.5710    -6.7400     2.4540 
  267.1250   262.1620    33.5260     6.0440    69.3480    20.3620    19.3570    15.2040    17.5740    -6.7200     2.4520 
  267.2500   262.2800    33.5670     6.0490    71.3540    20.5770    19.4520    15.2800    17.5750    -6.7000     2.4470 
  267.3750   262.3980    33.6090     6.0540    71.6920    20.8470    19.6080    15.6460    17.5710    -6.7080     2.4400 
