~V
VERS. 2.00: Ver 2.00
~W
STRT.M 55.0000:
STOP.M 289.0000:
STEP.M 0.1250:
NULL. -999.2500:
UWI. FD10909:
~C
DEPT.M :
TVD. :
DX. :
DY. :
SP.MV :
GR.API :
RI. :
RML.OHMM :
RXO.OHMM :
DEN.GM/CC :
~A
# ...
  118.8750   118.5240     5.3520     0.5150   -10.3280    88.6900     3.5450     4.2360     4.3300     2.2670 
  119.0000   118.6460     5.3770     0.5200   -10.3370    90.6420     3.4850     4.1720     4.0090     2.2880 
  119.1250   118.7680     5.4030     0.5250   -10.3560    91.8770     3.5820     4.2760     3.7430     2.3000 
  119.2500   118.8900     5.4280     0.5300   -10.3740    91.9460     3.9450     4.6630     4.7870     2.2890 
  119.3750   119.0130     5.4540     0.5350   -10.4060    88.0570     4.5360     5.2940     9.3760     2.2550 
  119.5000   119.1350     5.4800     0.5400   -10.5000    82.6930     5.2040     6.0080    16.0270     2.2080 
  119.6250   119.2570     5.5050     0.5450   -10.6930    76.8060     5.7460     6.5860    17.7380     2.1690 
  119.7500   119.3790     5.5310     0.5500   -10.9990    72.9260     5.9950     6.8520    13.0430     2.1480 
  119.8750   119.5020     5.5570     0.5550   -11.3800    70.0040     5.9570     6.8120     8.6540     2.1420 
  120.0000   119.6240     5.5830     0.5600   -11.7790    68.7250     5.7340     6.5740     7.2790     2.1430 
  120.1250   119.7460     5.6090     0.5660   -12.1390    68.7580     5.4990     6.3230     7.0000     2.1420 
  120.2500   119.8680     5.6350     0.5710   -12.4070    69.3800     5.3620     6.1760     6.9530     2.1390 
  120.3750   119.9900     5.6610     0.5760   -12.5690    68.7750     5.3220     6.1340     6.8680     2.1370 
  120.5000   120.1120     5.6870     0.5810   -12.6120    68.2670     5.3010     6.1120     6.5510     2.1380 
  120.6250   120.2340     5.7130     0.5870   -12.5490    68.9510     5.2100     6.0150     6.2860     2.1460 
  120.7500   120.3570     5.7390     0.5920   -12.3790    70.4190     5.0240     5.8150     6.2950     2.1660 
  120.8750   120.4790     5.7660     0.5970   -12.1220    70.1120     4.7880     5.5630     6.2640     2.1990 
  121.0000   120.6010     5.7920     0.6030   -11.7830    70.0950     4.5610     5.3210     5.7650     2.2370 
  121.1250   120.7230     5.8180     0.6080   -11.3900    72.9820     4.3940     5.1420     5.0960     2.2640 
  121.2500   120.8450     5.8450     0.6140   -10.9720    79.3070     4.2950     5.0370     4.9490     2.2660 
  121.3750   120.9670     5.8710     0.6190   -10.5720    84.4550     4.2340     4.9710     5.2050     2.2530 
  121.5000   121.0890     5.8980     0.6250   -10.2290    85.9230     4.1770     4.9110     5.2480     2.2430 
  121.6250   121.2110     5.9250     0.6300    -9.9470    85.0750     4.0980     4.8260     4.8790     2.2450 
  121.7500   121.3330     5.9520     0.6360    -9.7140    84.3920     3.9880     4.7100     4.5720     2.2560 
  121.8750   121.4550     5.9790     0.6410    -9.4930    85.4030     3.8810     4.5950     4.4620     2.2690 
  122.0000   121.5770     6.0060     0.6470    -9.2560    88.4990     3.8130     4.5220     4.3790     2.2810 
  122.1250   121.6990     6.0330     0.6520    -8.9950    91.8110     3.7810     4.4890     4.2270     2.2900 
  122.2500   121.8200     6.0600     0.6580    -8.7150    94.5610     3.7700     4.4760     4.1100     2.2940 
  122.3750   121.9420     6.0870     0.6630    -8.4350    95.5780     3.7540     4.4590     4.1190     2.2930 
  122.5000   122.0640     6.1140     0.6690    -8.1750    96.9720     3.7170     4.4200     4.2370     2.2930 
  122.6250   122.1860     6.1410     0.6740    -7.9490    97.1270     3.6740     4.3740     4.4130     2.3000 
  122.7500   122.3080     6.1690     0.6800    -7.7780    97.5570     3.6440     4.3420     4.5180     2.3170 
  122.8750   122.4300     6.1960     0.6860    -7.6660    97.8190     3.6540     4.3530     4.4840     2.3390 
  123.0000   122.5520     6.2230     0.6920    -7.6220    97.4100     3.7400     4.4450     4.5520     2.3600 
  123.1250   122.6730     6.2510     0.6970    -7.6360    94.9310     3.8940     4.6090     4.8780     2.3680 
  123.2500   122.7950     6.2780     0.7030    -7.6990    90.9440     4.0960     4.8240     5.4320     2.3630 
  123.3750   122.9170     6.3060     0.7090    -7.7930    87.5730     4.3300     5.0740     6.0460     2.3520 
  123.5000   123.0390     6.3330     0.7150    -7.9070    85.7200     4.5550     5.3150     6.1840     2.3430 
  123.6250   123.1600     6.3610     0.7210    -8.0330    84.1070     4.7000     5.4690     6.0010     2.3370 
  123.7500   123.2820     6.3890     0.7270    -8.1680    83.2790     4.7160     5.4870     6.4440     2.3260 
  123.8750   123.4040     6.4170     0.7330    -8.3000    82.4950     4.5970     5.3600     6.9630     2.3050 
  124.0000   123.5260     6.4440     0.7390    -8.4100    84.3710     4.3510     5.0970     6.2800     2.2780 
  124.1250   123.6470     6.4720     0.7450    -8.4770    87.2560     4.0630     4.7890     5.0870     2.2560 
  124.2500   123.7690     6.5000     0.7510    -8.4880    90.8730     3.7920     4.4990     4.5390     2.2490 
  124.3750   123.8910     6.5280     0.7570    -8.4550    93.0390     3.5760     4.2700     4.4720     2.2550 
  124.5000   124.0120     6.5560     0.7630    -8.3930    94.2400     3.4640     4.1490     4.3950     2.2720 
  124.6250   124.1340     6.5840     0.7690    -8.3190    95.8320     3.4420     4.1260     4.2290     2.2970 
  124.7500   124.2560     6.6130     0.7750    -8.2500    97.0780     3.4900     4.1770     4.1260     2.3240 
  124.8750   124.3770     6.6410     0.7810    -8.2050    98.4240     3.5890     4.2830     4.2800     2.3380 
  125.0000   124.4990     6.6690     0.7870    -8.2150    99.6830     3.7300     4.4330     4.7330     2.3270 
  125.1250   124.6210     6.6970     0.7930    -8.2950   101.2590     3.8840     4.5980     5.0580     2.2960 
  125.2500   124.7420     6.7260     0.7990    -8.4470    99.9070     4.0260     4.7500     4.9680     2.2640 
  125.3750   124.8640     6.7540     0.8050    -8.6410    96.1360     4.1420     4.8740     4.7730     2.2430 
  125.5000   124.9850     6.7830     0.8120    -8.8400    92.2450     4.2320     4.9700     4.7390     2.2320 
  125.6250   125.1070     6.8110     0.8180    -9.0100    91.2920     4.3190     5.0630     4.8660     2.2220 
  125.7500   125.2280     6.8400     0.8240    -9.1400    91.1230     4.4220     5.1730     5.0160     2.2100 
  125.8750   125.3500     6.8680     0.8310    -9.2420    89.9480     4.5220     5.2790     5.0330     2.2000 
  126.0000   125.4710     6.8970     0.8370    -9.3340    86.4220     4.5710     5.3320     5.0450     2.1950 
  126.1250   125.5930     6.9260     0.8440    -9.4190    84.6850     4.5470     5.3060     5.1720     2.1980 
  126.2500   125.7140     6.9550     0.8500    -9.4800    85.8970     4.4460     5.1990     5.2390     2.2120 
  126.3750   125.8360     6.9840     0.8570    -9.4940    88.0530     4.3020     5.0440     5.1730     2.2270 
  126.5000   125.9570     7.0120     0.8630    -9.4400    89.1570     4.1610     4.8940     5.0550     2.2320 
  126.6250   126.0790     7.0410     0.8700    -9.3300    88.8090     4.1280     4.8580     4.9320     2.2320 
  126.7500   126.2000     7.0700     0.8770    -9.1870    89.6850     4.3240     5.0680     4.8250     2.2520 
  126.8750   126.3210     7.1000     0.8830    -9.0540    90.4910     4.7330     5.5040     5.1560     2.3030 
  127.0000   126.4430     7.1290     0.8900    -8.9510    89.5180     5.2590     6.0660     8.2800     2.3690 
  127.1250   126.5640     7.1580     0.8970    -8.8690    86.1060     5.7300     6.5700    14.9340     2.4100 
  127.2500   126.6850     7.1870     0.9040    -8.7820    82.8380     5.9480     6.8020    18.8770     2.3960 
  127.3750   126.8070     7.2160     0.9100    -8.6770    81.8560     5.8490     6.6960    15.2330     2.3440 
  127.5000   126.9280     7.2460     0.9170    -8.5660    83.2160     5.4850     6.3080     8.9460     2.2850 
  127.6250   127.0490     7.2750     0.9240    -8.4710    85.2880     5.0400     5.8330     5.7630     2.2430 
  127.7500   127.1710     7.3040     0.9310    -8.4140    86.8520     4.7040     5.4740     5.0950     2.2230 
  127.8750   127.2920     7.3340     0.9380    -8.3910    88.8310     4.5560     5.3160     5.0250     2.2170 
