~V
VERS. 2.00: Ver 2.00
~W
STRT.M 25.0000:
STOP.M 295.0000:
STEP.M 0.1250:
NULL. -999.2500:
UWI. FD10906:
~C
DEPT.M :
TVD. :
DX. :
DY. :
SP.MV :
GR.API :
RI. :
RML.OHMM :
RXO.OHMM :
DEN.GM/CC :
~A
# ...
  253.1250   221.9510  -102.9400     6.1240   -18.6750    78.8380     3.6190     4.2220     6.0570     2.3790 
  253.2500   222.0510  -103.0150     6.1310   -18.8790    78.0360     3.6620     4.2030     6.6590     2.3620 
  253.3750   222.1500  -103.0910     6.1390   -19.1430    80.2530     3.5980     4.0580     6.0160     2.3390 
  253.5000   222.2490  -103.1660     6.1470   -19.5240    82.6350     3.4860     3.8700     5.0740     2.3190 
  253.6250   222.3490  -103.2420     6.1540   -20.0530    84.8930     3.4150     3.7430     4.7620     2.3000 
  253.7500   222.4480  -103.3170     6.1620   -20.7700    83.5520     3.4670     3.7670     5.1110     2.2750 
  253.8750   222.5470  -103.3930     6.1700   -21.6820    79.9670     3.6620     3.9720     5.7390     2.2440 
  254.0000   222.6460  -103.4680     6.1780   -22.8270    74.6760     4.0120     4.3810     6.4070     2.2090 
  254.1250   222.7460  -103.5440     6.1850   -24.2160    68.9620     4.4750     4.9280     7.4080     2.1790 
  254.2500   222.8450  -103.6200     6.1930   -25.8860    62.6320     4.9810     5.4870     9.6660     2.1600 
  254.3750   222.9440  -103.6950     6.2000   -27.7870    57.2570     5.4070     5.9040    12.9980     2.1490 
  254.5000   223.0440  -103.7710     6.2080   -29.7800    55.6500     5.6240     6.0530    15.6140     2.1430 
  254.6250   223.1430  -103.8460     6.2160   -31.5990    57.4700     5.6030     5.9580    16.0580     2.1400 
  254.7500   223.2420  -103.9220     6.2230   -32.9210    59.8630     5.3860     5.7130    14.8300     2.1410 
  254.8750   223.3410  -103.9970     6.2300   -33.6490    61.7250     5.1070     5.4330    13.4970     2.1450 
  255.0000   223.4410  -104.0730     6.2370   -33.8680    61.9050     4.8800     5.1970    12.6760     2.1470 
  255.1250   223.5400  -104.1490     6.2440   -33.9150    62.8360     4.7650     5.0800    12.5220     2.1450 
  255.2500   223.6390  -104.2240     6.2500   -34.0950    63.9040     4.7850     5.1210    12.8740     2.1430 
  255.3750   223.7390  -104.3000     6.2570   -34.5250    64.4860     4.8980     5.2640    13.0210     2.1440 
  255.5000   223.8380  -104.3760     6.2630   -35.1440    63.8820     5.0560     5.4460    13.0320     2.1470 
  255.6250   223.9370  -104.4510     6.2680   -35.7740    61.9990     5.2070     5.6120    13.6080     2.1500 
  255.7500   224.0370  -104.5270     6.2740   -36.2780    62.0530     5.3220     5.7260    14.3040     2.1530 
  255.8750   224.1360  -104.6030     6.2790   -36.6180    61.7640     5.3890     5.7770    14.1560     2.1570 
  256.0000   224.2350  -104.6780     6.2830   -36.7770    62.2510     5.4030     5.7610    13.5550     2.1650 
  256.1250   224.3350  -104.7540     6.2870   -36.7660    63.0890     5.3920     5.7200    13.1860     2.1740 
  256.2500   224.4340  -104.8300     6.2910   -36.5540    65.7360     5.4050     5.7160    12.3640     2.1800 
  256.3750   224.5330  -104.9060     6.2950   -36.1720    69.6660     5.4790     5.7920    10.8350     2.1810 
  256.5000   224.6320  -104.9820     6.2980   -35.6840    71.2490     5.6350     5.9710     9.8510     2.1750 
  256.6250   224.7320  -105.0580     6.3010   -35.2120    72.0890     5.8520     6.2270     9.9780     2.1690 
  256.7500   224.8310  -105.1330     6.3030   -34.8920    71.8550     6.0940     6.5170    10.2770     2.1650 
  256.8750   224.9300  -105.2090     6.3050   -34.7970    72.2030     6.3060     6.7710    10.1450     2.1640 
  257.0000   225.0300  -105.2850     6.3070   -34.9390    71.1060     6.4480     6.9420    10.2230     2.1660 
  257.1250   225.1290  -105.3610     6.3080   -35.2170    69.2250     6.5370     7.0490    10.9860     2.1700 
  257.2500   225.2280  -105.4370     6.3090   -35.5140    69.7610     6.6240     7.1470    11.7510     2.1770 
  257.3750   225.3280  -105.5130     6.3100   -35.7380    69.5130     6.7800     7.3180    11.8760     2.1840 
  257.5000   225.4270  -105.5890     6.3110   -35.8820    68.5780     7.0940     7.6630    11.9360     2.1860 
  257.6250   225.5260  -105.6650     6.3110   -36.0250    63.9160     7.6120     8.2350    12.5190     2.1820 
  257.7500   225.6250  -105.7410     6.3110   -36.2700    60.7120     8.3450     9.0400    13.3630     2.1730 
  257.8750   225.7250  -105.8170     6.3110   -36.6530    58.7890     9.1880     9.9540    13.9130     2.1630 
  258.0000   225.8240  -105.8930     6.3100   -37.1190    57.6530    10.0140    10.8240    14.1500     2.1510 
  258.1250   225.9230  -105.9690     6.3100   -37.5410    57.5280    10.7160    11.5360    16.4380     2.1420 
  258.2500   226.0230  -106.0450     6.3100   -37.8100    58.4310    11.2440    12.0440    24.7270     2.1380 
  258.3750   226.1220  -106.1200     6.3090   -37.9190    60.7940    11.6210    12.3960    34.2220     2.1380 
  258.5000   226.2210  -106.1960     6.3080   -37.9110    62.0280    11.8720    12.6360    34.3250     2.1420 
  258.6250   226.3210  -106.2720     6.3070   -37.8580    62.1580    12.0620    12.8430    27.1520     2.1480 
  258.7500   226.4200  -106.3480     6.3070   -37.7870    60.6910    12.2460    13.0770    22.1910     2.1510 
  258.8750   226.5190  -106.4240     6.3060   -37.6990    59.4740    12.4510    13.3530    21.2900     2.1550 
  259.0000   226.6180  -106.5000     6.3050   -37.5880    59.3960    12.6860    13.6650    21.2490     2.1610 
  259.1250   226.7180  -106.5760     6.3040   -37.4540    60.6170    12.9720    14.0130    20.4830     2.1690 
  259.2500   226.8170  -106.6520     6.3040   -37.2970    61.2780    13.3660    14.4310    19.6760     2.1730 
  259.3750   226.9160  -106.7280     6.3040   -37.1210    60.6660    13.9130    14.9660    19.6720     2.1730 
  259.5000   227.0160  -106.8040     6.3040   -36.9270    59.4220    14.6700    15.6950    20.0910     2.1700 
  259.6250   227.1150  -106.8790     6.3030   -36.7180    57.5530    15.6060    16.6040    20.4460     2.1690 
  259.7500   227.2150  -106.9550     6.3030   -36.4820    56.2080    16.6180    17.5930    21.4200     2.1740 
  259.8750   227.3140  -107.0310     6.3020   -36.2080    55.3930    17.5370    18.4700    23.1610     2.1800 
  260.0000   227.4130  -107.1070     6.3020   -35.8930    55.5320    18.1670    19.0230    24.4780     2.1820 
  260.1250   227.5130  -107.1830     6.3010   -35.5620    55.7360    18.4370    19.1900    24.6600     2.1800 
  260.2500   227.6120  -107.2580     6.3010   -35.2500    57.4250    18.3630    19.0180    25.2910     2.1810 
  260.3750   227.7120  -107.3340     6.3010   -34.9740    60.4950    18.1060    18.7190    27.1190     2.1850 
  260.5000   227.8110  -107.4100     6.3000   -34.7270    63.9160    17.8480    18.5030    26.6300     2.1900 
  260.6250   227.9100  -107.4860     6.3000   -34.4740    64.1350    17.7600    18.5000    22.7980     2.1930 
  260.7500   228.0100  -107.5610     6.3000   -34.1920    62.4350    17.9520    18.7490    19.5310     2.1930 
  260.8750   228.1090  -107.6370     6.3000   -33.8910    59.6240    18.3920    19.1800    18.6830     2.1890 
  261.0000   228.2090  -107.7130     6.3000   -33.6120    59.1560    18.9920    19.7340    18.9250     2.1830 
  261.1250   228.3080  -107.7880     6.3000   -33.3890    59.5190    19.5910    20.3020    19.1620     2.1760 
  261.2500   228.4080  -107.8640     6.3000   -33.2430    60.5670    20.0410    20.7380    19.2890     2.1740 
  261.3750   228.5070  -107.9400     6.3000   -33.1420    60.9400    20.2870    20.9440    19.8420     2.1760 
  261.5000   228.6070  -108.0150     6.3000   -33.0490    60.2050    20.3660    20.9210    20.8080     2.1800 
  261.6250   228.7060  -108.0910     6.3000   -32.9440    59.0260    20.4490    20.8590    20.5350     2.1830 
  261.7500   228.8060  -108.1670     6.3010   -32.8460    57.7180    20.7450    21.0140    18.5090     2.1860 
  261.8750   228.9050  -108.2420     6.3010   -32.7960    58.2950    21.4170    21.6000    16.9700     2.1860 
  262.0000   229.0050  -108.3180     6.3010   -32.8330    60.0980    22.7020    22.8890    17.3610     2.1850 
  262.1250   229.1040  -108.3940     6.3010   -32.9410    60.4210    24.7460    24.9800    18.8600     2.1870 
