~V
VERS. 2.00: Ver 2.00
~W
STRT.M 15.0000:
STOP.M 236.0000:
STEP.M 0.1250:
NULL. -999.2500:
UWI. FD10614:
~C
DEPT.M :
TVD. :
DX. :
DY. :
DEN.GM/CC :
GR.API :
RML.OHMM :
RI. :
RXO.OHMM :
CALI.CM :
SP.MV :
~A
# ...
   39.7500    39.7320    -0.1030    -0.5700     2.3090    78.3880     8.8950     7.3150    13.8020    26.3070   -21.7320 
   39.8750    39.8560    -0.1000    -0.5740     2.3750    74.2040    10.1460     8.4620    19.4480    26.3480   -21.9080 
   40.0000    39.9810    -0.0980    -0.5780     2.2800    72.3760    10.7590     9.1750    16.0570    26.4720   -22.4020 
   40.1250    40.1060    -0.0960    -0.5820     2.2020    70.1570    10.3980     9.0100    10.5540    26.6770   -23.3180 
   40.2500    40.2310    -0.0930    -0.5860     2.1440    66.5120     9.5070     8.3280     8.4410    26.8870   -24.5130 
   40.3750    40.3560    -0.0910    -0.5900     2.1090    61.8580     8.5560     7.5540     7.7730    27.0590   -25.8080 
   40.5000    40.4800    -0.0880    -0.5940     2.0890    58.4380     7.8900     6.9770     7.8970    27.1480   -26.9980 
   40.6250    40.6050    -0.0860    -0.5980     2.0700    59.6250     7.6540     6.7280     8.3060    27.1420   -27.9090 
   40.7500    40.7300    -0.0840    -0.6020     2.0490    62.3620     7.6680     6.6830     8.1180    27.1230   -28.5630 
   40.8750    40.8550    -0.0810    -0.6060     2.0330    63.9680     7.7860     6.7370     7.5860    27.0780   -28.9310 
   41.0000    40.9800    -0.0790    -0.6110     2.0310    64.2700     7.9020     6.8070     7.3010    26.9420   -29.0000 
   41.1250    41.1040    -0.0760    -0.6150     2.0500    66.4680     7.9370     6.8280     7.2780    26.7350   -28.7800 
   41.2500    41.2290    -0.0740    -0.6190     2.0800    71.3880     7.8800     6.7810     7.3750    26.6080   -28.4040 
   41.3750    41.3540    -0.0720    -0.6230     2.1110    77.0780     7.7360     6.6660     7.4780    26.5730   -27.9390 
   41.5000    41.4790    -0.0690    -0.6270     2.1350    81.6190     7.5390     6.5040     7.5080    26.6650   -27.5130 
   41.6250    41.6040    -0.0670    -0.6310     2.1450    81.6160     7.3490     6.3390     7.2330    26.7760   -27.2450 
   41.7500    41.7280    -0.0640    -0.6350     2.1420    79.4380     7.2290     6.2180     6.7020    26.8870   -27.1420 
   41.8750    41.8530    -0.0620    -0.6390     2.1290    77.2630     7.2220     6.1680     6.3640    26.9810   -27.2310 
   42.0000    41.9780    -0.0600    -0.6430     2.1120    73.9350     7.3410     6.2000     6.4370    27.0590   -27.5620 
   42.1250    42.1030    -0.0570    -0.6470     2.0990    68.8830     7.5720     6.3070     7.1500    27.1460   -28.1290 
   42.2500    42.2280    -0.0550    -0.6510     2.0930    63.1890     7.8290     6.4420     7.4760    27.1910   -28.8590 
   42.3750    42.3520    -0.0520    -0.6550     2.0880    58.8930     8.0390     6.5670     7.5390    27.1880   -29.6790 
   42.5000    42.4770    -0.0500    -0.6590     2.0780    56.3310     8.1500     6.6520     7.5010    27.1400   -30.4730 
   42.6250    42.6020    -0.0470    -0.6640     2.0620    56.3570     8.1320     6.6780     7.3970    27.0690   -31.1630 
   42.7500    42.7270    -0.0450    -0.6680     2.0490    58.9480     8.0400     6.6600     7.4190    26.9800   -31.6790 
   42.8750    42.8520    -0.0430    -0.6720     2.0470    62.7730     7.9250     6.6180     7.4800    26.8730   -32.0470 
   43.0000    42.9760    -0.0400    -0.6760     2.0580    65.3670     7.8300     6.5770     7.6290    26.7910   -32.2920 
   43.1250    43.1010    -0.0380    -0.6800     2.0780    64.6500     7.7910     6.5580     7.5820    26.7620   -32.4440 
   43.2500    43.2260    -0.0350    -0.6840     2.0920    63.4130     7.8130     6.5750     7.6830    26.7580   -32.5110 
   43.3750    43.3510    -0.0330    -0.6880     2.0970    64.6020     7.8960     6.6340     7.8970    26.7560   -32.4930 
   43.5000    43.4760    -0.0310    -0.6920     2.0960    68.1560     8.0270     6.7270     7.9410    26.7470   -32.4680 
   43.6250    43.6000    -0.0280    -0.6960     2.0940    70.7180     8.1760     6.8400     7.8880    26.7260   -32.4490 
   43.7500    43.7250    -0.0260    -0.7000     2.0930    70.1640     8.2910     6.9380     8.1530    26.7000   -32.4440 
   43.8750    43.8500    -0.0230    -0.7040     2.0930    68.9430     8.3300     6.9870     8.5620    26.6890   -32.4010 
   44.0000    43.9750    -0.0210    -0.7080     2.0910    68.7530     8.2660     6.9560     8.6780    26.6810   -32.2850 
   44.1250    44.1000    -0.0190    -0.7120     2.0860    69.2100     8.0860     6.8200     8.5590    26.6580   -32.0030 
   44.2500    44.2240    -0.0160    -0.7170     2.0780    70.1050     7.8490     6.6190     8.5170    26.6030   -31.5700 
   44.3750    44.3490    -0.0140    -0.7210     2.0690    72.7910     7.6020     6.3920     8.1560    26.5160   -31.0510 
   44.5000    44.4740    -0.0110    -0.7250     2.0630    78.0550     7.3920     6.1860     7.4550    26.4020   -30.4950 
   44.6250    44.5990    -0.0090    -0.7290     2.0650    83.0430     7.2670     6.0490     7.0590    26.2620   -29.9290 
   44.7500    44.7240    -0.0070    -0.7330     2.0760    84.4180     7.2190     5.9830     6.9530    26.1430   -29.3560 
   44.8750    44.8480    -0.0040    -0.7370     2.0910    82.2050     7.2310     5.9750     6.9560    26.0630   -28.8570 
   45.0000    44.9730    -0.0020    -0.7410     2.1050    80.2580     7.2730     6.0030     7.0100    26.0350   -28.4220 
   45.1250    45.0980     0.0010    -0.7450     2.1070    81.4440     7.2900     6.0290     7.1750    26.0470   -28.1220 
   45.2500    45.2230     0.0030    -0.7490     2.1020    84.5680     7.2450     6.0090     7.2350    26.0820   -27.9530 
   45.3750    45.3480     0.0060    -0.7530     2.0960    87.8170     7.1240     5.9230     7.1460    26.1000   -27.9110 
   45.5000    45.4720     0.0080    -0.7570     2.0960    89.5600     6.9520     5.7860     7.0630    26.0970   -27.9070 
   45.6250    45.5970     0.0100    -0.7610     2.1050    87.5950     6.7890     5.6430     6.8200    26.0770   -27.8930 
   45.7500    45.7220     0.0130    -0.7650     2.1170    83.4460     6.6980     5.5480     6.3880    26.0540   -27.9670 
   45.8750    45.8470     0.0150    -0.7690     2.1210    79.1930     6.7180     5.5340     6.2810    26.0680   -28.1520 
   46.0000    45.9720     0.0180    -0.7740     2.1150    74.9950     6.8530     5.6110     6.9510    26.1340   -28.4290 
   46.1250    46.0960     0.0200    -0.7780     2.1020    72.2410     7.0750     5.7660     7.2370    26.2300   -28.7150 
   46.2500    46.2210     0.0220    -0.7820     2.0920    71.1150     7.3060     5.9410     7.4250    26.3150   -28.9970 
   46.3750    46.3460     0.0250    -0.7860     2.0930    71.5300     7.4910     6.0950     7.4080    26.3990   -29.2310 
   46.5000    46.4710     0.0270    -0.7900     2.1030    72.2180     7.6060     6.2010     7.4540    26.4850   -29.4160 
   46.6250    46.5960     0.0300    -0.7940     2.1110    71.4070     7.6540     6.2510     7.6740    26.5790   -29.5500 
   46.7500    46.7200     0.0320    -0.7980     2.1090    69.9770     7.6840     6.2800     7.9650    26.6980   -29.5990 
   46.8750    46.8450     0.0340    -0.8020     2.0960    68.4030     7.7250     6.3100     8.1730    26.8190   -29.5270 
   47.0000    46.9700     0.0370    -0.8060     2.0760    67.3730     7.7870     6.3510     8.3510    26.8780   -29.3810 
   47.1250    47.0950     0.0390    -0.8100     2.0620    66.2560     7.8620     6.3980     8.4220    26.7640   -29.2420 
   47.2500    47.2200     0.0420    -0.8140     2.0610    64.4950     7.9320     6.4410     8.3740    26.5560   -29.1730 
   47.3750    47.3440     0.0440    -0.8180     2.0760    63.4250     7.9870     6.4760     8.3430    26.3780   -29.1460 
   47.5000    47.4690     0.0470    -0.8220     2.1050    64.1600     8.0220     6.5010     8.3170    26.2110   -29.1130 
   47.6250    47.5940     0.0490    -0.8270     2.1320    64.5800     8.0350     6.5180     8.2390    26.0290   -29.1010 
   47.7500    47.7190     0.0510    -0.8310     2.1420    63.8010     8.0380     6.5340     8.3370    25.9340   -29.1160 
   47.8750    47.8440     0.0540    -0.8350     2.1280    63.6180     8.0420     6.5540     8.6310    25.9070   -29.1110 
