~V
VERS. 2.00: Ver 2.00
~W
STRT.M 32.0000:
STOP.M 275.0000:
STEP.M 0.1250:
NULL. -999.2500:
UWI. FD10902:
~C
DEPT.M :
TVD. :
DX. :
DY. :
SP.MV :
GR.API :
RI. :
RML.OHMM :
RXO.OHMM :
DEN.GM/CC :
~A
# ...
  114.1250   112.7130    12.5950    -3.4050    -4.2510    87.5530     4.7190     5.9720     4.4160     2.2950 
  114.2500   112.8310    12.6350    -3.4170    -4.3660    86.6510     4.9690     6.2640     4.8140     2.3200 
  114.3750   112.9490    12.6750    -3.4290    -4.3560    85.7020     5.1600     6.4900     4.7830     2.3100 
  114.5000   113.0670    12.7140    -3.4410    -4.1260    86.1220     5.2360     6.5900     4.7940     2.2890 
  114.6250   113.1850    12.7540    -3.4520    -3.8410    86.0270     5.2240     6.5770     5.0840     2.2520 
  114.7500   113.3030    12.7940    -3.4640    -3.7430    87.0170     5.0690     6.3520     5.1120     2.2070 
  114.8750   113.4200    12.8340    -3.4760    -3.5730    86.2630     4.8460     6.0390     5.0290     2.1790 
  115.0000   113.5380    12.8740    -3.4870    -3.2070    87.6190     4.7440     5.8870     5.0350     2.1980 
  115.1250   113.6560    12.9140    -3.4990    -2.7260    88.5950     4.7200     5.8520     5.0060     2.2630 
  115.2500   113.7740    12.9540    -3.5110    -2.2940    91.1670     4.8010     5.9800     6.0170     2.3230 
  115.3750   113.8920    12.9940    -3.5230    -1.9190    92.6960     4.9080     6.1320     7.6270     2.3400 
  115.5000   114.0100    13.0340    -3.5350    -1.5990    94.6550     5.0060     6.2400     7.1160     2.3070 
  115.6250   114.1280    13.0740    -3.5460    -1.2540    93.4350     5.0450     6.2330     5.4370     2.2630 
  115.7500   114.2450    13.1140    -3.5580    -0.8090    90.5610     4.9960     6.1410     5.2420     2.2320 
  115.8750   114.3630    13.1530    -3.5700    -0.2340    86.2880     4.9320     6.0580     6.0020     2.1970 
  116.0000   114.4810    13.1930    -3.5820     0.3640    86.3700     4.8060     5.9100     5.9670     2.1720 
  116.1250   114.5990    13.2330    -3.5940     0.8650    87.8360     4.6800     5.7410     5.3030     2.1720 
  116.2500   114.7170    13.2730    -3.6050     1.1580    91.3780     4.5040     5.4600     5.0650     2.1990 
  116.3750   114.8350    13.3130    -3.6170     1.4070    93.8390     4.3830     5.2370     4.9520     2.2340 
  116.5000   114.9530    13.3530    -3.6290     1.6750    95.4900     4.4690     5.3130     4.6560     2.2880 
  116.6250   115.0710    13.3930    -3.6410     1.9220    95.9240     4.7580     5.6910     5.0380     2.3590 
  116.7500   115.1880    13.4330    -3.6530     2.0760    95.5230     5.1630     6.2330     7.8530     2.4010 
  116.8750   115.3060    13.4730    -3.6640     2.1700    94.1210     5.5050     6.6750    10.5790     2.3760 
  117.0000   115.4240    13.5120    -3.6760     2.1980    93.7690     5.6230     6.7610     8.8810     2.3040 
  117.1250   115.5420    13.5520    -3.6880     2.2130    93.7440     5.4830     6.4990     5.8810     2.2440 
  117.2500   115.6600    13.5920    -3.7000     2.1690    93.7050     5.2380     6.1390     5.0760     2.2190 
  117.3750   115.7780    13.6320    -3.7120     2.0270    91.4860     4.9890     5.8100     5.3140     2.2140 
  117.5000   115.8960    13.6710    -3.7240     1.8610    90.3300     4.9230     5.7620     5.6520     2.2110 
  117.6250   116.0140    13.7110    -3.7360     1.6300    90.9540     4.9850     5.8480     5.7550     2.2140 
  117.7500   116.1320    13.7510    -3.7480     1.3330    92.7040     5.0170     5.8740     5.4130     2.2260 
  117.8750   116.2490    13.7910    -3.7600     0.9520    93.5650     5.0170     5.8770     4.9980     2.2380 
  118.0000   116.3670    13.8310    -3.7720     0.5510    94.0530     4.9900     5.8640     4.9540     2.2310 
  118.1250   116.4850    13.8710    -3.7840     0.1780    93.5300     4.9540     5.8410     5.1470     2.2200 
  118.2500   116.6030    13.9110    -3.7960    -0.1630    92.8480     4.9100     5.7960     5.2980     2.2160 
  118.3750   116.7210    13.9510    -3.8080    -0.5200    91.6910     4.8690     5.7350     5.2320     2.2210 
  118.5000   116.8390    13.9910    -3.8200    -1.0100    92.6730     4.8540     5.6830     5.0550     2.2160 
  118.6250   116.9560    14.0310    -3.8310    -1.6970    94.0290     4.9360     5.7510     5.0730     2.2020 
  118.7500   117.0740    14.0720    -3.8430    -2.4260    93.1030     5.2060     6.0500     5.3430     2.1860 
  118.8750   117.1920    14.1120    -3.8550    -3.0090    89.1870     5.7260     6.6770     6.1700     2.1820 
  119.0000   117.3090    14.1520    -3.8670    -3.0570    83.1480     6.5550     7.7130     7.8280     2.2180 
  119.1250   117.4270    14.1930    -3.8790    -2.7490    78.6460     7.8570     9.3490     9.0210     2.3120 
  119.2500   117.5450    14.2330    -3.8910    -2.4550    75.7970     9.2820    11.0970     9.1090     2.4460 
  119.3750   117.6620    14.2740    -3.9020    -2.3450    75.0240    10.2720    12.2780    10.0790     2.5370 
  119.5000   117.7800    14.3150    -3.9140    -2.2470    76.7100    10.5060    12.4870    10.9650     2.5020 
  119.6250   117.8980    14.3560    -3.9260    -2.0030    79.7000     9.7990    11.5310     9.3050     2.3770 
  119.7500   118.0150    14.3960    -3.9370    -1.7030    81.6230     8.5850    10.0260     7.3090     2.2570 
  119.8750   118.1330    14.4370    -3.9490    -1.4810    81.6560     7.4060     8.6200     6.5920     2.2000 
  120.0000   118.2500    14.4780    -3.9610    -1.3470    80.4580     6.5240     7.6350     6.2610     2.1880 
  120.1250   118.3680    14.5190    -3.9730    -1.2300    80.2520     6.0620     7.1530     6.1030     2.1870 
  120.2500   118.4850    14.5600    -3.9850    -1.1080    79.1920     6.1220     7.2670     6.0340     2.1850 
  120.3750   118.6030    14.6000    -3.9970    -0.9730    76.8410     6.5560     7.7810     6.1620     2.1770 
  120.5000   118.7200    14.6410    -4.0090    -0.9730    73.4730     7.4460     8.8200     7.1200     2.1630 
  120.6250   118.8380    14.6820    -4.0200    -1.0680    70.1060     8.8660    10.4940     9.1970     2.1470 
  120.7500   118.9550    14.7230    -4.0320    -1.2810    67.4520    10.7360    12.6670    11.7580     2.1350 
  120.8750   119.0730    14.7650    -4.0440    -1.5260    65.9930    12.6890    14.8660    13.5180     2.1260 
  121.0000   119.1900    14.8060    -4.0560    -1.7750    65.7870    14.2080    16.5290    13.7940     2.1240 
  121.1250   119.3080    14.8470    -4.0680    -1.9870    67.5670    14.6300    16.7940    13.1200     2.1260 
  121.2500   119.4250    14.8880    -4.0800    -2.3040    70.5870    13.4430    15.2140    12.0300     2.1380 
  121.3750   119.5420    14.9290    -4.0920    -2.6960    75.4400    11.4450    12.7870    11.1710     2.1660 
  121.5000   119.6600    14.9710    -4.1040    -3.1450    80.7610     9.1980    10.1650     9.9040     2.1940 
  121.6250   119.7770    15.0120    -4.1160    -3.7670    84.5320     7.7010     8.5900     7.5330     2.2110 
  121.7500   119.8950    15.0530    -4.1280    -4.4440    84.6890     7.4410     8.5180     6.5430     2.2020 
  121.8750   120.0120    15.0950    -4.1400    -4.9140    82.7070     7.9100     9.2550     7.4990     2.1840 
  122.0000   120.1290    15.1360    -4.1510    -5.1830    79.6150     8.7980    10.3690     8.5440     2.1660 
  122.1250   120.2470    15.1770    -4.1640    -5.3990    77.7740     9.7330    11.4090    10.5480     2.1570 
  122.2500   120.3640    15.2190    -4.1760    -5.4290    75.1590    10.3210    11.9500    10.8460     2.1510 
  122.3750   120.4810    15.2600    -4.1880    -5.3720    72.9600    10.7700    12.3250    11.0010     2.1460 
  122.5000   120.5980    15.3020    -4.2000    -5.1360    71.4800    11.1430    12.6480    10.9730     2.1460 
  122.6250   120.7160    15.3430    -4.2120    -4.8700    71.3860    11.5040    12.9960    10.8060     2.1490 
  122.7500   120.8330    15.3850    -4.2240    -4.6450    71.6210    11.8960    13.4260    10.9030     2.1530 
  122.8750   120.9500    15.4260    -4.2360    -4.5210    70.6940    12.3200    13.9560    11.6590     2.1560 
  123.0000   121.0680    15.4680    -4.2480    -4.4240    69.5770    12.5630    14.2580    12.3270     2.1570 
  123.1250   121.1850    15.5100    -4.2600    -4.3890    69.7620    12.5820    14.3130    11.9440     2.1600 
