~V
VERS. 2.00: Ver 2.00
~W
STRT.M 50.0000:
STOP.M 219.0000:
STEP.M 0.1250:
NULL. -999.2500:
UWI. FD10804:
~C
DEPT.M :
TVD. :
DX. :
DY. :
SP.MV :
GR.API :
RI. :
RML.OHMM :
RXO.OHMM :
DEN.GM/CC :
~A
# ...
   86.5000    86.4330    -1.7000    -0.6130  -125.6040    69.7910     2.2290     2.4430     2.5440     2.0730 
   86.6250    86.5570    -1.7130    -0.6190  -125.9020    69.4280     2.2900     2.4910     2.5350     2.0700 
   86.7500    86.6810    -1.7250    -0.6260  -126.0390    68.8760     2.3280     2.5180     2.5330     2.0710 
   86.8750    86.8050    -1.7380    -0.6330  -125.9670    67.5610     2.3480     2.5390     2.5460     2.0690 
   87.0000    86.9290    -1.7510    -0.6390  -125.7200    66.8580     2.3620     2.5580     2.5720     2.0620 
   87.1250    87.0540    -1.7630    -0.6460  -125.3320    67.6250     2.3730     2.5740     2.5850     2.0440 
   87.2500    87.1780    -1.7760    -0.6520  -124.8860    69.0060     2.3950     2.5820     2.5800     2.0200 
   87.3750    87.3020    -1.7890    -0.6590  -124.4470    69.6170     2.4250     2.5970     2.5880     2.0060 
   87.5000    87.4260    -1.8010    -0.6660  -124.0410    69.0290     2.4670     2.6340     2.6090     2.0070 
   87.6250    87.5500    -1.8140    -0.6730  -123.6750    68.9080     2.5140     2.6930     2.6320     2.0200 
   87.7500    87.6740    -1.8270    -0.6790  -123.3520    69.4070     2.5520     2.7570     2.6680     2.0300 
   87.8750    87.7990    -1.8400    -0.6860  -123.0720    70.4190     2.5800     2.8080     2.7150     2.0400 
   88.0000    87.9230    -1.8530    -0.6930  -122.8340    70.5560     2.6020     2.8380     2.7340     2.0520 
   88.1250    88.0470    -1.8660    -0.7000  -122.6430    70.0040     2.6230     2.8580     2.7260     2.0660 
   88.2500    88.1710    -1.8790    -0.7070  -122.4900    69.6590     2.6490     2.8830     2.7210     2.0790 
   88.3750    88.2950    -1.8920    -0.7140  -122.3690    70.0540     2.6970     2.9290     2.7280     2.0900 
   88.5000    88.4190    -1.9050    -0.7210  -122.2710    70.4790     2.7740     3.0060     2.7400     2.0950 
   88.6250    88.5430    -1.9180    -0.7280  -122.1990    70.2760     2.8800     3.1140     2.7580     2.0940 
   88.7500    88.6670    -1.9310    -0.7350  -122.1600    68.4130     3.0070     3.2400     2.8320     2.0940 
   88.8750    88.7920    -1.9440    -0.7420  -122.1650    66.2240     3.1350     3.3670     2.9630     2.0970 
   89.0000    88.9160    -1.9570    -0.7490  -122.2110    64.5530     3.2410     3.4790     3.0590     2.1050 
   89.1250    89.0400    -1.9700    -0.7560  -122.2840    64.4970     3.3210     3.5600     3.1160     2.1160 
   89.2500    89.1640    -1.9830    -0.7630  -122.3500    64.9200     3.3580     3.5910     3.1920     2.1260 
   89.3750    89.2880    -1.9960    -0.7700  -122.3790    65.5580     3.3160     3.5340     3.2770     2.1270 
   89.5000    89.4120    -2.0100    -0.7770  -122.3350    66.8270     3.2000     3.3940     3.3630     2.1220 
   89.6250    89.5360    -2.0230    -0.7840  -122.1820    69.8410     3.0400     3.2100     3.3860     2.1280 
   89.7500    89.6600    -2.0360    -0.7910  -121.9230    73.4500     2.8910     3.0430     3.2260     2.1550 
   89.8750    89.7840    -2.0490    -0.7990  -121.5680    75.1310     2.8060     2.9530     3.0210     2.1760 
   90.0000    89.9080    -2.0630    -0.8060  -121.1780    73.1590     2.8030     2.9640     2.9870     2.1670 
   90.1250    90.0330    -2.0760    -0.8130  -120.8320    69.5410     2.9010     3.0770     2.9940     2.1260 
   90.2500    90.1570    -2.0890    -0.8200  -120.5970    66.7900     3.0520     3.2480     2.9440     2.0880 
   90.3750    90.2810    -2.1030    -0.8280  -120.5240    66.2700     3.2100     3.4280     2.9170     2.0690 
   90.5000    90.4050    -2.1160    -0.8350  -120.6060    65.4790     3.3360     3.5760     2.9120     2.0680 
   90.6250    90.5290    -2.1290    -0.8420  -120.8550    64.2430     3.3900     3.6540     2.9160     2.0730 
   90.7500    90.6530    -2.1430    -0.8500  -121.2600    62.5150     3.3640     3.6150     2.9440     2.0800 
   90.8750    90.7770    -2.1560    -0.8570  -121.8340    61.9680     3.1490     3.3880     2.9820     2.0870 
   91.0000    90.9010    -2.1700    -0.8650  -122.5650    62.9620     2.7900     3.0050     2.9960     2.0990 
   91.1250    91.0250    -2.1830    -0.8730  -123.4360    65.4760     2.3800     2.5680     2.9540     2.1230 
   91.2500    91.1490    -2.1960    -0.8800  -124.3660    67.9920     2.0400     2.2100     2.7890     2.1530 
   91.3750    91.2730    -2.2100    -0.8880  -125.2640    69.0280     1.8760     2.0280     2.5770     2.1690 
   91.5000    91.3970    -2.2230    -0.8960  -126.0400    68.8100     1.8560     2.0130     2.5540     2.1610 
   91.6250    91.5210    -2.2370    -0.9040  -126.5970    68.2610     1.9750     2.1440     2.6880     2.1390 
   91.7500    91.6450    -2.2500    -0.9120  -126.9130    67.3730     2.1800     2.3700     2.7730     2.1230 
   91.8750    91.7690    -2.2640    -0.9200  -126.9830    65.6700     2.4610     2.6580     2.8530     2.1190 
   92.0000    91.8930    -2.2770    -0.9280  -126.8880    64.0830     2.7550     2.9590     3.2830     2.1150 
   92.1250    92.0170    -2.2910    -0.9360  -126.7210    63.6470     3.0260     3.2270     4.4080     2.1020 
   92.2500    92.1410    -2.3040    -0.9440  -126.5880    64.7750     3.2180     3.4030     6.4310     2.0860 
   92.3750    92.2650    -2.3180    -0.9520  -126.5740    65.7390     3.2360     3.4040     8.0290     2.0760 
   92.5000    92.3890    -2.3320    -0.9600  -126.6840    67.1430     3.0760     3.2320     6.8990     2.0760 
   92.6250    92.5130    -2.3450    -0.9680  -126.8940    67.9890     2.7900     2.9420     4.3630     2.0830 
   92.7500    92.6370    -2.3590    -0.9770  -127.1510    68.2640     2.4860     2.6450     3.1790     2.0950 
   92.8750    92.7610    -2.3730    -0.9850  -127.4180    68.1620     2.2700     2.4350     3.0470     2.1080 
   93.0000    92.8850    -2.3870    -0.9930  -127.6770    68.7330     2.1540     2.3390     3.0400     2.1150 
   93.1250    93.0090    -2.4000    -1.0020  -127.9260    69.5850     2.1360     2.3450     3.0870     2.1100 
   93.2500    93.1330    -2.4140    -1.0100  -128.1520    68.5540     2.1810     2.4110     3.1600     2.0940 
   93.3750    93.2570    -2.4280    -1.0190  -128.3410    67.2030     2.2610     2.5110     3.2700     2.0780 
   93.5000    93.3810    -2.4420    -1.0280  -128.5030    66.2240     2.3560     2.6180     3.3720     2.0700 
   93.6250    93.5050    -2.4560    -1.0360  -128.6570    66.2730     2.4390     2.7060     3.3690     2.0660 
   93.7500    93.6290    -2.4700    -1.0450  -128.8280    65.7050     2.4890     2.7530     3.3080     2.0620 
   93.8750    93.7520    -2.4840    -1.0540  -129.0350    65.9150     2.4750     2.7320     3.3150     2.0620 
   94.0000    93.8760    -2.4990    -1.0630  -129.2760    66.3660     2.3930     2.6420     3.3770     2.0630 
   94.1250    94.0000    -2.5130    -1.0720  -129.5580    67.6920     2.2650     2.5010     3.4030     2.0650 
   94.2500    94.1240    -2.5270    -1.0810  -129.8830    68.9620     2.1190     2.3440     3.3630     2.0630 
   94.3750    94.2480    -2.5410    -1.0900  -130.2390    69.9110     1.9840     2.2020     3.2790     2.0540 
   94.5000    94.3720    -2.5560    -1.1000  -130.5900    70.6480     1.8780     2.0950     3.2180     2.0420 
   94.6250    94.4950    -2.5700    -1.1090  -130.8620    71.2250     1.8110     2.0290     3.1810     2.0310 
   94.7500    94.6190    -2.5840    -1.1190  -130.9890    72.3600     1.7750     2.0000     3.1670     2.0200 
   94.8750    94.7430    -2.5990    -1.1280  -130.9240    71.5440     1.7690     2.0040     3.2080     2.0120 
   95.0000    94.8670    -2.6130    -1.1380  -130.6790    69.6710     1.7910     2.0350     3.2160     2.0040 
   95.1250    94.9910    -2.6280    -1.1480  -130.2720    68.3750     1.8350     2.0900     3.2100     2.0010 
   95.2500    95.1140    -2.6420    -1.1570  -129.7760    69.3220     1.9010     2.1710     3.2680     2.0020 
   95.3750    95.2380    -2.6570    -1.1670  -129.2630    70.8650     1.9880     2.2800     3.4070     2.0070 
   95.5000    95.3620    -2.6720    -1.1770  -128.8050    70.3150     2.0840     2.4030     3.6530     2.0080 
