~V
VERS. 2.00: Ver 2.00
~W
STRT.M 15.0000:
STOP.M 224.0000:
STEP.M 0.1250:
NULL. -999.2500:
UWI. FD11007:
~C
DEPT.M :
TVD. :
DX. :
DY. :
DEN.GM/CC :
GR.API :
RML.OHMM :
RI. :
RXO.OHMM :
CALI.CM :
SP.MV :
~A
   15.0000    15.0000     0.0000     0.0000  -999.2500  -999.2500  -999.2500  -999.2500  -999.2500  -999.2500    77.9520 
   15.1250    15.1250     0.0000     0.0000  -999.2500  -999.2500  -999.2500  -999.2500  -999.2500  -999.2500    77.9520 
   15.2500    15.2500     0.0000     0.0000  -999.2500  -999.2500  -999.2500  -999.2500  -999.2500  -999.2500    77.8020 
   15.3750    15.3750     0.0000     0.0000  -999.2500  -999.2500  -999.2500  -999.2500  -999.2500  -999.2500    77.6720 
   15.5000    15.5000     0.0000     0.0000  -999.2500  -999.2500  -999.2500  -999.2500  -999.2500  -999.2500    77.5650 
   15.6250    15.6250     0.0000     0.0000  -999.2500  -999.2500  -999.2500  -999.2500  -999.2500  -999.2500    77.5110 
   15.7500    15.7500     0.0000     0.0000  -999.2500  -999.2500  -999.2500  -999.2500  -999.2500  -999.2500    77.5220 
   15.8750    15.8750     0.0000     0.0000  -999.2500  -999.2500  -999.2500  -999.2500  -999.2500  -999.2500    77.5620 
   16.0000    16.0000     0.0000     0.0000  -999.2500  -999.2500  -999.2500  -999.2500  -999.2500  -999.2500    77.6000 
   16.1250    16.1250     0.0000     0.0000  -999.2500  -999.2500  -999.2500  -999.2500  -999.2500  -999.2500    77.6050 
   16.2500    16.2500     0.0000     0.0000  -999.2500  -999.2500  -999.2500  -999.2500  -999.2500  -999.2500    77.5540 
   16.3750    16.3750     0.0000     0.0000  -999.2500  -999.2500  -999.2500  -999.2500  -999.2500  -999.2500    77.4810 
   16.5000    16.5000     0.0000     0.0000  -999.2500  -999.2500  -999.2500  -999.2500  -999.2500  -999.2500    77.4070 
   16.6250    16.6250     0.0000     0.0000     1.6620  -999.2500  -999.2500  -999.2500  -999.2500  -999.2500    77.3570 
   16.7500    16.7500     0.0000     0.0000     1.6620  -999.2500  -999.2500  -999.2500  -999.2500  -999.2500    77.3700 
   16.8750    16.8750     0.0000     0.0000     1.6680  -999.2500  -999.2500  -999.2500  -999.2500  -999.2500    77.4690 
   17.0000    17.0000     0.0000     0.0000     1.7970    27.3480    71.0490     3.4310     1.0830    25.6740    77.6340 
   17.1250    17.1250     0.0000     0.0000     2.0420    27.3480    71.0490     3.4310     1.0830    25.6740    77.8130 
   17.2500    17.2500     0.0000     0.0000     2.2070    31.6960    57.9460     3.4990     1.7190    25.6790    77.9020 
   17.3750    17.3750     0.0000     0.0000     2.2290    34.9540    50.4500     3.5280     3.4380    25.6810    77.8520 
   17.5000    17.5000     0.0000     0.0000     2.1560    34.7330    48.6010     3.5310     6.7010    25.6770    77.6770 
   17.6250    17.6250     0.0000     0.0000     2.0620    33.1470    51.7510     3.5190     8.6410    25.6740    77.4650 
   17.7500    17.7500     0.0000     0.0000     1.9920    33.6920    57.0270     3.5100     9.5450    25.6770    77.3080 
   17.8750    17.8750     0.0000     0.0000     1.9480    34.4930    61.7040     3.5210    10.4440    25.6850    77.2600 
   18.0000    18.0000     0.0000     0.0000     1.9190    33.4850    62.3410     3.5660    10.0500    25.6920    77.3690 
   18.1250    18.1250     0.0000     0.0000     1.8990    33.0650    56.6150     3.6410     9.9400    25.6900    77.6480 
   18.2500    18.2500     0.0000     0.0000     1.8880    34.7830    48.6100     3.7170    10.4860    25.6870    78.0380 
   18.3750    18.3750     0.0000     0.0000     1.8850    36.1090    42.1680     3.7690    11.8030    25.6890    78.4100 
   18.5000    18.5000     0.0000     0.0000     1.8850    34.7080    39.1710     3.7890    13.2000    25.6950    78.6720 
   18.6250    18.6250     0.0000     0.0000     1.8890    32.1160    39.9300     3.7820    19.3530    25.6970    78.7710 
   18.7500    18.7500     0.0000     0.0000     1.9010    32.3490    42.5380     3.7670    51.2180    25.6930    78.6920 
   18.8750    18.8750     0.0000     0.0000     1.9240    33.6870    45.4010     3.7530   267.2960    25.6890    78.4840 
   19.0000    19.0000     0.0000     0.0000     1.9490    34.1650    47.3680     3.7460   164.7990    25.6880    78.1330 
   19.1250    19.1250     0.0000     0.0000     1.9690    33.7980    49.2600     3.7560    40.7430    25.6910    77.6220 
   19.2500    19.2500     0.0000     0.0000     1.9930    33.0400    53.2250     3.7880    12.9020    25.6910    76.9040 
   19.3750    19.3750     0.0000     0.0000     2.0300    32.1290    59.9560     3.8260     8.6910    25.6850    76.0110 
   19.5000    19.5000     0.0000     0.0000     2.0790    31.4800    67.8740     3.8360    11.9620    25.6810    74.9560 
   19.6250    19.6250     0.0000     0.0000     2.1100    33.0220    70.9000     3.7460    15.0630    25.6820    73.7350 
   19.7500    19.7500     0.0000     0.0000     2.1060    35.5940    63.7630     3.4770    15.7280    25.6850    72.2910 
   19.8750    19.8750     0.0000     0.0000     2.0750    37.0250    47.4580     2.9450    16.4000    25.6860    70.6470 
   20.0000    20.0000     0.0000     0.0000     2.0430    38.2760    29.6560     2.1860     9.7140    25.6900    68.7750 
   20.1250    20.1250     0.0000     0.0000     2.0490    38.9980    17.3270     1.4240     5.9730    25.6990    66.5730 
   20.2500    20.2500     0.0000     0.0000     2.1200    38.3700    10.0060     0.8520     4.0970    25.7210    63.7940 
   20.3750    20.3750     0.0000     0.0000     2.2690    36.9720     6.2950     0.4970     2.8110    25.6190    60.3310 
   20.5000    20.5000     0.0000     0.0000     2.4610    36.5740     5.0330     0.3230     2.6230    25.3600    56.0440 
   20.6250    20.6250     0.0000     0.0000     2.5740    37.6490     5.8080     0.3060     3.0530    25.6490    50.8820 
   20.7500    20.7500     0.0000     0.0000     2.5680    38.7880     8.2600     0.4130     3.9240    26.8590    44.7310 
   20.8750    20.8750     0.0000     0.0000     2.4790    40.4470    12.6820     0.6700     4.6040    28.6240    37.8380 
   21.0000    21.0000     0.0000     0.0000     2.3490    42.5310    19.3580     1.1380     5.2670    30.3190    30.3960 
   21.1250    21.1250     0.0000     0.0000     2.2190    43.4300    28.2200     1.9550     6.4970    31.4790    22.6610 
   21.2500    21.2500     0.0000     0.0000     2.1180    42.9050    37.1830     3.0980     8.0510    31.9500    15.0070 
   21.3750    21.3750     0.0000     0.0000     2.0610    42.4390    43.9500     4.4630     9.5840    31.5820     7.7660 
   21.5000    21.5000     0.0000     0.0000     2.0500    43.8120    47.4870     5.8450    11.0190    30.7320     1.2000 
   21.6250    21.6250     0.0000     0.0000     2.0850    45.1860    48.5620     7.0220    12.0330    30.0270    -4.5270 
   21.7500    21.7500     0.0000     0.0000     2.1290    45.2070    48.9920     7.9730    11.7650    29.6600    -9.1740 
   21.8750    21.8750     0.0000     0.0000     2.1300    43.7490    49.3730     8.7240    11.1180    29.6140   -12.8750 
   22.0000    22.0000     0.0000     0.0000     2.0530    41.0920    49.7030     9.2400     9.9170    29.9700   -15.6600 
   22.1250    22.1250     0.0000     0.0000     1.9210    40.1370    49.0710     9.2840     8.3080    30.7000   -17.5730 
   22.2500    22.2500     0.0000     0.0000     1.7980    43.7970    46.4360     8.7580     7.9670    30.9880   -18.6280 
   22.3750    22.3750     0.0000     0.0000     1.7280    53.1930    41.3410     7.7140     8.4260    30.4170   -19.1420 
   22.5000    22.5000     0.0000     0.0000     1.7380    64.6580    34.7870     6.4240     6.8230    29.4700   -19.2780 
   22.6250    22.6250     0.0000     0.0000     1.8410    70.9620    29.0550     5.2940     4.4910    29.0060   -19.1980 
   22.7500    22.7500     0.0000     0.0000     1.9820    71.7580    25.6140     4.5490     3.3570    28.9140   -19.1240 
   22.8750    22.8750     0.0000     0.0000     2.1040    71.8180    24.9540     4.2620     3.4040    28.7690   -19.2850 
   23.0000    23.0000     0.0000     0.0000     2.1720    72.9640    27.0770     4.4360     4.2280    28.6080   -19.8410 
   23.1250    23.1250     0.0000     0.0000     2.1800    70.9740    31.8960     5.1010     5.9890    28.6320   -20.8010 
