~V
VERS. 2.00: Ver 2.00
~W
STRT.M 10.0000:
STOP.M 249.0000:
STEP.M 0.1250:
NULL. -999.2500:
UWI. FD11114:
~C
DEPT.M :
TVD. :
DX. :
DY. :
GR.API :
RML.OHMM :
RI. :
RXO.OHMM :
CALI.CM :
SP.MV :
DEN.GM/CC :
~A
# ...
  166.7500   165.7010    10.5550    -1.3240    69.8860    36.7000    37.7060    33.3050    23.4490   -23.8170     2.3340 
  166.8750   165.8200    10.5920    -1.3320    73.5670    28.0350    29.5310    23.0680    23.3440   -23.8030     2.3620 
  167.0000   165.9390    10.6290    -1.3400    76.7840    21.9800    23.6510    18.8110    23.1700   -23.7370     2.3860 
  167.1250   166.0580    10.6670    -1.3480    81.6180    18.0150    19.6620    16.3200    23.0670   -23.6240     2.4040 
  167.2500   166.1770    10.7040    -1.3560    85.3490    15.7540    17.2670    13.6650    23.0000   -23.4830     2.4120 
  167.3750   166.2960    10.7410    -1.3630    83.9560    14.4380    15.8020    12.3510    22.9890   -23.3470     2.4140 
  167.5000   166.4150    10.7780    -1.3710    79.6430    13.7880    15.0100    12.0700    23.0340   -23.2420     2.4170 
  167.6250   166.5340    10.8160    -1.3790    78.0890    13.6730    14.7590    12.0250    23.1000   -23.1790     2.4240 
  167.7500   166.6540    10.8530    -1.3870    80.1060    14.1160    15.0580    12.3520    23.1210   -23.1520     2.4280 
  167.8750   166.7730    10.8900    -1.3950    80.5810    15.0260    15.7840    12.7530    23.0710   -23.1580     2.4210 
  168.0000   166.8920    10.9270    -1.4030    79.6500    16.4790    16.9660    13.1210    22.9640   -23.1710     2.4030 
  168.1250   167.0110    10.9650    -1.4110    79.5380    18.6520    18.7240    13.9520    22.8480   -23.1710     2.3780 
  168.2500   167.1300    11.0020    -1.4190    80.5210    22.0300    21.4460    16.1910    22.7900   -23.1600     2.3550 
  168.3750   167.2490    11.0390    -1.4270    79.3280    26.8630    25.3540    18.9980    22.7990   -23.1500     2.3350 
  168.5000   167.3680    11.0760    -1.4350    76.9030    33.5320    30.8160    22.5800    22.8560   -23.1570     2.3150 
  168.6250   167.4870    11.1140    -1.4430    75.0400    42.2010    38.0390    28.9370    22.9310   -23.2030     2.2960 
  168.7500   167.6060    11.1510    -1.4500    72.6790    52.5720    46.8000    34.9700    23.0070   -23.3150     2.2810 
  168.8750   167.7250    11.1880    -1.4580    69.5690    62.8300    55.4590    37.9140    23.0750   -23.4530     2.2740 
  169.0000   167.8440    11.2250    -1.4660    67.9240    71.0030    62.2160    37.8510    23.1280   -23.5830     2.2720 
  169.1250   167.9630    11.2630    -1.4740    69.4950    75.7520    65.8390    37.1870    23.1650   -23.6850     2.2720 
  169.2500   168.0820    11.3000    -1.4820    71.1720    77.1910    66.3830    37.2920    23.1860   -23.7350     2.2710 
  169.3750   168.2010    11.3370    -1.4900    68.5280    77.6150    65.8840    37.5040    23.1950   -23.7390     2.2690 
  169.5000   168.3200    11.3740    -1.4980    63.4020    78.1670    65.3580    37.7700    23.1970   -23.7020     2.2650 
  169.6250   168.4390    11.4120    -1.5060    60.4160    79.2300    65.1820    40.0010    23.1980   -23.6360     2.2600 
  169.7500   168.5580    11.4490    -1.5140    61.9590    81.0420    65.6230    41.9600    23.1970   -23.5550     2.2550 
  169.8750   168.6770    11.4860    -1.5220    62.5770    83.8690    66.9250    44.7280    23.1940   -23.4900     2.2530 
  170.0000   168.7960    11.5230    -1.5300    61.1040    88.4500    69.6680    44.0510    23.1890   -23.4450     2.2550 
  170.1250   168.9150    11.5610    -1.5370    61.1860    95.7750    74.6480    45.8020    23.1930   -23.4090     2.2600 
  170.2500   169.0340    11.5980    -1.5450    65.8090   107.2060    83.0520    54.3360    23.2230   -23.3700     2.2620 
  170.3750   169.1530    11.6350    -1.5530    70.0690   121.9760    94.3160    69.2560    23.2710   -23.3260     2.2570 
  170.5000   169.2730    11.6720    -1.5610    70.5930   138.7050   107.3620    83.6430    23.3140   -23.2810     2.2480 
  170.6250   169.3920    11.7100    -1.5690    68.3630   154.7040   120.0760    88.2480    23.3300   -23.2470     2.2380 
  170.7500   169.5110    11.7470    -1.5770    66.3260   165.5770   129.0220    78.3880    23.3060   -23.2470     2.2340 
  170.8750   169.6300    11.7840    -1.5850    63.5590   170.4400   133.2670    65.4090    23.2730   -23.2730     2.2360 
  171.0000   169.7490    11.8210    -1.5930    59.6640   170.9060   133.7790    57.6940    23.2710   -23.3180     2.2430 
  171.1250   169.8680    11.8590    -1.6010    58.2140   169.7280   132.6070    57.4250    23.3180   -23.3680     2.2510 
  171.2500   169.9870    11.8960    -1.6090    60.5180   169.1840   131.6760    63.7170    23.3860   -23.3940     2.2550 
  171.3750   170.1060    11.9340    -1.6170    61.8250   170.0340   131.8620    72.4330    23.4190   -23.3990     2.2530 
  171.5000   170.2230    11.9750    -1.6250    60.8020   172.2110   133.2480    80.2610    23.3860   -23.3900     2.2470 
  171.6250   170.3410    12.0170    -1.6330    59.6720   175.2140   135.4910    81.7260    23.2960   -23.3770     2.2390 
  171.7500   170.4590    12.0580    -1.6420    60.1490   178.0220   137.8170    76.8490    23.1890   -23.3580     2.2350 
  171.8750   170.5760    12.0990    -1.6500    60.7890   179.2880   139.1140    68.2230    23.1130   -23.3340     2.2340 
  172.0000   170.6940    12.1410    -1.6590    62.8150   177.8260   138.4210    59.2920    23.0790   -23.3090     2.2360 
  172.1250   170.8110    12.1820    -1.6670    67.3600   173.0900   135.2310    51.6330    23.0800   -23.2800     2.2400 
  172.2500   170.9290    12.2240    -1.6760    71.3690   165.3320   129.5720    49.7550    23.1010   -23.2200     2.2440 
  172.3750   171.0470    12.2650    -1.6840    70.5220   156.7080   123.0010    54.6060    23.1310   -23.1160     2.2460 
  172.5000   171.1640    12.3070    -1.6930    65.8130   148.8980   116.7830    61.9030    23.1560   -22.9700     2.2450 
  172.6250   171.2820    12.3480    -1.7010    61.7440   143.0880   111.9000    66.6790    23.1630   -22.7970     2.2410 
  172.7500   171.4000    12.3890    -1.7100    61.2180   140.0690   109.0630    64.7780    23.1290   -22.6310     2.2370 
  172.8750   171.5170    12.4310    -1.7180    62.8010   138.9840   107.7520    60.7930    23.0590   -22.5020     2.2370 
  173.0000   171.6350    12.4720    -1.7260    65.2690   138.9530   107.4140    54.9740    22.9730   -22.4180     2.2440 
  173.1250   171.7520    12.5140    -1.7350    66.6050   138.8850   107.3280    53.1400    22.9110   -22.3650     2.2540 
  173.2500   171.8700    12.5550    -1.7430    65.5350   137.4800   106.6310    55.3640    22.9240   -22.3350     2.2630 
  173.3750   171.9880    12.5970    -1.7520    63.8560   134.2840   104.9210    57.3490    23.0150   -22.3040     2.2660 
  173.5000   172.1050    12.6380    -1.7600    61.9850   128.7590   101.7860    58.9610    23.1580   -22.2490     2.2650 
  173.6250   172.2230    12.6790    -1.7690    61.0010   120.1530    96.5800    59.9110    23.3030   -22.1610     2.2610 
  173.7500   172.3410    12.7210    -1.7770    61.8030   108.1510    88.7620    57.1380    23.3850   -22.0610     2.2620 
  173.8750   172.4580    12.7620    -1.7860    64.0880    95.4050    80.0140    50.6090    23.3870   -21.9700     2.2680 
  174.0000   172.5760    12.8040    -1.7940    66.4660    84.4750    72.2480    44.2700    23.3140   -21.9110     2.2770 
  174.1250   172.6940    12.8450    -1.8030    68.5360    76.9550    66.8840    39.6070    23.1880   -21.8990     2.2840 
  174.2500   172.8110    12.8870    -1.8110    70.0870    73.5430    64.7410    37.3650    23.0370   -21.9280     2.2850 
  174.3750   172.9290    12.9280    -1.8190    68.5640    72.5910    64.6940    39.4540    22.8910   -21.9580     2.2820 
  174.5000   173.0460    12.9690    -1.8280    65.8140    72.5350    65.5490    48.2170    22.7680   -21.9640     2.2770 
  174.6250   173.1640    13.0110    -1.8360    68.3550    71.4180    65.6550    59.2830    22.6920   -21.9300     2.2750 
  174.7500   173.2820    13.0520    -1.8450    75.1370    66.6550    62.5420    56.6180    22.7150   -21.8570     2.2780 
  174.8750   173.3990    13.0940    -1.8530    77.1890    58.2590    55.7810    44.4880    22.8620   -21.7760     2.2880 
