~V
VERS. 2.00: Ver 2.00
~W
STRT.M 40.0000:
STOP.M 259.0000:
STEP.M 0.1250:
NULL. -999.2500:
UWI. FD11192:
~C
DEPT.M :
TVD. :
DX. :
DY. :
SP.MV :
GR.API :
RI. :
RML.OHMM :
RXO.OHMM :
DEN.GM/CC :
~A
# ...
  195.1250   187.4900    27.5660    30.2690  -207.2700    89.2210     8.3400     9.4370     8.7870     2.3090 
  195.2500   187.6000    27.6080    30.3090  -207.0500    87.9210     9.0970    10.2350     9.4210     2.3390 
  195.3750   187.7110    27.6500    30.3500  -206.8580    85.0430     9.7620    10.9120    10.3600     2.3910 
  195.5000   187.8210    27.6920    30.3910  -206.6970    83.4750    10.2540    11.4270    13.0850     2.4360 
  195.6250   187.9320    27.7340    30.4320  -206.4800    84.2210    10.2790    11.5310    15.0830     2.4490 
  195.7500   188.0420    27.7760    30.4730  -206.1140    84.7860     9.9210    11.1360    13.8770     2.4380 
  195.8750   188.1520    27.8180    30.5140  -205.7560    84.0340     9.1460    10.2590    11.7270     2.4160 
  196.0000   188.2630    27.8600    30.5550  -205.4290    82.9440     8.0970     9.0490    10.3680     2.3800 
  196.1250   188.3730    27.9030    30.5960  -205.1830    84.0170     6.9900     7.7890     9.0050     2.3430 
  196.2500   188.4830    27.9450    30.6370  -205.0050    86.4410     5.9780     6.6400     8.0510     2.3460 
  196.3750   188.5940    27.9870    30.6780  -204.9220    85.8020     5.2030     5.7540     7.5660     2.3990 
  196.5000   188.7040    28.0290    30.7190  -204.9410    79.5850     4.6920     5.1840     6.5930     2.4520 
  196.6250   188.8140    28.0710    30.7600  -205.1240    69.7760     4.3620     4.8420     5.3290     2.4600 
  196.7500   188.9240    28.1140    30.8010  -205.3610    61.5780     4.1620     4.6660     4.7400     2.4340 
  196.8750   189.0350    28.1560    30.8420  -205.4310    58.1350     4.0800     4.6360     4.6210     2.4030 
  197.0000   189.1450    28.1990    30.8830  -205.3210    58.4000     4.0290     4.6030     4.4640     2.3800 
  197.1250   189.2550    28.2410    30.9240  -205.1390    61.8130     3.9820     4.5130     4.5160     2.3610 
  197.2500   189.3650    28.2830    30.9650  -204.9510    67.4620     3.9220     4.3880     4.6280     2.3420 
  197.3750   189.4750    28.3260    31.0060  -204.8190    71.0600     3.8840     4.2950     4.3530     2.3190 
  197.5000   189.5860    28.3680    31.0470  -204.7100    67.9310     3.8830     4.2670     3.8860     2.2940 
  197.6250   189.6960    28.4100    31.0880  -204.6640    59.1810     3.9190     4.2980     3.5230     2.2800 
  197.7500   189.8060    28.4530    31.1290  -204.6830    51.8850     3.9980     4.3800     3.3760     2.2810 
  197.8750   189.9160    28.4950    31.1700  -204.7920    48.2380     4.0870     4.4630     3.4830     2.2950 
  198.0000   190.0260    28.5380    31.2110  -204.8900    46.3130     4.1580     4.5180     3.6090     2.3090 
  198.1250   190.1360    28.5800    31.2520  -204.8810    44.1160     4.1740     4.5190     3.7440     2.3150 
  198.2500   190.2470    28.6230    31.2940  -204.8420    42.7630     4.1250     4.4670     4.0030     2.3200 
  198.3750   190.3570    28.6650    31.3350  -204.8120    41.3700     4.0360     4.3770     4.2480     2.3270 
  198.5000   190.4670    28.7070    31.3760  -204.7920    40.2020     3.9390     4.2870     4.3020     2.3340 
  198.6250   190.5770    28.7500    31.4170  -204.6970    40.3630     3.8700     4.2380     4.0640     2.3370 
  198.7500   190.6870    28.7920    31.4580  -204.5710    43.1260     3.8410     4.2370     3.6420     2.3420 
  198.8750   190.7970    28.8350    31.5000  -204.5100    49.0290     3.8380     4.2530     3.3520     2.3500 
  199.0000   190.9070    28.8770    31.5410  -204.4970    57.1910     3.8420     4.2440     3.4860     2.3620 
  199.1250   191.0170    28.9200    31.5820  -204.6390    66.2480     3.8620     4.2210     3.8410     2.3730 
  199.2500   191.1270    28.9620    31.6230  -204.8730    73.7140     3.9260     4.2350     3.9450     2.3760 
  199.3750   191.2370    29.0050    31.6650  -205.1800    77.2680     4.0680     4.3510     3.9330     2.3670 
  199.5000   191.3480    29.0470    31.7060  -205.5170    78.9740     4.3690     4.6480     4.1470     2.3570 
  199.6250   191.4580    29.0900    31.7470  -205.9500    80.0220     4.8380     5.4400     4.6710     2.3530 
  199.7500   191.5680    29.1330    31.7880  -206.3990    78.8950     5.4460     6.4210     5.4600     2.3400 
  199.8750   191.6780    29.1750    31.8290  -206.7890    75.9650     6.1170     7.1690     6.3350     2.3160 
  200.0000   191.7880    29.2180    31.8700  -207.0190    74.1090     6.6700     7.7600     7.0070     2.2990 
  200.1250   191.8980    29.2610    31.9110  -207.0740    73.5140     7.0030     8.0310     7.3380     2.3010 
  200.2500   192.0080    29.3030    31.9520  -206.9820    72.8070     6.9420     7.8540     7.5020     2.3160 
  200.3750   192.1180    29.3460    31.9930  -206.8550    72.8150     6.5500     7.3000     7.5080     2.3390 
  200.5000   192.2280    29.3890    32.0350  -206.7310    75.2640     6.0130     6.6350     7.3790     2.3670 
  200.6250   192.3380    29.4310    32.0760  -206.5240    77.9220     5.4070     6.3290     7.2150     2.3780 
  200.7500   192.4480    29.4740    32.1170  -206.2870    79.5810     4.8820     5.7560     6.6240     2.3680 
  200.8750   192.5580    29.5160    32.1580  -206.2650    79.9520     4.4920     5.2580     5.5570     2.3510 
  201.0000   192.6680    29.5590    32.1990  -206.4800    80.0540     4.2570     4.9670     4.8630     2.3420 
  201.1250   192.7780    29.6020    32.2400  -206.8110    81.7920     4.2700     5.0370     4.6070     2.3400 
  201.2500   192.8890    29.6440    32.2820  -207.1550    85.5780     4.5020     5.3460     4.4310     2.3410 
  201.3750   192.9990    29.6870    32.3230  -207.5210    88.7110     4.8540     5.7370     4.6580     2.3430 
  201.5000   193.1090    29.7290    32.3640  -207.9520    87.9890     5.2720     6.1060     5.2100     2.3460 
  201.6250   193.2190    29.7720    32.4050  -208.3570    85.6830     5.7250     6.4270     5.7550     2.3430 
  201.7500   193.3290    29.8150    32.4460  -208.6100    85.5220     6.2120     6.7620     6.2630     2.3320 
  201.8750   193.4390    29.8570    32.4870  -208.6440    88.3650     6.8180     7.3070     6.7840     2.3200 
  202.0000   193.5490    29.9000    32.5280  -208.6060    89.6150     7.5450     8.1380     7.3380     2.3170 
  202.1250   193.6590    29.9420    32.5690  -208.5450    87.6550     8.4740     9.3590     8.2360     2.3250 
  202.2500   193.7690    29.9850    32.6100  -208.5150    84.4000     9.6200    10.7960    11.2010     2.3320 
  202.3750   193.8790    30.0280    32.6520  -208.5380    81.3720    10.7910    12.1780    15.3090     2.3370 
  202.5000   193.9890    30.0700    32.6930  -208.5660    79.1630    11.8220    13.2860    16.2150     2.3380 
  202.6250   194.1000    30.1130    32.7340  -208.6440    77.6470    12.6610    13.8970    15.0150     2.3370 
  202.7500   194.2100    30.1550    32.7750  -208.7860    77.5920    13.3630    14.3300    15.5010     2.3410 
  202.8750   194.3200    30.1980    32.8160  -208.9620    77.2710    14.2650    15.2480    18.7970     2.3350 
  203.0000   194.4300    30.2400    32.8570  -209.1120    75.1030    15.4370    16.4680    22.4720     2.3070 
  203.1250   194.5400    30.2830    32.8980  -209.1560    73.6620    16.8600    18.1060    23.5390     2.2730 
  203.2500   194.6500    30.3250    32.9400  -209.0910    73.7280    18.5180    20.0300    23.9570     2.2600 
  203.3750   194.7600    30.3680    32.9810  -208.9840    74.1870    20.4450    22.0610    23.4960     2.2750 
  203.5000   194.8700    30.4100    33.0220  -208.8780    73.1250    22.7630    24.5500    22.0920     2.2910 
  203.6250   194.9810    30.4530    33.0630  -208.7690    71.6240    26.2010    28.4690    26.5690     2.2850 
  203.7500   195.0910    30.4950    33.1040  -208.6610    70.5070    30.8680    33.3240    35.7180     2.2600 
  203.8750   195.2010    30.5380    33.1450  -208.6000    69.9270    35.3100    37.7940    40.7920     2.2290 
  204.0000   195.3110    30.5800    33.1860  -208.5860    69.1460    37.4690    41.1810    41.8100     2.2080 
  204.1250   195.4210    30.6230    33.2270  -208.6830    67.7860    35.9140    40.2410    42.1500     2.2060 
