~V
VERS. 2.00: Ver 2.00
~W
STRT.M 56.0000:
STOP.M 276.0000:
STEP.M 0.1250:
NULL. -999.2500:
UWI. FD11178:
~C
DEPT.M :
TVD. :
DX. :
DY. :
SP.MV :
GR.API :
RI. :
RML.OHMM :
DEN.GM/CC :
RXO.OHMM :
~A
# ...
  129.0000   128.0210    -0.9560   -10.3570    -9.8700    61.7160    10.8610    12.3450     2.3410    30.3200 
  129.1250   128.1400    -0.9620   -10.3930   -10.0860    58.5430     9.5440    10.6410     2.2070    16.2070 
  129.2500   128.2600    -0.9690   -10.4290   -10.5500    58.6790     8.1810     9.0350     2.1370     7.1050 
  129.3750   128.3790    -0.9760   -10.4650   -11.1710    62.2400     7.4090     8.2430     2.1260     7.2820 
  129.5000   128.4990    -0.9830   -10.5020   -11.7080    64.0680     7.1090     8.0310     2.1320     7.3260 
  129.6250   128.6180    -0.9900   -10.5380   -12.0750    62.7630     7.1090     8.1190     2.1370     7.1550 
  129.7500   128.7370    -0.9960   -10.5740   -12.4150    61.2460     7.1970     8.2560     2.1370     7.0570 
  129.8750   128.8570    -1.0030   -10.6110   -12.7340    61.3730     7.2840     8.3390     2.1340     7.0650 
  130.0000   128.9760    -1.0100   -10.6470   -12.9960    62.3900     7.3540     8.3760     2.1280     7.1620 
  130.1250   129.0950    -1.0170   -10.6840   -13.2000    62.6900     7.3930     8.3690     2.1190     7.3030 
  130.2500   129.2150    -1.0240   -10.7210   -13.2280    62.0210     7.3970     8.3320     2.1140     7.2090 
  130.3750   129.3340    -1.0310   -10.7580   -13.2260    61.2920     7.3700     8.2740     2.1190     6.9750 
  130.5000   129.4530    -1.0380   -10.7950   -13.1890    61.3340     7.3070     8.1860     2.1290     7.0440 
  130.6250   129.5720    -1.0450   -10.8320   -13.1020    61.1670     7.2470     8.1160     2.1320     7.1300 
  130.7500   129.6920    -1.0510   -10.8690   -12.9300    62.0630     7.2110     8.0750     2.1260     6.7090 
  130.8750   129.8110    -1.0580   -10.9060   -12.7690    64.3730     7.2140     8.0930     2.1110     6.2010 
  131.0000   129.9300    -1.0650   -10.9430   -12.6770    66.9000     7.2060     8.1040     2.0980     6.2610 
  131.1250   130.0490    -1.0720   -10.9810   -12.6660    67.6950     7.1890     8.1070     2.0980     6.6140 
  131.2500   130.1680    -1.0790   -11.0180   -12.6920    66.5240     7.1570     8.0780     2.1060     6.5960 
  131.3750   130.2870    -1.0860   -11.0560   -12.5450    64.0070     7.1380     8.0500     2.1130     6.1220 
  131.5000   130.4060    -1.0930   -11.0930   -12.3040    60.2460     7.1530     8.0580     2.1140     5.8500 
  131.6250   130.5250    -1.1000   -11.1310   -12.1300    57.0230     7.2210     8.1490     2.1120     6.2210 
  131.7500   130.6440    -1.1070   -11.1690   -12.0650    54.4540     7.3450     8.3100     2.1110     6.6880 
  131.8750   130.7630    -1.1140   -11.2070   -11.9690    54.0190     7.4690     8.4730     2.1130     6.8610 
  132.0000   130.8810    -1.1210   -11.2450   -11.8930    55.5990     7.5650     8.5930     2.1140     7.0590 
  132.1250   131.0000    -1.1280   -11.2830   -11.9600    59.4450     7.5820     8.6400     2.1080     7.3300 
  132.2500   131.1190    -1.1350   -11.3210   -12.1520    64.3880     7.5670     8.6740     2.1030     7.3470 
  132.3750   131.2380    -1.1430   -11.3590   -12.3740    68.7960     7.5560     8.7360     2.1200     7.3270 
  132.5000   131.3570    -1.1500   -11.3980   -12.5780    72.9550     7.5560     8.8160     2.1530     7.3580 
  132.6250   131.4750    -1.1570   -11.4360   -12.7260    77.4030     7.5360     8.8450     2.1780     7.1740 
  132.7500   131.5940    -1.1640   -11.4750   -12.8240    80.3400     7.4460     8.7500     2.1740     7.0940 
  132.8750   131.7130    -1.1720   -11.5130   -12.8190    78.5570     7.2850     8.5120     2.1490     7.3190 
  133.0000   131.8320    -1.1790   -11.5520   -12.6760    73.0770     7.0880     8.1970     2.1280     7.4560 
  133.1250   131.9500    -1.1860   -11.5900   -12.4840    66.3240     7.0510     8.0950     2.1190     7.2410 
  133.2500   132.0690    -1.1930   -11.6290   -12.2300    61.8320     7.3510     8.4370     2.1230     7.0580 
  133.3750   132.1870    -1.2000   -11.6680   -11.8700    61.5330     8.0980     9.3570     2.1610     9.1320 
  133.5000   132.3060    -1.2070   -11.7070   -11.4820    63.9610     9.1600    10.6760     2.2590    15.3390 
  133.6250   132.4250    -1.2140   -11.7460   -11.0520    66.5070    10.1710    11.9010     2.3850    19.3050 
  133.7500   132.5430    -1.2210   -11.7850   -10.6840    68.6470    10.4710    12.1590     2.4450    20.0730 
  133.8750   132.6620    -1.2280   -11.8240   -10.3890    70.5650     9.5960    10.9990     2.3890    18.8920 
  134.0000   132.7800    -1.2340   -11.8630   -10.0710    71.5020     8.1680     9.1960     2.2780    16.2420 
  134.1250   132.8990    -1.2410   -11.9020    -9.9930    73.4820     6.5580     7.2730     2.1970    11.1500 
  134.2500   133.0170    -1.2480   -11.9410   -10.1100    76.1210     5.4980     6.1210     2.1630     7.3000 
  134.3750   133.1360    -1.2560   -11.9810   -10.3230    76.2800     5.0380     5.7050     2.1570     5.5750 
  134.5000   133.2540    -1.2630   -12.0200   -10.5020    71.4250     4.7770     5.5020     2.1610     5.0660 
  134.6250   133.3730    -1.2700   -12.0590   -10.5330    67.5590     4.6320     5.3930     2.1760     5.1710 
  134.7500   133.4910    -1.2770   -12.0990   -10.4660    68.2870     4.5110     5.2610     2.1970     5.1740 
  134.8750   133.6090    -1.2840   -12.1380   -10.3570    72.7290     4.3820     5.0760     2.2130     5.4900 
  135.0000   133.7280    -1.2910   -12.1780   -10.3150    76.0200     4.2760     4.9070     2.2140     5.2420 
  135.1250   133.8460    -1.2980   -12.2170   -10.2160    78.1950     4.2450     4.8480     2.2030     4.3490 
  135.2500   133.9650    -1.3050   -12.2570    -9.9100    80.3410     4.3300     4.9380     2.1940     4.0890 
  135.3750   134.0830    -1.3120   -12.2960    -9.6820    82.0110     4.5120     5.1530     2.1870     4.3400 
  135.5000   134.2010    -1.3190   -12.3360    -9.7350    82.1110     4.7330     5.4340     2.1810     4.5170 
  135.6250   134.3200    -1.3260   -12.3760   -10.1310    79.0000     4.9090     5.6310     2.1710     4.6120 
  135.7500   134.4380    -1.3330   -12.4150   -10.4830    73.9190     4.8860     5.5880     2.1640     4.6890 
  135.8750   134.5560    -1.3410   -12.4550   -10.7460    71.8550     4.6110     5.2400     2.1730     4.6960 
  136.0000   134.6750    -1.3480   -12.4940   -10.7120    76.1810     4.2020     4.7410     2.1960     4.5630 
  136.1250   134.7930    -1.3550   -12.5340   -10.1630    82.0870     3.6910     4.1440     2.2180     4.1030 
  136.2500   134.9110    -1.3620   -12.5740    -9.3060    84.1860     3.2890     3.6900     2.2300     3.4750 
  136.3750   135.0290    -1.3700   -12.6130    -8.1840    82.6330     3.0530     3.4460     2.2380     3.1570 
  136.5000   135.1480    -1.3770   -12.6530    -7.0700    81.1440     3.0140     3.4360     2.2410     3.0070 
  136.6250   135.2660    -1.3840   -12.6930    -6.2740    83.3310     3.1680     3.6470     2.2340     2.8700 
  136.7500   135.3840    -1.3910   -12.7330    -5.8810    88.6470     3.3820     3.9110     2.2230     2.9510 
  136.8750   135.5030    -1.3980   -12.7720    -5.7830    92.2860     3.5880     4.1370     2.2260     4.3160 
  137.0000   135.6210    -1.4060   -12.8120    -5.9880    89.9940     3.7300     4.2470     2.2380     6.5680 
  137.1250   135.7390    -1.4130   -12.8520    -6.2730    84.3670     3.7470     4.1850     2.2420     6.3430 
  137.2500   135.8570    -1.4200   -12.8920    -6.3420    80.3460     3.6300     3.9870     2.2390     4.1270 
  137.3750   135.9760    -1.4270   -12.9320    -6.1560    78.5010     3.5000     3.8130     2.2440     3.1870 
  137.5000   136.0940    -1.4340   -12.9720    -5.9710    76.2520     3.4120     3.7350     2.2580     3.1000 
  137.6250   136.2120    -1.4410   -13.0120    -5.9730    75.4480     3.4160     3.7740     2.2600     2.9230 
  137.7500   136.3300    -1.4480   -13.0520    -6.0600    78.3140     3.4100     3.8000     2.2440     3.1170 
  137.8750   136.4480    -1.4550   -13.0920    -6.2220    84.9420     3.3200     3.7190     2.2300     3.4860 
  138.0000   136.5660    -1.4620   -13.1330    -6.4720    92.0050     3.1410     3.5320     2.2310     3.4230 
