~V
VERS. 2.00: Ver 2.00
~W
STRT.M 10.0000:
STOP.M 230.0000:
STEP.M 0.1250:
NULL. -999.2500:
UWI. FD11119:
~C
DEPT.M :
TVD. :
DX. :
DY. :
SP.MV :
DEN.GM/CC :
GR.API :
RML.OHMM :
RI. :
RXO.OHMM :
CALI.CM :
~A
# ...
   34.7500    34.7500     0.0000     0.0000   -27.8990     2.0340    79.7650    12.7350     7.3140     6.7040    26.4070 
   34.8750    34.8750     0.0000     0.0000   -27.8270     2.0290    83.4620    12.7090     7.3720     6.7240    26.3510 
   35.0000    35.0000     0.0000     0.0000   -27.7640     2.0270    89.1850    12.7410     7.4160     6.9070    26.2740 
   35.1250    35.1250     0.0000     0.0000   -27.7120     2.0260    94.3390    12.7790     7.4260     6.9630    26.1790 
   35.2500    35.2500     0.0000     0.0000   -27.7060     2.0270    96.6290    12.7840     7.3980     6.9900    26.1780 
   35.3750    35.3750     0.0000     0.0000   -27.7230     2.0300    95.3520    12.7860     7.3590     6.9790    26.1750 
   35.5000    35.5000     0.0000     0.0000   -27.7760     2.0360    91.9210    12.8560     7.3550     7.0000    26.1260 
   35.6250    35.6250     0.0000     0.0000   -27.8920     2.0460    87.0320    13.0960     7.4330     7.1450    26.1060 
   35.7500    35.7500     0.0000     0.0000   -28.0630     2.0550    81.4610    13.5060     7.5770     7.3010    26.3320 
   35.8750    35.8750     0.0000     0.0000   -28.2610     2.0620    76.3470    14.0420     7.7690     7.2880    26.5090 
   36.0000    36.0000     0.0000     0.0000   -28.4710     2.0650    73.5200    14.6360     8.0050     7.4510    26.6460 
   36.1250    36.1250     0.0000     0.0000   -28.6950     2.0610    74.5990    15.2640     8.3270     7.5460    26.6700 
   36.2500    36.2500     0.0000     0.0000   -28.9010     2.0520    76.6200    15.9890     8.7490     7.1610    26.3440 
   36.3750    36.3750     0.0000     0.0000   -29.0980     2.0420    75.3780    16.8860     9.2850     6.6970    25.8540 
   36.5000    36.5000     0.0000     0.0000   -29.2270     2.0350    72.2240    17.9200     9.9050     7.2350    25.5700 
   36.6250    36.6250     0.0000     0.0000   -29.2640     2.0310    72.0270    18.8570    10.5100     7.9150    26.0810 
   36.7500    36.7500     0.0000     0.0000   -29.1900     2.0260    74.7680    19.4190    10.9640     8.3530    26.5460 
   36.8750    36.8750     0.0000     0.0000   -29.0120     2.0170    77.1300    19.4180    11.1420     8.4240    26.4330 
   37.0000    37.0000     0.0000     0.0000   -28.7320     2.0050    77.4130    18.8570    10.9750     8.7320    26.2620 
   37.1250    37.1250     0.0000     0.0000   -28.3830     1.9960    78.7310    17.9570    10.4960     8.6300    26.0710 
   37.2500    37.2500     0.0000     0.0000   -27.9930     2.0000    81.8320    17.1370     9.9530     8.0390    25.6690 
   37.3750    37.3750     0.0000     0.0000   -27.5950     2.0160    82.8100    16.6290     9.5140     6.9420    25.0800 
   37.5000    37.5000     0.0000     0.0000   -27.2300     2.0410    79.3990    16.5550     9.2960     6.0740    24.9620 
   37.6250    37.6250     0.0000     0.0000   -26.9230     2.0570    76.2460    17.0280     9.3960     6.6930    25.5070 
   37.7500    37.7500     0.0000     0.0000   -26.6470     2.0540    76.5720    17.8800     9.7570     8.2560    26.1960 
   37.8750    37.8750     0.0000     0.0000   -26.4120     2.0290    76.5200    18.9720    10.3290     9.3410    26.6670 
   38.0000    38.0000     0.0000     0.0000   -26.1670     1.9920    72.8540    20.2180    11.0570     9.6680    26.7600 
   38.1250    38.1250     0.0000     0.0000   -25.8800     1.9600    68.9070    21.6310    11.9400     9.9170    26.6330 
   38.2500    38.2500     0.0000     0.0000   -25.5380     1.9500    67.5040    23.0820    12.9170    10.3690    25.8530 
   38.3750    38.3750     0.0000     0.0000   -25.1000     1.9690    67.3010    24.1580    13.8010    11.1340    24.6580 
   38.5000    38.5000     0.0000     0.0000   -24.5310     2.0150    67.2980    24.1500    14.2010    11.9490    24.1470 
   38.6250    38.6250     0.0000     0.0000   -23.8560     2.0890    68.1830    22.1170    13.4700    12.5770    24.0870 
   38.7500    38.7500     0.0000     0.0000   -23.1570     2.1780    69.6990    18.6050    11.7520    12.7170    24.1630 
   38.8750    38.8750     0.0000     0.0000   -22.4810     2.2630    73.7370    14.6690     9.5650    10.5380    24.4430 
   39.0000    39.0000     0.0000     0.0000   -21.8940     2.3200    79.3580    11.3710     7.5240     6.5040    24.9240 
   39.1250    39.1250     0.0000     0.0000   -21.4280     2.3170    83.3290     9.3760     6.0830     4.8980    25.6330 
   39.2500    39.2500     0.0000     0.0000   -21.0790     2.2690    84.6650     8.3780     5.1870     4.6800    25.6070 
   39.3750    39.3750     0.0000     0.0000   -20.8430     2.2060    85.7850     8.0790     4.7380     4.8670    25.4530 
   39.5000    39.5000     0.0000     0.0000   -20.7460     2.1580    87.3190     8.1670     4.6080     5.0620    25.3540 
   39.6250    39.6250     0.0000     0.0000   -20.7680     2.1430    86.0870     8.3870     4.6810     5.2880    25.2730 
   39.7500    39.7500     0.0000     0.0000   -20.8980     2.1490    82.9610     8.6270     4.8230     5.7010    25.2610 
   39.8750    39.8750     0.0000     0.0000   -21.0820     2.1630    82.0010     8.9840     5.0270     5.9210    25.2580 
   40.0000    40.0000     0.0000     0.0000   -21.3610     2.1790    84.0490     9.6330     5.3520     5.6740    25.2520 
   40.1250    40.1250     0.0000     0.0000   -21.7200     2.2040    84.5130    10.7750     5.9090     5.7480    25.0920 
   40.2500    40.2500     0.0000     0.0000   -22.1120     2.2380    80.7080    12.2690     6.6790     7.1490    24.5220 
   40.3750    40.3750     0.0000     0.0000   -22.5170     2.2710    74.4780    13.8220     7.5600     8.9700    24.1180 
   40.5000    40.5000     0.0000     0.0000   -22.9480     2.2820    68.2770    15.0180     8.3490     8.7420    24.4490 
   40.6250    40.6250     0.0000     0.0000   -23.3460     2.2450    64.7880    15.3980     8.7670     8.2760    25.5260 
   40.7500    40.7500     0.0000     0.0000   -23.7070     2.1750    64.4850    15.1180     8.8070     8.0990    25.9520 
   40.8750    40.8750     0.0000     0.0000   -24.0140     2.0970    65.3330    14.5290     8.6020     8.1040    26.0020 
   41.0000    41.0000     0.0000     0.0000   -24.2230     2.0370    64.9530    14.0190     8.3640     8.0550    25.8660 
   41.1250    41.1250     0.0000     0.0000   -24.3150     2.0140    64.4470    13.8510     8.2820     8.2100    25.5540 
   41.2500    41.2500     0.0000     0.0000   -24.2890     2.0170    66.3980    14.0000     8.3790     8.3180    25.3300 
   41.3750    41.3750     0.0000     0.0000   -24.1630     2.0310    69.0140    14.4230     8.6210     8.4680    25.3760 
   41.5000    41.5000     0.0000     0.0000   -23.8920     2.0420    68.9790    15.0100     8.9500     8.7140    25.7240 
   41.6250    41.6250     0.0000     0.0000   -23.5140     2.0430    67.1100    15.4620     9.2320     8.8280    25.9150 
   41.7500    41.7500     0.0000     0.0000   -23.0100     2.0370    67.0640    15.4140     9.2810     8.9550    25.8930 
   41.8750    41.8750     0.0000     0.0000   -22.3920     2.0280    68.5040    14.6370     8.9530     9.1100    25.8740 
   42.0000    42.0000     0.0000     0.0000   -21.6390     2.0160    68.8960    13.1720     8.2240     8.9270    26.0780 
   42.1250    42.1250     0.0000     0.0000   -20.8180     1.9980    70.6160    11.3430     7.2140     7.6300    26.3090 
   42.2500    42.2500     0.0000     0.0000   -20.0190     1.9810    77.4920     9.6550     6.2000     5.6060    26.3110 
   42.3750    42.3750     0.0000     0.0000   -19.3150     1.9800    88.6940     8.3580     5.3370     4.1370    26.0980 
   42.5000    42.5000     0.0000     0.0000   -18.7640     2.0070    98.8100     7.5290     4.6880     3.6010    25.9970 
   42.6250    42.6250     0.0000     0.0000   -18.3920     2.0700   101.6260     7.1390     4.2700     3.5290    26.0110 
   42.7500    42.7500     0.0000     0.0000   -18.2140     2.1420   101.0610     6.9280     3.9890     3.4920    26.1080 
   42.8750    42.8750     0.0000     0.0000   -18.2750     2.1980   102.2560     6.7220     3.7870     3.4310    26.1920 
