~V
VERS. 2.00: Ver 2.00
~W
STRT.M 45.0000:
STOP.M 272.0000:
STEP.M 0.1250:
NULL. -999.2500:
UWI. FD11191:
~C
DEPT.M :
TVD. :
DX. :
DY. :
SP.MV :
GR.API :
RI. :
RML.OHMM :
RXO.OHMM :
DEN.GM/CC :
~A
# ...
   72.3750    72.3740    -0.0650    -0.1980   -52.4460    87.5120     6.2470     7.3350     9.5750     2.4020 
   72.5000    72.4990    -0.0660    -0.1990   -52.4980    83.5150     8.9250    10.7070    21.2850     2.5300 
   72.6250    72.6240    -0.0670    -0.2000   -52.6480    78.6460    12.7190    15.3350    31.7000     2.5900 
   72.7500    72.7490    -0.0680    -0.2000   -52.8690    73.9030    15.7920    18.7300    33.9500     2.5790 
   72.8750    72.8740    -0.0700    -0.2010   -53.1540    68.6540    16.2020    18.8070    29.4400     2.4950 
   73.0000    72.9990    -0.0710    -0.2020   -53.4850    64.7650    14.0790    15.8900    28.8560     2.3570 
   73.1250    73.1240    -0.0720    -0.2020   -53.8470    64.3590    10.5220    11.4900    30.2490     2.2070 
   73.2500    73.2490    -0.0730    -0.2030   -54.2160    65.3980     7.8090     8.4100    19.6510     2.1100 
   73.3750    73.3740    -0.0740    -0.2040   -54.5610    64.6660     6.4350     6.9510     8.6740     2.0780 
   73.5000    73.4990    -0.0760    -0.2040   -54.8610    61.1510     5.8320     6.3950     6.4950     2.0730 
   73.6250    73.6240    -0.0770    -0.2050   -55.0980    58.1570     5.6430     6.2890     6.3140     2.0700 
   73.7500    73.7490    -0.0780    -0.2060   -55.2770    58.1440     5.6730     6.4000     6.4020     2.0700 
   73.8750    73.8740    -0.0800    -0.2060   -55.4010    59.9590     5.8060     6.5720     6.5640     2.0710 
   74.0000    73.9990    -0.0810    -0.2070   -55.4890    62.4460     5.9020     6.6600     6.5700     2.0740 
   74.1250    74.1240    -0.0820    -0.2080   -55.5520    64.6150     5.9420     6.6640     6.5910     2.0750 
   74.2500    74.2490    -0.0840    -0.2080   -55.6040    66.2420     5.9360     6.6080     6.7080     2.0700 
   74.3750    74.3740    -0.0850    -0.2090   -55.6520    66.3300     5.8820     6.5070     6.6390     2.0580 
   74.5000    74.4990    -0.0860    -0.2090   -55.7020    65.6890     5.8100     6.4010     6.5170     2.0460 
   74.6250    74.6240    -0.0880    -0.2100   -55.7530    65.4930     5.7380     6.3050     6.5530     2.0400 
   74.7500    74.7490    -0.0890    -0.2100   -55.8050    66.8000     5.6730     6.2290     6.6010     2.0430 
   74.8750    74.8740    -0.0900    -0.2110   -55.8570    67.8180     5.6380     6.1970     6.5720     2.0540 
   75.0000    74.9990    -0.0920    -0.2110   -55.9060    67.3730     5.6380     6.2130     6.5260     2.0600 
   75.1250    75.1240    -0.0930    -0.2120   -55.9460    64.9380     5.6720     6.2630     6.5350     2.0610 
   75.2500    75.2490    -0.0950    -0.2120   -55.9730    62.5440     5.7130     6.3260     6.5640     2.0630 
   75.3750    75.3740    -0.0960    -0.2130   -55.9850    61.7470     5.7670     6.4020     6.6780     2.0660 
   75.5000    75.4990    -0.0980    -0.2130   -55.9820    60.6750     5.8020     6.4590     6.8550     2.0650 
   75.6250    75.6240    -0.0990    -0.2140   -55.9670    57.9900     5.8240     6.5060     6.9290     2.0680 
   75.7500    75.7490    -0.1010    -0.2140   -55.9430    55.4660     5.8290     6.5360     6.9770     2.0810 
   75.8750    75.8740    -0.1020    -0.2150   -55.9120    57.0870     5.8040     6.5280     7.0460     2.0960 
   76.0000    75.9990    -0.1040    -0.2150   -55.8750    60.5740     5.7620     6.4880     7.0300     2.0980 
   76.1250    76.1240    -0.1050    -0.2150   -55.8360    62.9180     5.7030     6.4300     6.8250     2.0860 
   76.2500    76.2490    -0.1070    -0.2160   -55.7950    63.8150     5.6470     6.3740     6.5880     2.0760 
   76.3750    76.3740    -0.1080    -0.2160   -55.7500    64.1640     5.6020     6.3300     6.6880     2.0840 
   76.5000    76.4990    -0.1100    -0.2160   -55.6970    64.3260     5.5480     6.2670     6.9310     2.1000 
   76.6250    76.6240    -0.1110    -0.2170   -55.6290    63.5270     5.5070     6.2170     6.9680     2.1090 
   76.7500    76.7490    -0.1130    -0.2170   -55.5470    62.7640     5.5680     6.2930     6.8920     2.1240 
   76.8750    76.8740    -0.1150    -0.2170   -55.4540    61.9690     5.7820     6.5700     6.8020     2.1940 
   77.0000    76.9990    -0.1160    -0.2170   -55.3660    60.9650     6.0810     6.9480     6.6670     2.3230 
   77.1250    77.1240    -0.1180    -0.2170   -55.3010    62.3530     6.3620     7.3020     6.3060     2.4270 
   77.2500    77.2490    -0.1200    -0.2180   -55.2730    65.7270     6.4890     7.4580     5.9430     2.4100 
   77.3750    77.3740    -0.1210    -0.2180   -55.2890    68.7070     6.3960     7.3220     6.0340     2.2800 
   77.5000    77.4990    -0.1230    -0.2180   -55.3420    68.2540     6.1600     7.0200     6.4440     2.1530 
   77.6250    77.6240    -0.1250    -0.2180   -55.4150    65.6490     5.8510     6.6440     6.6650     2.0990 
   77.7500    77.7490    -0.1260    -0.2180   -55.4850    63.8190     5.5940     6.3640     6.6760     2.0920 
   77.8750    77.8740    -0.1280    -0.2180   -55.5300    63.2430     5.5010     6.2900     6.8390     2.0970 
   78.0000    77.9990    -0.1300    -0.2180   -55.5410    64.6880     5.5380     6.3720     6.8800     2.1090 
   78.1250    78.1240    -0.1320    -0.2180   -55.5180    66.3460     5.6900     6.5780     6.6390     2.1520 
   78.2500    78.2490    -0.1340    -0.2180   -55.4730    64.9870     5.8490     6.7750     6.5050     2.2120 
   78.3750    78.3740    -0.1360    -0.2180   -55.4180    60.5990     5.9630     6.9100     6.6080     2.2320 
   78.5000    78.4990    -0.1370    -0.2180   -55.3620    58.2340     6.0150     6.9510     6.9040     2.1860 
   78.6250    78.6240    -0.1390    -0.2180   -55.3110    60.7840     5.9890     6.8820     7.2850     2.1240 
   78.7500    78.7490    -0.1410    -0.2180   -55.2640    63.1910     5.9120     6.7600     7.4140     2.1030 
   78.8750    78.8740    -0.1430    -0.2180   -55.2170    61.7630     5.8220     6.6490     7.0710     2.1160 
   79.0000    78.9990    -0.1450    -0.2180   -55.1670    57.9610     5.7470     6.5620     6.5870     2.1210 
   79.1250    79.1240    -0.1470    -0.2180   -55.1070    56.5890     5.6750     6.4860     6.3930     2.1070 
   79.2500    79.2480    -0.1490    -0.2180   -55.0390    59.6510     5.5920     6.3860     6.8060     2.0970 
   79.3750    79.3730    -0.1510    -0.2170   -54.9650    64.3330     5.4940     6.2580     7.2200     2.0990 
   79.5000    79.4980    -0.1530    -0.2170   -54.8920    67.9190     5.4020     6.1500     6.7750     2.1020 
   79.6250    79.6230    -0.1550    -0.2170   -54.8290    69.0830     5.3450     6.0980     6.5080     2.0910 
   79.7500    79.7480    -0.1570    -0.2170   -54.7810    67.0780     5.3360     6.1080     6.8780     2.0720 
   79.8750    79.8730    -0.1590    -0.2170   -54.7470    62.5620     5.3380     6.1280     6.8830     2.0650 
   80.0000    79.9980    -0.1610    -0.2160   -54.7200    60.4680     5.3140     6.1020     6.4120     2.0720 
   80.1250    80.1230    -0.1630    -0.2160   -54.6900    62.7820     5.2600     6.0270     5.9120     2.0860 
   80.2500    80.2480    -0.1660    -0.2160   -54.6540    65.6680     5.1920     5.9270     5.5960     2.0970 
   80.3750    80.3730    -0.1680    -0.2150   -54.6140    67.0130     5.1560     5.8710     5.6310     2.1010 
   80.5000    80.4980    -0.1700    -0.2150   -54.5770    69.0480     5.1890     5.9040     6.0930     2.0980 
   80.6250    80.6230    -0.1720    -0.2150   -54.5450    71.1560     5.3080     6.0390     6.7690     2.0870 
   80.7500    80.7480    -0.1740    -0.2140   -54.5150    70.4770     5.4940     6.2550     7.2490     2.0780 
   80.8750    80.8730    -0.1770    -0.2140   -54.4680    67.4870     5.6850     6.4700     7.1600     2.0800 
   81.0000    80.9980    -0.1790    -0.2140   -54.3810    64.8610     5.8470     6.6440     6.9160     2.0850 
   81.1250    81.1230    -0.1810    -0.2130   -54.2290    64.1880     5.9280     6.7110     7.1230     2.0800 
   81.2500    81.2480    -0.1840    -0.2130   -54.0050    64.8860     5.9340     6.6850     7.3510     2.0660 
   81.3750    81.3730    -0.1860    -0.2120   -53.7000    65.2290     5.8900     6.6080     7.3020     2.0520 
