~V
VERS. 2.00: Ver 2.00
~W
STRT.M 45.0000:
STOP.M 272.0000:
STEP.M 0.1250:
NULL. -999.2500:
UWI. FD11191:
~C
DEPT.M :
TVD. :
DX. :
DY. :
SP.MV :
GR.API :
RI. :
RML.OHMM :
RXO.OHMM :
DEN.GM/CC :
~A
# ...
   90.6250    90.6170    -0.4760    -0.1000   -52.0440    66.4440     5.3450     5.7890     7.6100     2.0610 
   90.7500    90.7420    -0.4820    -0.0970   -51.5260    65.7610     5.3100     5.7420     7.1030     2.0590 
   90.8750    90.8670    -0.4880    -0.0940   -51.0560    64.0390     5.6120     6.1300     6.9260     2.0960 
   91.0000    90.9920    -0.4940    -0.0910   -50.5030    61.6340     5.9740     6.5640    10.4440     2.1830 
   91.1250    91.1170    -0.5000    -0.0880   -49.8790    62.3850     6.0890     6.6920    19.3910     2.2920 
   91.2500    91.2420    -0.5060    -0.0850   -49.2390    67.8930     5.7730     6.2800    23.2030     2.3470 
   91.3750    91.3660    -0.5130    -0.0820   -48.6500    75.8970     4.9720     5.3030    15.1910     2.3130 
   91.5000    91.4910    -0.5190    -0.0790   -48.1710    84.1100     4.1290     4.3270     6.5540     2.2430 
   91.6250    91.6160    -0.5250    -0.0760   -47.8520    91.8620     3.4280     3.5630     4.1620     2.2070 
   91.7500    91.7410    -0.5320    -0.0730   -47.6890    97.8890     3.0360     3.1990     3.9900     2.2170 
   91.8750    91.8660    -0.5380    -0.0690   -47.6830   102.6600     3.0330     3.2780     3.7480     2.2320 
   92.0000    91.9900    -0.5450    -0.0660   -47.7950   105.7910     3.2500     3.5840     3.6890     2.2120 
   92.1250    92.1150    -0.5510    -0.0630   -47.9970   103.5040     3.6080     4.0180     4.5620     2.1520 
   92.2500    92.2400    -0.5580    -0.0600   -48.2420    93.3900     3.9150     4.3570     6.2910     2.0980 
   92.3750    92.3650    -0.5650    -0.0560   -48.4940    81.6640     4.0860     4.4920     7.2380     2.0960 
   92.5000    92.4890    -0.5720    -0.0530   -48.7320    75.4360     4.1830     4.5270     6.3940     2.1360 
   92.6250    92.6140    -0.5790    -0.0490   -48.9590    76.3700     4.4060     4.7030     4.8730     2.1910 
   92.7500    92.7390    -0.5860    -0.0450   -49.1980    77.6540     4.8570     5.1700     5.2880     2.2460 
   92.8750    92.8640    -0.5940    -0.0420   -49.4740    77.2580     5.5020     5.9050    11.3530     2.2870 
   93.0000    92.9880    -0.6010    -0.0380   -49.7890    75.0490     6.3040     6.8210    18.9430     2.2730 
   93.1250    93.1130    -0.6080    -0.0340   -50.1340    73.3920     6.8210     7.3660    17.6380     2.1930 
   93.2500    93.2380    -0.6160    -0.0300   -50.4810    71.0030     6.8950     7.3960    10.7320     2.1050 
   93.3750    93.3620    -0.6240    -0.0260   -50.8000    66.8970     6.5430     6.9620     7.2000     2.0630 
   93.5000    93.4870    -0.6310    -0.0220   -51.0720    63.9730     5.9370     6.3040     6.8290     2.0570 
   93.6250    93.6120    -0.6390    -0.0180   -51.2820    65.5930     5.5190     5.9100     6.4440     2.0570 
   93.7500    93.7370    -0.6470    -0.0130   -51.4420    70.3870     5.3320     5.7780     6.2250     2.0570 
   93.8750    93.8610    -0.6550    -0.0090   -51.5580    73.0090     5.3040     5.7990     6.1140     2.0590 
   94.0000    93.9860    -0.6630    -0.0050   -51.6470    73.3640     5.3130     5.8270     6.0190     2.0580 
   94.1250    94.1110    -0.6720     0.0000   -51.7110    75.1160     5.3460     5.8590     5.9790     2.0580 
   94.2500    94.2350    -0.6800     0.0040   -51.7530    76.6460     5.4120     5.9110     6.0970     2.0610 
   94.3750    94.3600    -0.6880     0.0080   -51.7680    75.0360     5.6360     6.1430     6.5670     2.0640 
   94.5000    94.4840    -0.6970     0.0130   -51.7580    72.1150     6.1280     6.7060     7.2920     2.0740 
   94.6250    94.6090    -0.7050     0.0170   -51.7260    69.7680     6.9120     7.6200     8.1340     2.1270 
   94.7500    94.7340    -0.7140     0.0220   -51.6840    67.4430     7.9490     8.8250     9.1380     2.2510 
   94.8750    94.8580    -0.7230     0.0260   -51.6500    64.6890     8.9100     9.8850    10.1470     2.4230 
   95.0000    94.9830    -0.7320     0.0310   -51.6370    62.6940     9.4520    10.4080    10.8080     2.5450 
   95.1250    95.1070    -0.7410     0.0350   -51.6620    62.4120     9.3340    10.1340    10.5370     2.5120 
   95.2500    95.2320    -0.7500     0.0400   -51.7250    64.0560     8.5660     9.1380     9.4220     2.3460 
   95.3750    95.3570    -0.7590     0.0450   -51.8180    65.1750     7.4900     7.8810     8.0360     2.1640 
   95.5000    95.4810    -0.7680     0.0500   -51.9180    64.2870     6.5110     6.8230     6.9020     2.0620 
   95.6250    95.6060    -0.7770     0.0540   -52.0010    62.8660     5.9130     6.2450     6.2300     2.0420 
   95.7500    95.7300    -0.7860     0.0590   -52.0520    63.3930     5.6500     6.0560     5.9010     2.0480 
   95.8750    95.8550    -0.7960     0.0640   -52.0620    63.7210     5.6300     6.1020     5.9690     2.0550 
   96.0000    95.9790    -0.8050     0.0690   -52.0460    61.2660     5.7290     6.2370     6.3690     2.0550 
   96.1250    96.1040    -0.8150     0.0740   -52.0190    59.2700     5.9590     6.4950     6.9680     2.0530 
   96.2500    96.2280    -0.8250     0.0790   -52.0000    60.9100     6.3470     6.9080     7.6490     2.0800 
   96.3750    96.3530    -0.8340     0.0850   -51.9980    62.8190     7.0710     7.7130     8.4570     2.1720 
   96.5000    96.4780    -0.8440     0.0900   -52.0120    62.0470     8.0480     8.8120     9.3940     2.3220 
   96.6250    96.6020    -0.8540     0.0950   -52.0340    61.0770     9.0470     9.9430    10.3520     2.4670 
   96.7500    96.7260    -0.8640     0.1000   -52.0610    62.9910     9.7580    10.7180    11.0640     2.5490 
   96.8750    96.8510    -0.8740     0.1060   -52.1000    64.5430     9.7760    10.6720    11.0420     2.5650 
   97.0000    96.9750    -0.8840     0.1110   -52.1600    64.7820     9.1750     9.9150    10.3560     2.5310 
   97.1250    97.1000    -0.8940     0.1170   -52.2460    65.8470     8.1490     8.7040     9.2560     2.4210 
   97.2500    97.2240    -0.9050     0.1220   -52.3510    67.4420     7.1020     7.5400     8.2490     2.2510 
   97.3750    97.3490    -0.9150     0.1280   -52.4610    66.4840     6.2740     6.6730     7.4610     2.1100 
   97.5000    97.4730    -0.9250     0.1330   -52.5640    65.5590     5.7930     6.2220     6.8600     2.0520 
   97.6250    97.5980    -0.9360     0.1390   -52.6480    68.0420     5.5670     6.0490     6.5760     2.0510 
   97.7500    97.7220    -0.9460     0.1440   -52.7110    69.1030     5.5250     6.0690     6.5400     2.0540 
   97.8750    97.8470    -0.9570     0.1500   -52.7540    65.5470     5.5680     6.1540     6.6430     2.0510 
   98.0000    97.9710    -0.9680     0.1560   -52.7810    62.5700     5.6220     6.2240     6.6970     2.0500 
   98.1250    98.0950    -0.9780     0.1620   -52.7990    63.8070     5.6500     6.2530     6.6660     2.0490 
   98.2500    98.2200    -0.9890     0.1670   -52.8140    65.3170     5.6520     6.2430     6.6740     2.0520 
   98.3750    98.3440    -1.0000     0.1730   -52.8330    63.6010     5.6400     6.2180     6.6550     2.0600 
   98.5000    98.4690    -1.0110     0.1790   -52.8580    62.1860     5.6230     6.1870     6.6370     2.0640 
   98.6250    98.5930    -1.0220     0.1850   -52.8890    63.3340     5.6060     6.1650     6.7000     2.0670 
   98.7500    98.7170    -1.0330     0.1910   -52.9220    65.1050     5.5910     6.1540     6.8230     2.0720 
   98.8750    98.8420    -1.0450     0.1970   -52.9540    64.7380     5.5820     6.1580     6.9850     2.0770 
   99.0000    98.9660    -1.0560     0.2030   -52.9830    64.0320     5.5720     6.1660     7.1230     2.0750 
   99.1250    99.0900    -1.0670     0.2090   -53.0070    63.2380     5.5520     6.1620     7.1620     2.0690 
   99.2500    99.2150    -1.0790     0.2150   -53.0280    62.3170     5.5170     6.1450     7.1450     2.0600 
   99.3750    99.3390    -1.0900     0.2210   -53.0480    62.1960     5.4730     6.1200     7.1690     2.0490 
   99.5000    99.4630    -1.1020     0.2270   -53.0710    63.5100     5.4350     6.0950     7.2960     2.0390 
   99.6250    99.5880    -1.1130     0.2330   -53.0980    64.7840     5.4140     6.0850     7.3900     2.0290 
