~V
VERS. 2.00: Ver 2.00
~W
STRT.M 20.0000:
STOP.M 286.0000:
STEP.M 0.1250:
NULL. -999.2500:
UWI. FD11156:
~C
DEPT.M :
TVD. :
DX. :
DY. :
DEN.GM/CC :
GR.API :
RML.OHMM :
RI. :
RXO.OHMM :
CALI.CM :
SP.MV :
~A
# ...
  242.7500   237.9120    14.0340   -31.4540     2.2600    55.1750    28.8670    26.2430    22.7140    20.7050   -19.5640 
  242.8750   238.0290    14.0520   -31.4940     2.2650    57.4010    29.6180    26.9250    24.7510    20.7050   -19.6180 
  243.0000   238.1460    14.0700   -31.5340     2.2810    56.3970    30.0480    27.3160    26.7150    20.7050   -19.6400 
  243.1250   238.2630    14.0880   -31.5740     2.3090    56.4060    30.3030    27.5480    26.9250    20.7050   -19.7120 
  243.2500   238.3800    14.1060   -31.6140     2.3440    60.2980    30.6970    27.9070    25.3730    20.7050   -19.8110 
  243.3750   238.4970    14.1240   -31.6540     2.3750    66.2370    31.4660    28.6050    24.3340    20.7050   -19.8690 
  243.5000   238.6140    14.1420   -31.6940     2.3930    70.4140    32.7300    29.7550    24.3130    20.7050   -19.9080 
  243.6250   238.7310    14.1600   -31.7340     2.3930    70.9650    34.4570    31.3240    25.1120    20.7060   -19.9410 
  243.7500   238.8480    14.1780   -31.7740     2.3810    68.8530    36.1900    32.9000    26.2810    20.7130   -19.8980 
  243.8750   238.9660    14.1950   -31.8140     2.3660    65.7740    37.3700    33.9730    28.8050    20.7540   -19.8190 
  244.0000   239.0830    14.2130   -31.8540     2.3550    64.9370    37.4430    34.0400    31.5760    20.7660   -19.7360 
  244.1250   239.2000    14.2310   -31.8940     2.3450    66.7320    36.0220    32.7470    33.1560    20.7160   -19.5910 
  244.2500   239.3170    14.2490   -31.9340     2.3330    67.5230    33.7540    30.6860    31.2950    20.7070   -19.3730 
  244.3750   239.4340    14.2670   -31.9740     2.3160    64.7950    31.3010    28.4560    27.8690    20.7050   -19.1500 
  244.5000   239.5510    14.2850   -32.0140     2.2950    60.4560    29.2210    26.5640    24.5770    20.7050   -18.8870 
  244.6250   239.6680    14.3030   -32.0540     2.2760    57.0500    27.9050    25.3680    22.7170    20.7160   -18.5920 
  244.7500   239.7850    14.3210   -32.0940     2.2620    54.6070    27.1840    24.7130    23.2600    20.7770   -18.3520 
  244.8750   239.9020    14.3390   -32.1340     2.2550    55.2430    26.7890    24.3540    24.4480    20.8890   -18.1400 
  245.0000   240.0190    14.3560   -32.1740     2.2560    58.9440    26.3730    23.9760    24.2740    20.9330   -17.9220 
  245.1250   240.1360    14.3740   -32.2140     2.2650    62.2740    25.5450    23.2230    22.9640    20.9630   -17.7480 
  245.2500   240.2530    14.3920   -32.2540     2.2760    61.8350    24.2490    22.0440    21.2870    21.0120   -17.6070 
  245.3750   240.3700    14.4100   -32.2940     2.2860    58.4110    22.6380    20.5800    19.6130    21.0200   -17.4890 
  245.5000   240.4870    14.4280   -32.3340     2.2930    55.9720    21.0080    19.0980    17.5630    21.0220   -17.4200 
  245.6250   240.6050    14.4460   -32.3740     2.2960    56.3420    19.7290    17.9350    15.9540    21.0230   -17.3390 
  245.7500   240.7220    14.4640   -32.4140     2.2990    58.2110    18.9580    17.2350    14.9840    21.0310   -17.2430 
  245.8750   240.8390    14.4820   -32.4540     2.3020    59.4550    18.7730    17.0660    14.7360    21.0810   -17.1830 
  246.0000   240.9560    14.5000   -32.4940     2.3070    59.5680    19.1270    17.3880    15.3220    21.1490   -17.1140 
  246.1250   241.0730    14.5170   -32.5340     2.3140    60.3550    19.8410    18.0370    16.6240    21.1610   -17.0180 
  246.2500   241.1900    14.5360   -32.5750     2.3190    61.6840    20.5340    18.6670    17.4150    21.1630   -16.9640 
  246.3750   241.3060    14.5540   -32.6160     2.3190    61.2340    20.9500    19.0450    17.3470    21.1630   -16.8880 
  246.5000   241.4230    14.5720   -32.6560     2.3150    59.8240    21.0020    19.0930    17.3490    21.1630   -16.7720 
  246.6250   241.5400    14.5900   -32.6970     2.3080    59.5830    20.8160    18.9240    17.6860    21.1660   -16.7160 
  246.7500   241.6570    14.6080   -32.7380     2.3000    59.3960    20.7140    18.8310    17.6250    21.1800   -16.6520 
  246.8750   241.7730    14.6270   -32.7790     2.2950    57.7600    20.9140    19.0120    17.2730    21.2200   -16.5240 
  247.0000   241.8900    14.6450   -32.8200     2.2950    55.2310    21.5130    19.5580    17.6450    21.2370   -16.4170 
  247.1250   242.0070    14.6640   -32.8610     2.3020    54.9480    22.5220    20.4750    19.1980    21.2400   -16.3230 
  247.2500   242.1230    14.6820   -32.9020     2.3100    55.3980    23.6860    21.5330    20.3130    21.2400   -16.1900 
  247.3750   242.2400    14.7010   -32.9430     2.3160    57.1570    24.7480    22.4980    20.4810    21.2400   -16.0940 
  247.5000   242.3560    14.7190   -32.9840     2.3170    61.9350    25.4930    23.1750    20.3810    21.2400   -16.0130 
  247.6250   242.4730    14.7380   -33.0250     2.3100    67.9170    25.7700    23.4280    20.7370    21.2470   -15.8890 
  247.7500   242.5890    14.7560   -33.0670     2.2970    71.4080    25.6860    23.3510    21.5440    21.3130   -15.8140 
  247.8750   242.7060    14.7740   -33.1080     2.2830    70.1230    25.2930    22.9940    22.0800    21.5590   -15.8080 
  248.0000   242.8230    14.7930   -33.1490     2.2740    66.4360    24.6550    22.4140    22.0850    22.0090   -15.7920 
  248.1250   242.9390    14.8110   -33.1900     2.2750    66.2830    23.9090    21.7350    21.8200    21.6000   -15.7820 
  248.2500   243.0560    14.8300   -33.2310     2.2910    69.8000    23.2650    21.1500    21.3200    20.5620   -15.8040 
  248.3750   243.1720    14.8480   -33.2720     2.3200    72.7260    22.8560    20.7780    20.3650    19.7370   -15.7900 
  248.5000   243.2890    14.8670   -33.3130     2.3510    72.0080    22.7210    20.6550    19.2430    19.4810   -15.7980 
  248.6250   243.4060    14.8850   -33.3540     2.3670    72.2430    22.7950    20.7230    18.1400    19.4560   -15.8510 
  248.7500   243.5220    14.9040   -33.3950     2.3590    77.9110    22.8910    20.8100    16.9670    19.4760   -15.8490 
  248.8750   243.6390    14.9220   -33.4370     2.3320    87.7570    22.9240    20.8400    16.3030    19.6210   -15.8340 
  249.0000   243.7550    14.9400   -33.4780     2.2990    98.3200    22.9070    20.8240    16.9750    20.0100   -15.8640 
  249.1250   243.8720    14.9590   -33.5190     2.2800   104.3920    22.9200    20.8360    18.2670    20.5150   -15.8840 
  249.2500   243.9890    14.9770   -33.5600     2.2760   106.0580    23.0100    20.9180    19.1480    20.5560   -15.9030 
  249.3750   244.1050    14.9960   -33.6010     2.2820   106.6270    23.1970    21.0880    19.7850    20.4940   -15.9730 
  249.5000   244.2220    15.0140   -33.6420     2.2860   106.1400    23.4760    21.3420    19.6330    20.4620   -16.0400 
  249.6250   244.3380    15.0330   -33.6830     2.2770   100.9630    23.8440    21.6770    19.1910    20.4960   -16.0690 
  249.7500   244.4550    15.0510   -33.7240     2.2600    96.6850    24.2880    22.0800    19.0560    20.7010   -16.1310 
  249.8750   244.5720    15.0700   -33.7650     2.2400    99.2530    24.7980    22.5440    19.9690    21.3440   -16.2160 
  250.0000   244.6880    15.0880   -33.8070     2.2260   107.9940    25.3380    23.0350    21.9870    22.4070   -16.2710 
  250.1250   244.8050    15.1070   -33.8480     2.2300   118.1540    25.8290    23.4810    24.5010    22.3010   -16.3270 
  250.2500   244.9210    15.1250   -33.8890     2.2490   124.4980    26.1880    23.8070    26.3160    21.2370   -16.4110 
  250.3750   245.0380    15.1430   -33.9300     2.2820   125.3190    26.3830    23.9850    25.2990    19.9420   -16.4440 
  250.5000   245.1550    15.1620   -33.9710     2.3210   119.3520    26.4430    24.0390    23.3230    19.2050   -16.4470 
  250.6250   245.2710    15.1800   -34.0120     2.3520   109.4540    26.4580    24.0530    22.5760    18.8860   -16.4870 
  250.7500   245.3880    15.1990   -34.0530     2.3610   100.5250    26.5710    24.1550    24.3430    18.8500   -16.5110 
  250.8750   245.5040    15.2170   -34.0940     2.3440    91.6000    26.8950    24.4500    29.5020    18.9220   -16.5030 
