~V
VERS. 2.00: Ver 2.00
~W
STRT.M 15.0000:
STOP.M 224.0000:
STEP.M 0.1250:
NULL. -999.2500:
UWI. FD11007:
~C
DEPT.M :
TVD. :
DX. :
DY. :
DEN.GM/CC :
GR.API :
RML.OHMM :
RI. :
RXO.OHMM :
CALI.CM :
SP.MV :
~A
# ...
   81.0000    81.0000     0.0000     0.0000     2.2370    66.0220     8.5850     6.2300     9.2730    26.6140   -33.4730 
   81.1250    81.1250     0.0000     0.0000     2.3330    67.3660     8.6740     6.3080    10.9980    26.3860   -31.7370 
   81.2500    81.2500     0.0000     0.0000     2.3880    73.9080     8.6370     6.3170    12.6410    26.1890   -30.0760 
   81.3750    81.3750     0.0000     0.0000     2.3850    83.6900     8.4470     6.2310    10.2910    26.0800   -28.5510 
   81.5000    81.5000     0.0000     0.0000     2.3490    91.5790     8.1540     6.0690     7.1130    26.0530   -27.2450 
   81.6250    81.6250     0.0000     0.0000     2.3180    94.9090     7.8740     5.8870     6.6440    26.0490   -26.2490 
   81.7500    81.7500     0.0000     0.0000     2.3030    95.4800     7.6960     5.7460     7.0850    26.0580   -25.6480 
   81.8750    81.8750     0.0000     0.0000     2.2940    93.0560     7.6270     5.6620     7.6240    26.1440   -25.3740 
   82.0000    82.0000     0.0000     0.0000     2.2830    87.8140     7.6200     5.6200     8.1280    26.3630   -25.4060 
   82.1250    82.1250     0.0000     0.0000     2.2690    82.9050     7.5930     5.5820     7.6880    26.6450   -25.6960 
   82.2500    82.2500     0.0000     0.0000     2.2610    80.3700     7.5160     5.5250     7.0480    26.8180   -26.2110 
   82.3750    82.3750     0.0000     0.0000     2.2620    78.1430     7.4270     5.4620     6.4510    26.8040   -26.8990 
   82.5000    82.5000     0.0000     0.0000     2.2700    75.9660     7.4040     5.4340     5.9970    26.6420   -27.7600 
   82.6250    82.6250     0.0000     0.0000     2.2760    76.4400     7.5390     5.4990     5.9050    26.4520   -28.7710 
   82.7500    82.7500     0.0000     0.0000     2.2770    77.3970     7.8210     5.6610     6.3090    26.3330   -29.9260 
   82.8750    82.8750     0.0000     0.0000     2.2720    76.4220     8.2090     5.9050     7.3610    26.2930   -31.2240 
   83.0000    83.0000     0.0000     0.0000     2.2630    72.5310     8.6450     6.1970     8.6450    26.2920   -32.6250 
   83.1250    83.1250     0.0000     0.0000     2.2540    68.9690     9.0590     6.4950     9.6690    26.2970   -34.0530 
   83.2500    83.2500     0.0000     0.0000     2.2470    66.7640     9.3950     6.7560    10.1580    26.3520   -35.4310 
   83.3750    83.3750     0.0000     0.0000     2.2400    64.6310     9.6220     6.9480    10.7320    26.4890   -36.6990 
   83.5000    83.5000     0.0000     0.0000     2.2320    62.5920     9.7210     7.0540    11.9190    26.6650   -37.7880 
   83.6250    83.6250     0.0000     0.0000     2.2210    62.1420     9.6810     7.0530    12.7730    26.8020   -38.6390 
   83.7500    83.7500     0.0000     0.0000     2.2090    62.8700     9.5460     6.9750    11.3840    26.9480   -39.2410 
   83.8750    83.8750     0.0000     0.0000     2.2010    62.5350     9.3510     6.8420    10.2460    27.1670   -39.6630 
   84.0000    84.0000     0.0000     0.0000     2.1990    61.7100     9.1330     6.6810     9.8160    27.4040   -39.9330 
   84.1250    84.1250     0.0000     0.0000     2.1990    62.5830     8.9420     6.5300     9.7570    27.4750   -40.1220 
   84.2500    84.2500     0.0000     0.0000     2.1940    63.5120     8.8190     6.4220     9.7660    27.3490   -40.2810 
   84.3750    84.3750     0.0000     0.0000     2.1840    63.3150     8.8020     6.3860     9.9290    27.1150   -40.4150 
   84.5000    84.5000     0.0000     0.0000     2.1750    62.7840     8.9170     6.4380    10.0720    26.9350   -40.5370 
   84.6250    84.6250     0.0000     0.0000     2.1780    62.7700     9.1790     6.5920    10.1400    26.9720   -40.6600 
   84.7500    84.7500     0.0000     0.0000     2.1960    62.9960     9.5130     6.8030    10.6210    27.1390   -40.7250 
   84.8750    84.8750     0.0000     0.0000     2.2180    63.4840     9.8260     7.0180    11.8270    27.2870   -40.7120 
   85.0000    85.0000     0.0000     0.0000     2.2290    63.8160    10.0140     7.1750    12.8320    27.3450   -40.6730 
   85.1250    85.1250     0.0000     0.0000     2.2180    62.0510     9.9800     7.2050    12.0400    27.3390   -40.6280 
   85.2500    85.2500     0.0000     0.0000     2.1980    58.7110     9.7860     7.1280    10.9410    27.3040   -40.5640 
   85.3750    85.3750     0.0000     0.0000     2.1800    58.3270     9.5300     6.9880    10.3510    27.2560   -40.5120 
   85.5000    85.5000     0.0000     0.0000     2.1730    62.9340     9.3090     6.8380    10.3970    27.2520   -40.4880 
   85.6250    85.6250     0.0000     0.0000     2.1740    65.7280     9.1890     6.7200    10.5870    27.3300   -40.4670 
   85.7500    85.7500     0.0000     0.0000     2.1800    63.3500     9.1380     6.6320    10.6940    27.4290   -40.4190 
   85.8750    85.8750     0.0000     0.0000     2.1860    60.8760     9.1030     6.5570    10.6050    27.4960   -40.3350 
   86.0000    86.0000     0.0000     0.0000     2.1930    62.3560     9.0380     6.4750    10.4180    27.5280   -40.1930 
   86.1250    86.1250     0.0000     0.0000     2.2000    65.0130     8.9100     6.3710    10.2780    27.5600   -40.0120 
   86.2500    86.2500     0.0000     0.0000     2.1980    65.4140     8.7580     6.2600    10.1040    27.6450   -39.8700 
   86.3750    86.3750     0.0000     0.0000     2.1760    64.4090     8.6530     6.1760    10.0610    27.7980   -39.7750 
   86.5000    86.5000     0.0000     0.0000     2.1300    63.1150     8.6960     6.1750    10.0910    27.9710   -39.7040 
   86.6250    86.6250     0.0000     0.0000     2.0820    60.0260     9.0250     6.3400    10.1750    28.0860   -39.6600 
   86.7500    86.7500     0.0000     0.0000     2.0750    57.0590     9.6040     6.6640    10.6540    28.1170   -39.6640 
   86.8750    86.8750     0.0000     0.0000     2.1390    58.1530    10.3210     7.0970    12.9050    27.9890   -39.6830 
   87.0000    87.0000     0.0000     0.0000     2.2710    64.1310    10.9700     7.5340    20.2380    27.6610   -39.6890 
   87.1250    87.1250     0.0000     0.0000     2.3880    69.3260    11.2370     7.8000    32.7990    27.2900   -39.6910 
   87.2500    87.2500     0.0000     0.0000     2.4000    68.9660    11.0560     7.8180    29.9180    27.1480   -39.6820 
   87.3750    87.3750     0.0000     0.0000     2.3210    66.5370    10.5300     7.6090    17.7570    27.3350   -39.6460 
   87.5000    87.5000     0.0000     0.0000     2.2170    66.9460     9.8920     7.2810    11.8560    27.7480   -39.5680 
   87.6250    87.6250     0.0000     0.0000     2.1500    67.3510     9.4150     6.9800    10.4440    28.1380   -39.4360 
   87.7500    87.7500     0.0000     0.0000     2.1300    64.8720     9.1920     6.7910    10.0100    28.3020   -39.1760 
   87.8750    87.8750     0.0000     0.0000     2.1400    61.9270     9.2000     6.7290     9.7430    28.2640   -38.8000 
   88.0000    88.0000     0.0000     0.0000     2.1450    62.3740     9.3370     6.7540     9.7580    28.2310   -38.3040 
   88.1250    88.1250     0.0000     0.0000     2.1040    65.2330     9.4360     6.7810     9.9970    28.3650   -37.6450 
   88.2500    88.2500     0.0000     0.0000     2.0280    66.2870     9.3660     6.7230    10.1480    28.5560   -36.7430 
   88.3750    88.3750     0.0000     0.0000     1.9480    66.0300     9.0880     6.5430    10.0390    28.6960   -35.6690 
   88.5000    88.5000     0.0000     0.0000     1.8980    65.6690     8.6530     6.2590     9.4900    28.6740   -34.4980 
   88.6250    88.6250     0.0000     0.0000     1.9090    66.1540     8.1910     5.9370     8.1590    28.2740   -33.2990 
   88.7500    88.7500     0.0000     0.0000     1.9700    69.5480     7.8460     5.6740     6.5860    27.5710   -32.2240 
   88.8750    88.8750     0.0000     0.0000     2.0530    74.8030     7.6920     5.5260     5.8790    26.8370   -31.3950 
   89.0000    89.0000     0.0000     0.0000     2.1230    77.9000     7.7260     5.5090     6.1500    26.3520   -30.8120 
   89.1250    89.1250     0.0000     0.0000     2.1550    74.9560     7.8800     5.6080     7.4930    26.1800   -30.4400 
