~V
VERS. 2.00: Ver 2.00
~W
STRT.M 10.0000:
STOP.M 230.0000:
STEP.M 0.1250:
NULL. -999.2500:
UWI. FD11119:
~C
DEPT.M :
TVD. :
DX. :
DY. :
SP.MV :
DEN.GM/CC :
GR.API :
RML.OHMM :
RI. :
RXO.OHMM :
CALI.CM :
~A
# ...
  117.2500   116.1640    -9.8360    -3.4110   -17.9360     2.2770    93.8760     6.1030     5.0120     5.0410    21.4780 
  117.3750   116.2840    -9.8690    -3.4240   -18.1460     2.2720    92.9270     6.1780     5.0180     5.1270    21.4810 
  117.5000   116.4040    -9.9010    -3.4370   -18.3290     2.2660    89.4370     6.1500     5.0370     5.2530    21.4810 
  117.6250   116.5240    -9.9340    -3.4500   -18.5060     2.2540    85.6740     6.0800     5.0380     5.2270    21.4770 
  117.7500   116.6440    -9.9660    -3.4630   -18.6490     2.2350    81.7100     6.1360     5.0650     5.2080    21.4730 
  117.8750   116.7640    -9.9990    -3.4760   -18.7790     2.2130    78.6570     6.4790     5.2250     5.5020    21.4790 
  118.0000   116.8840   -10.0310    -3.4890   -18.8350     2.1990    77.2460     7.2430     5.6600     6.0950    21.4670 
  118.1250   117.0040   -10.0640    -3.5020   -18.9160     2.2140    75.8880     8.5730     6.5690     6.4840    21.4800 
  118.2500   117.1240   -10.0970    -3.5150   -19.0510     2.2670    72.8210    10.2820     7.9020     7.0750    21.4850 
  118.3750   117.2440   -10.1290    -3.5280   -19.2780     2.3560    68.0050    12.0230     9.4680     9.2390    21.5020 
  118.5000   117.3640   -10.1620    -3.5410   -19.6400     2.4600    63.3730    13.2100    10.8080    12.0330    21.5390 
  118.6250   117.4840   -10.1940    -3.5540   -20.1650     2.5310    61.3140    13.1000    11.1830    13.2480    21.5950 
  118.7500   117.6040   -10.2270    -3.5670   -20.8170     2.5360    62.2870    11.9870    10.6190    11.9520    21.7050 
  118.8750   117.7240   -10.2590    -3.5800   -21.5340     2.4780    65.8920    10.4830     9.5430     9.8460    21.7500 
  119.0000   117.8440   -10.2920    -3.5930   -22.3250     2.3830    68.6860     9.1380     8.4470     8.8760    21.7570 
  119.1250   117.9640   -10.3240    -3.6060   -23.0620     2.2930    67.0570     8.2430     7.6720     8.0440    21.7570 
  119.2500   118.0840   -10.3570    -3.6190   -23.6980     2.2290    63.4210     7.7100     7.2330     7.5850    21.7570 
  119.3750   118.2040   -10.3890    -3.6320   -24.1370     2.1980    63.8140     7.4690     7.0870     7.3550    21.7570 
  119.5000   118.3240   -10.4220    -3.6450   -24.3750     2.1940    69.9040     7.4630     7.1570     7.1340    21.7570 
  119.6250   118.4440   -10.4550    -3.6580   -24.3000     2.2030    73.4070     7.6280     7.3390     6.9390    21.7570 
  119.7500   118.5640   -10.4880    -3.6720   -23.9810     2.2100    69.5480     7.7740     7.4650     6.9990    21.7570 
  119.8750   118.6830   -10.5210    -3.6860   -23.4560     2.2060    63.7320     7.7360     7.4010     7.0890    21.7570 
  120.0000   118.8030   -10.5550    -3.7000   -22.7690     2.1940    62.0700     7.4290     7.0890     7.0240    21.7570 
  120.1250   118.9220   -10.5880    -3.7150   -22.0330     2.1830    65.3640     6.8990     6.5800     6.5820    21.7570 
  120.2500   119.0420   -10.6220    -3.7290   -21.3160     2.1860    68.5840     6.3650     6.0690     5.8550    21.7570 
  120.3750   119.1620   -10.6550    -3.7430   -20.7180     2.2050    70.4660     5.9780     5.6900     5.2300    21.7570 
  120.5000   119.2810   -10.6890    -3.7570   -20.2170     2.2340    70.9870     5.8010     5.5090     4.9930    21.7570 
  120.6250   119.4010   -10.7220    -3.7710   -19.8830     2.2580    69.6760     5.8140     5.5250     5.2290    21.7570 
  120.7500   119.5200   -10.7550    -3.7860   -19.6310     2.2610    68.5440     5.8780     5.6210     5.4380    21.7570 
  120.8750   119.6400   -10.7890    -3.8000   -19.4750     2.2410    67.9930     5.9410     5.7330     5.6660    21.7570 
  121.0000   119.7600   -10.8220    -3.8140   -19.3560     2.2060    67.7400     6.0790     5.8670     5.8240    21.7570 
  121.1250   119.8790   -10.8560    -3.8280   -19.1850     2.1780    68.7550     6.5330     6.1490     5.7030    21.7490 
  121.2500   119.9990   -10.8890    -3.8420   -18.9680     2.1780    69.6200     7.3810     6.6750     5.4690    21.7140 
  121.3750   120.1190   -10.9230    -3.8570   -18.6920     2.2210    68.1400     8.5310     7.4580     5.6440    21.6860 
  121.5000   120.2380   -10.9560    -3.8710   -18.3600     2.3040    63.9520     9.6540     8.3390     6.8030    21.6800 
  121.6250   120.3580   -10.9890    -3.8850   -17.9540     2.4060    62.2050    10.1240     8.8870     9.1420    21.6800 
  121.7500   120.4770   -11.0230    -3.8990   -17.5600     2.4790    64.9270     9.8200     8.8720    10.2060    21.6800 
  121.8750   120.5970   -11.0560    -3.9130   -17.1390     2.4960    68.7910     9.1390     8.4500     8.4230    21.6800 
  122.0000   120.7170   -11.0900    -3.9280   -16.7600     2.4600    70.5950     8.7300     8.0530     6.4300    21.6800 
  122.1250   120.8360   -11.1230    -3.9420   -16.4640     2.4080    68.4880     9.2660     8.2220     6.0690    21.6800 
  122.2500   120.9560   -11.1560    -3.9560   -16.2050     2.3850    63.7360    10.8410     9.1790     6.9680    21.6800 
  122.3750   121.0750   -11.1900    -3.9700   -15.9590     2.4090    58.4510    13.4410    11.0540     9.2110    21.6800 
  122.5000   121.1950   -11.2230    -3.9840   -15.7710     2.4720    53.0280    17.4710    13.7920    11.5260    21.6800 
  122.6250   121.3150   -11.2570    -3.9990   -15.6230     2.5450    47.1650    20.9570    16.9240    12.4060    21.6800 
  122.7500   121.4340   -11.2900    -4.0130   -15.5240     2.5920    43.8880    23.3920    19.4230    12.5230    21.6800 
  122.8750   121.5540   -11.3240    -4.0270   -15.5110     2.6040    45.7930    24.2820    20.6510    12.5130    21.6800 
  123.0000   121.6730   -11.3570    -4.0410   -15.5450     2.5890    48.9610    23.9000    20.6730    12.3870    21.6800 
  123.1250   121.7930   -11.3900    -4.0550   -15.6040     2.5690    47.8770    22.9840    20.0640    12.2580    21.6800 
  123.2500   121.9130   -11.4240    -4.0700   -15.7120     2.5590    46.3560    22.2760    19.5190    12.0010    21.6800 
  123.3750   122.0320   -11.4570    -4.0840   -15.8710     2.5600    48.5550    22.0600    19.2990    11.5890    21.6800 
  123.5000   122.1520   -11.4910    -4.0980   -16.0200     2.5670    51.7850    22.3950    19.4710    11.2860    21.6800 
  123.6250   122.2710   -11.5240    -4.1120   -16.2090     2.5750    51.0720    23.1910    19.9950    11.5970    21.6800 
  123.7500   122.3910   -11.5580    -4.1260   -16.3680     2.5790    49.0000    24.1080    20.6560    12.1880    21.6800 
  123.8750   122.5110   -11.5910    -4.1410   -16.4850     2.5760    47.8910    24.9340    21.3460    12.9450    21.6800 
  124.0000   122.6300   -11.6240    -4.1550   -16.5560     2.5660    48.8540    25.5670    22.0150    13.3100    21.6800 
  124.1250   122.7500   -11.6580    -4.1690   -16.6370     2.5550    51.2830    26.0170    22.6530    12.7690    21.6800 
  124.2500   122.8700   -11.6910    -4.1830   -16.6720     2.5500    52.4050    26.4220    23.2720    12.3360    21.6800 
  124.3750   122.9890   -11.7250    -4.1970   -16.6840     2.5570    50.5370    26.8180    23.8530    12.6770    21.6830 
  124.5000   123.1090   -11.7580    -4.2120   -16.7210     2.5740    46.5030    27.1270    24.3160    13.4690    21.6920 
  124.6250   123.2280   -11.7920    -4.2260   -16.7710     2.5910    44.5560    27.1690    24.4950    13.7010    21.7470 
  124.7500   123.3480   -11.8250    -4.2400   -16.8330     2.5950    45.7720    26.9260    24.3790    12.6180    21.7550 
  124.8750   123.4680   -11.8580    -4.2540   -16.9180     2.5820    47.9380    26.4390    24.0150    11.4890    21.7570 
  125.0000   123.5870   -11.8920    -4.2680   -17.0370     2.5550    48.2690    25.7930    23.5190    11.0390    21.7570 
  125.1250   123.7070   -11.9250    -4.2830   -17.1500     2.5280    48.3120    25.0570    23.0060    11.0650    21.7570 
  125.2500   123.8260   -11.9590    -4.2970   -17.2810     2.5110    48.8430    24.3190    22.5220    11.0470    21.7570 
  125.3750   123.9460   -11.9920    -4.3110   -17.3890     2.5060    48.2570    23.6530    22.0620    10.7410    21.7570 
