~V
VERS. 2.00: Ver 2.00
~W
STRT.M 30.0000:
STOP.M 284.0000:
STEP.M 0.1250:
NULL. -999.2500:
UWI. FD11172:
~C
DEPT.M :
TVD. :
DX. :
DY. :
SP.MV :
GR.API :
RI. :
RML.OHMM :
RXO.OHMM :
DEN.GM/CC :
~A
# ...
  157.7500   152.1430    31.4750     8.9200   -16.7700   100.4480     4.6610     5.8020     5.0940     2.2380 
  157.8750   152.2540    31.5290     8.9380   -17.8690    97.2180     5.1810     6.4370     5.5270     2.1800 
  158.0000   152.3650    31.5830     8.9570   -18.7730    91.4510     5.5520     6.8600     5.9700     2.1480 
  158.1250   152.4760    31.6380     8.9750   -19.4280    83.7460     5.7260     7.0380     6.1720     2.1330 
  158.2500   152.5870    31.6920     8.9940   -19.8920    78.7360     5.7690     7.0760     6.1090     2.1210 
  158.3750   152.6980    31.7460     9.0120   -20.2370    76.9580     5.7670     7.0780     6.1200     2.1130 
  158.5000   152.8090    31.8010     9.0310   -20.5040    76.3540     5.7560     7.0900     6.3340     2.1160 
  158.6250   152.9200    31.8550     9.0490   -20.6840    77.3480     5.7560     7.1250     6.4840     2.1260 
  158.7500   153.0310    31.9090     9.0680   -20.7960    80.0150     5.7840     7.1910     6.4920     2.1350 
  158.8750   153.1420    31.9640     9.0860   -20.8360    79.5910     5.8550     7.3120     6.4790     2.1410 
  159.0000   153.2530    32.0180     9.1050   -20.8100    74.1060     5.9610     7.4840     6.5240     2.1410 
  159.1250   153.3640    32.0730     9.1230   -20.7530    71.7740     6.0930     7.6750     6.6710     2.1390 
  159.2500   153.4750    32.1270     9.1420   -20.7100    76.4990     6.2280     7.8600     6.7950     2.1410 
  159.3750   153.5860    32.1820     9.1600   -20.6720    83.5670     6.3630     8.0390     6.8310     2.1430 
  159.5000   153.6970    32.2360     9.1790   -20.6020    85.9810     6.4820     8.1890     6.9170     2.1350 
  159.6250   153.8080    32.2900     9.1980   -20.4670    82.2200     6.5460     8.2570     7.5440     2.1230 
  159.7500   153.9190    32.3450     9.2160   -20.2810    78.1580     6.5040     8.1640    10.3680     2.1180 
  159.8750   154.0300    32.3990     9.2350   -20.0700    77.3530     6.3090     7.8610    14.4240     2.1230 
  160.0000   154.1410    32.4530     9.2530   -19.8440    79.5530     6.0370     7.4700    14.3110     2.1340 
  160.1250   154.2520    32.5080     9.2720   -19.5790    82.2530     5.7280     7.0450     9.8850     2.1520 
  160.2500   154.3630    32.5620     9.2910   -19.2900    83.3700     5.4830     6.7240     6.7100     2.1670 
  160.3750   154.4740    32.6170     9.3090   -19.0260    83.6400     5.3490     6.5500     5.9780     2.1690 
  160.5000   154.5850    32.6710     9.3270   -18.8220    83.4130     5.3080     6.4950     5.9320     2.1670 
  160.6250   154.6960    32.7250     9.3460   -18.7190    84.3550     5.3510     6.5470     6.0160     2.1690 
  160.7500   154.8070    32.7800     9.3650   -18.7080    85.1150     5.4400     6.6510     6.0770     2.1760 
  160.8750   154.9180    32.8340     9.3830   -18.7660    83.8880     5.5470     6.7850     6.1160     2.1790 
  161.0000   155.0290    32.8890     9.4020   -18.8510    81.0770     5.6480     6.9020     6.1750     2.1800 
  161.1250   155.1400    32.9430     9.4200   -18.9030    81.0800     5.6620     6.9000     6.2720     2.1810 
  161.2500   155.2510    32.9970     9.4390   -18.8460    84.9240     5.5870     6.7580     6.3440     2.1800 
  161.3750   155.3620    33.0520     9.4570   -18.6170    89.7580     5.3620     6.4110     6.3140     2.1770 
  161.5000   155.4730    33.1060     9.4760   -18.2720    90.6880     5.0660     5.9820     6.1390     2.1820 
  161.6250   155.5840    33.1600     9.4950   -17.9210    86.2830     4.7720     5.5850     5.7090     2.2020 
  161.7500   155.6950    33.2150     9.5140   -17.6340    81.9410     4.5450     5.3020     5.3020     2.2210 
  161.8750   155.8060    33.2690     9.5330   -17.4460    81.7860     4.4380     5.1870     5.2490     2.2240 
  162.0000   155.9170    33.3240     9.5520   -17.3430    85.0360     4.4080     5.1670     5.2230     2.2230 
  162.1250   156.0280    33.3780     9.5710   -17.2970    88.7880     4.4340     5.1990     4.9790     2.2290 
  162.2500   156.1390    33.4320     9.5900   -17.2940    90.6000     4.4910     5.2610     4.7550     2.2380 
  162.3750   156.2500    33.4870     9.6090   -17.3560    90.9970     4.5560     5.3120     4.6880     2.2460 
  162.5000   156.3610    33.5410     9.6280   -17.4830    90.6240     4.6120     5.3430     4.7280     2.2500 
  162.6250   156.4720    33.5960     9.6470   -17.6520    88.9340     4.6440     5.3450     4.8650     2.2470 
  162.7500   156.5830    33.6500     9.6660   -17.8260    87.8680     4.6670     5.3140     5.0450     2.2380 
  162.8750   156.6940    33.7040     9.6850   -17.9910    90.0800     4.7040     5.2670     5.1720     2.2270 
  163.0000   156.8050    33.7590     9.7040   -18.1350    93.1000     4.7540     5.2190     5.1130     2.2150 
  163.1250   156.9150    33.8130     9.7230   -18.2330    93.0100     4.7980     5.1650     4.9080     2.2020 
  163.2500   157.0260    33.8680     9.7420   -18.3000    91.1860     4.8900     5.2230     4.8490     2.1960 
  163.3750   157.1370    33.9220     9.7620   -18.3400    90.7940     5.1270     5.4880     4.9370     2.2090 
  163.5000   157.2480    33.9770     9.7810   -18.2940    90.6520     5.4480     5.8470     4.9820     2.2420 
  163.6250   157.3590    34.0310     9.8000   -18.1170    87.0940     5.7690     6.2170     5.4000     2.2960 
  163.7500   157.4700    34.0860     9.8200   -17.8830    81.5070     6.1590     6.7210     7.1810     2.3500 
  163.8750   157.5800    34.1400     9.8390   -17.6550    77.1210     6.4900     7.1850     9.4650     2.3760 
  164.0000   157.6910    34.1950     9.8590   -17.4330    75.8770     6.5860     7.3650     9.7010     2.3810 
  164.1250   157.8020    34.2490     9.8780   -17.1870    74.6370     6.4430     7.2400     9.9030     2.3960 
  164.2500   157.9130    34.3040     9.8980   -16.9330    71.2710     6.1570     6.8460    12.4680     2.4120 
  164.3750   158.0230    34.3580     9.9170   -16.7320    68.2990     6.0170     6.5950    12.6940     2.3880 
  164.5000   158.1340    34.4130     9.9370   -16.5990    67.5140     6.3530     6.8770     9.0130     2.3330 
  164.6250   158.2450    34.4670     9.9570   -16.5020    69.8050     7.4570     8.0210     6.5120     2.3180 
  164.7500   158.3560    34.5220     9.9760   -16.4120    72.7720     9.3670    10.2340     8.1650     2.3760 
  164.8750   158.4660    34.5770     9.9960   -16.3280    72.7720    11.6090    12.7470    14.0240     2.4740 
  165.0000   158.5770    34.6310    10.0150   -16.2330    67.4450    12.6820    13.8280    21.3950     2.5510 
  165.1250   158.6880    34.6860    10.0350   -16.1220    60.1090    12.2100    13.3800    25.4270     2.5670 
  165.2500   158.7990    34.7400    10.0540   -16.0010    56.5980    10.0790    10.6830    23.0570     2.5240 
  165.3750   158.9100    34.7950    10.0740   -15.8590    58.7460     7.6750     7.9440    15.7140     2.4350 
  165.5000   159.0200    34.8490    10.0930   -15.6910    63.2020     5.9420     6.0960     8.8490     2.3370 
  165.6250   159.1310    34.9040    10.1130   -15.4970    69.5750     4.9820     5.1650     5.7290     2.2670 
  165.7500   159.2420    34.9580    10.1320   -15.2650    75.6570     4.7720     5.0510     4.9850     2.2370 
  165.8750   159.3530    35.0130    10.1520   -14.9690    78.4870     5.1230     5.5130     4.8910     2.2370 
  166.0000   159.4640    35.0670    10.1710   -14.6190    77.4000     5.8540     6.3330     4.9670     2.2560 
  166.1250   159.5740    35.1220    10.1910   -14.2450    73.3710     6.6430     7.1680     5.8000     2.3050 
  166.2500   159.6850    35.1760    10.2100   -13.9090    68.4540     7.2590     7.7500     9.0530     2.3700 
  166.3750   159.7960    35.2310    10.2290   -13.6660    65.0250     7.4750     7.8330    13.3660     2.4060 
  166.5000   159.9070    35.2850    10.2480   -13.4790    65.8940     7.4240     7.5840    13.5200     2.3850 
  166.6250   160.0170    35.3400    10.2680   -13.2500    70.9250     7.4260     7.4320     9.5090     2.3280 
  166.7500   160.1280    35.3940    10.2870   -12.9410    75.4120     7.9020     7.9200     6.6780     2.3000 
