~V
VERS. 2.00: Ver 2.00
~W
STRT.M 15.0000:
STOP.M 219.0000:
STEP.M 0.1250:
NULL. -999.2500:
UWI. FD11101:
~C
DEPT.M :
TVD. :
DX. :
DY. :
GR.API :
RML.OHMM :
RI. :
RXO.OHMM :
CALI.CM :
SP.MV :
DEN.GM/CC :
~A
# ...
   56.2500    56.2030     0.6140     0.9240   114.4090     5.5600     3.8750     4.5150    24.2740   -11.4910     2.1720 
   56.3750    56.3270     0.6170     0.9360   111.3190     6.0060     4.0450     4.8060    24.2280   -12.1580     2.1830 
   56.5000    56.4520     0.6190     0.9490   107.1600     6.7760     4.3650     4.8890    24.3190   -12.9560     2.2030 
   56.6250    56.5760     0.6220     0.9610   104.2910     7.8740     4.8800     4.8840    24.5470   -13.8840     2.2290 
   56.7500    56.7000     0.6250     0.9730    97.4400     8.9810     5.4770     6.8220    24.6060   -14.8330     2.2600 
   56.8750    56.8250     0.6270     0.9850    87.0340     9.7230     5.9890    12.2970    24.5000   -15.7410     2.2930 
   57.0000    56.9490     0.6300     0.9970    79.2400     9.8040     6.2390    17.2640    24.4350   -16.5820     2.3190 
   57.1250    57.0740     0.6320     1.0090    80.6970     9.1350     6.0950    12.5350    24.5780   -17.3590     2.3240 
   57.2500    57.1980     0.6350     1.0220    86.9550     8.1890     5.7230     7.6930    24.7620   -18.0990     2.3090 
   57.3750    57.3220     0.6380     1.0340    92.8610     7.3590     5.3020     5.6590    24.9330   -18.7930     2.2850 
   57.5000    57.4470     0.6400     1.0460    94.0140     6.8840     4.9830     5.4980    25.0790   -19.3960     2.2630 
   57.6250    57.5710     0.6430     1.0580    88.0160     6.8180     4.8560     6.5390    25.1540   -19.8450     2.2520 
   57.7500    57.6950     0.6450     1.0700    80.4160     6.9260     4.8570     7.0230    25.1870   -20.1810     2.2400 
   57.8750    57.8200     0.6480     1.0830    76.5260     7.0370     4.9100     7.1420    25.2920   -20.4570     2.2210 
   58.0000    57.9440     0.6500     1.0950    76.3410     7.0470     4.9490     7.1430    25.6470   -20.7030     2.1900 
   58.1250    58.0690     0.6530     1.1070    75.1700     6.9460     4.9360     6.9820    26.3010   -20.8650     2.1550 
   58.2500    58.1930     0.6560     1.1190    71.7730     6.8330     4.8960     6.7770    26.7800   -20.9080     2.1250 
   58.3750    58.3170     0.6580     1.1310    67.7070     6.7990     4.8680     6.6080    26.9830   -20.7990     2.1060 
   58.5000    58.4420     0.6610     1.1430    66.1200     6.9010     4.8880     6.5960    27.0100   -20.5390     2.1010 
   58.6250    58.5660     0.6630     1.1560    71.6910     7.1420     4.9790     6.6620    26.9860   -20.1010     2.1150 
   58.7500    58.6900     0.6660     1.1680    79.4770     7.3920     5.0920     6.6780    27.0240   -19.4830     2.1400 
   58.8750    58.8150     0.6690     1.1800    83.9870     7.5070     5.1590     7.0440    27.2000   -18.7140     2.1570 
   59.0000    58.9390     0.6710     1.1920    86.4050     7.3680     5.1150     7.7530    27.3830   -17.8480     2.1410 
   59.1250    59.0640     0.6740     1.2040    92.4280     6.9340     4.9160     7.7670    27.2480   -16.9700     2.0730 
   59.2500    59.1880     0.6760     1.2170   100.3050     6.4170     4.6440     5.9610    26.6080   -16.1880     1.9850 
   59.3750    59.3120     0.6790     1.2290   104.8870     6.0670     4.4080     4.6190    25.5000   -15.5970     1.9210 
   59.5000    59.4370     0.6820     1.2410   103.3940     6.1290     4.3360     4.3810    24.2470   -15.2420     1.9130 
   59.6250    59.5610     0.6840     1.2530    95.4880     6.8510     4.5850     5.1200    23.6620   -15.1870     1.9730 
   59.7500    59.6850     0.6870     1.2650    87.4600     8.0860     5.1480     6.2860    23.4530   -15.4100     2.0680 
   59.8750    59.8100     0.6890     1.2780    81.6560     9.5770     5.9560     7.8870    23.4050   -15.8800     2.1750 
   60.0000    59.9340     0.6920     1.2900    77.1730    10.9160     6.8320    10.9160    23.3600   -16.5730     2.2760 
   60.1250    60.0580     0.6950     1.3020    75.8740    11.5540     7.4660    15.4880    23.2900   -17.4870     2.3450 
   60.2500    60.1830     0.6970     1.3140    77.5600    11.4200     7.6980    15.3550    23.2500   -18.5230     2.3640 
   60.3750    60.3070     0.7000     1.3260    79.7640    10.7060     7.5370    11.1210    23.1950   -19.6010     2.3250 
   60.5000    60.4310     0.7040     1.3420    80.7050     9.7770     7.1320     8.6270    23.1620   -20.6630     2.2480 
   60.6250    60.5550     0.7080     1.3590    81.2750     9.0110     6.6880     8.0800    23.1590   -21.6120     2.1740 
   60.7500    60.6790     0.7120     1.3760    81.9710     8.5290     6.3440     8.1230    23.1110   -22.4150     2.1360 
   60.8750    60.8020     0.7160     1.3930    80.6660     8.3010     6.1330     8.4670    23.0500   -23.0580     2.1350 
   61.0000    60.9260     0.7210     1.4100    79.6440     8.2450     6.0340     8.7190    22.9770   -23.4890     2.1540 
   61.1250    61.0500     0.7250     1.4260    79.7090     8.3010     6.0240     8.3810    22.9120   -23.5920     2.1730 
   61.2500    61.1740     0.7290     1.4430    79.2030     8.4010     6.0580     8.2620    22.8810   -23.3620     2.1780 
   61.3750    61.2980     0.7330     1.4600    78.5590     8.4960     6.1090     8.3740    22.8750   -22.8060     2.1700 
   61.5000    61.4210     0.7370     1.4770    79.4080     8.5150     6.1390     8.8390    22.8750   -21.9760     2.1540 
   61.6250    61.5450     0.7420     1.4940    83.8320     8.3630     6.0910    10.4290    22.8750   -20.9740     2.1420 
   61.7500    61.6690     0.7460     1.5110    87.5020     8.0460     5.9490    11.7800    22.8750   -19.9440     2.1400 
   61.8750    61.7930     0.7500     1.5280    88.5850     7.6100     5.7230    10.1020    22.8750   -18.9560     2.1490 
   62.0000    61.9160     0.7540     1.5450    91.5670     7.1430     5.4480     7.9400    22.8750   -18.0770     2.1660 
   62.1250    62.0400     0.7590     1.5620    98.7940     6.7580     5.1890     7.1540    22.8980   -17.3960     2.1850 
   62.2500    62.1640     0.7630     1.5790   102.6370     6.5200     5.0010     6.7080    22.9580   -16.9750     2.2000 
   62.3750    62.2880     0.7670     1.5960   100.0030     6.4530     4.9140     6.3160    23.0240   -16.8790     2.2060 
   62.5000    62.4110     0.7710     1.6130    96.4590     6.5430     4.9360     6.1740    23.0540   -17.1370     2.2050 
   62.6250    62.5350     0.7760     1.6300    93.9750     6.7530     5.0610     6.2240    23.0530   -17.7130     2.2000 
   62.7500    62.6590     0.7800     1.6470    88.4510     7.0000     5.2380     6.7570    23.0570   -18.4320     2.1970 
   62.8750    62.7830     0.7840     1.6630    80.7020     7.2410     5.4320     7.4380    23.0440   -19.1830     2.1960 
   63.0000    62.9060     0.7880     1.6800    75.5590     7.4520     5.6170     7.8030    23.0280   -19.8790     2.1940 
   63.1250    63.0300     0.7930     1.6970    74.4630     7.6160     5.7730     7.9920    23.0440   -20.4490     2.1860 
   63.2500    63.1540     0.7970     1.7140    75.1310     7.7190     5.8890     8.1980    23.1160   -20.8190     2.1870 
   63.3750    63.2780     0.8010     1.7310    76.5890     7.7400     5.9480     8.2850    23.2450   -20.9000     2.2100 
   63.5000    63.4020     0.8050     1.7480    78.5190     7.6680     5.9400     8.0750    23.3340   -20.6540     2.2600 
   63.6250    63.5250     0.8090     1.7650    80.7760     7.5310     5.8690     7.5770    23.1570   -20.1040     2.3160 
   63.7500    63.6490     0.8140     1.7820    83.2330     7.4240     5.7880     7.3730    22.8530   -19.4030     2.3440 
   63.8750    63.7730     0.8180     1.7990    83.0330     7.4240     5.7480     7.3660    22.7440   -18.6570     2.3240 
   64.0000    63.8970     0.8220     1.8160    79.7340     7.5690     5.7890     7.6400    22.8160   -17.9820     2.2610 
   64.1250    64.0200     0.8260     1.8330    77.4370     7.8320     5.9280     8.6200    22.8590   -17.4690     2.1830 
   64.2500    64.1440     0.8310     1.8500    79.1850     8.0810     6.1070     9.8110    22.8200   -17.1700     2.1220 
   64.3750    64.2680     0.8350     1.8670    84.1680     8.2130     6.2600     9.5950    22.6870   -17.1270     2.0930 
