~V
VERS. 2.00: Ver 2.00
~W
STRT.M 40.0000:
STOP.M 259.0000:
STEP.M 0.1250:
NULL. -999.2500:
UWI. FD11192:
~C
DEPT.M :
TVD. :
DX. :
DY. :
SP.MV :
GR.API :
RI. :
RML.OHMM :
RXO.OHMM :
DEN.GM/CC :
~A
# ...
  149.5000   145.9170    15.0710    16.3010  -215.3310    63.2770    18.8250    19.9780    14.9060     2.1240 
  149.6250   146.0320    15.1000    16.3400  -215.2780    65.3560    18.8420    19.9900    14.3970     2.1230 
  149.7500   146.1480    15.1290    16.3790  -215.1940    67.5030    19.2590    20.4390    16.0290     2.1180 
  149.8750   146.2630    15.1580    16.4180  -215.1010    66.3330    19.8290    21.0420    18.1890     2.1160 
  150.0000   146.3780    15.1870    16.4570  -215.0220    62.2190    20.0030    21.1800    21.1070     2.1180 
  150.1250   146.4930    15.2160    16.4960  -214.9810    59.6060    19.5500    20.6900    24.0770     2.1190 
  150.2500   146.6080    15.2450    16.5360  -215.0130    60.0930    18.8530    19.9160    23.9960     2.1190 
  150.3750   146.7230    15.2740    16.5750  -215.1060    62.1920    18.2580    19.2820    20.3640     2.1210 
  150.5000   146.8380    15.3030    16.6140  -215.1700    65.6950    18.0670    19.1250    15.8990     2.1240 
  150.6250   146.9530    15.3320    16.6530  -215.1530    68.6800    18.5330    19.7230    16.6200     2.1260 
  150.7500   147.0680    15.3610    16.6930  -215.0420    67.7900    19.7860    21.2290    20.1660     2.1210 
  150.8750   147.1840    15.3910    16.7320  -214.8880    62.5050    21.5430    23.2490    21.3460     2.1110 
  151.0000   147.2990    15.4200    16.7710  -214.7520    58.1840    23.3020    25.2400    20.7720     2.1030 
  151.1250   147.4140    15.4480    16.8100  -214.5710    58.1070    24.6040    26.6200    19.6710     2.0980 
  151.2500   147.5290    15.4770    16.8500  -214.4710    59.7620    25.1510    27.1250    18.1670     2.0910 
  151.3750   147.6440    15.5070    16.8890  -214.4920    61.7350    25.3050    27.2250    17.6180     2.0870 
  151.5000   147.7590    15.5350    16.9280  -214.5870    62.0420    25.2360    27.1710    19.0700     2.0920 
  151.6250   147.8740    15.5640    16.9680  -214.7140    59.3130    25.1950    27.2790    22.5750     2.1000 
  151.7500   147.9890    15.5930    17.0070  -214.7680    56.6450    25.3000    27.6120    23.8500     2.1000 
  151.8750   148.1040    15.6220    17.0460  -214.7910    57.4050    25.2540    27.7310    26.0820     2.0970 
  152.0000   148.2190    15.6510    17.0850  -214.8850    59.7020    24.5980    27.0800    26.6260     2.0960 
  152.1250   148.3340    15.6800    17.1240  -215.0700    59.1310    23.0690    25.4110    25.7400     2.0990 
  152.2500   148.4500    15.7090    17.1630  -215.3330    56.5060    21.0030    23.1120    21.0720     2.1160 
  152.3750   148.5650    15.7380    17.2020  -215.6980    56.2060    19.0280    20.9040    18.7820     2.1760 
  152.5000   148.6800    15.7670    17.2410  -216.1550    59.3400    17.5890    19.3210    16.2240     2.2760 
  152.6250   148.7950    15.7960    17.2800  -216.6610    64.0330    16.9490    18.6790    14.7340     2.3850 
  152.7500   148.9100    15.8250    17.3190  -217.1460    66.9260    16.9680    18.7820    14.3340     2.4610 
  152.8750   149.0260    15.8530    17.3580  -217.5370    67.2630    17.3930    19.2980    15.1390     2.4950 
  153.0000   149.1410    15.8820    17.3970  -217.8800    65.8650    18.0450    19.9720    16.6770     2.5060 
  153.1250   149.2560    15.9110    17.4360  -218.0680    63.6900    18.8270    20.8290    18.4800     2.5080 
  153.2500   149.3710    15.9410    17.4750  -218.1320    60.9570    19.6010    21.7780    22.2230     2.5140 
  153.3750   149.4860    15.9700    17.5140  -218.0460    57.4420    20.2910    22.7400    26.2120     2.5240 
  153.5000   149.6010    15.9990    17.5530  -217.8550    55.8590    20.6750    23.4030    26.8520     2.5320 
  153.6250   149.7160    16.0280    17.5920  -217.5980    57.9900    20.2320    23.0080    26.1380     2.5380 
  153.7500   149.8310    16.0570    17.6310  -217.3000    61.3290    19.1070    21.7020    24.2810     2.5380 
  153.8750   149.9470    16.0870    17.6700  -216.9360    60.9050    17.2450    19.4500    21.0720     2.5210 
  154.0000   150.0620    16.1160    17.7100  -216.5850    57.7780    15.1700    16.9520    17.3250     2.4950 
  154.1250   150.1770    16.1450    17.7490  -216.3060    57.1950    13.3800    14.8530    15.5320     2.4790 
  154.2500   150.2920    16.1740    17.7880  -216.0070    60.8650    12.0560    13.3870    13.0590     2.4710 
  154.3750   150.4070    16.2030    17.8270  -215.6970    66.1360    11.4880    12.8660    11.6390     2.4690 
  154.5000   150.5220    16.2320    17.8660  -215.5500    68.3210    11.4330    12.9250    11.8230     2.4720 
  154.6250   150.6370    16.2610    17.9050  -215.5340    65.8120    11.8550    13.5170    12.1670     2.4760 
  154.7500   150.7520    16.2900    17.9440  -215.5540    60.1840    12.6260    14.4850    12.8170     2.4810 
  154.8750   150.8680    16.3190    17.9830  -215.6550    55.3470    13.6610    15.7520    13.8740     2.4930 
  155.0000   150.9830    16.3480    18.0220  -215.7900    53.7280    14.9200    17.2650    17.5750     2.5110 
  155.1250   151.0980    16.3770    18.0610  -215.8950    54.6790    16.0130    18.5380    19.8150     2.5200 
  155.2500   151.2130    16.4060    18.1000  -215.9090    55.9900    16.6550    19.2580    20.8750     2.5210 
  155.3750   151.3290    16.4350    18.1380  -215.8830    55.7230    16.7770    19.3580    20.5520     2.5260 
  155.5000   151.4440    16.4640    18.1770  -215.8600    55.1030    16.5030    19.0260    18.8590     2.5440 
  155.6250   151.5590    16.4930    18.2150  -215.7500    54.7890    15.9990    18.4960    16.9130     2.5600 
  155.7500   151.6740    16.5220    18.2540  -215.6440    54.6030    15.5070    18.0190    15.5830     2.5530 
  155.8750   151.7900    16.5510    18.2920  -215.5440    54.4370    15.0240    17.5950    14.0900     2.5240 
  156.0000   151.9050    16.5800    18.3300  -215.4380    52.9920    14.6270    17.2740    13.5140     2.4950 
  156.1250   152.0210    16.6100    18.3680  -215.3450    52.3640    14.3660    17.0650    15.7370     2.4800 
  156.2500   152.1360    16.6390    18.4070  -215.3950    53.0400    14.1660    16.9120    17.3110     2.4680 
  156.3750   152.2510    16.6680    18.4450  -215.6120    54.0960    14.0500    16.8550    17.8630     2.4550 
  156.5000   152.3670    16.6980    18.4830  -215.9220    54.2810    14.1140    17.0090    17.1130     2.4440 
  156.6250   152.4820    16.7270    18.5210  -216.2410    55.5590    14.3880    17.3800    15.9890     2.4400 
  156.7500   152.5970    16.7570    18.5580  -216.3910    56.2290    14.7390    17.7920    15.9600     2.4420 
  156.8750   152.7130    16.7870    18.5960  -216.4470    54.6500    15.0530    18.1220    16.2780     2.4440 
  157.0000   152.8280    16.8170    18.6340  -216.5480    52.5530    15.3060    18.4090    17.1330     2.4460 
  157.1250   152.9430    16.8470    18.6720  -216.6520    53.7670    15.5560    18.7130    18.4550     2.4450 
  157.2500   153.0590    16.8770    18.7100  -216.7180    54.1520    15.8550    19.1050    20.6960     2.4490 
  157.3750   153.1740    16.9070    18.7480  -216.7730    50.8220    16.2750    19.6520    24.5310     2.4570 
  157.5000   153.2890    16.9370    18.7860  -216.8310    48.6610    16.6170    20.0790    30.6970     2.4620 
  157.6250   153.4050    16.9670    18.8240  -216.9390    49.4110    16.6380    20.1020    37.2180     2.4620 
  157.7500   153.5200    16.9970    18.8620  -217.0830    50.6320    16.2880    19.6600    36.5910     2.4650 
  157.8750   153.6350    17.0270    18.9000  -217.2550    49.8840    15.7110    18.9360    31.0640     2.4690 
  158.0000   153.7500    17.0570    18.9370  -217.3050    48.9820    14.9820    17.9990    24.8840     2.4620 
  158.1250   153.8650    17.0880    18.9750  -217.2830    48.8600    14.1500    16.9330    20.6160     2.4450 
  158.2500   153.9810    17.1180    19.0130  -217.3370    50.3470    13.2980    15.8630    14.9300     2.4330 
  158.3750   154.0960    17.1480    19.0510  -217.4740    53.0250    12.5290    14.9390    12.4300     2.4320 
  158.5000   154.2110    17.1780    19.0890  -217.6670    55.1310    11.9980    14.3360    10.4120     2.4350 
