~V
VERS. 2.00: Ver 2.00
~W
STRT.M 20.0000:
STOP.M 277.0000:
STEP.M 0.1250:
NULL. -999.2500:
UWI. FD11024:
~C
DEPT.M :
TVD. :
DX. :
DY. :
DEN.GM/CC :
GR.API :
RML.OHMM :
RI. :
RXO.OHMM :
CALI.CM :
SP.MV :
~A
# ...
  102.5000   102.0440     3.5620     5.4910     2.1370    52.5260     8.0450     7.4350     8.3270    20.7410   -12.9700 
  102.6250   102.1670     3.5760     5.5110     2.1390    53.2480     7.9350     7.3500     8.2460    21.2230   -13.1170 
  102.7500   102.2890     3.5910     5.5310     2.1470    56.5230     7.8500     7.2680     8.0600    21.7510   -13.1300 
  102.8750   102.4120     3.6060     5.5520     2.1570    61.1280     7.8290     7.2320     8.1240    21.7440   -13.0550 
  103.0000   102.5340     3.6200     5.5720     2.1680    63.6300     7.8710     7.2490     8.1710    21.6510   -12.9230 
  103.1250   102.6560     3.6350     5.5930     2.1740    61.3850     7.9410     7.3030     7.9490    21.5250   -12.7480 
  103.2500   102.7790     3.6500     5.6130     2.1770    58.4970     7.9910     7.3570     7.9170    21.1780   -12.5670 
  103.3750   102.9010     3.6640     5.6330     2.1770    60.1180     8.0010     7.3850     8.1380    20.7580   -12.4050 
  103.5000   103.0240     3.6790     5.6540     2.1740    66.2070     7.9720     7.3710     8.2620    20.7620   -12.2600 
  103.6250   103.1460     3.6940     5.6740     2.1700    70.4140     7.9070     7.3060     8.3320    21.0410   -12.1020 
  103.7500   103.2690     3.7080     5.6950     2.1650    69.9030     7.8090     7.2140     8.3410    21.3920   -11.9990 
  103.8750   103.3910     3.7230     5.7150     2.1620    66.2760     7.6890     7.1240     8.3590    21.5830   -11.9280 
  104.0000   103.5140     3.7380     5.7350     2.1600    63.6310     7.5740     7.0640     8.4590    21.4570   -11.8410 
  104.1250   103.6360     3.7530     5.7560     2.1590    64.3730     7.5220     7.0560     8.5920    21.0120   -11.7690 
  104.2500   103.7580     3.7670     5.7760     2.1600    64.2400     7.5580     7.0890     8.4310    20.9030   -11.6500 
  104.3750   103.8810     3.7820     5.7970     2.1620    60.1640     7.6680     7.1480     8.0480    21.2560   -11.5130 
  104.5000   104.0030     3.7970     5.8170     2.1660    55.3710     7.7930     7.2100     7.6830    21.8470   -11.4040 
  104.6250   104.1260     3.8110     5.8370     2.1710    57.1650     7.8460     7.2450     7.6040    22.0960   -11.2810 
  104.7500   104.2480     3.8260     5.8580     2.1750    61.8000     7.8100     7.2370     7.8150    22.0170   -11.1330 
  104.8750   104.3710     3.8410     5.8780     2.1770    63.2760     7.7150     7.1830     8.1560    21.4230   -10.9590 
  105.0000   104.4930     3.8550     5.8990     2.1770    63.5690     7.6130     7.1020     8.2680    21.0730   -10.7960 
  105.1250   104.6160     3.8700     5.9190     2.1770    65.2920     7.5700     7.0360     7.9280    21.0320   -10.6440 
  105.2500   104.7380     3.8850     5.9390     2.1780    67.0060     7.6010     7.0220     7.6740    21.1390   -10.5380 
  105.3750   104.8600     3.8990     5.9600     2.1820    68.1630     7.6990     7.0770     7.5960    21.2440   -10.4400 
  105.5000   104.9830     3.9140     5.9800     2.1880    68.6750     7.8390     7.1930     7.7280    21.2930   -10.3100 
  105.6250   105.1050     3.9290     6.0010     2.1970    66.6590     7.9970     7.3410     7.9870    21.3110   -10.2280 
  105.7500   105.2280     3.9430     6.0210     2.2060    64.6420     8.1480     7.4830     8.2700    21.2640   -10.1830 
  105.8750   105.3500     3.9580     6.0410     2.2110    65.1540     8.2890     7.6040     8.9430    21.0850   -10.1560 
  106.0000   105.4730     3.9730     6.0620     2.2120    66.8550     8.4260     7.7140    10.1750    20.9380   -10.1590 
  106.1250   105.5950     3.9870     6.0820     2.2090    66.4140     8.5550     7.8270    10.7260    20.8730   -10.2070 
  106.2500   105.7180     4.0020     6.1030     2.2050    66.1810     8.6420     7.9420     9.3660    20.8990   -10.2460 
  106.3750   105.8400     4.0170     6.1230     2.2010    67.7750     8.6370     8.0220     8.4570    21.0810   -10.2890 
  106.5000   105.9620     4.0320     6.1430     2.1990    68.9640     8.4940     8.0120     8.1940    21.4570   -10.3690 
  106.6250   106.0850     4.0460     6.1640     2.1970    68.7060     8.1760     7.8400     8.1900    21.4190   -10.4280 
  106.7500   106.2070     4.0610     6.1840     2.1940    68.5450     7.7670     7.5430     8.0380    21.1370   -10.4740 
  106.8750   106.3300     4.0760     6.2050     2.1890    69.0160     7.3670     7.1910     7.6700    20.9730   -10.5250 
  107.0000   106.4520     4.0900     6.2250     2.1840    70.0310     7.0820     6.8880     7.2140    20.9420   -10.5480 
  107.1250   106.5750     4.1050     6.2450     2.1820    68.9190     7.0150     6.7440     7.1070    20.9390   -10.5690 
  107.2500   106.6970     4.1200     6.2660     2.1840    65.0880     7.1330     6.7560     7.3430    20.9740   -10.6170 
  107.3750   106.8200     4.1340     6.2860     2.1880    62.2590     7.3670     6.8770     7.5190    21.1470   -10.7060 
  107.5000   106.9420     4.1490     6.3070     2.1940    64.7000     7.6090     7.0280     7.6370    21.5560   -10.8070 
  107.6250   107.0640     4.1640     6.3270     2.1970    67.8710     7.7390     7.1190     7.6950    21.7830   -10.9460 
  107.7500   107.1870     4.1780     6.3470     2.1950    66.8270     7.7420     7.1270     7.8290    21.4200   -11.1160 
  107.8750   107.3090     4.1930     6.3680     2.1880    64.2990     7.6560     7.0740     7.9490    21.2110   -11.2860 
  108.0000   107.4320     4.2080     6.3880     2.1770    63.6930     7.5520     7.0000     7.9590    21.1720   -11.4500 
  108.1250   107.5540     4.2220     6.4090     2.1650    63.3970     7.4940     6.9430     7.7300    21.1750   -11.5680 
  108.2500   107.6770     4.2380     6.4290     2.1560    61.3880     7.4850     6.9130     7.5320    21.2260   -11.6460 
  108.3750   107.7990     4.2530     6.4510     2.1490    60.1480     7.5000     6.9080     7.3950    21.3140   -11.6700 
  108.5000   107.9210     4.2690     6.4720     2.1450    61.4390     7.5150     6.9170     7.2740    21.3880   -11.6660 
  108.6250   108.0430     4.2840     6.4930     2.1440    64.8240     7.5170     6.9290     7.1990    21.4010   -11.6420 
  108.7500   108.1650     4.3000     6.5140     2.1440    66.3540     7.5030     6.9350     7.0940    21.4070   -11.5600 
  108.8750   108.2880     4.3150     6.5350     2.1470    64.4170     7.4710     6.9240     6.9060    21.4080   -11.4510 
  109.0000   108.4100     4.3310     6.5560     2.1510    61.8910     7.4170     6.8850     6.7130    21.4150   -11.3320 
  109.1250   108.5320     4.3460     6.5780     2.1560    63.0540     7.3410     6.8150     6.7360    21.4700   -11.2090 
  109.2500   108.6540     4.3620     6.5990     2.1590    65.5770     7.2600     6.7310     6.8920    21.4880   -11.0650 
  109.3750   108.7770     4.3770     6.6200     2.1600    66.2000     7.2000     6.6590     6.9060    21.5470   -10.9300 
  109.5000   108.8990     4.3930     6.6410     2.1580    65.2840     7.1920     6.6230     6.8780    21.6260   -10.8220 
  109.6250   109.0210     4.4080     6.6620     2.1540    64.4080     7.2620     6.6410     7.0610    21.6420   -10.6650 
  109.7500   109.1430     4.4230     6.6830     2.1480    63.3470     7.3490     6.6760     7.3770    21.6620   -10.4870 
  109.8750   109.2650     4.4390     6.7040     2.1440    62.2910     7.3670     6.6720     7.2910    21.6950   -10.3180 
  110.0000   109.3880     4.4540     6.7260     2.1430    62.6040     7.2440     6.5770     7.0870    21.7110   -10.1160 
  110.1250   109.5100     4.4700     6.7470     2.1460    63.3890     6.9600     6.3650     6.7680    21.7390    -9.8770 
  110.2500   109.6320     4.4850     6.7680     2.1510    62.6930     6.6250     6.1030     6.1840    21.7740    -9.6560 
  110.3750   109.7540     4.5010     6.7890     2.1530    61.9600     6.3410     5.8700     5.5310    21.7660    -9.4450 
  110.5000   109.8770     4.5160     6.8100     2.1520    62.8660     6.1880     5.7310     5.2050    21.6720    -9.2210 
  110.6250   109.9990     4.5320     6.8310     2.1480    62.4210     6.2180     5.7380     6.1030    21.6460    -9.0150 
