~V
VERS. 2.00: Ver 2.00
~W
STRT.M 11.0000:
STOP.M 273.0000:
STEP.M 0.1250:
NULL. -999.2500:
UWI. FD11023:
~C
DEPT.M :
TVD. :
DX. :
DY. :
GR.API :
RML.OHMM :
RI. :
RXO.OHMM :
CALI.CM :
DEN.GM/CC :
SP.MV :
~A
# ...
   19.2500    19.2500     0.0000     0.0000  -999.2500  -999.2500  -999.2500  -999.2500  -999.2500  -999.2500  -999.2500 
   19.3750    19.3750     0.0000     0.0000  -999.2500  -999.2500  -999.2500  -999.2500  -999.2500  -999.2500  -999.2500 
   19.5000    19.5000     0.0000     0.0000  -999.2500  -999.2500  -999.2500  -999.2500  -999.2500  -999.2500  -999.2500 
   19.6250    19.6250     0.0000     0.0000  -999.2500  -999.2500  -999.2500  -999.2500  -999.2500  -999.2500  -999.2500 
   19.7500    19.7500     0.0000     0.0000  -999.2500  -999.2500  -999.2500  -999.2500  -999.2500     1.7920     0.0000 
   19.8750    19.8750     0.0000     0.0000  -999.2500  -999.2500  -999.2500  -999.2500  -999.2500     1.7920     0.0000 
   20.0000    20.0000     0.0000     0.0000  -999.2500  -999.2500  -999.2500  -999.2500  -999.2500     1.7920     0.0000 
   20.1250    20.1250    -0.0010     0.0000  -999.2500  -999.2500  -999.2500  -999.2500  -999.2500     1.7990     0.0000 
   20.2500    20.2500    -0.0010    -0.0010  -999.2500  -999.2500  -999.2500  -999.2500  -999.2500     1.8050     0.0000 
   20.3750    20.3750    -0.0020    -0.0010  -999.2500  -999.2500  -999.2500  -999.2500  -999.2500     1.8070     0.0000 
   20.5000    20.5000    -0.0020    -0.0010  -999.2500  -999.2500  -999.2500  -999.2500  -999.2500     1.7950     0.0000 
   20.6250    20.6250    -0.0030    -0.0020  -999.2500  -999.2500  -999.2500  -999.2500  -999.2500     1.7760   143.1130 
   20.7500    20.7500    -0.0030    -0.0020  -999.2500  -999.2500  -999.2500  -999.2500  -999.2500     1.7710   142.1230 
   20.8750    20.8750    -0.0040    -0.0030  -999.2500  -999.2500  -999.2500  -999.2500  -999.2500     1.7790   141.1410 
   21.0000    21.0000    -0.0040    -0.0030  -999.2500  -999.2500  -999.2500  -999.2500  -999.2500     1.7890   140.1750 
   21.1250    21.1250    -0.0050    -0.0030  -999.2500  -999.2500  -999.2500  -999.2500  -999.2500     1.7930   139.2180 
   21.2500    21.2500    -0.0050    -0.0040  -999.2500  -999.2500  -999.2500  -999.2500  -999.2500     1.7940   138.2550 
   21.3750    21.3750    -0.0060    -0.0040  -999.2500  -999.2500  -999.2500  -999.2500  -999.2500     1.7930   137.2650 
   21.5000    21.5000    -0.0060    -0.0040  -999.2500  -999.2500  -999.2500  -999.2500  -999.2500     1.7910   136.2460 
   21.6250    21.6250    -0.0070    -0.0050  -999.2500  -999.2500  -999.2500  -999.2500  -999.2500     1.7880   135.2170 
   21.7500    21.7500    -0.0070    -0.0050  -999.2500  -999.2500  -999.2500  -999.2500  -999.2500     1.7830   134.1990 
   21.8750    21.8750    -0.0080    -0.0060  -999.2500  -999.2500  -999.2500  -999.2500  -999.2500     1.7850   133.2100 
   22.0000    22.0000    -0.0080    -0.0060  -999.2500  -999.2500  -999.2500  -999.2500  -999.2500     1.7930   132.2380 
   22.1250    22.1250    -0.0090    -0.0060  -999.2500  -999.2500  -999.2500  -999.2500  -999.2500     1.8040   131.2740 
   22.2500    22.2500    -0.0100    -0.0070  -999.2500  -999.2500  -999.2500  -999.2500  -999.2500     1.8100   130.3240 
   22.3750    22.3750    -0.0100    -0.0070     9.2040    18.0350     0.9800   360.5950     6.3950     1.8070   129.4050 
   22.5000    22.5000    -0.0110    -0.0070     9.2040    18.0350     0.9800   360.5950     6.3950     1.7960   128.5310 
   22.6250    22.6250    -0.0110    -0.0080     9.2040    18.0350     0.9800   360.5950     6.3950     1.7830   127.6960 
   22.7500    22.7500    -0.0120    -0.0080    36.9720    72.3310     3.9230   723.9620    25.5810     1.7720   126.8620 
   22.8750    22.8750    -0.0120    -0.0080    37.7770    72.2020     3.9380     5.6140    25.5810     1.7660   125.9940 
   23.0000    23.0000    -0.0130    -0.0090    39.6560    70.9640     3.9640     5.6630    25.5810     1.7700   125.0630 
   23.1250    23.1250    -0.0130    -0.0090    41.0960    68.8260     4.0060     5.7330    25.5810     1.7900   124.0510 
   23.2500    23.2500    -0.0140    -0.0100    40.4160    66.2990     4.0660     5.7950    25.5810     1.8200   122.9850 
   23.3750    23.3750    -0.0140    -0.0100    39.5530    63.6710     4.1480     5.8790    25.5810     1.8530   121.8900 
   23.5000    23.5000    -0.0150    -0.0100    39.9910    61.1340     4.2450     5.9860    25.5810     1.8830   120.7840 
   23.6250    23.6250    -0.0150    -0.0110    40.1300    58.8710     4.3400     6.1140    25.5810     1.9010   119.6720 
   23.7500    23.7500    -0.0160    -0.0110    39.1440    56.9500     4.4190     6.2490    25.5800     1.9090   118.5410 
   23.8750    23.8750    -0.0160    -0.0110    38.0870    55.3610     4.4760     6.3500    25.5750     1.9060   117.3630 
   24.0000    24.0000    -0.0170    -0.0120    39.0350    54.0120     4.5120     6.4430    25.5620     1.8870   116.1170 
   24.1250    24.1250    -0.0170    -0.0120    41.4980    52.8310     4.5300     6.5340    25.5480     1.8550   114.7600 
   24.2500    24.2500    -0.0180    -0.0130    42.7680    51.6970     4.5380     6.5520    25.5360     1.8240   113.3070 
   24.3750    24.3750    -0.0190    -0.0130    41.8730    50.5060     4.5420     6.5770    25.5290     1.8070   111.7630 
   24.5000    24.5000    -0.0190    -0.0130    40.9280    49.2070     4.5480     6.6230    25.5240     1.8120   110.1440 
   24.6250    24.6250    -0.0200    -0.0140    42.4670    47.8920     4.5600     6.6230    25.5190     1.8370   108.4760 
   24.7500    24.7500    -0.0200    -0.0140    43.7120    46.7740     4.5780     6.6230    25.5150     1.8600   106.7740 
   24.8750    24.8750    -0.0210    -0.0140    42.9160    46.0340     4.6010     6.6240    25.5090     1.8700   105.0300 
   25.0000    25.0000    -0.0210    -0.0150    40.9220    45.7600     4.6280     6.6260    25.4980     1.8680   103.2250 
   25.1250    25.1250    -0.0220    -0.0150    40.0660    45.9500     4.6610     6.6330    25.4840     1.8570   101.3230 
   25.2500    25.2500    -0.0220    -0.0150    40.5040    46.3200     4.7020     6.6450    25.4710     1.8350    99.3460 
   25.3750    25.3750    -0.0230    -0.0160    41.7080    46.6010     4.7560     6.6610    25.4670     1.8100    97.3120 
   25.5000    25.5000    -0.0230    -0.0160    43.1020    46.5380     4.8230     6.6790    25.4670     1.7860    95.2320 
   25.6250    25.6250    -0.0240    -0.0170    42.4940    45.8870     4.9010     6.7210    25.4680     1.7600    93.0920 
   25.7500    25.7500    -0.0240    -0.0170    39.5040    44.8180     4.9810     6.7830    25.4670     1.7360    90.8540 
   25.8750    25.8750    -0.0250    -0.0170    36.1640    43.6230     5.0580     6.8760    25.4660     1.7290    88.4660 
   26.0000    26.0000    -0.0250    -0.0180    35.0940    42.6130     5.1300     7.0210    25.4660     1.7450    85.8820 
   26.1250    26.1250    -0.0260    -0.0180    36.9610    41.9720     5.1960     7.1140    25.4660     1.7710    83.0580 
   26.2500    26.2500    -0.0260    -0.0180    39.8690    41.5850     5.2570     7.2230    25.4660     1.7960    80.0580 
   26.3750    26.3750    -0.0270    -0.0190    42.4300    41.3810     5.3120     7.2930    25.4660     1.8220    76.9120 
   26.5000    26.5000    -0.0280    -0.0190    42.6030    41.3700     5.3630     7.4430    25.4660     1.8470    73.6270 
   26.6250    26.6250    -0.0280    -0.0200    39.7510    41.6480     5.4110     7.5120    25.4580     1.8600    70.1430 
   26.7500    26.7500    -0.0290    -0.0200    36.8860    42.1410     5.4500     7.6050    25.4410     1.8530    66.4440 
   26.8750    26.8750    -0.0290    -0.0200    36.2080    42.5940     5.4560     7.6470    25.4250     1.8320    62.5120 
   27.0000    27.0000    -0.0300    -0.0210    36.9260    42.4210     5.3720     7.5640    25.4100     1.8150    58.3620 
   27.1250    27.1250    -0.0300    -0.0210    37.0130    40.4230     5.0750     7.3320    25.3890     1.8340    53.9940 
   27.2500    27.2500    -0.0310    -0.0210    36.7700    36.1550     4.5220     6.9420    25.3710     1.8990    49.4360 
   27.3750    27.3750    -0.0310    -0.0220    37.4200    29.5450     3.7120     6.4930    25.3620     2.0020    44.6630 
