~V
VERS. 2.00: Ver 2.00
~W
STRT.M 44.0000:
STOP.M 275.0000:
STEP.M 0.1250:
NULL. -999.2500:
UWI. FD11190:
~C
DEPT.M :
TVD. :
DX. :
DY. :
SP.MV :
GR.API :
RI. :
RML.OHMM :
RXO.OHMM :
DEN.GM/CC :
~A
# ...
   62.2500    62.2410    -0.4050    -0.3950   -29.3840    59.9040     4.9130     6.3500     7.2800     2.1370 
   62.3750    62.3660    -0.4100    -0.3980   -29.0480    59.3960     5.0260     6.4390     7.2020     2.1730 
   62.5000    62.4900    -0.4140    -0.4010   -28.5080    60.3780     5.0500     6.3590     7.2070     2.1790 
   62.6250    62.6150    -0.4190    -0.4050   -27.6980    60.5720     4.9610     6.0980     7.1290     2.1530 
   62.7500    62.7400    -0.4240    -0.4080   -26.7760    57.7260     4.8220     5.9780     7.1080     2.1270 
   62.8750    62.8650    -0.4290    -0.4110   -25.8410    54.6250     4.7900     6.3460     7.3340     2.1220 
   63.0000    62.9900    -0.4330    -0.4150   -24.8280    54.7950     4.9950     7.3220     7.7480     2.1430 
   63.1250    63.1150    -0.4380    -0.4180   -23.5500    57.5180     5.8910     8.9510     8.9430     2.2070 
   63.2500    63.2400    -0.4430    -0.4220   -21.9430    58.8950     7.6210    10.9970    13.2520     2.3270 
   63.3750    63.3640    -0.4480    -0.4250   -20.0690    60.2050     9.5360    12.6170    26.3200     2.4740 
   63.5000    63.4890    -0.4540    -0.4280   -17.9980    60.4600    10.6680    12.8190    44.9880     2.5670 
   63.6250    63.6140    -0.4590    -0.4320   -15.7720    59.9810    10.0840    11.2620    44.4800     2.5390 
   63.7500    63.7390    -0.4640    -0.4350   -13.6010    62.8510     8.3350     8.8040    21.9840     2.4260 
   63.8750    63.8640    -0.4690    -0.4390   -11.6420    72.5580     6.3150     6.5510     6.8650     2.3140 
   64.0000    63.9890    -0.4750    -0.4420   -10.0830    83.4410     4.8490     5.1060     4.6370     2.2580 
   64.1250    64.1130    -0.4800    -0.4460    -9.1030    89.8980     4.1980     4.4930     4.5930     2.2460 
   64.2500    64.2380    -0.4850    -0.4490    -8.4870    93.9320     3.9610     4.3310     4.7920     2.2420 
   64.3750    64.3630    -0.4910    -0.4530    -8.0480    96.4550     4.0350     4.3930     4.7240     2.2390 
   64.5000    64.4880    -0.4960    -0.4560    -7.6610    96.6770     4.2040     4.5060     4.4010     2.2410 
   64.6250    64.6130    -0.5020    -0.4600    -7.4990    95.9650     4.3420     4.5700     4.4930     2.2370 
   64.7500    64.7380    -0.5070    -0.4630    -7.4320    95.6020     4.4040     4.5460     4.9050     2.2260 
   64.8750    64.8620    -0.5130    -0.4670    -7.3410    96.0350     4.3650     4.4260     4.9030     2.2260 
   65.0000    64.9870    -0.5190    -0.4700    -7.3240    97.8250     4.2510     4.2610     4.4670     2.2480 
   65.1250    65.1120    -0.5240    -0.4740    -7.2790   103.7320     4.1300     4.1330     4.0050     2.2830 
   65.2500    65.2370    -0.5300    -0.4770    -7.0920   108.6490     4.0480     4.1000     4.0640     2.3120 
   65.3750    65.3620    -0.5360    -0.4810    -6.7870   108.8600     4.0550     4.1800     4.3300     2.3120 
   65.5000    65.4870    -0.5420    -0.4840    -6.6390   107.2450     4.1090     4.3230     4.4010     2.2790 
   65.6250    65.6110    -0.5480    -0.4880    -6.6940   107.5390     4.1530     4.4810     4.7600     2.2330 
   65.7500    65.7360    -0.5540    -0.4910    -6.8810   106.8360     4.1760     4.6250     4.8650     2.2040 
   65.8750    65.8610    -0.5600    -0.4950    -7.1970   102.4300     4.2150     4.7400     4.4400     2.1950 
   66.0000    65.9860    -0.5660    -0.4980    -7.6180    99.2800     4.2730     4.8350     4.2930     2.1840 
   66.1250    66.1110    -0.5720    -0.5020    -7.9420   100.1980     4.3440     4.9340     4.6240     2.1660 
   66.2500    66.2350    -0.5780    -0.5050    -8.1820   100.4190     4.4280     5.0720     5.0990     2.1610 
   66.3750    66.3600    -0.5850    -0.5090    -8.5390    96.9900     4.5850     5.2440     5.0380     2.1730 
   66.5000    66.4850    -0.5910    -0.5130    -9.0110    92.1980     4.7320     5.3930     5.3850     2.1830 
   66.6250    66.6100    -0.5970    -0.5160    -9.4130    88.8840     4.8260     5.4300     7.5310     2.1690 
   66.7500    66.7340    -0.6040    -0.5200    -9.6660    87.0170     4.7880     5.3450     8.6940     2.1460 
   66.8750    66.8590    -0.6100    -0.5230    -9.9450    83.4850     4.6310     5.2140     7.0830     2.1380 
   67.0000    66.9840    -0.6170    -0.5270   -10.4000    79.8700     4.5460     5.1920     5.4560     2.1590 
   67.1250    67.1090    -0.6240    -0.5310   -10.8520    81.2200     4.6460     5.4390     5.0000     2.2180 
   67.2500    67.2340    -0.6310    -0.5340   -11.1680    85.7570     4.9420     6.0050     6.5910     2.3050 
   67.3750    67.3580    -0.6380    -0.5380   -11.4790    87.9830     5.5280     6.7790    11.6430     2.3770 
   67.5000    67.4830    -0.6440    -0.5420   -11.8950    83.9210     6.1640     7.4370    14.4220     2.3910 
   67.6250    67.6080    -0.6520    -0.5450   -12.4210    76.0740     6.5420     7.6340    12.2360     2.3370 
   67.7500    67.7330    -0.6590    -0.5490   -12.9610    69.8950     6.5090     7.3540     9.8510     2.2500 
   67.8750    67.8570    -0.6660    -0.5530   -13.7060    66.2440     6.1530     6.8030     7.5330     2.1630 
   68.0000    67.9820    -0.6730    -0.5560   -14.6130    64.9950     5.7450     6.3470     6.1770     2.1060 
   68.1250    68.1070    -0.6810    -0.5600   -15.5520    65.4400     5.5720     6.1880     6.5450     2.0960 
   68.2500    68.2310    -0.6880    -0.5640   -16.3410    67.4020     5.6740     6.2780     6.9590     2.1190 
   68.3750    68.3560    -0.6960    -0.5680   -16.8240    67.7420     5.8690     6.4750     7.4770     2.1430 
   68.5000    68.4810    -0.7040    -0.5710   -17.0740    65.7250     6.0940     6.6540     8.1570     2.1450 
   68.6250    68.6060    -0.7120    -0.5750   -17.3020    63.2890     6.2300     6.7490     8.3680     2.1250 
   68.7500    68.7300    -0.7200    -0.5790   -17.4110    62.1200     6.2510     6.7530     7.7340     2.1030 
   68.8750    68.8550    -0.7280    -0.5830   -17.2980    63.0180     6.2100     6.6800     7.1520     2.0930 
   69.0000    68.9800    -0.7360    -0.5870   -16.9510    66.1610     6.0820     6.5680     7.2770     2.0970 
   69.1250    69.1040    -0.7440    -0.5910   -16.5420    69.3400     5.9390     6.4470     7.9050     2.1070 
   69.2500    69.2290    -0.7520    -0.5950   -16.1050    70.0400     5.8060     6.3550     7.8460     2.1110 
   69.3750    69.3540    -0.7600    -0.5990   -15.7160    69.3190     5.7110     6.2980     7.0510     2.1040 
   69.5000    69.4780    -0.7690    -0.6030   -15.3870    70.4040     5.6590     6.3290     6.9450     2.0940 
   69.6250    69.6030    -0.7770    -0.6070   -15.1860    72.1960     5.6980     6.6240     7.2740     2.0930 
   69.7500    69.7280    -0.7860    -0.6110   -15.1040    70.9370     6.0420     7.3950     7.3650     2.1170 
   69.8750    69.8520    -0.7950    -0.6150   -14.9840    69.1290     6.9530     8.7200     7.2490     2.1930 
   70.0000    69.9770    -0.8040    -0.6190   -14.7900    70.7550     8.3100    10.2420    11.6470     2.3200 
   70.1250    70.1010    -0.8130    -0.6230   -14.5120    75.3020     9.5710    11.3180    31.9810     2.4350 
   70.2500    70.2260    -0.8220    -0.6270   -14.2050    76.9280    10.2540    11.4800    49.5720     2.4540 
   70.3750    70.3510    -0.8310    -0.6310   -14.0980    72.1710     9.9190    10.5820    35.8810     2.3480 
   70.5000    70.4750    -0.8400    -0.6350   -14.3690    65.7950     8.8410     9.1270    14.1940     2.2050 
   70.6250    70.6000    -0.8490    -0.6390   -14.9470    61.7650     7.4850     7.7220     7.6830     2.1200 
   70.7500    70.7240    -0.8590    -0.6440   -15.5600    61.7410     6.4020     6.7930     7.3590     2.1060 
   70.8750    70.8490    -0.8680    -0.6480   -15.9220    63.7670     5.8630     6.4640     7.3780     2.1260 
   71.0000    70.9730    -0.8780    -0.6520   -16.0090    64.0410     5.8100     6.4900     7.5880     2.1390 
   71.1250    71.0980    -0.8880    -0.6560   -16.0080    62.1310     5.9740     6.6430     8.1120     2.1380 
   71.2500    71.2230    -0.8980    -0.6600   -16.0540    60.0630     6.1270     6.7630     8.3080     2.1340 
