~V
VERS. 2.00: Ver 2.00
~W
STRT.M 30.0000:
STOP.M 272.0000:
STEP.M 0.1250:
NULL. -999.2500:
UWI. FD11176:
~C
DEPT.M :
TVD. :
DX. :
DY. :
SP.MV :
GR.API :
RI. :
RML.OHMM :
RXO.OHMM :
DEN.GM/CC :
~A
# ...
  139.5000   135.8710    21.5450    -9.7370   -11.6830    91.2900     3.1420     3.8570     4.3430     2.1880 
  139.6250   135.9870    21.5880    -9.7570   -12.0190    89.6350     3.1640     3.8570     4.2270     2.1800 
  139.7500   136.1020    21.6300    -9.7770   -12.1140    89.6400     3.1780     3.8420     4.2360     2.1990 
  139.8750   136.2180    21.6730    -9.7970   -12.1270    88.5370     3.2430     3.9140     4.2520     2.2300 
  140.0000   136.3340    21.7150    -9.8170   -12.2540    82.8650     3.4250     4.1520     4.1440     2.2460 
  140.1250   136.4500    21.7580    -9.8370   -12.5560    79.3540     3.7650     4.5910     4.2590     2.2320 
  140.2500   136.5660    21.8010    -9.8580   -12.9240    79.3360     4.1580     5.1070     4.7920     2.2000 
  140.3750   136.6810    21.8430    -9.8780   -13.2120    79.6790     4.5610     5.6480     6.0730     2.1590 
  140.5000   136.7970    21.8850    -9.8980   -13.3450    77.8420     4.7830     5.9270     7.4830     2.1170 
  140.6250   136.9130    21.9280    -9.9190   -13.3150    74.4120     4.7130     5.8210     7.7290     2.0800 
  140.7500   137.0290    21.9700    -9.9390   -13.1420    72.8780     4.3460     5.3100     6.9820     2.0480 
  140.8750   137.1450    22.0120    -9.9600   -12.7550    75.0520     3.7660     4.5270     6.2450     2.0400 
  141.0000   137.2600    22.0550    -9.9800   -12.1380    81.2190     3.1730     3.7760     5.4250     2.0770 
  141.1250   137.3760    22.0970   -10.0000   -11.3930    86.0610     2.7760     3.2950     4.1740     2.1480 
  141.2500   137.4920    22.1390   -10.0200   -10.7560    86.6210     2.5510     3.0440     3.3410     2.2000 
  141.3750   137.6080    22.1820   -10.0410   -10.4040    87.6650     2.4950     3.0160     3.2160     2.2080 
  141.5000   137.7240    22.2240   -10.0610   -10.3100    91.4140     2.5260     3.0940     3.3920     2.1940 
  141.6250   137.8400    22.2660   -10.0820   -10.3580    93.4030     2.5680     3.1700     3.7090     2.1820 
  141.7500   137.9560    22.3080   -10.1020   -10.4010    90.6480     2.5860     3.2030     3.7230     2.1810 
  141.8750   138.0720    22.3500   -10.1220   -10.3810    88.7580     2.5620     3.1640     3.4110     2.1900 
  142.0000   138.1880    22.3920   -10.1430   -10.3280    93.2940     2.5050     3.0760     3.1330     2.1990 
  142.1250   138.3030    22.4340   -10.1630   -10.2600    99.7650     2.4320     2.9730     3.0340     2.2020 
  142.2500   138.4190    22.4770   -10.1830   -10.1630   100.5410     2.3540     2.8640     3.1550     2.2020 
  142.3750   138.5350    22.5190   -10.2040   -10.0190    95.7930     2.2490     2.7300     3.3780     2.2020 
  142.5000   138.6510    22.5610   -10.2240    -9.8250    92.1950     2.1320     2.5950     3.4020     2.2040 
  142.6250   138.7670    22.6030   -10.2440    -9.5890    92.5120     2.0200     2.4720     3.1310     2.2060 
  142.7500   138.8830    22.6460   -10.2640    -9.3530    93.2940     1.9320     2.3890     2.8120     2.2080 
  142.8750   138.9990    22.6880   -10.2840    -9.1690    92.9820     1.8990     2.3680     2.6260     2.2210 
  143.0000   139.1150    22.7300   -10.3040    -9.0610    92.0600     1.9180     2.4000     2.6600     2.2390 
  143.1250   139.2310    22.7720   -10.3250    -9.0380    90.4870     1.9760     2.4890     2.7610     2.2530 
  143.2500   139.3470    22.8150   -10.3450    -9.0800    89.7210     2.0520     2.6050     2.7140     2.2680 
  143.3750   139.4620    22.8570   -10.3650    -9.1910    93.1600     2.1160     2.6960     2.6970     2.2830 
  143.5000   139.5780    22.8990   -10.3850    -9.3740    97.1420     2.1470     2.7360     2.8790     2.2770 
  143.6250   139.6940    22.9420   -10.4050    -9.6420    99.5200     2.1590     2.7410     3.0910     2.2430 
  143.7500   139.8100    22.9840   -10.4260    -9.9690   100.2040     2.1600     2.7340     3.2800     2.2070 
  143.8750   139.9260    23.0260   -10.4460   -10.2880    99.8730     2.1540     2.7180     3.2520     2.1930 
  144.0000   140.0420    23.0680   -10.4660   -10.5260    97.9340     2.1480     2.7000     2.9040     2.2000 
  144.1250   140.1580    23.1110   -10.4860   -10.6610    93.7950     2.1350     2.6700     2.8310     2.2150 
  144.2500   140.2730    23.1530   -10.5060   -10.7370    91.4730     2.1130     2.6190     3.0440     2.2130 
  144.3750   140.3890    23.1960   -10.5260   -10.7550    91.8930     2.0940     2.5810     3.1060     2.1970 
  144.5000   140.5050    23.2380   -10.5460   -10.7070    92.9950     2.1080     2.5920     3.0240     2.1900 
  144.6250   140.6210    23.2810   -10.5660   -10.6150    91.6970     2.1570     2.6610     2.8820     2.1970 
  144.7500   140.7370    23.3230   -10.5860   -10.5310    89.4170     2.2480     2.8010     2.9090     2.2080 
  144.8750   140.8530    23.3660   -10.6060   -10.4900    88.3090     2.3330     2.9320     3.1900     2.2140 
  145.0000   140.9680    23.4090   -10.6260   -10.4770    89.1510     2.3230     2.9280     3.6210     2.2130 
  145.1250   141.0840    23.4510   -10.6460   -10.4150    92.0070     2.2200     2.7780     3.8330     2.1980 
  145.2500   141.2000    23.4940   -10.6660   -10.2290    96.6410     2.0400     2.5150     3.4180     2.1790 
  145.3750   141.3160    23.5370   -10.6860    -9.9030   102.7090     1.8290     2.2260     2.8000     2.1810 
  145.5000   141.4320    23.5790   -10.7060    -9.5350   108.2950     1.6620     2.0050     2.3990     2.2080 
  145.6250   141.5470    23.6220   -10.7260    -9.2620   112.3660     1.5550     1.8720     2.2130     2.2410 
  145.7500   141.6630    23.6640   -10.7460    -9.1600   114.2230     1.5230     1.8310     2.1860     2.2600 
  145.8750   141.7790    23.7070   -10.7660    -9.2470   115.2690     1.5810     1.8930     2.1690     2.2620 
  146.0000   141.8950    23.7500   -10.7860    -9.4810   114.8780     1.7030     2.0290     2.1630     2.2580 
  146.1250   142.0100    23.7930   -10.8060    -9.8240   110.7250     1.8940     2.2510     2.3130     2.2610 
  146.2500   142.1260    23.8350   -10.8260   -10.2090   103.9550     2.1710     2.5660     2.5650     2.2770 
  146.3750   142.2420    23.8780   -10.8460   -10.6190    97.3350     2.4630     2.8880     2.7640     2.2860 
  146.5000   142.3580    23.9210   -10.8660   -11.0750    92.1690     2.6860     3.1130     3.1550     2.2620 
  146.6250   142.4730    23.9640   -10.8850   -11.5730    87.7300     2.7680     3.1700     3.7800     2.2120 
  146.7500   142.5890    24.0070   -10.9050   -12.0160    85.7260     2.6840     3.0220     3.9780     2.1710 
  146.8750   142.7050    24.0500   -10.9250   -12.2740    88.3900     2.5140     2.7780     3.7490     2.1640 
  147.0000   142.8200    24.0930   -10.9450   -12.3420    93.3210     2.3090     2.5040     3.4850     2.1780 
  147.1250   142.9360    24.1360   -10.9650   -12.3090    96.0360     2.1530     2.3010     3.1870     2.2000 
  147.2500   143.0520    24.1790   -10.9850   -12.3080    94.2070     2.1350     2.2980     3.0590     2.2160 
  147.3750   143.1670    24.2220   -11.0050   -12.4180    91.3530     2.2770     2.4950     2.9640     2.2230 
  147.5000   143.2830    24.2650   -11.0250   -12.6400    89.7660     2.5850     2.8890     2.8810     2.2210 
  147.6250   143.3990    24.3080   -11.0440   -12.9570    87.2540     3.1280     3.5560     3.3930     2.2080 
  147.7500   143.5140    24.3510   -11.0640   -13.2940    82.0140     3.7070     4.2130     4.5740     2.1820 
  147.8750   143.6300    24.3940   -11.0840   -13.5360    76.7520     4.0720     4.5580     6.2990     2.1490 
  148.0000   143.7460    24.4370   -11.1030   -13.5780    74.7780     4.1260     4.5170     7.8050     2.1220 
  148.1250   143.8620    24.4800   -11.1230   -13.3550    73.9390     3.8460     4.0910     7.8830     2.1080 
  148.2500   143.9770    24.5230   -11.1430   -12.9100    74.4270     3.5130     3.6470     6.8450     2.1120 
  148.3750   144.0930    24.5660   -11.1620   -12.2900    76.9790     3.3870     3.4740     5.1250     2.1470 
  148.5000   144.2090    24.6090   -11.1820   -11.6040    79.2990     3.5250     3.6150     4.4690     2.2250 
