~V
VERS. 2.00: Ver 2.00
~W
STRT.M 15.0000:
STOP.M 224.0000:
STEP.M 0.1250:
NULL. -999.2500:
UWI. FD11007:
~C
DEPT.M :
TVD. :
DX. :
DY. :
DEN.GM/CC :
GR.API :
RML.OHMM :
RI. :
RXO.OHMM :
CALI.CM :
SP.MV :
~A
# ...
  196.5000   194.2250    15.5110   -13.8370     2.4230    90.3360    10.0350     8.6100     7.5210    25.1820   -26.2890 
  196.6250   194.3450    15.5390   -13.8600     2.4210    88.5810    10.7970     9.0420     7.0670    25.1830   -26.1220 
  196.7500   194.4650    15.5660   -13.8820     2.4150    88.0450    12.2240     9.9700     7.5340    25.1860   -26.0030 
  196.8750   194.5850    15.5940   -13.9050     2.4050    85.4060    14.2480    11.3990    10.1300    25.1890   -25.8850 
  197.0000   194.7050    15.6210   -13.9270     2.3870    80.8670    16.5660    13.1720    17.0240    25.1920   -25.7560 
  197.1250   194.8240    15.6490   -13.9500     2.3600    78.1230    18.5190    14.8480    23.5800    25.1920   -25.6080 
  197.2500   194.9440    15.6760   -13.9720     2.3360    76.9390    19.6560    15.9810    21.7030    25.1900   -25.4360 
  197.3750   195.0640    15.7040   -13.9950     2.3280    74.6110    20.0450    16.5040    16.2110    25.1900   -25.2470 
  197.5000   195.1840    15.7320   -14.0170     2.3420    70.5600    20.2120    16.7350    14.4530    25.1940   -25.0550 
  197.6250   195.3040    15.7590   -14.0400     2.3670    67.2700    20.9100    17.2120    15.3360    25.1960   -24.8990 
  197.7500   195.4240    15.7870   -14.0620     2.3770    66.5800    22.4650    18.2600    17.2250    25.1940   -24.8360 
  197.8750   195.5430    15.8140   -14.0850     2.3640    67.9330    24.9000    19.9840    19.6870    25.1910   -24.8640 
  198.0000   195.6630    15.8420   -14.1070     2.3380    69.0280    27.9510    22.2750    22.6320    25.1900   -24.9620 
  198.1250   195.7830    15.8690   -14.1300     2.3190    69.0550    31.0420    24.7880    25.2830    25.1930   -25.1010 
  198.2500   195.9030    15.8970   -14.1520     2.3170    69.6710    33.4890    26.9780    26.8050    25.1960   -25.2490 
  198.3750   196.0230    15.9240   -14.1750     2.3210    72.0540    34.8060    28.4230    28.2240    25.1970   -25.3910 
  198.5000   196.1430    15.9520   -14.1970     2.3180    73.8030    34.8040    28.8850    31.5630    25.1960   -25.5090 
  198.6250   196.2620    15.9800   -14.2200     2.3020    71.3450    33.6240    28.3520    29.5980    25.1990   -25.5750 
  198.7500   196.3820    16.0070   -14.2420     2.2830    67.4480    32.0710    27.3900    24.9540    25.1980   -25.5740 
  198.8750   196.5020    16.0350   -14.2650     2.2710    66.5310    30.6570    26.3870    22.2840    25.1860   -25.5440 
  199.0000   196.6220    16.0620   -14.2880     2.2690    69.1890    29.6870    25.6110    22.2150    25.1720   -25.5220 
  199.1250   196.7420    16.0900   -14.3100     2.2730    72.2140    29.3000    25.2380    23.4430    25.1080   -25.5400 
  199.2500   196.8620    16.1170   -14.3330     2.2760    73.0670    29.1400    25.0830    22.0750    24.9430   -25.6110 
  199.3750   196.9810    16.1450   -14.3550     2.2770    72.3250    28.7750    24.8270    19.9980    24.7220   -25.7350 
  199.5000   197.1010    16.1720   -14.3780     2.2810    70.5600    27.8790    24.1800    20.2690    24.5600   -25.9350 
  199.6250   197.2210    16.2000   -14.4000     2.2920    69.8250    26.4700    23.0950    22.9190    24.5270   -26.2390 
  199.7500   197.3410    16.2270   -14.4230     2.3040    73.0570    25.1830    22.0440    23.0240    24.5340   -26.6470 
  199.8750   197.4610    16.2550   -14.4450     2.3120    77.3070    24.6820    21.5260    19.9550    24.5350   -27.1130 
  200.0000   197.5810    16.2830   -14.4680     2.3090    77.6800    25.4820    21.9580    16.7690    24.5330   -27.5830 
  200.1250   197.7000    16.3100   -14.4900     2.2970    73.1170    27.9490    23.7220    17.3670    24.5370   -28.0140 
  200.2500   197.8200    16.3380   -14.5130     2.2820    70.1150    31.4100    26.4290    21.4150    24.5570   -28.3860 
  200.3750   197.9400    16.3650   -14.5350     2.2720    71.2790    35.0160    29.5030    26.7170    24.5960   -28.7090 
  200.5000   198.0600    16.3930   -14.5580     2.2680    74.1400    37.7330    32.1020    30.1410    24.6420   -28.9770 
  200.6250   198.1800    16.4200   -14.5800     2.2700    75.5430    38.5630    33.2530    30.6300    24.6820   -29.1960 
  200.7500   198.3000    16.4480   -14.6030     2.2730    73.5330    38.0390    33.1660    29.1300    24.7140   -29.3880 
  200.8750   198.4190    16.4750   -14.6250     2.2740    68.5300    36.9490    32.4100    26.7440    24.7380   -29.5570 
  201.0000   198.5390    16.5030   -14.6480     2.2750    64.9070    35.9110    31.5360    24.0230    24.7640   -29.6890 
  201.1250   198.6590    16.5310   -14.6700     2.2720    64.2560    35.1470    30.8210    22.1030    24.8280   -29.7600 
  201.2500   198.7790    16.5580   -14.6930     2.2680    63.8730    34.4910    30.2250    21.8870    24.9160   -29.7260 
  201.3750   198.8990    16.5860   -14.7150     2.2680    62.8720    33.8140    29.6650    22.6760    24.9840   -29.6060 
  201.5000   199.0190    16.6130   -14.7380     2.2740    63.5700    33.1150    29.1260    23.6540    25.0090   -29.4380 
  201.6250   199.1380    16.6410   -14.7600     2.2830    66.8660    32.5640    28.7230    23.9170    25.0070   -29.2720 
  201.7500   199.2580    16.6690   -14.7830     2.2850    69.6790    32.3500    28.5970    22.9780    25.0100   -29.1320 
  201.8750   199.3780    16.6970   -14.8050     2.2800    71.1010    32.6010    28.8650    22.3420    25.0150   -29.0420 
  202.0000   199.4980    16.7250   -14.8280     2.2700    69.8480    33.3010    29.5400    23.2920    25.0180   -29.0000 
  202.1250   199.6170    16.7530   -14.8500     2.2630    67.3090    34.2380    30.4710    24.9490    25.0200   -28.9870 
  202.2500   199.7370    16.7810   -14.8730     2.2610    66.5790    34.9700    31.2690    25.8300    25.0190   -28.9940 
  202.3750   199.8570    16.8090   -14.8950     2.2600    67.3470    35.1500    31.6150    26.3810    25.0150   -28.9880 
  202.5000   199.9760    16.8370   -14.9180     2.2580    68.1230    34.6110    31.3370    26.8160    25.0100   -28.9630 
  202.6250   200.0960    16.8650   -14.9400     2.2550    67.2280    33.4470    30.4600    26.1380    25.0060   -28.9460 
  202.7500   200.2160    16.8930   -14.9630     2.2610    65.7900    32.2400    29.4570    23.7530    25.0010   -28.9690 
  202.8750   200.3360    16.9210   -14.9850     2.2810    65.5800    31.4490    28.7210    21.8420    25.0010   -29.0470 
  203.0000   200.4550    16.9490   -15.0080     2.3090    66.8480    31.3580    28.5300    21.1810    25.0070   -29.1910 
  203.1250   200.5750    16.9770   -15.0300     2.3280    67.1380    32.1150    29.0780    21.5800    25.0120   -29.4110 
  203.2500   200.6950    17.0050   -15.0530     2.3260    64.5500    33.2880    30.0590    21.7990    25.0150   -29.7040 
  203.3750   200.8150    17.0330   -15.0750     2.3040    60.8350    34.3580    31.0390    23.5460    25.0090   -30.0430 
  203.5000   200.9340    17.0610   -15.0980     2.2740    60.3820    34.7630    31.4810    25.8290    24.9900   -30.4170 
  203.6250   201.0540    17.0890   -15.1210     2.2550    64.6010    34.0540    30.8990    26.1430    24.9730   -30.8110 
  203.7500   201.1740    17.1170   -15.1430     2.2500    68.5340    32.6940    29.6570    24.1860    24.9730   -31.2270 
  203.8750   201.2930    17.1450   -15.1660     2.2530    69.5260    31.3900    28.3690    21.6790    24.9610   -31.6590 
  204.0000   201.4130    17.1730   -15.1880     2.2540    69.8380    30.9920    27.7540    19.0560    24.9120   -32.1080 
  204.1250   201.5330    17.2010   -15.2110     2.2500    68.8230    32.7060    28.7970    19.4950    24.8410   -32.5740 
  204.2500   201.6530    17.2290   -15.2330     2.2440    64.6590    37.0940    32.0860    21.6050    24.7510   -33.0500 
  204.3750   201.7720    17.2570   -15.2560     2.2510    60.4460    44.7880    38.5500    25.2380    24.6210   -33.4820 
  204.5000   201.8920    17.2850   -15.2780     2.2920    60.4130    55.5740    48.5450    32.4710    24.4600   -33.8140 
  204.6250   202.0120    17.3130   -15.3010     2.3860    63.1480    65.6880    59.2920    44.7020    24.3450   -33.9810 
