~V
VERS. 2.00: Ver 2.00
~W
STRT.M 40.0000:
STOP.M 279.0000:
STEP.M 0.1250:
NULL. -999.2500:
UWI. FD11188:
~C
DEPT.M :
TVD. :
DX. :
DY. :
SP.MV :
GR.API :
RI. :
RML.OHMM :
RXO.OHMM :
DEN.GM/CC :
~A
# ...
  131.2500   129.4620     4.7730    12.5480   -20.2430    79.2170     3.5520     3.8310     5.7240     2.1820 
  131.3750   129.5780     4.7850    12.5930   -20.3080    80.9420     3.5450     3.8040     5.5340     2.1570 
  131.5000   129.6930     4.7970    12.6390   -20.4140    81.0260     3.8060     4.0950     5.9390     2.1440 
  131.6250   129.8090     4.8090    12.6840   -20.5440    79.5340     4.4290     4.8130     6.6700     2.1750 
  131.7500   129.9250     4.8200    12.7300   -20.6560    76.8020     5.4410     6.0030    11.1580     2.2410 
  131.8750   130.0410     4.8320    12.7750   -20.7190    73.4600     7.2520     8.1370    20.0610     2.3160 
  132.0000   130.1570     4.8440    12.8210   -20.7440    70.8380     9.2350    10.3470    25.3100     2.3700 
  132.1250   130.2720     4.8560    12.8670   -20.7660    70.2670    10.4500    11.5790    25.8160     2.3790 
  132.2500   130.3880     4.8670    12.9120   -20.8180    70.5430    10.6220    11.5770    29.0490     2.3330 
  132.3750   130.5040     4.8790    12.9580   -20.9160    71.8430     9.4880    10.1080    30.2100     2.2510 
  132.5000   130.6200     4.8910    13.0040   -21.0390    74.5200     7.9430     8.3140    20.9850     2.1840 
  132.6250   130.7350     4.9020    13.0500   -21.1550    75.4750     6.6980     6.9600    10.6980     2.1590 
  132.7500   130.8510     4.9140    13.0950   -21.2370    72.7070     5.8150     6.0430     7.6620     2.1590 
  132.8750   130.9670     4.9260    13.1410   -21.2760    68.2750     5.2820     5.5280     7.6050     2.1680 
  133.0000   131.0830     4.9380    13.1870   -21.2880    65.6310     5.0880     5.3680     7.5250     2.1720 
  133.1250   131.1980     4.9490    13.2320   -21.2980    64.8580     5.0630     5.3620     6.9220     2.1680 
  133.2500   131.3140     4.9610    13.2780   -21.3210    65.0860     5.1200     5.4390     6.1400     2.1560 
  133.3750   131.4300     4.9720    13.3240   -21.3580    66.6220     5.2470     5.5880     6.0030     2.1460 
  133.5000   131.5460     4.9840    13.3700   -21.3920    68.5650     5.3870     5.7340     5.9200     2.1410 
  133.6250   131.6610     4.9960    13.4150   -21.4010    69.6300     5.4970     5.8280     6.6900     2.1410 
  133.7500   131.7770     5.0070    13.4610   -21.3730    70.6190     5.5180     5.8100     7.6980     2.1400 
  133.8750   131.8930     5.0190    13.5070   -21.3010    72.7620     5.4660     5.7080     7.1890     2.1340 
  134.0000   132.0090     5.0300    13.5530   -21.1930    74.7670     5.4170     5.6350     6.7220     2.1310 
  134.1250   132.1240     5.0420    13.5990   -21.0570    74.9570     5.4100     5.6200     6.7560     2.1480 
  134.2500   132.2400     5.0540    13.6450   -20.9060    72.6970     5.4170     5.6310     6.6520     2.1720 
  134.3750   132.3560     5.0650    13.6910   -20.7570    70.7470     5.4330     5.6680     6.6190     2.1700 
  134.5000   132.4710     5.0770    13.7370   -20.6250    71.5760     5.4460     5.6850     6.5970     2.1460 
  134.6250   132.5870     5.0880    13.7830   -20.5310    73.3880     5.3850     5.6210     6.6980     2.1270 
  134.7500   132.7030     5.1000    13.8290   -20.4850    74.3580     5.2850     5.5150     6.8690     2.1230 
  134.8750   132.8180     5.1110    13.8750   -20.4910    73.8740     5.1340     5.3500     6.8400     2.1230 
  135.0000   132.9340     5.1230    13.9210   -20.5350    74.1840     4.9640     5.1700     6.5800     2.1220 
  135.1250   133.0490     5.1340    13.9670   -20.6020    76.6240     4.8160     5.0160     6.2900     2.1190 
  135.2500   133.1650     5.1460    14.0140   -20.6720    79.0610     4.6980     4.9010     6.1770     2.1130 
  135.3750   133.2800     5.1580    14.0600   -20.7340    79.2210     4.6380     4.8480     6.2790     2.1070 
  135.5000   133.3960     5.1690    14.1060   -20.7830    77.6410     4.6380     4.8570     6.3710     2.1070 
  135.6250   133.5110     5.1810    14.1530   -20.8150    76.1200     4.6900     4.9060     6.3500     2.1100 
  135.7500   133.6270     5.1930    14.1990   -20.8240    75.6860     4.7310     4.9410     6.3060     2.1120 
  135.8750   133.7420     5.2040    14.2450   -20.8000    75.0040     4.7190     4.8990     6.4180     2.1180 
  136.0000   133.8580     5.2160    14.2920   -20.7430    73.9240     4.6470     4.7870     6.4800     2.1300 
  136.1250   133.9730     5.2270    14.3380   -20.6570    73.4500     4.5570     4.6520     6.2200     2.1460 
  136.2500   134.0890     5.2390    14.3840   -20.5640    75.7050     4.4750     4.5350     5.9710     2.1550 
  136.3750   134.2040     5.2500    14.4310   -20.4940    78.9380     4.4590     4.5080     5.8060     2.1530 
  136.5000   134.3200     5.2620    14.4770   -20.4710    79.0540     4.5040     4.5590     5.8570     2.1370 
  136.6250   134.4350     5.2740    14.5240   -20.5090    76.2440     4.5930     4.6790     6.2490     2.1140 
  136.7500   134.5510     5.2850    14.5700   -20.5950    74.7530     4.6660     4.7760     6.4840     2.0940 
  136.8750   134.6660     5.2970    14.6160   -20.7090    75.1590     4.6890     4.8320     6.2880     2.0880 
  137.0000   134.7820     5.3080    14.6630   -20.8190    75.3520     4.6680     4.8410     6.1430     2.0920 
  137.1250   134.8970     5.3200    14.7090   -20.9030    74.3410     4.6040     4.8140     6.3270     2.1030 
  137.2500   135.0130     5.3310    14.7550   -20.9510    72.8750     4.5400     4.7910     6.3730     2.1120 
  137.3750   135.1280     5.3430    14.8020   -20.9600    70.9520     4.4670     4.7430     6.3520     2.1170 
  137.5000   135.2440     5.3540    14.8480   -20.9300    70.7900     4.3920     4.6560     6.3950     2.1170 
  137.6250   135.3590     5.3660    14.8940   -20.8550    72.9120     4.4230     4.6600     6.1950     2.1110 
  137.7500   135.4750     5.3770    14.9410   -20.7340    73.2730     4.6710     4.8880     6.2080     2.1120 
  137.8750   135.5900     5.3890    14.9870   -20.5660    69.2320     5.3550     5.6010     6.4540     2.1490 
  138.0000   135.7060     5.4000    15.0340   -20.3640    63.6210     6.7540     7.1320     7.3870     2.2590 
  138.1250   135.8220     5.4120    15.0800   -20.1490    60.1510     9.3180     9.9540    12.4010     2.4340 
  138.2500   135.9370     5.4240    15.1260   -19.9520    58.3400    12.5530    13.3950    23.1330     2.5870 
  138.3750   136.0520     5.4350    15.1730   -19.8090    58.1800    15.3840    16.3000    36.9580     2.6470 
  138.5000   136.1680     5.4470    15.2190   -19.7450    60.7620    17.1830    18.0280    43.6290     2.6370 
  138.6250   136.2830     5.4580    15.2660   -19.7820    65.0130    16.6800    17.2400    36.5870     2.6040 
  138.7500   136.3990     5.4700    15.3120   -19.9150    67.7860    14.3930    14.7250    26.6540     2.5760 
  138.8750   136.5140     5.4810    15.3590   -20.1410    67.5850    11.4030    11.5810    21.8640     2.5590 
  139.0000   136.6300     5.4930    15.4050   -20.4290    65.2370     8.3510     8.4550    17.9000     2.5180 
  139.1250   136.7450     5.5040    15.4520   -20.7490    62.5940     6.3500     6.4950    12.0060     2.4020 
  139.2500   136.8610     5.5160    15.4980   -21.0650    61.3620     5.1810     5.3870     7.9530     2.2400 
  139.3750   136.9760     5.5270    15.5450   -21.3440    63.9080     4.5870     4.8720     7.0690     2.1240 
  139.5000   137.0920     5.5380    15.5910   -21.5720    68.0860     4.3300     4.7000     6.9190     2.0900 
  139.6250   137.2070     5.5500    15.6380   -21.7400    70.2350     4.3560     4.7960     6.7990     2.0940 
  139.7500   137.3230     5.5610    15.6840   -21.8550    68.7340     4.4670     4.9380     6.7260     2.0970 
  139.8750   137.4380     5.5730    15.7310   -21.9210    67.3190     4.5410     5.0010     6.7990     2.0960 
  140.0000   137.5530     5.5840    15.7770   -21.9510    68.6900     4.5860     5.0180     6.8920     2.0950 
  140.1250   137.6690     5.5950    15.8240   -21.9520    72.0510     4.5940     4.9920     6.9240     2.0930 
  140.2500   137.7840     5.6070    15.8700   -21.9360    74.6210     4.5870     4.9460     6.9160     2.0900 
