~V
VERS. 2.00: Ver 2.00
~W
STRT.M 45.0000:
STOP.M 272.0000:
STEP.M 0.1250:
NULL. -999.2500:
UWI. FD11191:
~C
DEPT.M :
TVD. :
DX. :
DY. :
SP.MV :
GR.API :
RI. :
RML.OHMM :
RXO.OHMM :
DEN.GM/CC :
~A
# ...
  191.0000   187.9780   -23.0680     0.8060   -32.6750    67.9870    28.6790    31.9840    38.0830     2.1820 
  191.1250   188.0940   -23.1150     0.8080   -32.7560    66.5180    29.7560    33.0850    39.2820     2.1680 
  191.2500   188.2100   -23.1620     0.8110   -32.8650    65.8580    30.9410    34.2580    40.1170     2.1560 
  191.3750   188.3250   -23.2090     0.8140   -32.9840    65.5060    32.3300    35.5360    39.9270     2.1500 
  191.5000   188.4410   -23.2560     0.8160   -33.0890    64.3960    33.7780    36.7900    41.1360     2.1500 
  191.6250   188.5570   -23.3040     0.8190   -33.1600    64.1710    35.2440    37.9190    44.7480     2.1540 
  191.7500   188.6730   -23.3510     0.8220   -33.1810    64.8610    36.2850    38.5360    46.8930     2.1570 
  191.8750   188.7880   -23.3980     0.8250   -33.1420    64.3940    36.9510    38.7780    47.4680     2.1580 
  192.0000   188.9040   -23.4450     0.8280   -33.0480    62.6570    37.2110    38.5920    48.0430     2.1700 
  192.1250   189.0200   -23.4930     0.8310   -32.9040    61.2330    37.0000    38.0000    46.9710     2.2100 
  192.2500   189.1350   -23.5400     0.8340   -32.7230    62.5730    36.3700    37.0830    45.2810     2.2580 
  192.3750   189.2510   -23.5870     0.8380   -32.5080    64.3930    35.0020    35.6160    45.9540     2.2700 
  192.5000   189.3670   -23.6350     0.8410   -32.2650    63.8870    32.5300    32.9410    46.6030     2.2400 
  192.6250   189.4820   -23.6820     0.8430   -32.0000    61.9830    27.6670    27.7340    43.4480     2.2070 
  192.7500   189.5980   -23.7300     0.8460   -31.7270    62.3310    21.9140    21.6860    43.5520     2.2040 
  192.8750   189.7130   -23.7770     0.8490   -31.4730    66.2570    16.5920    16.0730    43.4190     2.2310 
  193.0000   189.8290   -23.8250     0.8520   -31.2650    70.5350    13.3770    12.9610    32.5750     2.2610 
  193.1250   189.9440   -23.8720     0.8560   -31.1390    73.8400    13.3030    13.0020    21.0130     2.2560 
  193.2500   190.0600   -23.9200     0.8590   -31.1050    75.7800    15.7680    15.5420    26.2740     2.2100 
  193.3750   190.1760   -23.9670     0.8620   -31.1640    72.9010    24.1260    24.8920    47.6850     2.1540 
  193.5000   190.2910   -24.0150     0.8650   -31.2850    66.0240    36.5800    38.2120    62.0170     2.1310 
  193.6250   190.4070   -24.0630     0.8680   -31.4390    59.0350    48.8510    51.0350    61.7010     2.1440 
  193.7500   190.5220   -24.1100     0.8710   -31.5990    55.0580    57.7850    60.0690    59.7630     2.1560 
  193.8750   190.6380   -24.1580     0.8740   -31.7490    55.9120    59.2100    60.7820    60.0520     2.1520 
  194.0000   190.7530   -24.2060     0.8770   -31.8860    59.5160    57.0150    58.2430    59.7220     2.1430 
  194.1250   190.8690   -24.2540     0.8800   -32.0040    62.7850    53.2680    54.3110    60.8500     2.1420 
  194.2500   190.9840   -24.3010     0.8830   -32.1060    64.0030    48.7270    49.6110    63.0900     2.1450 
  194.3750   191.1000   -24.3490     0.8860   -32.1880    64.5300    44.0000    44.8140    59.4630     2.1430 
  194.5000   191.2150   -24.3970     0.8880   -32.2500    65.7460    40.0000    40.8560    52.2210     2.1440 
  194.6250   191.3300   -24.4450     0.8910   -32.2890    67.0680    37.2760    38.3030    48.4060     2.1480 
  194.7500   191.4460   -24.4930     0.8940   -32.3100    67.7430    35.7140    37.0150    45.3820     2.1490 
  194.8750   191.5610   -24.5410     0.8970   -32.3180    68.3310    35.3190    36.8850    42.8520     2.1460 
  195.0000   191.6760   -24.5890     0.9000   -32.3200    66.8010    35.3720    37.0980    47.3500     2.1480 
  195.1250   191.7920   -24.6380     0.9030   -32.3190    64.2110    35.5570    37.3070    54.5200     2.1580 
  195.2500   191.9070   -24.6860     0.9060   -32.3140    62.5990    35.7240    37.4360    53.8960     2.1640 
  195.3750   192.0220   -24.7340     0.9090   -32.2960    63.6920    35.9620    37.6910    49.4120     2.1580 
  195.5000   192.1370   -24.7830     0.9110   -32.2610    65.8540    36.6910    38.5370    49.0480     2.1510 
  195.6250   192.2530   -24.8310     0.9140   -32.2060    66.1030    37.8350    39.8240    48.7310     2.1510 
  195.7500   192.3680   -24.8790     0.9170   -32.1390    64.9810    39.1840    41.3020    48.8820     2.1490 
  195.8750   192.4830   -24.9280     0.9200   -32.0670    63.8680    40.4140    42.5830    55.5860     2.1390 
  196.0000   192.5980   -24.9770     0.9220   -32.0020    64.2360    41.2800    43.4740    63.4820     2.1300 
  196.1250   192.7130   -25.0250     0.9250   -31.9490    65.2730    42.0100    44.2290    63.4600     2.1300 
  196.2500   192.8280   -25.0740     0.9280   -31.9070    65.3510    42.6080    44.8510    57.3810     2.1350 
  196.3750   192.9430   -25.1230     0.9300   -31.8700    64.0580    43.0660    45.3120    52.3330     2.1400 
  196.5000   193.0580   -25.1710     0.9330   -31.8260    61.8910    43.2930    45.5010    50.1840     2.1410 
  196.6250   193.1730   -25.2200     0.9350   -31.7590    61.1680    43.2210    45.3420    53.4050     2.1390 
  196.7500   193.2880   -25.2690     0.9380   -31.6630    63.4850    42.6650    44.6560    62.2730     2.1340 
  196.8750   193.4030   -25.3180     0.9420   -31.5320    66.4400    41.7530    43.6270    74.0220     2.1300 
  197.0000   193.5180   -25.3670     0.9450   -31.3690    66.7630    40.7500    42.5170    78.1550     2.1280 
  197.1250   193.6330   -25.4160     0.9480   -31.1760    64.7570    39.7070    41.3470    70.5610     2.1320 
  197.2500   193.7480   -25.4660     0.9510   -30.9600    62.3670    38.6150    40.0950    66.9380     2.1370 
  197.3750   193.8630   -25.5150     0.9540   -30.7250    60.5830    37.3680    38.6750    64.7940     2.1450 
  197.5000   193.9780   -25.5640     0.9570   -30.4780    60.1520    36.0190    37.1340    54.2650     2.1530 
  197.6250   194.0930   -25.6130     0.9600   -30.2270    62.8570    34.6620    35.6170    41.5680     2.1510 
  197.7500   194.2070   -25.6630     0.9620   -29.9830    66.5040    33.6880    34.5110    33.6780     2.1420 
  197.8750   194.3220   -25.7120     0.9650   -29.7610    67.1630    33.0590    33.7280    34.5200     2.1310 
  198.0000   194.4370   -25.7620     0.9680   -29.5730    64.5800    32.8120    33.3350    40.1520     2.1280 
  198.1250   194.5520   -25.8110     0.9710   -29.4280    61.8630    32.7480    33.0900    45.3380     2.1370 
  198.2500   194.6670   -25.8610     0.9740   -29.3250    61.4890    32.5200    32.6480    47.6410     2.1520 
  198.3750   194.7810   -25.9100     0.9760   -29.2630    63.2190    31.9500    31.8750    47.5620     2.1600 
  198.5000   194.8960   -25.9600     0.9790   -29.2300    65.1950    31.1200    30.8600    45.8430     2.1520 
  198.6250   195.0110   -26.0090     0.9820   -29.2130    65.9070    30.1780    29.7890    43.3170     2.1380 
  198.7500   195.1250   -26.0590     0.9850   -29.2000    66.7750    29.2110    28.7400    41.8060     2.1350 
  198.8750   195.2400   -26.1080     0.9870   -29.1780    68.6440    28.2960    27.7990    41.0890     2.1450 
  199.0000   195.3550   -26.1580     0.9900   -29.1420    70.1230    27.5210    27.0340    39.4090     2.1600 
  199.1250   195.4700   -26.2070     0.9930   -29.0890    68.7300    26.8620    26.4180    35.3530     2.1680 
  199.2500   195.5840   -26.2570     0.9950   -29.0210    67.9930    26.2210    25.8270    30.1440     2.1710 
  199.3750   195.6990   -26.3070     0.9970   -28.9390    69.6210    25.5400    25.2110    26.2240     2.1790 
  199.5000   195.8140   -26.3570     0.9990   -28.8520    71.0980    24.9850    24.7290    24.6230     2.1960 
  199.6250   195.9280   -26.4060     1.0010   -28.7640    72.8270    24.7350    24.5580    25.0070     2.2110 
  199.7500   196.0430   -26.4560     1.0030   -28.6860    77.5980    25.0760    24.9890    26.3030     2.2150 
  199.8750   196.1570   -26.5060     1.0050   -28.6280    79.9910    26.4010    26.4370    28.1200     2.2020 
  200.0000   196.2720   -26.5560     1.0070   -28.5980    76.8040    28.6530    28.9300    30.1500     2.1870 
