~V
VERS. 2.00: Ver 2.00
~W
STRT.M 40.0000:
STOP.M 259.0000:
STEP.M 0.1250:
NULL. -999.2500:
UWI. FD11192:
~C
DEPT.M :
TVD. :
DX. :
DY. :
SP.MV :
GR.API :
RI. :
RML.OHMM :
RXO.OHMM :
DEN.GM/CC :
~A
# ...
   58.2500    58.2490     0.1170    -0.1360  -208.5330    74.3910     5.6490     6.8630     5.7740     2.1430 
   58.3750    58.3740     0.1190    -0.1360  -208.3990    72.3440     5.5280     6.6890     6.0930     2.1290 
   58.5000    58.4990     0.1210    -0.1350  -208.1400    73.7090     5.4410     6.5800     6.2670     2.1180 
   58.6250    58.6240     0.1220    -0.1350  -207.8710    75.5430     5.3170     6.4430     6.2390     2.1210 
   58.7500    58.7490     0.1240    -0.1340  -207.6840    77.1610     5.1280     6.2230     6.2450     2.1370 
   58.8750    58.8740     0.1260    -0.1340  -207.5280    80.3020     4.9270     5.9650     6.2050     2.1530 
   59.0000    58.9990     0.1280    -0.1330  -207.3860    84.3120     4.7670     5.7630     5.8840     2.1670 
   59.1250    59.1240     0.1300    -0.1320  -207.2930    87.2880     4.7360     5.7310     5.5530     2.1770 
   59.2500    59.2490     0.1320    -0.1310  -207.2960    88.1440     4.8390     5.9030     5.6350     2.1770 
   59.3750    59.3740     0.1340    -0.1310  -207.4420    86.2560     5.1150     6.2920     5.8910     2.1540 
   59.5000    59.4990     0.1370    -0.1300  -207.5850    80.6010     5.4260     6.7210     6.0040     2.1200 
   59.6250    59.6240     0.1390    -0.1290  -207.5960    74.3020     5.5970     6.9660     5.9500     2.1040 
   59.7500    59.7490     0.1410    -0.1280  -207.4370    70.6470     5.5790     6.9320     5.7390     2.1110 
   59.8750    59.8740     0.1430    -0.1270  -207.1360    71.4870     5.3200     6.5850     5.4650     2.1380 
   60.0000    59.9990     0.1460    -0.1260  -206.8170    78.3710     4.9760     6.1210     5.2540     2.1790 
   60.1250    60.1240     0.1480    -0.1240  -206.5250    90.4080     4.6910     5.7470     5.2100     2.2170 
   60.2500    60.2490     0.1510    -0.1230  -206.2660   100.6780     4.5380     5.5750     5.3220     2.2300 
   60.3750    60.3740     0.1530    -0.1220  -206.1170   101.5750     4.5730     5.6800     5.3900     2.2160 
   60.5000    60.4990     0.1560    -0.1210  -206.1010    95.6030     4.7400     5.9460     5.4150     2.1970 
   60.6250    60.6240     0.1580    -0.1200  -206.2020    87.8490     4.8760     6.1330     5.6720     2.1770 
   60.7500    60.7480     0.1610    -0.1180  -206.4110    81.2640     4.9210     6.1510     6.0050     2.1550 
   60.8750    60.8730     0.1640    -0.1170  -206.6130    77.9110     4.9970     6.1130     6.0530     2.1510 
   61.0000    60.9980     0.1660    -0.1160  -206.8050    77.9210     5.3020     6.3260     6.4300     2.1680 
   61.1250    61.1230     0.1690    -0.1140  -207.0240    79.6570     5.9770     7.0480    11.0490     2.1930 
   61.2500    61.2480     0.1720    -0.1130  -207.3450    79.4220     7.0680     8.3450    21.1890     2.2300 
   61.3750    61.3730     0.1750    -0.1120  -207.7440    73.8710     8.4040     9.9220    27.8730     2.2870 
   61.5000    61.4980     0.1780    -0.1100  -208.0790    66.1920     9.1950    10.8390    25.5950     2.3240 
   61.6250    61.6230     0.1810    -0.1090  -208.3300    61.4790     9.1050    10.6140    19.6210     2.2890 
   61.7500    61.7480     0.1840    -0.1070  -208.5310    61.7070     8.1600     9.3680    13.3830     2.2060 
   61.8750    61.8730     0.1870    -0.1060  -208.7470    63.7560     6.8300     7.7690     8.2250     2.1420 
   62.0000    61.9980     0.1900    -0.1040  -208.9590    63.4150     5.9540     6.7020     6.1610     2.1140 
   62.1250    62.1230     0.1930    -0.1030  -209.1120    61.2000     5.6780     6.3410     6.0340     2.1050 
   62.2500    62.2480     0.1960    -0.1010  -209.2010    60.4050     5.7330     6.4490     6.0870     2.1000 
   62.3750    62.3730     0.1990    -0.1000  -209.2540    60.9090     5.9240     6.7610     6.1420     2.1000 
   62.5000    62.4980     0.2030    -0.0980  -209.2910    60.9630     6.0540     6.9170     6.2700     2.0970 
   62.6250    62.6230     0.2060    -0.0970  -209.3370    59.3120     6.0470     6.8760     6.3270     2.0920 
   62.7500    62.7480     0.2090    -0.0950  -209.3620    57.0640     5.9780     6.7290     6.1650     2.0930 
   62.8750    62.8730     0.2130    -0.0940  -209.3500    56.8750     5.8800     6.6370     5.8970     2.0970 
   63.0000    62.9980     0.2160    -0.0920  -209.3470    59.3420     5.8560     6.6330     5.7170     2.0940 
   63.1250    63.1230     0.2200    -0.0900  -209.3000    62.4400     5.9410     6.6330     5.8490     2.0870 
   63.2500    63.2470     0.2240    -0.0880  -209.2260    63.6730     6.0510     6.6610     8.3380     2.0980 
   63.3750    63.3720     0.2270    -0.0870  -209.1250    63.3980     6.1860     6.8740    14.5960     2.1340 
   63.5000    63.4970     0.2310    -0.0850  -208.9350    62.5340     6.2470     7.0870    17.5030     2.1620 
   63.6250    63.6220     0.2350    -0.0830  -208.7800    61.5480     6.2270     7.0480    12.6190     2.1370 
   63.7500    63.7470     0.2390    -0.0810  -208.6720    61.6010     6.1060     6.9420     7.6010     2.0800 
   63.8750    63.8720     0.2430    -0.0790  -208.5400    62.6280     6.0150     6.8060     6.4720     2.0470 
   64.0000    63.9970     0.2470    -0.0780  -208.4970    63.4000     5.9490     6.7860     6.7360     2.0560 
   64.1250    64.1220     0.2510    -0.0760  -208.6790    61.9250     6.0170     6.9050     6.8860     2.0690 
   64.2500    64.2470     0.2550    -0.0740  -208.9150    60.1740     6.1340     6.9750     6.6450     2.0570 
   64.3750    64.3720     0.2590    -0.0720  -209.1440    62.3520     6.1960     7.2830     6.4230     2.0410 
   64.5000    64.4970     0.2630    -0.0700  -209.3810    68.1350     6.2520     7.4010     6.4170     2.0400 
   64.6250    64.6220     0.2670    -0.0680  -209.5780    71.6360     6.2860     7.3470     6.5190     2.0540 
   64.7500    64.7470     0.2720    -0.0660  -209.6500    69.7970     6.2860     7.1400     6.5850     2.0730 
   64.8750    64.8710     0.2760    -0.0640  -209.6920    64.9610     6.2280     6.9790     6.5150     2.0830 
   65.0000    64.9960     0.2800    -0.0620  -209.7560    61.7490     6.1260     6.9160     6.3380     2.0820 
   65.1250    65.1210     0.2850    -0.0600  -209.8270    59.9940     6.0010     6.9090     6.1250     2.0760 
   65.2500    65.2460     0.2890    -0.0570  -209.9400    60.0790     5.9240     6.8400     5.9020     2.0700 
   65.3750    65.3710     0.2940    -0.0550  -210.0880    61.3280     5.8760     6.7430     5.7580     2.0620 
   65.5000    65.4960     0.2980    -0.0530  -210.2700    61.2330     5.8500     6.7250     5.7180     2.0570 
   65.6250    65.6210     0.3030    -0.0510  -210.4350    58.6260     5.8300     6.7290     5.7320     2.0620 
   65.7500    65.7460     0.3080    -0.0490  -210.6230    56.8990     5.8270     6.8080     5.7690     2.0720 
   65.8750    65.8710     0.3130    -0.0460  -210.7650    58.7180     5.8410     6.9020     5.7750     2.0770 
   66.0000    65.9960     0.3170    -0.0440  -210.8480    61.0390     5.8590     6.9130     5.7350     2.0770 
   66.1250    66.1200     0.3220    -0.0420  -210.8220    61.2320     5.8910     6.8940     5.7330     2.0800 
   66.2500    66.2450     0.3270    -0.0390  -210.7820    62.1100     5.9600     6.7970     5.8050     2.0860 
   66.3750    66.3700     0.3330    -0.0370  -210.6880    64.9020     6.0560     6.7290     5.9370     2.0890 
   66.5000    66.4950     0.3380    -0.0340  -210.5120    66.7410     6.1450     6.7250     6.2320     2.0940 
   66.6250    66.6200     0.3430    -0.0320  -210.3650    65.0010     6.2080     6.7250     6.6660     2.1020 
   66.7500    66.7450     0.3480    -0.0290  -210.2620    62.9170     6.2110     6.7250     6.7620     2.1080 
   66.8750    66.8700     0.3540    -0.0270  -210.1640    63.5010     6.1560     6.7250     6.3520     2.1020 
   67.0000    66.9940     0.3590    -0.0240  -210.0800    65.8480     6.0570     6.7250     5.9720     2.0900 
   67.1250    67.1190     0.3650    -0.0220  -209.9630    67.4960     5.9280     6.7040     5.8660     2.0810 
   67.2500    67.2440     0.3700    -0.0190  -209.7960    67.1860     5.8180     6.5500     5.8660     2.0800 
