~V
VERS. 2.00: Ver 2.00
~W
STRT.M 30.0000:
STOP.M 284.0000:
STEP.M 0.1250:
NULL. -999.2500:
UWI. FD11172:
~C
DEPT.M :
TVD. :
DX. :
DY. :
SP.MV :
GR.API :
RI. :
RML.OHMM :
RXO.OHMM :
DEN.GM/CC :
~A
# ...
   75.6250    75.2890     4.6080     1.0220   -14.0210    75.0840     4.1370     4.9370     6.8620     2.0890 
   75.7500    75.4110     4.6340     1.0300   -15.3150    70.9030     4.2990     5.0940     7.2860     2.0760 
   75.8750    75.5330     4.6600     1.0370   -16.1280    68.2910     4.3480     5.0790     7.3880     2.0700 
   76.0000    75.6550     4.6870     1.0450   -16.4680    67.0810     4.3200     4.9680     7.3210     2.0690 
   76.1250    75.7770     4.7130     1.0520   -16.4080    68.1780     4.2720     4.8440     7.1480     2.0800 
   76.2500    75.8990     4.7400     1.0600   -16.0870    69.2140     4.2460     4.7710     7.0460     2.0960 
   76.3750    76.0210     4.7660     1.0680   -15.5600    69.0140     4.2550     4.7630     7.0320     2.1050 
   76.5000    76.1430     4.7930     1.0750   -14.8950    68.6230     4.2960     4.7980     6.9810     2.1030 
   76.6250    76.2640     4.8190     1.0830   -14.1240    69.8240     4.3600     4.8640     6.9470     2.0970 
   76.7500    76.3860     4.8460     1.0910   -13.2880    72.6220     4.4410     4.9580     7.0620     2.0940 
   76.8750    76.5080     4.8730     1.0980   -12.3740    74.2500     4.5290     5.0680     7.2780     2.0960 
   77.0000    76.6300     4.9000     1.1060   -11.3510    75.9530     4.5790     5.1250     7.3940     2.0980 
   77.1250    76.7520     4.9260     1.1140   -10.1690    78.3630     4.4730     4.9890     7.2980     2.1000 
   77.2500    76.8740     4.9530     1.1220    -8.8240    79.8270     4.1990     4.6430     7.0680     2.1100 
   77.3750    76.9960     4.9800     1.1300    -7.3130    81.2660     3.8160     4.1770     6.5140     2.1450 
   77.5000    77.1170     5.0070     1.1380    -5.7220    87.7380     3.4270     3.7140     5.4660     2.1930 
   77.6250    77.2390     5.0340     1.1460    -4.3120    98.3450     3.1630     3.4150     4.4900     2.2280 
   77.7500    77.3610     5.0610     1.1540    -3.4760   103.5820     3.0580     3.3120     4.2760     2.2450 
   77.8750    77.4830     5.0880     1.1620    -3.5440   102.7650     3.1880     3.4940     4.5600     2.2460 
   78.0000    77.6040     5.1150     1.1700    -4.2780   101.5340     3.5410     3.9430     4.8610     2.2280 
   78.1250    77.7260     5.1420     1.1780    -5.3240    98.1450     3.9990     4.5050     5.6230     2.1940 
   78.2500    77.8480     5.1700     1.1860    -6.4560    88.8910     4.4530     5.0270     6.6230     2.1630 
   78.3750    77.9700     5.1970     1.1950    -7.5610    76.9720     4.7770     5.3190     6.8270     2.1470 
   78.5000    78.0910     5.2240     1.2030    -8.4280    68.9130     4.9650     5.4200     6.4670     2.1360 
   78.6250    78.2130     5.2520     1.2110    -8.8800    64.2310     5.3080     5.7020     6.3740     2.1190 
   78.7500    78.3350     5.2790     1.2200    -9.0010    61.0450     6.1820     6.6400     6.7960     2.1180 
   78.8750    78.4560     5.3060     1.2280    -8.9440    60.1860     7.6640     8.3560     9.0540     2.1800 
   79.0000    78.5780     5.3340     1.2360    -8.8650    60.6280     9.7580    10.8420    16.7000     2.3070 
   79.1250    78.7000     5.3620     1.2450    -8.8500    60.2510    11.2650    12.6370    31.6290     2.4400 
   79.2500    78.8210     5.3890     1.2530    -8.9500    58.6750    11.7060    13.1260    44.0460     2.4940 
   79.3750    78.9430     5.4170     1.2610    -9.1870    56.6660    10.6220    11.7810    39.3000     2.4170 
   79.5000    79.0640     5.4440     1.2700    -9.4810    56.0020     8.7310     9.4790    22.3150     2.2690 
   79.6250    79.1860     5.4720     1.2780    -9.7380    57.8430     7.0040     7.4860    10.0880     2.1420 
   79.7500    79.3080     5.5000     1.2860    -9.9270    61.8130     5.8160     6.2160     6.7900     2.0860 
   79.8750    79.4290     5.5280     1.2950   -10.0750    65.2470     5.4590     5.9440     7.0470     2.0830 
   80.0000    79.5510     5.5550     1.3030   -10.2030    65.7840     5.3400     5.9120     7.6360     2.0870 
   80.1250    79.6720     5.5830     1.3110   -10.2630    65.6260     5.3340     5.9350     7.8870     2.0850 
   80.2500    79.7940     5.6110     1.3200   -10.2130    67.7750     5.2690     5.8480     7.5900     2.0870 
   80.3750    79.9160     5.6390     1.3280   -10.0710    71.0020     5.1180     5.6400     6.7800     2.1000 
   80.5000    80.0370     5.6670     1.3370    -9.9210    72.1160     4.9570     5.4330     6.0810     2.1140 
   80.6250    80.1590     5.6950     1.3450    -9.8430    71.6700     4.8650     5.3140     5.8640     2.1150 
   80.7500    80.2800     5.7230     1.3540    -9.8390    71.2080     4.8550     5.2910     5.9000     2.1050 
   80.8750    80.4020     5.7510     1.3620    -9.8770    72.1500     4.9460     5.3930     6.1420     2.0940 
   81.0000    80.5230     5.7790     1.3710    -9.9360    73.6100     5.0620     5.5210     6.5890     2.0920 
   81.1250    80.6450     5.8070     1.3790   -10.0130    74.1950     5.1340     5.6140     7.0870     2.1000 
   81.2500    80.7660     5.8350     1.3880   -10.0550    71.3850     5.1570     5.6590     7.2620     2.1060 
   81.3750    80.8880     5.8630     1.3960   -10.0210    65.8920     5.1110     5.6330     6.9160     2.1050 
   81.5000    81.0090     5.8910     1.4050    -9.9460    61.3930     5.0310     5.5730     6.4840     2.1050 
   81.6250    81.1310     5.9190     1.4130    -9.8940    60.8210     4.9570     5.5240     6.3430     2.1230 
   81.7500    81.2520     5.9470     1.4220    -9.9200    62.8750     4.9260     5.5190     6.4730     2.1500 
   81.8750    81.3740     5.9760     1.4300   -10.0990    64.8260     4.9480     5.5830     6.7820     2.1620 
   82.0000    81.4950     6.0040     1.4390   -10.4750    66.2160     5.0140     5.7050     7.1170     2.1480 
   82.1250    81.6170     6.0320     1.4480   -11.0120    66.1060     5.0860     5.8320     7.3850     2.1200 
   82.2500    81.7380     6.0610     1.4560   -11.5150    65.0690     5.1380     5.9300     7.5510     2.1010 
   82.3750    81.8590     6.0890     1.4650   -11.8070    65.9830     5.1500     5.9550     7.5220     2.0960 
   82.5000    81.9810     6.1180     1.4730   -11.9070    69.1000     5.1280     5.9140     7.2720     2.0960 
   82.6250    82.1020     6.1460     1.4820   -11.9270    71.4790     5.1030     5.8590     6.9740     2.0960 
   82.7500    82.2240     6.1750     1.4910   -11.9530    69.2840     5.0930     5.8120     6.8640     2.0940 
   82.8750    82.3450     6.2030     1.4990   -11.9760    65.1130     5.1080     5.8050     7.0000     2.0960 
   83.0000    82.4660     6.2320     1.5080   -11.9400    61.6320     5.1450     5.8360     7.2410     2.0980 
   83.1250    82.5880     6.2610     1.5170   -11.7600    59.1220     5.1920     5.8970     7.2910     2.0980 
   83.2500    82.7090     6.2890     1.5260   -11.4210    57.9550     5.2420     5.9800     7.1730     2.0980 
   83.3750    82.8300     6.3180     1.5350   -10.9320    58.8040     5.2830     6.0510     7.2200     2.1020 
   83.5000    82.9520     6.3470     1.5430   -10.3210    61.0650     5.2330     6.0010     7.2950     2.1110 
   83.6250    83.0730     6.3750     1.5520    -9.5770    62.1990     5.0180     5.7470     7.2180     2.1230 
   83.7500    83.1940     6.4040     1.5610    -8.7260    63.8950     4.6980     5.3550     6.9920     2.1440 
   83.8750    83.3160     6.4330     1.5700    -7.8500    66.7590     4.3220     4.9000     6.2540     2.1730 
   84.0000    83.4370     6.4620     1.5790    -7.1060    71.5100     4.0100     4.5360     5.2620     2.1940 
   84.1250    83.5580     6.4910     1.5870    -6.6930    76.8470     3.8190     4.3420     4.9420     2.1920 
   84.2500    83.6800     6.5200     1.5960    -6.6580    81.3010     3.7670     4.3030     5.2300     2.1790 
   84.3750    83.8010     6.5490     1.6050    -6.9070    82.2020     3.8380     4.3940     5.4360     2.1670 
   84.5000    83.9220     6.5780     1.6140    -7.2600    79.5070     3.9990     4.5740     5.4150     2.1540 
   84.6250    84.0430     6.6070     1.6230    -7.6670    75.8920     4.2220     4.8060     5.4360     2.1440 
