~V
VERS. 2.00: Ver 2.00
~W
STRT.M 20.0000:
STOP.M 292.0000:
STEP.M 0.1250:
NULL. -999.2500:
UWI. FD11146:
~C
DEPT.M :
TVD. :
DX. :
DY. :
GR.API :
RML.OHMM :
RI. :
RXO.OHMM :
CALI.CM :
SP.MV :
DEN.GM/CC :
~A
# ...
  267.5000   257.3250    46.4170   -42.6620    52.2030    14.0180    11.9120    12.8330    23.5530    -9.7610     2.4590 
  267.6250   257.4410    46.4520   -42.6930    53.3150    13.1960    11.3230    11.2450    23.5530    -9.6290     2.4500 
  267.7500   257.5570    46.4880   -42.7240    51.8010    12.3210    10.6240     9.7310    23.5530    -9.4490     2.4500 
  267.8750   257.6730    46.5240   -42.7540    48.3960    11.6000    10.0050     8.7940    23.5530    -9.2240     2.4550 
  268.0000   257.7880    46.5590   -42.7850    47.0020    11.1180     9.5650     8.3910    23.5530    -8.9550     2.4590 
  268.1250   257.9040    46.5950   -42.8160    48.9430    10.9020     9.3590     9.0010    23.5530    -8.6410     2.4630 
  268.2500   258.0200    46.6310   -42.8470    50.6130    10.8550     9.3250     9.6130    23.5530    -8.2840     2.4690 
  268.3750   258.1360    46.6660   -42.8770    50.5450    10.9040     9.4120     8.9740    23.5530    -7.9220     2.4750 
  268.5000   258.2520    46.7020   -42.9080    49.5500    10.9740     9.5530     8.1310    23.5530    -7.5760     2.4760 
  268.6250   258.3670    46.7380   -42.9390    48.9860    10.9820     9.6650     7.7810    23.5530    -7.2870     2.4710 
  268.7500   258.4830    46.7730   -42.9700    49.2640    10.8980     9.6940     7.9030    23.5530    -7.0510     2.4630 
  268.8750   258.5990    46.8090   -43.0010    50.1570    10.7320     9.6240     7.9000    23.5530    -6.8690     2.4530 
  269.0000   258.7150    46.8440   -43.0310    50.5430    10.5140     9.4700     7.7360    23.5530    -6.7390     2.4400 
  269.1250   258.8310    46.8800   -43.0620    48.9690    10.2900     9.2660     7.5770    23.5530    -6.7350     2.4280 
  269.2500   258.9460    46.9160   -43.0930    46.5680    10.0910     9.0630     7.3640    23.5530    -6.8680     2.4230 
  269.3750   259.0620    46.9510   -43.1240    45.1310     9.9220     8.8890     6.9800    23.5530    -7.0640     2.4250 
  269.5000   259.1780    46.9870   -43.1540    45.7770     9.7690     8.7600     6.6640    23.5530    -7.2700     2.4290 
  269.6250   259.2940    47.0230   -43.1850    48.4130     9.6510     8.7040     6.6220    23.5530    -7.4750     2.4260 
  269.7500   259.4090    47.0580   -43.2160    49.5630     9.6190     8.7370     6.7560    23.5530    -7.6550     2.4210 
  269.8750   259.5250    47.0940   -43.2470    49.0250     9.7480     8.8920     7.1610    23.5530    -7.7660     2.4210 
  270.0000   259.6410    47.1300   -43.2770    48.7860    10.1040     9.2080     8.0090    23.5530    -7.8260     2.4290 
  270.1250   259.7570    47.1650   -43.3080    49.0360    10.7830     9.7560     9.8550    23.5530    -7.7920     2.4430 
  270.2500   259.8730    47.2010   -43.3390    47.5270    11.7280    10.5110    12.5690    23.5530    -7.6180     2.4580 
  270.3750   259.9880    47.2370   -43.3700    44.8940    12.8590    11.4320    14.5420    23.5530    -7.4030     2.4730 
  270.5000   260.1040    47.2720   -43.4010    43.9270    14.0430    12.4300    15.3660    23.5530    -7.2220     2.4900 
  270.6250   260.2200    47.3080   -43.4310    44.8950    15.0790    13.3490    15.1150    23.5530    -7.0280     2.5090 
  270.7500   260.3360    47.3440   -43.4620    45.0330    15.8460    14.0710    14.6550    23.5530    -6.8280     2.5300 
  270.8750   260.4520    47.3790   -43.4930    43.5510    16.3100    14.5420    14.0960    23.5560    -6.6650     2.5480 
  271.0000   260.5670    47.4150   -43.5240    40.9510    16.5220    14.7770    13.3940    23.5590    -6.5500     2.5630 
  271.1250   260.6830    47.4500   -43.5540    39.2640    16.5520    14.8240    12.9640    23.5640    -6.4600     2.5690 
  271.2500   260.7990    47.4860   -43.5850    38.8780    16.5150    14.7910    12.8420    23.5580    -6.3820     2.5630 
  271.3750   260.9150    47.5220   -43.6160    40.1350    16.4670    14.7480    13.3740    23.5540    -6.3180     2.5440 
  271.5000   261.0310    47.5570   -43.6470    41.9940    16.4570    14.7490    13.9770    23.5530    -6.2760     2.5190 
  271.6250   261.1460    47.5930   -43.6770    43.5990    16.5350    14.8450    13.9460    23.5520    -6.2690     2.5050 
  271.7500   261.2620    47.6290   -43.7080    45.1360    16.6830    15.0200    13.9100    23.5400    -6.2760     2.5060 
  271.8750   261.3780    47.6640   -43.7390    46.0500    16.8710    15.2410    14.4880    23.5120    -6.3140     2.5200 
  272.0000   261.4940    47.7000   -43.7700    45.7150    17.0490    15.4500    15.9950    23.4910    -6.3730     2.5340 
  272.1250   261.6090    47.7360   -43.8010    43.1920    17.1450    15.5750    17.8820    23.4840    -6.4340     2.5320 
  272.2500   261.7250    47.7710   -43.8310    41.2500    17.1240    15.5970    16.5120    23.4840    -6.5350     2.5150 
  272.3750   261.8410    47.8070   -43.8620    41.3760    16.9820    15.5250    14.7480    23.4840    -6.6360     2.4930 
  272.5000   261.9570    47.8430   -43.8930    43.2430    16.7430    15.3970    14.1830    23.4840    -6.7210     2.4820 
  272.6250   262.0730    47.8780   -43.9240    45.1230    16.4520    15.2490    14.1440    23.4840    -6.8140     2.4890 
  272.7500   262.1880    47.9140   -43.9540    45.4680    16.1700    15.1160    14.3140    23.4840    -6.9190     2.5010 
  272.8750   262.3040    47.9500   -43.9850    44.5960    15.9220    15.0080    13.8600    23.4840    -7.0250     2.5040 
  273.0000   262.4200    47.9850   -44.0160    42.6640    15.7120    14.9260    13.0240    23.4840    -7.0750     2.4970 
  273.1250   262.5360    48.0210   -44.0470    41.0300    15.5280    14.8510    13.2560    23.4840    -7.0450     2.4870 
  273.2500   262.6520    48.0560   -44.0770    41.1610    15.3310    14.7440    14.6000    23.4840    -6.9710     2.4820 
  273.3750   262.7670    48.0920   -44.1080    42.0670    15.0800    14.5580    15.4070    23.4860    -6.8620     2.4800 
  273.5000   262.8830    48.1280   -44.1390    41.5710    14.7380    14.2610    13.9390    23.4960    -6.7030     2.4800 
  273.6250   262.9990    48.1630   -44.1700    38.9890    14.2950    13.8600    12.1050    23.5200    -6.5260     2.4800 
  273.7500   263.1150    48.1990   -44.2010    37.7390    13.8320    13.4430    10.9880    23.5430    -6.3730     2.4800 
  273.8750   263.2310    48.2350   -44.2310    39.3740    13.4130    13.0780    10.3700    23.5520    -6.1980     2.4830 
  274.0000   263.3460    48.2700   -44.2620    41.6000    13.0840    12.8020     9.9960    23.5530    -6.0250     2.4880 
  274.1250   263.4620    48.3060   -44.2930    41.3990    12.8850    12.6500     9.4050    23.5530    -5.9400     2.4870 
  274.2500   263.5780    48.3420   -44.3240    39.9600    12.7960    12.6010     8.7230    23.5530    -5.8940     2.4730 
  274.3750   263.6940    48.3770   -44.3540    39.8500    12.7970    12.6320     8.3510    23.5520    -5.9260     2.4490 
  274.5000   263.8100    48.4130   -44.3850    41.7310    12.8380    12.6940     8.6870    23.5470    -6.0680     2.4280 
  274.6250   263.9250    48.4490   -44.4160    43.4640    12.8370    12.7070     9.6170    23.5350    -6.2710     2.4270 
  274.7500   264.0410    48.4840   -44.4470    43.9120    12.7220    12.6080    10.2590    23.5290    -6.5110     2.4400 
  274.8750   264.1560    48.5210   -44.4780    43.6030    12.4550    12.3660     9.9850    23.5250    -6.7960     2.4540 
  275.0000   264.2720    48.5570   -44.5100    43.0610    12.0570    12.0090     9.3600    23.5250    -7.0870     2.4620 
  275.1250   264.3870    48.5940   -44.5420    43.1470    11.6670    11.6530     8.6520    23.5240    -7.3410     2.4670 
  275.2500   264.5020    48.6300   -44.5730    44.7920    11.4760    11.4550     8.0180    23.5240    -7.5480     2.4750 
  275.3750   264.6180    48.6670   -44.6050    46.6220    11.6390    11.5420     8.0950    23.5250    -7.6820     2.4840 
  275.5000   264.7330    48.7030   -44.6370    46.0960    12.2440    12.0000     9.1210    23.5260    -7.7530     2.4920 
  275.6250   264.8480    48.7390   -44.6680    44.1740    13.3250    12.8970    11.3910    23.5280    -7.7920     2.5010 
