~V
VERS. 2.00: Ver 2.00
~W
STRT.M 20.0000:
STOP.M 286.0000:
STEP.M 0.1250:
NULL. -999.2500:
UWI. FD11156:
~C
DEPT.M :
TVD. :
DX. :
DY. :
DEN.GM/CC :
GR.API :
RML.OHMM :
RI. :
RXO.OHMM :
CALI.CM :
SP.MV :
~A
# ...
  193.2500   191.2480     6.5220   -16.7740     2.2870    67.7770    60.3970    58.9610    27.4180    20.6510   -28.4190 
  193.3750   191.3660     6.5410   -16.8080     2.2980    69.1760    56.9650    56.4690    27.6010    20.6420   -28.5940 
  193.5000   191.4850     6.5600   -16.8420     2.3170    69.0770    47.5040    47.3160    28.2410    20.6400   -28.8090 
  193.6250   191.6040     6.5790   -16.8760     2.3370    67.9870    36.8870    36.2500    24.4770    20.6430   -29.0150 
  193.7500   191.7230     6.5990   -16.9100     2.3540    68.7390    28.9620    27.5860    19.0670    20.6640   -29.2210 
  193.8750   191.8410     6.6180   -16.9450     2.3620    71.5930    24.4270    22.2320    14.2590    20.7760   -29.4490 
  194.0000   191.9600     6.6370   -16.9790     2.3570    74.2720    23.0020    19.8930    11.7550    20.9050   -29.6930 
  194.1250   192.0790     6.6570   -17.0130     2.3380    75.0800    24.8410    20.5480    11.2970    21.0820   -29.9610 
  194.2500   192.1970     6.6760   -17.0470     2.3090    73.8980    29.3910    23.6830    12.6020    21.1780   -30.2690 
  194.3750   192.3160     6.6950   -17.0810     2.2770    70.0140    36.3810    29.2770    14.8060    21.1940   -30.5820 
  194.5000   192.4350     6.7140   -17.1150     2.2510    64.5040    44.7940    36.8310    16.3450    21.1960   -30.8640 
  194.6250   192.5530     6.7340   -17.1490     2.2360    62.2470    52.2880    44.7550    16.5350    21.1960   -31.1250 
  194.7500   192.6720     6.7530   -17.1830     2.2300    64.3860    57.0960    50.9760    16.0200    21.1960   -31.3640 
  194.8750   192.7910     6.7720   -17.2170     2.2300    67.7860    59.2180    54.6600    15.9830    21.1960   -31.5350 
  195.0000   192.9100     6.7920   -17.2510     2.2330    69.3670    59.7700    56.0750    16.1380    21.1960   -31.6750 
  195.1250   193.0280     6.8110   -17.2860     2.2360    67.0780    59.3290    55.5500    16.0200    21.1960   -31.7680 
  195.2500   193.1470     6.8300   -17.3200     2.2410    64.0430    57.5910    53.4090    15.7210    21.1960   -31.7910 
  195.3750   193.2660     6.8490   -17.3540     2.2480    63.7430    53.9780    49.5710    15.5050    21.1960   -31.8040 
  195.5000   193.3840     6.8690   -17.3880     2.2620    67.1570    48.6730    44.5290    15.6720    21.1960   -31.7780 
  195.6250   193.5030     6.8880   -17.4220     2.2810    71.4660    42.8430    39.3830    15.5550    21.1960   -31.7210 
  195.7500   193.6220     6.9070   -17.4560     2.3000    72.5080    37.8410    35.1120    14.5940    21.1960   -31.6860 
  195.8750   193.7410     6.9270   -17.4900     2.3150    71.1630    34.2610    32.0960    13.4720    21.1960   -31.6730 
  196.0000   193.8590     6.9460   -17.5240     2.3220    70.0780    32.2150    30.3750    13.2640    21.1960   -31.6730 
  196.1250   193.9780     6.9650   -17.5580     2.3210    70.2890    31.7520    30.0270    13.5470    21.2020   -31.6810 
  196.2500   194.0970     6.9850   -17.5920     2.3140    71.2770    32.5010    30.7540    13.3340    21.2340   -31.6850 
  196.3750   194.2150     7.0040   -17.6260     2.3060    71.7520    34.3590    32.5060    12.6370    21.2660   -31.7030 
  196.5000   194.3340     7.0230   -17.6610     2.2950    71.1010    37.1180    35.1150    12.7920    21.2720   -31.7460 
  196.6250   194.4530     7.0420   -17.6950     2.2830    68.6620    40.3300    38.1620    14.3210    21.2770   -31.8050 
  196.7500   194.5710     7.0620   -17.7290     2.2730    67.0760    43.0380    40.7740    15.7790    21.3050   -31.8400 
  196.8750   194.6900     7.0810   -17.7630     2.2680    66.9790    44.3320    42.0980    16.3980    21.3330   -31.8470 
  197.0000   194.8090     7.1000   -17.7970     2.2680    66.3030    43.7120    41.6400    15.6760    21.3380   -31.8360 
  197.1250   194.9280     7.1200   -17.8310     2.2740    63.5280    41.5520    39.6830    14.4880    21.3380   -31.8130 
  197.2500   195.0460     7.1390   -17.8650     2.2820    61.8130    39.3770    37.6330    13.8110    21.3380   -31.7750 
  197.3750   195.1650     7.1580   -17.8990     2.2880    62.3650    38.0250    36.2820    13.5660    21.3380   -31.7360 
  197.5000   195.2840     7.1770   -17.9330     2.2900    63.1820    37.7470    35.8850    13.6050    21.3340   -31.7260 
  197.6250   195.4020     7.1970   -17.9670     2.2900    63.0850    38.5690    36.4630    14.5770    21.3160   -31.7010 
  197.7500   195.5210     7.2160   -18.0020     2.2900    62.5550    40.1790    37.6820    16.2230    21.2790   -31.7220 
  197.8750   195.6400     7.2350   -18.0360     2.2920    63.3970    42.6620    39.5480    17.0940    21.2730   -31.7750 
  198.0000   195.7580     7.2550   -18.0700     2.2920    65.0660    46.3390    42.2910    16.7700    21.2720   -31.7920 
  198.1250   195.8770     7.2740   -18.1040     2.2870    63.9900    51.5400    46.2960    17.1020    21.2720   -31.8530 
  198.2500   195.9960     7.2930   -18.1380     2.2790    60.2240    57.1360    50.9500    19.2450    21.2720   -31.9320 
  198.3750   196.1140     7.3130   -18.1730     2.2700    57.3640    61.3440    55.0150    22.6580    21.2720   -31.9970 
  198.5000   196.2320     7.3330   -18.2090     2.2660    60.8750    62.3140    56.8480    24.0630    21.2720   -32.0530 
  198.6250   196.3510     7.3530   -18.2440     2.2690    67.8560    59.2220    55.0250    23.0610    21.2770   -32.0930 
  198.7500   196.4690     7.3730   -18.2790     2.2750    70.6880    55.1620    51.4000    20.6660    21.3050   -32.1290 
  198.8750   196.5870     7.3930   -18.3140     2.2770    68.0070    53.1830    48.4540    17.8720    21.3300   -32.1570 
  199.0000   196.7050     7.4130   -18.3500     2.2710    63.3620    55.2970    48.3910    16.2300    21.3310   -32.2050 
  199.1250   196.8240     7.4330   -18.3850     2.2550    60.4280    63.1370    53.5820    16.6520    21.3130   -32.2550 
  199.2500   196.9420     7.4530   -18.4200     2.2330    56.6890    75.9840    64.2980    17.9730    21.4010   -32.2780 
  199.3750   197.0600     7.4730   -18.4550     2.2140    52.1070   100.2970    80.4500    19.8790    21.5310   -32.2690 
  199.5000   197.1780     7.4930   -18.4910     2.2010    48.7140   122.5970    99.8000    21.3910    21.5730   -32.2590 
  199.6250   197.2970     7.5130   -18.5260     2.1990    48.9610   136.5720   116.0700    21.8510    21.5810   -32.2330 
  199.7500   197.4150     7.5330   -18.5610     2.2030    50.8950   140.0160   124.1330    21.3360    21.5890   -32.1460 
  199.8750   197.5330     7.5530   -18.5970     2.2100    53.7550   134.2760   123.4680    20.0760    21.5980   -32.0310 
  200.0000   197.6510     7.5730   -18.6320     2.2180    57.1830   123.4830   116.9020    19.1190    21.6530   -31.8550 
  200.1250   197.7700     7.5930   -18.6670     2.2260    59.6230   109.3140   106.2050    19.2460    21.6620   -31.5990 
  200.2500   197.8880     7.6130   -18.7020     2.2390    59.9620    91.4460    91.2730    19.8080    21.6650   -31.3580 
  200.3750   198.0060     7.6320   -18.7380     2.2610    60.1160    70.5070    71.9460    19.7980    21.6650   -31.1120 
  200.5000   198.1240     7.6520   -18.7730     2.2940    61.7810    50.1600    51.5220    18.2290    21.6650   -30.8290 
  200.6250   198.2430     7.6720   -18.8080     2.3370    65.9710    35.2730    35.6350    14.8380    21.6670   -30.5740 
  200.7500   198.3610     7.6920   -18.8430     2.3790    72.8010    26.0130    25.4210    10.8610    21.6810   -30.3340 
  200.8750   198.4790     7.7120   -18.8790     2.4150    78.3940    21.4110    20.0000     7.9620    21.7210   -30.1500 
  201.0000   198.5970     7.7320   -18.9140     2.4390    77.3410    20.3770    18.1020     7.5400    21.7380   -30.0650 
  201.1250   198.7150     7.7520   -18.9490     2.4490    69.0720    22.6360    19.2810     9.2270    21.7410   -30.0320 
  201.2500   198.8340     7.7720   -18.9850     2.4480    61.4350    27.3360    22.7880    12.4040    21.7410   -30.0310 
  201.3750   198.9520     7.7920   -19.0200     2.4380    58.9110    33.9950    28.3860    15.3530    21.7450   -30.0950 
