~V
VERS. 2.00: Ver 2.00
~W
STRT.M 44.0000:
STOP.M 275.0000:
STEP.M 0.1250:
NULL. -999.2500:
UWI. FD11190:
~C
DEPT.M :
TVD. :
DX. :
DY. :
SP.MV :
GR.API :
RI. :
RML.OHMM :
RXO.OHMM :
DEN.GM/CC :
~A
# ...
  235.6250   224.2430   -51.4320   -28.7490   -18.0690    63.6920    15.6840    16.5750    15.4760     2.1890 
  235.7500   224.3560   -51.4760   -28.7760   -18.5940    66.7050    15.4130    16.2550    15.0370     2.1940 
  235.8750   224.4700   -51.5200   -28.8030   -19.0340    67.9630    14.9970    15.9090    15.2600     2.1930 
  236.0000   224.5840   -51.5650   -28.8310   -19.3720    68.0940    14.6220    15.6610    15.4150     2.1870 
  236.1250   224.6970   -51.6090   -28.8580   -19.6110    67.9850    14.3600    15.5490    14.5200     2.1750 
  236.2500   224.8110   -51.6540   -28.8850   -19.8140    68.2240    14.2260    15.4990    13.6000     2.1610 
  236.3750   224.9250   -51.6980   -28.9120   -20.0260    67.8910    14.1290    15.4210    14.0570     2.1540 
  236.5000   225.0380   -51.7430   -28.9390   -20.2900    67.1140    13.9660    15.2470    15.2700     2.1570 
  236.6250   225.1520   -51.7870   -28.9660   -20.5770    65.7260    13.7250    14.9420    15.5210     2.1680 
  236.7500   225.2660   -51.8320   -28.9930   -20.7900    64.5200    13.3760    14.5530    14.5080     2.1770 
  236.8750   225.3790   -51.8760   -29.0200   -20.8380    64.3400    12.9900    14.2070    13.6410     2.1800 
  237.0000   225.4930   -51.9200   -29.0470   -20.7810    65.7190    12.7260    14.0820    13.5340     2.1790 
  237.1250   225.6060   -51.9650   -29.0750   -20.6610    66.9590    12.7900    14.3420    13.5120     2.1800 
  237.2500   225.7200   -52.0090   -29.1020   -20.5040    66.4580    13.2190    14.9730    13.4000     2.1840 
  237.3750   225.8340   -52.0540   -29.1290   -20.3060    65.8070    14.0050    15.8920    13.9500     2.1870 
  237.5000   225.9470   -52.0990   -29.1560   -20.1320    64.5740    14.9580    16.9010    15.4500     2.1880 
  237.6250   226.0610   -52.1430   -29.1830   -20.0790    63.6990    15.9750    17.7980    17.0770     2.1850 
  237.7500   226.1740   -52.1880   -29.2100   -20.0730    64.0010    16.7910    18.4510    17.8790     2.1820 
  237.8750   226.2880   -52.2330   -29.2370   -20.0800    65.3930    17.3390    18.7540    17.8700     2.1840 
  238.0000   226.4010   -52.2770   -29.2640   -20.0810    65.3090    17.5340    18.7880    17.6960     2.1890 
  238.1250   226.5150   -52.3220   -29.2910   -20.0800    65.4080    17.4500    18.6490    17.7310     2.1890 
  238.2500   226.6290   -52.3670   -29.3180   -20.0680    67.9910    17.2870    18.4620    17.9510     2.1800 
  238.3750   226.7420   -52.4120   -29.3440   -20.0060    70.5460    17.0880    18.2500    17.9160     2.1700 
  238.5000   226.8560   -52.4570   -29.3710   -19.8560    69.8420    16.8060    18.0050    17.3450     2.1650 
  238.6250   226.9690   -52.5020   -29.3980   -19.5460    67.4880    16.4870    17.7110    16.7900     2.1630 
  238.7500   227.0830   -52.5460   -29.4250   -19.1660    66.4110    16.1370    17.4180    16.9490     2.1620 
  238.8750   227.1960   -52.5910   -29.4520   -18.7930    66.3500    15.7900    17.3620    17.9400     2.1670 
  239.0000   227.3100   -52.6360   -29.4790   -18.3970    66.6600    15.8240    17.7770    19.3780     2.1870 
  239.1250   227.4230   -52.6810   -29.5060   -17.9940    64.7800    16.5330    18.9010    21.2020     2.2480 
  239.2500   227.5370   -52.7260   -29.5330   -17.4800    60.6980    17.8640    20.7490    25.9970     2.3590 
  239.3750   227.6500   -52.7710   -29.5600   -16.7940    57.3630    20.1790    23.7100    33.7500     2.4760 
  239.5000   227.7640   -52.8160   -29.5870   -16.0260    56.2570    23.7440    28.1180    45.4250     2.5300 
  239.6250   227.8770   -52.8610   -29.6140   -15.2200    55.4830    28.8270    34.6970    66.6910     2.5110 
  239.7500   227.9910   -52.9060   -29.6410   -14.2980    54.8230    35.4570    44.0900    91.2130     2.4990 
  239.8750   228.1040   -52.9510   -29.6670   -13.2900    54.5390    44.5280    55.5040   118.7060     2.5480 
  240.0000   228.2170   -52.9960   -29.6940   -12.1900    54.3750    56.2500    62.3460   145.1210     2.6230 
  240.1250   228.3310   -53.0410   -29.7210   -11.0650    52.8510    58.5120    58.7830   154.3870     2.6770 
  240.2500   228.4440   -53.0870   -29.7480    -9.8690    52.0520    48.4820    44.3430   149.3800     2.7070 
  240.3750   228.5580   -53.1320   -29.7740    -8.6050    52.4560    31.9160    26.0000   122.7440     2.6920 
  240.5000   228.6710   -53.1770   -29.8010    -7.2800    55.4830    12.2080    11.4660    71.0330     2.6040 
  240.6250   228.7840   -53.2230   -29.8280    -5.9930    61.2790     4.9120     4.7530    24.6340     2.4680 
  240.7500   228.8980   -53.2680   -29.8550    -4.9480    65.8250     2.8400     2.7630     5.3190     2.3670 
  240.8750   229.0110   -53.3130   -29.8810    -4.2420    65.3130     2.0420     2.1800     2.7630     2.3330 
  241.0000   229.1250   -53.3590   -29.9080    -3.7150    61.8000     1.7410     2.0380     2.5560     2.3270 
  241.1250   229.2380   -53.4040   -29.9350    -3.3540    60.3770     1.7380     2.1010     2.4030     2.3260 
  241.2500   229.3510   -53.4500   -29.9620    -3.1220    60.4510     1.8150     2.1910     2.4030     2.3340 
  241.3750   229.4650   -53.4950   -29.9890    -3.0070    59.1390     1.8840     2.2260     2.5970     2.3400 
  241.5000   229.5780   -53.5410   -30.0160    -2.9630    56.6250     1.9030     2.1840     2.7570     2.3320 
  241.6250   229.6910   -53.5860   -30.0420    -2.9490    56.1290     1.8560     2.0770     2.5920     2.3120 
  241.7500   229.8040   -53.6320   -30.0690    -2.8680    58.3680     1.7680     1.9600     2.2720     2.2880 
  241.8750   229.9180   -53.6770   -30.0960    -2.6780    62.3410     1.6970     1.9050     2.1990     2.2680 
  242.0000   230.0310   -53.7230   -30.1230    -2.4030    68.2050     1.6950     1.9630     2.3730     2.2640 
  242.1250   230.1440   -53.7680   -30.1500    -2.1350    77.2340     1.8270     2.1430     2.8100     2.2860 
  242.2500   230.2570   -53.8140   -30.1770    -1.9690    88.3080     2.0190     2.3930     3.4410     2.3190 
  242.3750   230.3710   -53.8590   -30.2040    -1.8960    95.9700     2.2450     2.6330     3.6690     2.3440 
  242.5000   230.4840   -53.9050   -30.2310    -1.8680    99.3530     2.4100     2.8050     3.4410     2.3510 
  242.6250   230.5970   -53.9500   -30.2580    -1.8290   101.5360     2.4740     2.8680     3.2880     2.3500 
  242.7500   230.7100   -53.9960   -30.2850    -1.8270   107.0270     2.4680     2.8550     3.2960     2.3490 
  242.8750   230.8230   -54.0410   -30.3120    -1.8780   112.2680     2.4020     2.8050     3.2880     2.3470 
  243.0000   230.9370   -54.0870   -30.3400    -1.9050   113.3320     2.3470     2.7690     3.2440     2.3410 
  243.1250   231.0500   -54.1330   -30.3670    -1.9630   113.8050     2.3310     2.7770     3.2060     2.3350 
  243.2500   231.1630   -54.1780   -30.3930    -2.1220   117.2810     2.3530     2.8290     3.1910     2.3360 
  243.3750   231.2760   -54.2240   -30.4200    -2.3340   123.5770     2.4120     2.9180     3.3200     2.3440 
  243.5000   231.3890   -54.2700   -30.4470    -2.4780   127.3780     2.4990     3.0270     3.7390     2.3490 
  243.6250   231.5030   -54.3160   -30.4740    -2.4780   126.4890     2.5970     3.1420     4.1260     2.3500 
  243.7500   231.6160   -54.3620   -30.5010    -2.4580   122.9350     2.6970     3.2540     4.0790     2.3510 
  243.8750   231.7290   -54.4080   -30.5270    -2.5070   121.5960     2.7910     3.3590     3.8390     2.3540 
  244.0000   231.8420   -54.4540   -30.5540    -2.6140   123.6470     2.8730     3.4570     3.8060     2.3540 
  244.1250   231.9550   -54.5000   -30.5810    -2.7440   122.0620     2.9390     3.5390     4.0870     2.3510 
  244.2500   232.0680   -54.5450   -30.6070    -2.8070   115.6450     2.9860     3.5950     4.3700     2.3450 
  244.3750   232.1810   -54.5910   -30.6340    -2.8140   111.7740     3.0010     3.6140     4.3130     2.3390 
  244.5000   232.2950   -54.6370   -30.6610    -2.8480   112.7750     2.9830     3.6050     4.0770     2.3380 
  244.6250   232.4080   -54.6830   -30.6870    -2.8680   114.3880     2.9520     3.5940     4.0490     2.3430 
