~V
VERS. 2.00: Ver 2.00
~W
STRT.M 20.0000:
STOP.M 277.0000:
STEP.M 0.1250:
NULL. -999.2500:
UWI. FD11024:
~C
DEPT.M :
TVD. :
DX. :
DY. :
DEN.GM/CC :
GR.API :
RML.OHMM :
RI. :
RXO.OHMM :
CALI.CM :
SP.MV :
~A
# ...
   69.5000    69.4500     0.9530     1.1840     2.1980    75.6010     7.5030     5.8990     6.7990    22.3390   -22.5350 
   69.6250    69.5750     0.9580     1.1940     2.1700    70.6420     7.7540     6.0580     7.6810    22.3420   -22.8440 
   69.7500    69.6990     0.9640     1.2030     2.1450    65.1550     8.3480     6.4400     8.4710    22.3810   -23.1530 
   69.8750    69.8240     0.9690     1.2130     2.1350    60.6860     9.3540     7.1280     8.9330    22.4360   -23.4340 
   70.0000    69.9480     0.9740     1.2230     2.1530    57.3340    10.7010     8.1360     9.0840    22.5320   -23.7030 
   70.1250    70.0730     0.9800     1.2320     2.2080    54.5580    12.0600     9.3330    10.0330    22.6900   -23.9570 
   70.2500    70.1970     0.9850     1.2420     2.2750    53.8510    12.8920    10.3120    13.8030    22.7200   -24.1780 
   70.3750    70.3220     0.9910     1.2520     2.3260    55.3930    12.7790    10.6590    20.8010    22.7820   -24.3930 
   70.5000    70.4460     0.9960     1.2610     2.3360    57.7470    11.7110    10.2050    18.6450    22.5650   -24.5660 
   70.6250    70.5710     1.0020     1.2710     2.2980    59.1940    10.1800     9.1710    10.6420    22.1880   -24.6770 
   70.7500    70.6950     1.0070     1.2810     2.2470    61.6270     8.8780     8.1160     7.9320    22.0540   -24.7930 
   70.8750    70.8200     1.0130     1.2900     2.2050    65.6810     8.0750     7.3030     7.2890    22.0290   -24.9050 
   71.0000    70.9440     1.0180     1.3000     2.1840    67.2460     7.7720     6.8190     7.1640    22.0250   -25.0140 
   71.1250    71.0690     1.0240     1.3100     2.1830    66.1590     7.8320     6.6530     7.0960    22.0240   -25.1260 
   71.2500    71.1930     1.0290     1.3190     2.1900    63.8810     7.9780     6.6390     7.0710    22.0240   -25.2380 
   71.3750    71.3180     1.0340     1.3290     2.1950    61.8230     8.0900     6.6850     7.1210    22.0240   -25.3040 
   71.5000    71.4420     1.0410     1.3410     2.1940    60.9600     8.1410     6.7480     7.1460    22.0240   -25.3880 
   71.6250    71.5660     1.0480     1.3550     2.1840    60.4240     8.1550     6.8050     7.1150    22.0290   -25.5050 
   71.7500    71.6900     1.0550     1.3680     2.1710    60.4090     8.1460     6.8280     7.0810    22.0580   -25.5940 
   71.8750    71.8140     1.0620     1.3810     2.1590    62.1310     8.1060     6.7980     7.0610    22.0880   -25.6920 
   72.0000    71.9380     1.0690     1.3950     2.1510    66.0100     8.0330     6.7140     7.0240    22.0780   -25.7630 
   72.1250    72.0620     1.0760     1.4080     2.1470    68.0660     7.9610     6.6000     6.9710    21.9720   -25.8280 
   72.2500    72.1860     1.0830     1.4210     2.1420    67.7150     7.9530     6.5270     6.9880    21.8880   -25.8770 
   72.3750    72.3100     1.0890     1.4350     2.1360    67.5040     8.0760     6.5670     7.0670    21.8730   -25.8760 
   72.5000    72.4350     1.0960     1.4480     2.1300    66.1080     8.3940     6.7930     7.1520    21.8800   -25.8570 
   72.6250    72.5590     1.1030     1.4610     2.1250    61.2350     8.9800     7.2830     7.3120    21.9520   -25.8020 
   72.7500    72.6830     1.1100     1.4750     2.1270    57.9470     9.7220     7.9520     7.5410    22.1910   -25.7450 
   72.8750    72.8070     1.1170     1.4880     2.1390    58.6790    10.4220     8.6460     7.5300    22.5120   -25.7290 
   73.0000    72.9310     1.1240     1.5010     2.1580    60.1430    10.7920     9.1240     7.2450    22.6730   -25.7800 
   73.1250    73.0550     1.1310     1.5150     2.1770    57.7920    10.4960     9.0930     7.9580    22.2180   -25.8670 
   73.2500    73.1790     1.1380     1.5280     2.1840    54.7100     9.7040     8.6400     9.2110    21.9890   -25.9760 
   73.3750    73.3030     1.1450     1.5410     2.1740    54.2390     8.7490     7.9790     8.7680    21.7510   -26.1210 
   73.5000    73.4270     1.1520     1.5550     2.1520    56.0950     7.9790     7.3620     7.5190    21.6850   -26.2820 
   73.6250    73.5510     1.1590     1.5680     2.1330    57.8540     7.6610     6.9890     7.0860    21.8310   -26.4320 
   73.7500    73.6750     1.1660     1.5810     2.1230    59.8480     7.6990     6.8500     7.2050    22.0240   -26.5520 
   73.8750    73.8000     1.1730     1.5950     2.1250    61.3420     7.9220     6.8720     7.1760    22.2430   -26.6260 
   74.0000    73.9240     1.1790     1.6080     2.1320    59.6950     8.1200     6.9350     6.8960    22.2210   -26.6140 
   74.1250    74.0480     1.1860     1.6210     2.1380    56.8650     8.0950     6.8980     6.7700    22.0230   -26.5220 
   74.2500    74.1720     1.1930     1.6340     2.1380    56.4970     7.8730     6.7320     6.8220    21.7710   -26.4110 
   74.3750    74.2960     1.2000     1.6480     2.1350    58.0690     7.5590     6.4860     6.7690    21.6120   -26.2820 
   74.5000    74.4200     1.2070     1.6610     2.1300    59.3380     7.2710     6.2330     6.7720    21.6570   -26.1280 
   74.6250    74.5440     1.2140     1.6740     2.1250    58.8230     7.0840     6.0380     6.9820    21.9080   -25.9590 
   74.7500    74.6680     1.2210     1.6880     2.1210    56.1990     6.9470     5.8990     7.1660    22.2880   -25.8120 
   74.8750    74.7920     1.2280     1.7010     2.1200    54.4410     6.7970     5.7900     6.9490    22.4770   -25.6410 
   75.0000    74.9160     1.2350     1.7140     2.1200    57.9460     6.6310     5.6940     6.6240    22.3390   -25.4400 
   75.1250    75.0400     1.2420     1.7280     2.1240    64.0990     6.6190     5.6820     6.6900    22.0990   -25.2550 
   75.2500    75.1650     1.2490     1.7410     2.1320    64.4950     6.9640     5.8740     6.8530    21.8430   -25.0390 
   75.3750    75.2890     1.2560     1.7540     2.1490    60.3210     7.7890     6.3780     7.1450    21.7760   -24.8000 
   75.5000    75.4130     1.2620     1.7680     2.1760    56.7970     9.0590     7.2320     7.9620    21.9050   -24.5640 
   75.6250    75.5370     1.2690     1.7810     2.2100    57.5660    10.4990     8.3420    11.3430    22.4070   -24.3660 
   75.7500    75.6610     1.2760     1.7940     2.2410    60.3910    11.5260     9.2910    19.1810    22.7600   -24.2230 
   75.8750    75.7850     1.2830     1.8080     2.2590    63.4150    11.6330     9.6280    22.8700    22.7450   -24.1950 
   76.0000    75.9090     1.2900     1.8210     2.2570    65.1890    10.7260     9.1570    14.5210    22.3830   -24.2730 
   76.1250    76.0330     1.2970     1.8340     2.2390    62.7110     9.2850     8.1220     9.2930    21.9570   -24.3960 
   76.2500    76.1570     1.3040     1.8480     2.2140    58.3030     8.0350     7.1000     7.6440    21.8270   -24.5610 
   76.3750    76.2810     1.3110     1.8610     2.1900    55.8130     7.2330     6.3380     7.2210    21.8840   -24.7540 
   76.5000    76.4050     1.3180     1.8740     2.1710    56.5770     6.8840     5.8980     7.0580    22.0780   -24.9340 
   76.6250    76.5300     1.3250     1.8880     2.1610    58.6890     6.8640     5.7490     6.8920    22.1460   -25.0890 
   76.7500    76.6540     1.3320     1.9010     2.1590    58.8750     6.9220     5.7200     6.8050    22.1460   -25.1830 
   76.8750    76.7780     1.3390     1.9140     2.1620    57.0450     6.9440     5.7200     6.8000    22.0080   -25.1710 
   77.0000    76.9020     1.3460     1.9280     2.1660    55.5890     6.9000     5.7140     6.7790    21.6550   -25.0830 
   77.1250    77.0260     1.3520     1.9410     2.1670    56.0910     6.8230     5.7080     6.7320    21.5310   -24.9950 
   77.2500    77.1500     1.3590     1.9540     2.1630    56.1770     6.7830     5.7180     6.7160    21.5700   -24.8610 
   77.3750    77.2740     1.3660     1.9680     2.1550    54.8830     6.8240     5.7440     6.7780    21.7620   -24.7000 
   77.5000    77.3980     1.3730     1.9810     2.1470    53.1630     6.9440     5.7760     6.8220    21.8380   -24.5360 
   77.6250    77.5220     1.3800     1.9940     2.1440    52.6850     7.0660     5.7840     6.8300    21.8100   -24.3290 
