~V
VERS. 2.00: Ver 2.00
~W
STRT.M 20.0000:
STOP.M 292.0000:
STEP.M 0.1250:
NULL. -999.2500:
UWI. FD11146:
~C
DEPT.M :
TVD. :
DX. :
DY. :
GR.API :
RML.OHMM :
RI. :
RXO.OHMM :
CALI.CM :
SP.MV :
DEN.GM/CC :
~A
# ...
  284.0000   272.5730    51.1840   -46.7890    55.8520    17.2980    17.7290    13.3030    23.2510    -8.9120     2.4950 
  284.1250   272.6880    51.2200   -46.8210    55.8520    17.3120    17.7460    12.8440    23.1120    -8.6880     2.5020 
  284.2500   272.8030    51.2570   -46.8520    55.8520    17.3230    17.7470    14.0890    22.9850    -8.4390     2.5030 
  284.3750   272.9190    51.2930   -46.8840    55.8520    17.3370    17.7350    15.7610    22.9510    -8.1680     2.4990 
  284.5000   273.0340    51.3290   -46.9160    55.8520    17.3520    17.7180    16.6470    22.9590    -7.9420     2.4890 
  284.6250   273.1490    51.3660   -46.9470    55.8520    17.3590    17.7010    14.6420    22.9640    -7.7940     2.4700 
  284.7500   273.2640    51.4020   -46.9790    55.8520    17.3590    17.6900    11.7340    22.9600    -7.7130     2.4390 
  284.8750   273.3800    51.4390   -47.0110    55.8520    17.3490    17.6840     9.0090    22.9460    -7.6920     2.4000 
  285.0000   273.4950    51.4750   -47.0420    55.8520    17.3250    17.6830     7.0050    22.9120    -7.7400     2.3660 
  285.1250   273.6100    51.5120   -47.0740    55.8520    17.2840    17.6880     6.4790    22.8960    -7.8410     2.3620 
  285.2500   273.7260    51.5480   -47.1060    55.8520    17.2410    17.6980     7.0600    22.8900    -7.9420     2.3870 
  285.3750   273.8410    51.5850   -47.1370    55.8520    17.2110    17.7140     8.7860    22.8900    -8.0200     2.4310 
  285.5000   273.9560    51.6210   -47.1690    55.8520    17.2050    17.7320    11.8490    22.8900    -8.0330     2.4770 
  285.6250   274.0720    51.6580   -47.2010    55.8520    17.2250    17.7460    13.6350    22.8900    -7.9650     2.5120 
  285.7500   274.1870    51.6940   -47.2320    55.8520    17.2540    17.7530    15.5940    22.8900    -7.8660     2.5300 
  285.8750   274.3020    51.7310   -47.2640    55.8520    17.2820    17.7500    17.4180    22.8900    -7.7710     2.5320 
  286.0000   274.4170    51.7670   -47.2960    55.8520    17.3050    17.7410    17.2570    22.8900    -7.6730     2.5300 
  286.1250   274.5330    51.8040   -47.3270    55.8520    17.3260    17.7280    16.8790    22.8900    -7.5820     2.5350 
  286.2500   274.6480    51.8400   -47.3590    55.8520    17.3380    17.7190    16.6830    22.8900    -7.5080     2.5430 
  286.3750   274.7630    51.8770   -47.3900    55.8520    17.3360    17.7160    17.2390    22.8900    -7.4860     2.5460 
  286.5000   274.8790    51.9130   -47.4220    55.8520    17.3250    17.7170    18.3180    22.8900    -7.4900     2.5430 
  286.6250   274.9940    51.9500   -47.4540    55.8520    17.3120    17.7210    18.8530    22.8900    -7.4750     2.5410 
  286.7500   275.1090    51.9860   -47.4850    55.8520    17.3000    17.7250    20.6910    22.8900    -7.4170     2.5390 
  286.8750   275.2240    52.0230   -47.5170    55.8520    17.2870    17.7300    23.0830    22.8900    -7.3310     2.5320 
  287.0000   275.3400    52.0590   -47.5490    55.8520    17.2700    17.7360    20.1200    22.8960    -7.2580     2.5110 
  287.1250   275.4550    52.0960   -47.5800    55.8520    17.2550    17.7420    17.1640    22.9170    -7.1640     2.4770 
  287.2500   275.5700    52.1320   -47.6120    55.8520    17.2480    17.7440    15.9900    22.9470    -7.0690     2.4510 
  287.3750   275.6860    52.1690   -47.6440    55.8520    17.2480    17.7440    15.7380    22.9620    -7.0200     2.4430 
  287.5000   275.8010    52.2050   -47.6750    55.8520    17.2480    17.7440    14.7210    22.9650    -7.0320     2.4450 
  287.6250   275.9160    52.2410   -47.7070    55.8520    17.2480    17.7440    13.7120    22.9650    -7.1440     2.4400 
  287.7500   276.0310    52.2780   -47.7390    55.8520    17.2480    17.7440    13.2840    22.9650    -7.3070     2.4220 
  287.8750   276.1470    52.3140   -47.7700    55.8520    17.2480    17.7440    13.5120    22.9650    -7.4700     2.3920 
  288.0000   276.2620    52.3510   -47.8020    55.8520    17.2480    17.7440    13.8520    22.9220    -7.6180     2.3430 
  288.1250   276.3770    52.3870   -47.8340    55.8520    17.2480    17.7440    12.5110    22.5070    -7.7250     2.2790 
  288.2500   276.4930    52.4240   -47.8650    55.8520    17.2480    17.7440    10.7970    21.6150    -7.7220     2.2270 
  288.3750   276.6080    52.4600   -47.8970    55.8520    17.2480    17.7440     9.7630    20.7180    -7.5680     2.2020 
  288.5000   276.7230    52.4970   -47.9290    55.8520    17.2480    17.7440     9.4580    20.2970    -7.2770     2.2000 
  288.6250   276.8390    52.5330   -47.9600    55.8520    17.2480    17.7440     9.4440    20.2530    -6.9150     2.2040 
  288.7500   276.9540    52.5700   -47.9920    55.8520    17.2480    17.7440     9.4430    20.2530    -6.5530     2.2020 
  288.8750   277.0690    52.6060   -48.0240    55.8520    17.2480    17.7440     9.4420    20.2530    -6.4160     2.1990 
  289.0000   277.1840    52.6430   -48.0550    55.8520    17.2480    17.7440     9.4410    20.2530    -6.4160     2.1960 
  289.1250   277.3000    52.6790   -48.0870    55.8520    17.2480    17.7440     9.4410    20.2530  -999.2500     2.1950 
  289.2500   277.4150    52.7160   -48.1190    55.8520    17.2480    17.7440     9.4400    20.2530  -999.2500     2.1980 
  289.3750   277.5300    52.7520   -48.1500    55.8520    17.2480    17.7440     9.4390    20.2530  -999.2500     2.2040 
  289.5000   277.6460    52.7890   -48.1820    55.8520    17.2480    17.7440     9.4390    20.2530  -999.2500     2.2100 
  289.6250   277.7610    52.8250   -48.2140    55.8520    17.2480    17.7440     9.4390    20.2530  -999.2500     2.2110 
  289.7500   277.8760    52.8620   -48.2450    55.8520    17.2480    17.7440     9.4400    20.2530  -999.2500     2.2080 
  289.8750   277.9910    52.8980   -48.2770    55.8520    17.2480    17.7440     9.4390    20.2530  -999.2500     2.2040 
  290.0000   278.1070    52.9350   -48.3080    55.8520    17.2480    17.7440     9.4380    20.2530  -999.2500     2.2020 
  290.1250   278.2320    52.9350   -48.3080    55.8520    17.2480    17.7440     9.4380    20.2530  -999.2500     2.2020 
  290.2500   278.3570    52.9350   -48.3080    55.8520    17.2480    17.7440     9.4380    20.2530  -999.2500     2.1970 
  290.3750   278.4820    52.9350   -48.3080    55.8520    17.2480    17.7440     9.4380    20.2530  -999.2500  -999.2500 
  290.5000   278.6070    52.9350   -48.3080    55.8520    17.2480    17.7440     9.4370    20.2530  -999.2500  -999.2500 
  290.6250   278.7320    52.9350   -48.3080    55.8520    17.2480    17.7440     9.4380    20.2530  -999.2500  -999.2500 
  290.7500   278.8570    52.9350   -48.3080    55.8520    17.2480    17.7440     9.4370    20.2530  -999.2500  -999.2500 
  290.8750   278.9820    52.9350   -48.3080    55.8520    17.2480    17.7440     9.4350    20.2530  -999.2500  -999.2500 
  291.0000   279.1070    52.9350   -48.3080    55.8520    17.2480    17.7440     9.4320    20.2530  -999.2500  -999.2500 
  291.1250   279.2320    52.9350   -48.3080    55.8520    17.2480    17.7440     9.4300    20.2530  -999.2500  -999.2500 
  291.2500   279.3570    52.9350   -48.3080    55.8520    17.2480    17.7440     9.4270    20.2530  -999.2500  -999.2500 
  291.3750   279.4820    52.9350   -48.3080    55.8520    17.2480    17.7440     9.4280    20.2530  -999.2500  -999.2500 
  291.5000   279.6070    52.9350   -48.3080    55.8520    17.2480    17.7440     9.4260    20.2530  -999.2500  -999.2500 
  291.6250   279.7320    52.9350   -48.3080    55.8520    17.2480    17.7440     9.4240    20.2530  -999.2500  -999.2500 
  291.7500   279.8570    52.9350   -48.3080    55.8520    17.2480    17.7440     9.4200    20.2530  -999.2500  -999.2500 
  291.8750   279.9820    52.9350   -48.3080    55.8520    17.2480    17.7440     9.4180    20.2530  -999.2500  -999.2500 
  292.0000   280.1070    52.9350   -48.3080    55.8520    17.2480    17.7440     9.4160    20.2530  -999.2500  -999.2500 
