~V
VERS. 2.00: Ver 2.00
~W
STRT.M 50.0000:
STOP.M 268.0000:
STEP.M 0.1250:
NULL. -999.2500:
UWI. FD11187:
~C
DEPT.M :
TVD. :
DX. :
DY. :
SP.MV :
GR.API :
RI. :
RML.OHMM :
RXO.OHMM :
DEN.GM/CC :
~A
# ...
  132.1250   131.5940     6.8680    -2.6900   -23.8880    53.6050     4.5090     5.0850     5.9580     2.0940 
  132.2500   131.7160     6.8950    -2.7000   -24.0240    52.3960     4.4930     5.0720     5.7940     2.1040 
  132.3750   131.8380     6.9220    -2.7110   -24.2570    53.3500     4.4810     5.0660     5.6990     2.1060 
  132.5000   131.9590     6.9490    -2.7210   -24.4150    55.3770     4.4390     5.0170     5.8090     2.0990 
  132.6250   132.0810     6.9750    -2.7310   -24.6450    56.8830     4.3370     4.8950     5.7780     2.0920 
  132.7500   132.2020     7.0020    -2.7420   -24.7970    56.0670     4.2480     4.7920     5.6800     2.0930 
  132.8750   132.3240     7.0300    -2.7530   -25.0360    54.6900     4.1230     4.6470     5.8720     2.0940 
  133.0000   132.4460     7.0570    -2.7640   -25.2010    55.7820     4.0550     4.5760     5.9970     2.0940 
  133.1250   132.5670     7.0840    -2.7750   -25.4440    61.3520     3.9700     4.4970     5.7440     2.0900 
  133.2500   132.6890     7.1110    -2.7850   -25.5890    64.5730     3.9310     4.4570     5.4220     2.0870 
  133.3750   132.8100     7.1390    -2.7960   -25.7670    63.1260     3.8780     4.4000     5.3830     2.0870 
  133.5000   132.9310     7.1660    -2.8070   -25.8540    59.6410     3.8410     4.3520     5.7480     2.0900 
  133.6250   133.0530     7.1940    -2.8180   -25.9350    57.4490     3.7710     4.2690     6.2360     2.0930 
  133.7500   133.1740     7.2220    -2.8290   -25.9580    58.0230     3.7400     4.2340     6.3180     2.0870 
  133.8750   133.2960     7.2500    -2.8410   -25.9550    59.3590     3.7480     4.2480     6.0740     2.0800 
  134.0000   133.4170     7.2770    -2.8520   -25.9390    59.6200     3.7810     4.2870     5.5910     2.0830 
  134.1250   133.5380     7.3050    -2.8630   -25.9170    59.1060     3.8350     4.3430     4.9710     2.0930 
  134.2500   133.6590     7.3340    -2.8740   -25.9160    58.1790     3.8540     4.3610     5.0630     2.1040 
  134.3750   133.7810     7.3620    -2.8850   -25.9450    57.0330     3.8290     4.3180     5.5680     2.1140 
  134.5000   133.9020     7.3900    -2.8960   -25.9780    57.6150     3.7880     4.2610     5.7480     2.1130 
  134.6250   134.0230     7.4190    -2.9070   -26.0190    59.2910     3.7310     4.1890     5.8170     2.1060 
  134.7500   134.1440     7.4470    -2.9190   -26.0190    60.6420     3.7210     4.1790     5.8100     2.1060 
  134.8750   134.2660     7.4760    -2.9300   -25.9490    61.7640     3.7740     4.2540     5.5290     2.1140 
  135.0000   134.3870     7.5040    -2.9410   -25.8510    62.9730     3.8450     4.3470     5.3280     2.1160 
  135.1250   134.5080     7.5330    -2.9530   -25.6490    62.8580     3.9400     4.4610     5.3030     2.1130 
  135.2500   134.6290     7.5610    -2.9640   -25.4970    60.8200     3.9470     4.4670     5.5080     2.1100 
  135.3750   134.7500     7.5900    -2.9760   -25.2720    58.4820     3.8670     4.3520     6.0660     2.1150 
  135.5000   134.8710     7.6190    -2.9880   -25.1350    60.3770     3.7520     4.2020     6.1200     2.1260 
  135.6250   134.9920     7.6480    -3.0000   -24.9550    64.4500     3.5870     3.9900     5.5980     2.1480 
  135.7500   135.1130     7.6770    -3.0120   -24.8500    64.7110     3.5420     3.9320     5.1580     2.1660 
  135.8750   135.2340     7.7060    -3.0240   -24.7120    64.1360     3.6030     4.0160     4.7540     2.1760 
  136.0000   135.3550     7.7350    -3.0360   -24.6350    64.4250     3.7250     4.1710     4.9300     2.1620 
  136.1250   135.4760     7.7640    -3.0490   -24.5550    62.6930     3.9840     4.4990     5.4720     2.1260 
  136.2500   135.5970     7.7930    -3.0610   -24.5390    59.7080     4.1520     4.6970     5.8370     2.1060 
  136.3750   135.7180     7.8230    -3.0730   -24.5880    57.0580     4.3250     4.8670     6.1160     2.0880 
  136.5000   135.8390     7.8520    -3.0860   -24.6680    56.5800     4.3700     4.8870     5.9700     2.0830 
  136.6250   135.9590     7.8820    -3.0980   -24.8410    58.3980     4.3460     4.8040     5.7280     2.0890 
  136.7500   136.0800     7.9110    -3.1100   -24.9690    59.4810     4.3050     4.7330     5.6900     2.0970 
  136.8750   136.2010     7.9410    -3.1230   -25.1440    60.6730     4.2550     4.6620     5.6210     2.0970 
  137.0000   136.3220     7.9710    -3.1350   -25.2360    61.1270     4.2250     4.6240     5.5760     2.0950 
  137.1250   136.4430     8.0010    -3.1470   -25.3330    60.8950     4.1740     4.5780     5.8660     2.1020 
  137.2500   136.5630     8.0300    -3.1600   -25.3740    59.5470     4.1400     4.5540     6.1000     2.1120 
  137.3750   136.6840     8.0600    -3.1720   -25.4110    55.3920     4.0880     4.5260     5.7560     2.1140 
  137.5000   136.8050     8.0910    -3.1850   -25.4270    53.9520     4.0550     4.5080     5.2930     2.1110 
  137.6250   136.9250     8.1210    -3.1970   -25.4520    55.9030     3.9680     4.4290     5.1610     2.1060 
  137.7500   137.0460     8.1510    -3.2090   -25.4740    58.6380     3.8920     4.3400     5.4140     2.1100 
  137.8750   137.1670     8.1820    -3.2210   -25.5130    61.1100     3.7620     4.1700     5.6490     2.1350 
  138.0000   137.2870     8.2130    -3.2330   -25.5320    60.7230     3.7130     4.0960     5.6130     2.1520 
  138.1250   137.4080     8.2430    -3.2450   -25.5270    57.9840     3.8450     4.2470     5.3980     2.1600 
  138.2500   137.5280     8.2740    -3.2580   -25.4910    56.7200     4.1780     4.6500     5.3340     2.1730 
  138.3750   137.6490     8.3050    -3.2700   -25.3840    56.2380     5.0310     5.6950    10.2030     2.2570 
  138.5000   137.7690     8.3360    -3.2820   -25.2830    57.0890     5.7420     6.5490    18.4760     2.3410 
  138.6250   137.8900     8.3670    -3.2950   -25.0970    57.3680     6.5520     7.4540    24.1560     2.3890 
  138.7500   138.0100     8.3980    -3.3070   -24.9550    56.4500     6.6960     7.5560    17.9030     2.3380 
  138.8750   138.1300     8.4300    -3.3200   -24.7180    54.2450     6.2090     6.8720     7.8370     2.1990 
  139.0000   138.2510     8.4610    -3.3330   -24.5470    53.2410     5.6380     6.1650     6.0750     2.1250 
  139.1250   138.3710     8.4930    -3.3450   -24.2890    52.6320     4.8510     5.2830     5.8930     2.0840 
  139.2500   138.4910     8.5250    -3.3580   -24.1320    52.6460     4.5370     4.9780     5.7720     2.0900 
  139.3750   138.6110     8.5560    -3.3710   -23.9420    54.1120     4.4310     4.9200     5.8400     2.1100 
  139.5000   138.7310     8.5880    -3.3840   -23.8500    55.6450     4.4470     4.9490     5.9630     2.1180 
  139.6250   138.8520     8.6200    -3.3970   -23.7560    57.0290     4.4850     4.9710     6.0020     2.1190 
  139.7500   138.9720     8.6520    -3.4100   -23.7170    56.4330     4.5100     4.9770     5.7930     2.1120 
  139.8750   139.0920     8.6850    -3.4230   -23.6860    55.6230     4.5670     5.0190     5.5060     2.0960 
  140.0000   139.2120     8.7170    -3.4360   -23.6750    56.3050     4.6230     5.0720     5.6960     2.0900 
  140.1250   139.3320     8.7500    -3.4490   -23.6570    57.7120     4.7310     5.1900     6.2570     2.0980 
  140.2500   139.4520     8.7820    -3.4620   -23.6320    58.0320     4.7940     5.2470     6.4540     2.1060 
  140.3750   139.5720     8.8150    -3.4750   -23.5570    58.7720     4.8290     5.2610     6.3650     2.1060 
  140.5000   139.6910     8.8480    -3.4890   -23.4770    59.5830     4.8240     5.2360     6.2030     2.1010 
  140.6250   139.8110     8.8800    -3.5030   -23.3120    58.1200     4.7730     5.1690     5.8200     2.0990 
  140.7500   139.9310     8.9130    -3.5170   -23.1830    56.0850     4.7410     5.1440     5.5860     2.0940 
  140.8750   140.0510     8.9460    -3.5310   -22.9850    54.6670     4.7170     5.1520     5.6520     2.0730 
  141.0000   140.1710     8.9790    -3.5450   -22.8640    55.4760     4.7260     5.1820     5.8940     2.0560 
  141.1250   140.2910     9.0120    -3.5590   -22.7100    54.9790     4.7390     5.2080     6.3870     2.0470 
