~V
VERS. 2.00: Ver 2.00
~W
STRT.M 20.0000:
STOP.M 292.0000:
STEP.M 0.1250:
NULL. -999.2500:
UWI. FD11146:
~C
DEPT.M :
TVD. :
DX. :
DY. :
GR.API :
RML.OHMM :
RI. :
RXO.OHMM :
CALI.CM :
SP.MV :
DEN.GM/CC :
~A
# ...
  127.2500   125.7430    10.9810    -9.7130    40.8770    26.2060    23.7350    26.2860    23.1610   -10.3860     2.5820 
  127.3750   125.8630    11.0060    -9.7400    39.6940    26.6670    24.1750    23.8450    23.1610   -10.4340     2.5810 
  127.5000   125.9820    11.0310    -9.7670    40.2640    26.7800    24.3150    21.2320    23.1610   -10.4930     2.5790 
  127.6250   126.1010    11.0560    -9.7950    39.5430    26.9310    24.3900    20.3950    23.1610   -10.5920     2.5830 
  127.7500   126.2210    11.0810    -9.8220    38.1940    27.5020    24.7580    19.7770    23.1610   -10.7310     2.5940 
  127.8750   126.3400    11.1060    -9.8490    37.7210    28.5010    25.5240    20.2640    23.1610   -10.8930     2.6070 
  128.0000   126.4600    11.1310    -9.8760    37.8740    29.5520    26.4650    22.1480    23.1610   -11.0670     2.6160 
  128.1250   126.5790    11.1560    -9.9040    38.3550    29.8990    26.9650    22.8220    23.1620   -11.2560     2.6080 
  128.2500   126.6990    11.1810    -9.9310    38.2950    29.1830    26.5850    22.8800    23.1640   -11.4270     2.5860 
  128.3750   126.8180    11.2060    -9.9580    37.7140    27.5270    25.3100    21.6200    23.1660   -11.5570     2.5510 
  128.5000   126.9370    11.2310    -9.9850    36.7620    25.5280    23.5870    18.0540    23.1660   -11.6410     2.5050 
  128.6250   127.0570    11.2560   -10.0120    37.3090    24.0150    22.1220    15.6130    23.1650   -11.6880     2.4650 
  128.7500   127.1760    11.2810   -10.0400    40.6680    23.3200    21.2970    14.6940    23.1620   -11.6890     2.4470 
  128.8750   127.2960    11.3060   -10.0670    44.4460    23.4620    21.2110    14.9870    23.1610   -11.6130     2.4590 
  129.0000   127.4150    11.3300   -10.0940    46.2320    24.2420    21.7730    16.0820    23.1610   -11.4570     2.4930 
  129.1250   127.5350    11.3550   -10.1210    46.6960    25.2430    22.7030    17.7820    23.1610   -11.2560     2.5320 
  129.2500   127.6540    11.3800   -10.1490    47.5850    25.9400    23.4840    18.0890    23.1610   -11.0420     2.5560 
  129.3750   127.7730    11.4050   -10.1760    48.5650    26.1100    23.8280    16.9770    23.1610   -10.8520     2.5630 
  129.5000   127.8930    11.4300   -10.2030    48.6870    25.8020    23.7030    16.4640    23.1610   -10.7190     2.5580 
  129.6250   128.0120    11.4550   -10.2300    48.2360    25.2160    23.2490    17.1560    23.1600   -10.5860     2.5550 
  129.7500   128.1320    11.4800   -10.2570    48.1320    24.6510    22.7450    17.0300    23.1590   -10.4500     2.5560 
  129.8750   128.2510    11.5050   -10.2850    47.5640    24.2860    22.3600    16.0560    23.1600   -10.3510     2.5600 
  130.0000   128.3700    11.5300   -10.3120    45.8560    24.2040    22.1980    15.8260    23.1610   -10.2730     2.5650 
  130.1250   128.4900    11.5550   -10.3390    43.9640    24.4280    22.3160    16.0180    23.1610   -10.1830     2.5690 
  130.2500   128.6090    11.5800   -10.3660    44.3120    24.7950    22.5990    15.7170    23.1610   -10.1060     2.5740 
  130.3750   128.7290    11.6050   -10.3940    46.1100    25.1120    22.8990    14.9190    23.1610   -10.0370     2.5780 
  130.5000   128.8480    11.6300   -10.4210    46.1830    25.1480    23.0160    14.8530    23.1610    -9.9620     2.5800 
  130.6250   128.9680    11.6550   -10.4480    43.3070    24.6780    22.7460    15.4300    23.1610    -9.8870     2.5790 
  130.7500   129.0870    11.6800   -10.4750    41.3150    23.8500    22.1850    15.2450    23.1610    -9.8220     2.5790 
  130.8750   129.2060    11.7050   -10.5020    40.5870    22.8900    21.4880    14.5650    23.1610    -9.7520     2.5790 
  131.0000   129.3260    11.7300   -10.5300    40.2590    22.0400    20.8060    13.7500    23.1610    -9.6690     2.5790 
  131.1250   129.4450    11.7540   -10.5570    39.7890    21.4950    20.2620    13.4750    23.1620    -9.6020     2.5780 
  131.2500   129.5650    11.7790   -10.5840    38.8230    21.1650    19.8340    13.7020    23.1630    -9.5470     2.5750 
  131.3750   129.6840    11.8040   -10.6110    37.5260    20.8960    19.4460    13.9030    23.1630    -9.5060     2.5670 
  131.5000   129.8030    11.8290   -10.6380    36.8080    20.5510    19.0290    13.7530    23.1620    -9.4550     2.5520 
  131.6250   129.9230    11.8540   -10.6660    38.6200    20.0780    18.5690    13.7480    23.1610    -9.3850     2.5410 
  131.7500   130.0420    11.8790   -10.6930    41.8660    19.6010    18.1540    13.4620    23.1610    -9.3150     2.5390 
  131.8750   130.1620    11.9040   -10.7200    44.6170    19.2810    17.8920    13.2530    23.1610    -9.2770     2.5420 
  132.0000   130.2810    11.9290   -10.7470    45.2360    19.2500    17.8740    13.3610    23.1610    -9.2780     2.5470 
  132.1250   130.4010    11.9540   -10.7750    41.8190    19.6160    18.1740    13.4720    23.1610    -9.2920     2.5540 
  132.2500   130.5200    11.9790   -10.8020    37.9660    20.2600    18.6950    13.3350    23.1610    -9.2880     2.5620 
  132.3750   130.6390    12.0040   -10.8290    36.9280    21.0370    19.3330    13.6880    23.1610    -9.2460     2.5630 
  132.5000   130.7590    12.0290   -10.8560    39.5810    21.7570    19.9430    14.3630    23.1610    -9.1990     2.5580 
  132.6250   130.8780    12.0540   -10.8830    43.3820    22.1880    20.3360    14.5300    23.1610    -9.1980     2.5520 
  132.7500   130.9980    12.0790   -10.9110    44.2690    22.3030    20.4830    14.7760    23.1610    -9.2210     2.5510 
  132.8750   131.1170    12.1040   -10.9380    42.9260    22.1820    20.4340    15.1350    23.1610    -9.2430     2.5560 
  133.0000   131.2370    12.1290   -10.9650    41.9230    21.9790    20.2970    15.1380    23.1620    -9.2910     2.5680 
  133.1250   131.3560    12.1540   -10.9920    42.3120    21.8860    20.1980    15.2460    23.1750    -9.3650     2.5840 
  133.2500   131.4750    12.1790   -11.0200    42.3360    21.9750    20.2000    15.1410    23.2080    -9.4280     2.5900 
  133.3750   131.5950    12.2030   -11.0470    41.5690    22.2150    20.3020    14.7230    23.2460    -9.4770     2.5810 
  133.5000   131.7140    12.2280   -11.0740    42.2720    22.4980    20.4440    14.1760    23.2690    -9.5170     2.5690 
  133.6250   131.8340    12.2530   -11.1010    44.8350    22.6420    20.5070    14.0660    23.2520    -9.5530     2.5640 
  133.7500   131.9530    12.2780   -11.1280    46.8190    22.5430    20.4000    14.2160    23.2420    -9.5750     2.5660 
  133.8750   132.0720    12.3030   -11.1560    47.4920    22.1930    20.1000    14.3540    23.2390    -9.5780     2.5700 
  134.0000   132.1920    12.3280   -11.1830    48.7620    21.6950    19.6790    14.0040    23.2410    -9.5710     2.5740 
  134.1250   132.3110    12.3530   -11.2100    51.0980    21.2550    19.3060    13.7760    23.2410    -9.5500     2.5730 
  134.2500   132.4310    12.3780   -11.2370    51.9880    21.0540    19.1210    13.9150    23.2420    -9.5410     2.5600 
  134.3750   132.5490    12.4040   -11.2670    51.1830    21.1710    19.1860    13.6430    23.2420    -9.5500     2.5370 
  134.5000   132.6680    12.4300   -11.2960    50.5630    21.5780    19.4860    13.2520    23.2420    -9.5840     2.5150 
  134.6250   132.7870    12.4560   -11.3250    49.4020    22.1520    19.9530    13.0630    23.2420    -9.6290     2.5080 
  134.7500   132.9060    12.4810   -11.3540    47.2370    22.6650    20.4260    13.2930    23.2420    -9.6750     2.5160 
  134.8750   133.0250    12.5070   -11.3830    47.2190    22.9630    20.7940    13.5640    23.2420    -9.7120     2.5310 
  135.0000   133.1430    12.5330   -11.4120    51.0420    22.9700    20.9860    14.2160    23.2420    -9.7180     2.5450 
  135.1250   133.2620    12.5590   -11.4410    53.3000    22.6870    20.9460    15.1260    23.2450    -9.7120     2.5490 
  135.2500   133.3810    12.5840   -11.4700    50.0070    22.2690    20.7300    15.8270    23.2580    -9.7270     2.5440 
  135.3750   133.5000    12.6100   -11.4990    45.3670    21.8090    20.3800    15.6810    23.2830    -9.7840     2.5300 
