~V
VERS. 2.00: Ver 2.00
~W
STRT.M 10.0000:
STOP.M 230.0000:
STEP.M 0.1250:
NULL. -999.2500:
UWI. FD11119:
~C
DEPT.M :
TVD. :
DX. :
DY. :
SP.MV :
DEN.GM/CC :
GR.API :
RML.OHMM :
RI. :
RXO.OHMM :
CALI.CM :
~A
# ...
  224.5000   217.0500   -43.0320   -17.8750    -6.3830     1.9210    60.4100     7.1970     6.6730     4.2000    19.4790 
  224.6250   217.1650   -43.0770   -17.8950    -6.3500     1.9040    60.4100     7.2180     6.6120     4.0750    18.6920 
  224.7500   217.2800   -43.1210   -17.9150    -6.3190     1.9090    60.4100     7.2390     6.5560     3.8830    18.2880 
  224.8750   217.3950   -43.1660   -17.9350    -6.2880     1.9390    60.4100     7.2420     6.5190     3.5840    17.1390 
  225.0000   217.5100   -43.2100   -17.9540    -6.2610     1.9800    60.4100     7.2340     6.4940     3.4100    15.2590 
  225.1250   217.6250   -43.2550   -17.9740    -6.2740     2.0190    60.4100     7.2270     6.4780     3.4750    14.4300 
  225.2500   217.7400   -43.2990   -17.9940    -6.3180     2.0490    60.4100     7.2220     6.4710     3.7990    13.6680 
  225.3750   217.8560   -43.3440   -18.0140    -6.3520     2.0680    60.4100     7.2220     6.4710     4.1910    11.7100 
  225.5000   217.9710   -43.3880   -18.0340    -6.3820     2.0800    60.4100     7.2220     6.4710     4.4090    10.8370 
  225.6250   218.0860   -43.4330   -18.0540    -6.4030     2.0820    60.4100     7.2220     6.4710     4.4640    10.6860 
  225.7500   218.2010   -43.4770   -18.0740    -6.4640     2.0720    60.4100     7.2220     6.4710     4.4620    10.6280 
  225.8750   218.3160   -43.5210   -18.0940    -6.5250     2.0510    60.4100     7.2220     6.4710     4.4580    10.6200 
  226.0000   218.4310   -43.5660   -18.1140    -6.5580     2.0250    60.4100     7.2220     6.4710     4.4570    10.6170 
  226.1250   218.5460   -43.6110   -18.1350    -6.5960     2.0030    60.4100     7.2220     6.4710     4.4570    10.6170 
  226.2500   218.6600   -43.6570   -18.1550    -6.5920     1.9880    60.4100     7.2220     6.4710     4.4550    10.6170 
  226.3750   218.7750   -43.7020   -18.1760    -6.5960     1.9810    60.4100     7.2220     6.4710     4.4540    10.6170 
  226.5000   218.8900   -43.7480   -18.1960    -6.5910     1.9790    60.4100     7.2220     6.4710     4.4530    10.6170 
  226.6250   219.0040   -43.7930   -18.2160    -6.6050     1.9780    60.4100     7.2220     6.4710     4.4520    10.6170 
  226.7500   219.1190   -43.8380   -18.2370    -6.5850     1.9780    60.4100     7.2220     6.4710     4.4520    10.6170 
  226.8750   219.2340   -43.8840   -18.2570    -6.5790     1.9780    60.4100     7.2220     6.4710     4.4510    10.6170 
  227.0000   219.3480   -43.9290   -18.2780    -6.6030     1.9780    60.4100     7.2220     6.4710     4.4500    10.6170 
  227.1250   219.4630   -43.9750   -18.2980    -6.6270     1.9770    60.4100     7.2220     6.4710     4.4480    10.6170 
  227.2500   219.5780   -44.0200   -18.3190  -999.2500     1.9760    60.4100     7.2220     6.4710     4.4470    10.6170 
  227.3750   219.6920   -44.0660   -18.3390  -999.2500     1.9760    60.4100     7.2220     6.4710     4.4460    10.6170 
  227.5000   219.8070   -44.1110   -18.3600  -999.2500     1.9760    60.4100     7.2220     6.4710     4.4470    10.6170 
  227.6250   219.9210   -44.1570   -18.3800  -999.2500     1.9780    60.4100     7.2220     6.4710     4.4460    10.6170 
  227.7500   220.0360   -44.2020   -18.4010  -999.2500     1.9800    60.4100     7.2220     6.4710     4.4450    10.6170 
  227.8750   220.1510   -44.2470   -18.4210  -999.2500     1.9830    60.4100     7.2220     6.4710     4.4430    10.6170 
  228.0000   220.2650   -44.2930   -18.4410  -999.2500     1.9850    60.4100     7.2220     6.4710     4.4430    10.6170 
  228.1250   220.3800   -44.3380   -18.4620  -999.2500     1.9860    60.4100     7.2220     6.4710     4.4420    10.6170 
  228.2500   220.4950   -44.3840   -18.4820  -999.2500     1.9860    60.4100     7.2220     6.4710     4.4420    10.6170 
  228.3750   220.6090   -44.4290   -18.5030  -999.2500     1.9860    60.4100     7.2220     6.4710     4.4420    10.6170 
  228.5000   220.7240   -44.4750   -18.5230  -999.2500  -999.2500    60.4100     7.2220     6.4710     4.4410    10.6170 
  228.6250   220.8390   -44.5200   -18.5440  -999.2500  -999.2500    60.4100     7.2220     6.4710     4.4400    10.6170 
  228.7500   220.9530   -44.5660   -18.5640  -999.2500  -999.2500    60.4100     7.2220     6.4710     4.4400    10.6160 
  228.8750   221.0680   -44.6110   -18.5850  -999.2500  -999.2500    60.4100     7.2220     6.4710     4.4380    10.6110 
  229.0000   221.1820   -44.6560   -18.6050  -999.2500  -999.2500    60.4100     7.2220     6.4710     4.4350    10.6120 
  229.1250   221.2970   -44.7020   -18.6260  -999.2500  -999.2500    60.4100     7.2220     6.4710     4.4340    10.6140 
  229.2500   221.4120   -44.7470   -18.6460  -999.2500  -999.2500    60.4100     7.2220     6.4710     4.4340    10.6160 
  229.3750   221.5260   -44.7930   -18.6670  -999.2500  -999.2500    60.4100     7.2220     6.4710     4.4330    10.6140 
  229.5000   221.6410   -44.8380   -18.6870  -999.2500  -999.2500    60.4100     7.2220     6.4710     4.4310    10.6120 
  229.6250   221.7560   -44.8840   -18.7070  -999.2500  -999.2500    60.4100     7.2220     6.4710     4.4280    10.6090 
  229.7500   221.8700   -44.9290   -18.7280  -999.2500  -999.2500    60.4100     7.2220     6.4710     4.4220    10.6050 
  229.8750   221.9850   -44.9740   -18.7480  -999.2500  -999.2500    60.4100     7.2220     6.4710     4.4180    10.5970 
  230.0000   222.1000   -45.0200   -18.7690  -999.2500  -999.2500    60.4100     7.2220     6.4710     4.4170    10.6000 
