~V
VERS. 2.00: Ver 2.00
~W
STRT.M 50.0000:
STOP.M 268.0000:
STEP.M 0.1250:
NULL. -999.2500:
UWI. FD11187:
~C
DEPT.M :
TVD. :
DX. :
DY. :
SP.MV :
GR.API :
RI. :
RML.OHMM :
RXO.OHMM :
DEN.GM/CC :
~A
# ...
  205.1250   198.4530    34.5390   -10.3150   -15.0350    45.7030    17.8860    19.4400    17.5990     2.1960 
  205.2500   198.5640    34.5940   -10.3250   -14.7010    45.4090    17.3650    18.9560    16.5000     2.1920 
  205.3750   198.6760    34.6500   -10.3350   -14.2130    47.0580    16.6770    18.2160    15.7240     2.1570 
  205.5000   198.7870    34.7060   -10.3450   -13.8810    47.9430    16.4000    17.8930    18.2790     2.1410 
  205.6250   198.8990    34.7620   -10.3540   -13.3500    48.4550    16.6980    18.2260    23.3080     2.1720 
  205.7500   199.0100    34.8170   -10.3640   -12.9650    49.0390    17.6420    19.3650    24.6270     2.2470 
  205.8750   199.1220    34.8730   -10.3730   -12.3370    51.9610    19.9960    22.3890    29.2280     2.4230 
  206.0000   199.2330    34.9290   -10.3830   -11.8880    54.0350    20.9050    23.7170    52.8550     2.5320 
  206.1250   199.3440    34.9850   -10.3930   -11.1810    56.6700    19.7830    22.9540    99.0880     2.6250 
  206.2500   199.4560    35.0410   -10.4020   -10.6940    57.1880    17.5310    20.6040    97.3140     2.6530 
  206.3750   199.5670    35.0960   -10.4120    -9.9550    56.5330    12.0100    14.2570    61.3920     2.6970 
  206.5000   199.6790    35.1520   -10.4220    -9.4700    55.3030     8.7350    10.3950    38.5650     2.7270 
  206.6250   199.7900    35.2080   -10.4320    -8.7810    55.2610     4.9820     5.8530    11.5430     2.7000 
  206.7500   199.9010    35.2640   -10.4420    -8.3660    56.1510     3.2960     3.8280     7.8770     2.6170 
  206.8750   200.0130    35.3200   -10.4520    -7.8330    57.3680     2.1840     2.5370     4.3790     2.4790 
  207.0000   200.1240    35.3760   -10.4620    -7.5460    56.5690     1.8090     2.1080     3.0790     2.4320 
  207.1250   200.2350    35.4320   -10.4710    -7.2220    54.2100     1.5580     1.8400     2.7100     2.4280 
  207.2500   200.3470    35.4880   -10.4810    -7.0710    53.0970     1.5110     1.8110     2.7880     2.4320 
  207.3750   200.4580    35.5450   -10.4910    -6.9150    52.5170     1.5290     1.8670     3.1890     2.4220 
  207.5000   200.5690    35.6010   -10.5000    -6.8440    51.6050     1.5370     1.8820     3.4390     2.3980 
  207.6250   200.6800    35.6580   -10.5100    -6.7680    48.6070     1.4990     1.8340     3.2100     2.3390 
  207.7500   200.7910    35.7140   -10.5190    -6.7280    46.7270     1.4550     1.7640     2.8020     2.3110 
  207.8750   200.9020    35.7710   -10.5290    -6.6670    47.7660     1.3720     1.6370     2.2070     2.2910 
  208.0000   201.0130    35.8270   -10.5380    -6.6120    49.0420     1.3430     1.5860     2.1840     2.2820 
  208.1250   201.1240    35.8840   -10.5470    -6.4900    48.6540     1.3430     1.5680     2.3570     2.2700 
  208.2500   201.2350    35.9410   -10.5560    -6.3810    46.8690     1.3760     1.6020     2.2930     2.2690 
  208.3750   201.3460    35.9980   -10.5650    -6.1930    45.5460     1.4560     1.6950     2.3740     2.2790 
  208.5000   201.4570    36.0550   -10.5740    -6.0650    46.2080     1.5050     1.7610     2.5780     2.2900 
  208.6250   201.5680    36.1120   -10.5840    -5.8860    46.1390     1.5410     1.8310     2.7880     2.3070 
  208.7500   201.6790    36.1690   -10.5930    -5.7840    44.5140     1.5320     1.8470     2.7520     2.3110 
  208.8750   201.7890    36.2260   -10.6020    -5.6630    41.8480     1.4890     1.8380     2.6510     2.3080 
  209.0000   201.9000    36.2830   -10.6110    -5.6100    41.6600     1.4560     1.8260     2.7090     2.3110 
  209.1250   202.0110    36.3400   -10.6200    -5.5850    43.7230     1.4240     1.8180     2.6130     2.3100 
  209.2500   202.1220    36.3970   -10.6300    -5.6110    44.7030     1.4170     1.8290     2.3940     2.3010 
  209.3750   202.2330    36.4540   -10.6390    -5.7190    45.9850     1.4400     1.8790     2.3420     2.2930 
  209.5000   202.3440    36.5100   -10.6480    -5.8370    48.0190     1.4820     1.9450     2.6040     2.3020 
  209.6250   202.4550    36.5670   -10.6570    -6.0760    56.4520     1.6100     2.1270     3.1110     2.3190 
  209.7500   202.5660    36.6240   -10.6660    -6.2670    63.7300     1.7320     2.2920     3.3970     2.3250 
  209.8750   202.6770    36.6810   -10.6750    -6.5770    70.1700     1.9960     2.6520     3.7530     2.3270 
  210.0000   202.7880    36.7380   -10.6840    -6.7810    71.7630     2.2140     2.9430     4.0940     2.3350 
  210.1250   202.8990    36.7950   -10.6930    -7.0550    75.3490     2.5490     3.3880     5.0130     2.3630 
  210.2500   203.0100    36.8510   -10.7030    -7.2070    78.7210     2.7490     3.6620     5.6390     2.3850 
  210.3750   203.1210    36.9080   -10.7120    -7.3820    83.9440     2.9520     3.9300     6.6540     2.3930 
  210.5000   203.2320    36.9650   -10.7210    -7.4690    88.2370     2.9990     3.9840     7.2400     2.3770 
  210.6250   203.3430    37.0220   -10.7300    -7.5650    96.0420     2.9000     3.8310     7.4210     2.3450 
  210.7500   203.4540    37.0790   -10.7390    -7.6400    99.1580     2.6670     3.4990     6.8490     2.3290 
  210.8750   203.5650    37.1350   -10.7470    -7.7220    97.5400     2.4100     3.1540     5.9930     2.3220 
  211.0000   203.6760    37.1920   -10.7560    -7.7940    97.5870     2.3010     3.0270     5.3630     2.3220 
  211.1250   203.7870    37.2490   -10.7650    -7.9420    98.3120     2.2660     3.0200     4.5870     2.3190 
  211.2500   203.8980    37.3060   -10.7730    -8.0700    96.6500     2.3020     3.1040     4.6160     2.3100 
  211.3750   204.0090    37.3630   -10.7820    -8.2940    92.4220     2.4350     3.3360     5.3990     2.3060 
  211.5000   204.1200    37.4200   -10.7910    -8.4520    91.6010     2.5480     3.4980     5.6610     2.3130 
  211.6250   204.2310    37.4760   -10.8000    -8.6770    94.5900     2.7030     3.7050     5.3300     2.3220 
  211.7500   204.3420    37.5330   -10.8090    -8.8100    95.9090     2.8000     3.8150     4.9450     2.3170 
  211.8750   204.4520    37.5900   -10.8180    -8.9800    91.6900     2.9590     4.0100     4.8440     2.2990 
  212.0000   204.5630    37.6470   -10.8270    -9.0780    85.9040     3.0920     4.1860     5.2730     2.2930 
  212.1250   204.6740    37.7040   -10.8360    -9.2120    79.0930     3.3610     4.5530     6.1110     2.2930 
  212.2500   204.7850    37.7610   -10.8450    -9.2920    77.1250     3.5350     4.7740     6.5750     2.2930 
  212.3750   204.8960    37.8180   -10.8540    -9.3890    75.9800     3.7460     5.0070     7.2130     2.2840 
  212.5000   205.0070    37.8750   -10.8630    -9.4320    75.9750     3.8570     5.0950     7.6410     2.2730 
  212.6250   205.1180    37.9320   -10.8720    -9.4620    76.5550     4.0020     5.2160     7.7550     2.2570 
  212.7500   205.2290    37.9890   -10.8810    -9.4620    76.7930     4.1490     5.3860     7.4430     2.2490 
  212.8750   205.3400    38.0460   -10.8890    -9.4440    76.3150     4.5110     5.8910     8.0210     2.2560 
  213.0000   205.4510    38.1030   -10.8990    -9.4210    76.0840     4.8440     6.3960     9.2250     2.2740 
  213.1250   205.5610    38.1600   -10.9080    -9.3710    74.8300     5.4820     7.4060    11.0240     2.3120 
  213.2500   205.6720    38.2170   -10.9170    -9.3200    73.7160     5.6680     7.6990    11.9770     2.3330 
  213.3750   205.7830    38.2740   -10.9260    -9.2090    72.0230     5.3380     7.2500    11.7320     2.3430 
  213.5000   205.8940    38.3310   -10.9350    -9.1090    72.1110     4.7480     6.3890    11.0420     2.3360 
  213.6250   206.0050    38.3880   -10.9440    -8.9340    75.9690     3.5530     4.6550    10.2020     2.3220 
  213.7500   206.1160    38.4450   -10.9530    -8.8160    80.4760     2.9460     3.8090     8.1460     2.3190 
  213.8750   206.2270    38.5020   -10.9620    -8.6730    84.8010     2.3500     3.0020     4.4640     2.3290 
  214.0000   206.3380    38.5590   -10.9710    -8.6200    85.2360     2.1870     2.8110     3.8850     2.3390 
  214.1250   206.4490    38.6150   -10.9800    -8.6180    84.3750     2.1920     2.8590     4.4420     2.3500 
