~V
VERS. 2.00: Ver 2.00
~W
STRT.M 50.0000:
STOP.M 286.0000:
STEP.M 0.1250:
NULL. -999.2500:
UWI. FD11181:
~C
DEPT.M :
TVD. :
DX. :
DY. :
SP.MV :
GR.API :
RI. :
RML.OHMM :
RXO.OHMM :
DEN.GM/CC :
~A
# ...
  205.1250   199.9380   -32.6430     3.0120   -21.2240    51.3050    35.7170    36.7330    33.2090     2.2460 
  205.2500   200.0520   -32.6930     3.0150   -21.2350    52.1430    35.4170    36.8210    29.3870     2.2380 
  205.3750   200.1670   -32.7430     3.0170   -21.2410    58.4360    37.7160    39.9720    27.9770     2.2250 
  205.5000   200.2810   -32.7930     3.0200   -21.3510    62.7600    43.4530    46.7540    28.7880     2.2060 
  205.6250   200.3960   -32.8430     3.0220   -21.5100    61.3040    53.1630    56.2360    33.2710     2.1790 
  205.7500   200.5100   -32.8940     3.0240   -21.5950    58.2120    65.0200    67.4610    44.0380     2.1520 
  205.8750   200.6250   -32.9440     3.0270   -21.5710    57.3200    74.8410    77.3530    59.6430     2.1370 
  206.0000   200.7390   -32.9940     3.0290   -21.5780    58.4450    78.8060    81.0110    71.7170     2.1410 
  206.1250   200.8540   -33.0440     3.0320   -21.6420    60.4210    74.6150    76.7280    75.9980     2.1610 
  206.2500   200.9680   -33.0940     3.0340   -21.6360    60.7240    65.4570    67.8030    74.1040     2.1850 
  206.3750   201.0830   -33.1440     3.0370   -21.5730    57.6740    56.3740    58.8580    63.7290     2.1960 
  206.5000   201.1970   -33.1940     3.0390   -21.4250    54.2270    50.5030    53.4720    48.9690     2.1920 
  206.6250   201.3120   -33.2440     3.0420   -21.2300    51.7610    49.8350    53.1570    39.5410     2.1860 
  206.7500   201.4260   -33.2940     3.0440   -21.0420    49.0280    52.5140    56.5360    38.6780     2.1900 
  206.8750   201.5410   -33.3440     3.0470   -20.8510    45.7680    57.5750    62.1080    47.0850     2.2040 
  207.0000   201.6550   -33.3950     3.0490   -20.6490    44.2620    62.9700    67.4530    60.9910     2.2210 
  207.1250   201.7690   -33.4450     3.0510   -20.4470    44.2970    65.7830    69.5170    73.2110     2.2360 
  207.2500   201.8840   -33.4950     3.0540   -20.2150    45.0280    63.6960    66.7210    80.9600     2.2460 
  207.3750   201.9980   -33.5450     3.0560   -19.9770    47.4180    56.9640    59.1300    82.5290     2.2440 
  207.5000   202.1130   -33.5950     3.0590   -19.7640    49.3930    47.5340    49.3320    75.7190     2.2380 
  207.6250   202.2270   -33.6460     3.0620   -19.6250    50.1000    38.3490    40.3130    60.2060     2.2390 
  207.7500   202.3420   -33.6960     3.0640   -19.4820    50.4360    31.9200    33.9980    40.9480     2.2470 
  207.8750   202.4560   -33.7460     3.0670   -19.4060    51.9810    28.3170    30.6770    26.1060     2.2520 
  208.0000   202.5710   -33.7960     3.0700   -19.4480    53.5220    26.9970    29.6090    21.6250     2.2500 
  208.1250   202.6850   -33.8460     3.0720   -19.5330    52.3740    27.5530    30.3760    26.3840     2.2560 
  208.2500   202.7990   -33.8970     3.0750   -19.6520    49.4200    28.9650    32.0280    31.3720     2.2820 
  208.3750   202.9140   -33.9470     3.0780   -19.7430    48.3890    30.7940    33.8740    31.3570     2.3230 
  208.5000   203.0280   -33.9970     3.0800   -19.7540    51.7990    32.1620    35.2260    28.8810     2.3510 
  208.6250   203.1430   -34.0480     3.0830   -19.6930    57.3780    32.6920    35.6960    25.9890     2.3460 
  208.7500   203.2570   -34.0980     3.0850   -19.5300    60.0760    32.4350    35.2510    22.9190     2.3230 
  208.8750   203.3720   -34.1480     3.0870   -19.1940    58.3950    30.7420    33.4840    20.9120     2.3140 
  209.0000   203.4860   -34.1980     3.0900   -18.7190    55.9080    27.6960    30.1710    21.9570     2.3360 
  209.1250   203.6000   -34.2490     3.0930   -18.2460    56.0040    22.9800    25.3010    26.6730     2.3770 
  209.2500   203.7150   -34.2990     3.0950   -17.8310    57.8060    17.8550    19.8100    35.9950     2.4120 
  209.3750   203.8290   -34.3490     3.0980   -17.4500    58.3860    13.2590    14.7030    36.9830     2.4230 
  209.5000   203.9440   -34.4000     3.1000   -17.1190    59.7450     9.7500    10.4770    21.8400     2.4080 
  209.6250   204.0580   -34.4500     3.1020   -16.8310    64.1760     7.6800     7.9010    11.2910     2.3800 
  209.7500   204.1720   -34.5000     3.1050   -16.7020    70.0370     6.6000     6.8290     6.1100     2.3540 
  209.8750   204.2870   -34.5510     3.1070   -16.7310    73.7670     6.3320     6.5760     5.2500     2.3360 
  210.0000   204.4010   -34.6010     3.1090   -16.8170    74.7280     6.4370     6.7030     5.9810     2.3270 
  210.1250   204.5150   -34.6510     3.1120   -16.9120    75.0650     6.6930     6.9660     6.6910     2.3270 
  210.2500   204.6300   -34.7020     3.1140   -17.0210    77.1490     6.9200     7.1910     7.0200     2.3330 
  210.3750   204.7440   -34.7520     3.1170   -17.0940    80.1940     7.0130     7.3180     7.2680     2.3400 
  210.5000   204.8590   -34.8030     3.1190   -17.1220    80.5450     7.0540     7.3890     7.3440     2.3440 
  210.6250   204.9730   -34.8530     3.1210   -17.2530    76.6620     7.0660     7.4280     7.1080     2.3490 
  210.7500   205.0870   -34.9030     3.1240   -17.4380    74.4660     7.0600     7.4480     6.9150     2.3590 
  210.8750   205.2020   -34.9540     3.1260   -17.7380    75.9900     7.0430     7.4080     6.9450     2.3690 
  211.0000   205.3160   -35.0040     3.1290   -18.2210    77.3120     6.9860     7.3180     7.1540     2.3700 
  211.1250   205.4300   -35.0550     3.1310   -18.7180    77.1890     6.8800     7.2500     7.2760     2.3600 
  211.2500   205.5450   -35.1050     3.1340   -19.0550    77.3310     6.7530     7.1910     6.9080     2.3510 
  211.3750   205.6590   -35.1550     3.1360   -19.2300    77.5730     6.6060     7.1090     6.4260     2.3470 
  211.5000   205.7730   -35.2060     3.1390   -19.5160    75.4180     6.4900     7.0270     6.2820     2.3480 
  211.6250   205.8880   -35.2560     3.1410   -19.8880    73.4710     6.4110     6.9740     6.1870     2.3510 
  211.7500   206.0020   -35.3070     3.1440   -20.2790    73.5090     6.3640     6.9630     6.0210     2.3510 
  211.8750   206.1170   -35.3570     3.1460   -20.6170    72.7990     6.3650     7.0070     6.1690     2.3480 
  212.0000   206.2310   -35.4080     3.1490   -20.8900    73.3220     6.4260     7.1030     6.7210     2.3520 
  212.1250   206.3450   -35.4580     3.1510   -21.0030    76.5370     6.5230     7.2240     6.9850     2.3680 
  212.2500   206.4600   -35.5080     3.1530   -21.0250    79.8640     6.6190     7.3380     6.9010     2.3890 
  212.3750   206.5740   -35.5590     3.1560   -21.1350    78.8970     6.6570     7.3940     7.0870     2.4000 
  212.5000   206.6880   -35.6090     3.1580   -21.2190    75.9920     6.5980     7.3580     7.5740     2.3980 
  212.6250   206.8030   -35.6600     3.1610   -21.1960    74.0970     6.4790     7.2430     8.2850     2.3910 
  212.7500   206.9170   -35.7100     3.1640   -21.2960    72.0770     6.3300     7.0860     8.1840     2.3880 
  212.8750   207.0310   -35.7610     3.1660   -21.6270    70.6620     6.1690     6.9000     7.0840     2.3860 
  213.0000   207.1460   -35.8110     3.1680   -22.0190    72.0220     6.0120     6.6940     6.6600     2.3750 
  213.1250   207.2600   -35.8620     3.1710   -22.3490    74.4670     5.8370     6.4650     6.8680     2.3560 
  213.2500   207.3740   -35.9120     3.1730   -22.5610    75.8730     5.6760     6.2600     6.8420     2.3390 
  213.3750   207.4890   -35.9620     3.1750   -22.6440    76.1570     5.5790     6.1510     6.7320     2.3270 
  213.5000   207.6030   -36.0130     3.1780   -22.6290    76.1790     5.5830     6.1740     6.6970     2.3210 
  213.6250   207.7170   -36.0630     3.1800   -22.4730    76.4670     5.7150     6.3730     6.7270     2.3210 
  213.7500   207.8320   -36.1140     3.1830   -22.1710    77.1590     5.9770     6.7140     6.7940     2.3350 
  213.8750   207.9460   -36.1640     3.1850   -21.7590    78.9160     6.1330     6.8960     6.8640     2.3690 
  214.0000   208.0600   -36.2150     3.1880   -21.3740    80.5740     5.8070     6.6090     7.0410     2.4130 
  214.1250   208.1750   -36.2650     3.1910   -21.0560    79.9840     5.1400     5.8220     7.5190     2.4520 
