~V
VERS. 2.00: Ver 2.00
~W
STRT.M 50.0000:
STOP.M 268.0000:
STEP.M 0.1250:
NULL. -999.2500:
UWI. FD11187:
~C
DEPT.M :
TVD. :
DX. :
DY. :
SP.MV :
GR.API :
RI. :
RML.OHMM :
RXO.OHMM :
DEN.GM/CC :
~A
# ...
  177.7500   174.0110    22.4300    -8.0060   -22.8370    54.5890    22.2310    25.0430    31.1080     2.1440 
  177.8750   174.1230    22.4840    -8.0180   -22.7800    55.7040    22.7710    25.5770    43.2910     2.1370 
  178.0000   174.2350    22.5380    -8.0310   -22.7360    57.2920    23.2810    26.0940    49.7480     2.1320 
  178.1250   174.3480    22.5920    -8.0430   -22.6560    57.8770    23.3880    26.0110    46.6680     2.1230 
  178.2500   174.4600    22.6460    -8.0560   -22.5910    55.4120    22.5260    24.8740    43.8180     2.1180 
  178.3750   174.5720    22.6990    -8.0680   -22.4820    51.8400    20.1810    22.0170    36.7320     2.1260 
  178.5000   174.6840    22.7530    -8.0810   -22.4100    51.2680    18.3420    19.8970    29.4860     2.1470 
  178.6250   174.7960    22.8080    -8.0930   -22.3240    53.5260    15.9650    17.2690    22.5940     2.1770 
  178.7500   174.9080    22.8620    -8.1050   -22.2880    56.2600    15.0850    16.3670    20.4090     2.1780 
  178.8750   175.0200    22.9160    -8.1180   -22.2590    59.9750    14.7260    16.1550    17.9490     2.1530 
  179.0000   175.1320    22.9700    -8.1300   -22.2450    60.1030    15.2940    16.9440    14.6360     2.1280 
  179.1250   175.2440    23.0240    -8.1420   -22.2040    56.0890    17.2030    19.3180     8.1140     2.1030 
  179.2500   175.3550    23.0790    -8.1540   -22.1580    52.4600    19.1580    21.6610     8.4000     2.0960 
  179.3750   175.4670    23.1330    -8.1660   -22.0750    48.5640    22.5920    25.7590    18.0650     2.0880 
  179.5000   175.5790    23.1880    -8.1780   -22.0280    48.1060    24.8650    28.4950    22.3830     2.0820 
  179.6250   175.6910    23.2430    -8.1900   -21.9980    50.2120    27.9490    32.2680    20.0790     2.0840 
  179.7500   175.8030    23.2970    -8.2020   -22.0050    51.4360    29.6230    34.4410    17.4940     2.0920 
  179.8750   175.9150    23.3520    -8.2140   -22.0300    51.1320    31.5780    37.1330    17.4030     2.0930 
  180.0000   176.0260    23.4060    -8.2260   -22.0350    49.5940    32.2390    38.2110    20.2720     2.0830 
  180.1250   176.1380    23.4610    -8.2380   -21.9920    48.1230    32.1710    38.5820    23.4480     2.0690 
  180.2500   176.2500    23.5160    -8.2500   -21.9280    48.0120    31.5010    37.9690    21.7250     2.0670 
  180.3750   176.3620    23.5700    -8.2620   -21.7930    48.9000    29.7010    35.9680    17.0540     2.0750 
  180.5000   176.4740    23.6250    -8.2730   -21.6870    49.8950    28.4330    34.4670    15.9620     2.0860 
  180.6250   176.5850    23.6800    -8.2850   -21.5160    51.2030    26.6520    32.2920    17.1860     2.1090 
  180.7500   176.6970    23.7340    -8.2970   -21.3920    51.6370    25.8820    31.3540    17.8960     2.1240 
  180.8750   176.8090    23.7890    -8.3080   -21.1810    51.2290    25.5340    30.8630    18.9720     2.1370 
  181.0000   176.9210    23.8440    -8.3200   -21.0210    51.2360    25.7950    31.1230    20.7080     2.1400 
  181.1250   177.0330    23.8980    -8.3320   -20.7550    51.7300    26.5420    31.8740    24.6830     2.1340 
  181.2500   177.1450    23.9530    -8.3430   -20.5740    51.9780    26.9690    32.2650    27.6010     2.1230 
  181.3750   177.2560    24.0070    -8.3550   -20.3290    51.1400    27.2680    32.4110    30.6280     2.1140 
  181.5000   177.3680    24.0620    -8.3670   -20.1990    49.9030    26.9310    31.8540    31.1270     2.1200 
  181.6250   177.4800    24.1160    -8.3790   -20.0590    50.5120    25.6970    30.1890    29.1980     2.1420 
  181.7500   177.5920    24.1710    -8.3900   -19.9910    53.0220    24.4980    28.7010    26.9730     2.1540 
  181.8750   177.7040    24.2250    -8.4020   -19.8880    57.6190    22.4870    26.3220    25.5090     2.1640 
  182.0000   177.8160    24.2800    -8.4140   -19.8040    58.8340    21.2920    24.9620    25.9160     2.1680 
  182.1250   177.9280    24.3350    -8.4250   -19.6480    58.0910    19.8300    23.3440    27.0150     2.1700 
  182.2500   178.0390    24.3890    -8.4370   -19.5360    57.5800    19.1430    22.5940    28.1180     2.1700 
  182.3750   178.1510    24.4440    -8.4480   -19.3950    59.6430    18.4310    21.8530    29.3760     2.1760 
  182.5000   178.2630    24.4990    -8.4590   -19.3360    62.0690    18.1350    21.5580    28.3090     2.1850 
  182.6250   178.3750    24.5530    -8.4700   -19.3100    65.2480    17.8430    21.3480    24.8290     2.1890 
  182.7500   178.4870    24.6080    -8.4810   -19.3260    65.2260    17.7630    21.3200    23.5260     2.1820 
  182.8750   178.5990    24.6630    -8.4920   -19.3700    62.5350    17.6190    21.2010    23.7580     2.1630 
  183.0000   178.7100    24.7180    -8.5020   -19.4030    60.5070    17.5530    21.1430    24.8350     2.1570 
  183.1250   178.8220    24.7720    -8.5130   -19.4610    59.1630    17.5770    21.2090    26.8140     2.1650 
  183.2500   178.9340    24.8270    -8.5240   -19.5170    60.0630    17.7620    21.4910    27.0560     2.1760 
  183.3750   179.0460    24.8820    -8.5350   -19.6450    62.2470    18.3460    22.3340    26.3570     2.1840 
  183.5000   179.1580    24.9370    -8.5460   -19.7600    64.0150    19.0400    23.3350    27.1520     2.1780 
  183.6250   179.2700    24.9920    -8.5570   -19.9570    62.0770    20.3040    25.1450    29.3440     2.1570 
  183.7500   179.3810    25.0460    -8.5680   -20.0800    57.6490    21.2120    26.4620    29.8960     2.1490 
  183.8750   179.4930    25.1010    -8.5790   -20.2120    50.6460    21.9520    27.5130    30.3670     2.1450 
  184.0000   179.6050    25.1560    -8.5900   -20.2460    48.9920    21.5810    27.0820    30.9550     2.1490 
  184.1250   179.7170    25.2100    -8.6010   -20.2090    51.2340    20.1200    25.2710    32.3980     2.1700 
  184.2500   179.8290    25.2650    -8.6120   -20.1330    52.8510    18.7090    23.4820    33.2130     2.1960 
  184.3750   179.9410    25.3200    -8.6230   -19.9680    54.2930    16.6560    20.9120    32.0270     2.2250 
  184.5000   180.0530    25.3740    -8.6340   -19.8430    55.7010    15.6500    19.6700    29.2820     2.2290 
  184.6250   180.1640    25.4290    -8.6450   -19.6560    59.7350    14.7790    18.6460    24.2270     2.2270 
  184.7500   180.2760    25.4840    -8.6560   -19.5400    62.0980    14.7050    18.6310    21.8460     2.2280 
  184.8750   180.3880    25.5380    -8.6680   -19.3810    62.3950    15.1420    19.2660    20.7600     2.2200 
  185.0000   180.5000    25.5930    -8.6790   -19.2850    61.0990    15.5620    19.8360    22.7520     2.2050 
  185.1250   180.6120    25.6480    -8.6900   -19.1570    60.1790    15.8820    20.2090    27.5770     2.1880 
  185.2500   180.7240    25.7020    -8.7010   -19.0820    59.1170    15.8820    20.1890    28.4440     2.1870 
  185.3750   180.8360    25.7570    -8.7120   -18.9870    56.9980    15.6020    19.7790    26.0580     2.1910 
  185.5000   180.9470    25.8120    -8.7230   -18.9370    56.7830    15.2270    19.2850    24.1960     2.1890 
  185.6250   181.0590    25.8660    -8.7350   -18.8920    58.5310    14.7880    18.7510    22.9530     2.1920 
  185.7500   181.1710    25.9210    -8.7460   -18.8840    58.5360    14.6640    18.6300    22.7290     2.1960 
  185.8750   181.2830    25.9760    -8.7560   -18.8920    58.8370    14.7420    18.7940    22.7070     2.1970 
  186.0000   181.3950    26.0310    -8.7670   -18.8990    60.1450    14.9820    19.1460    22.9890     2.1900 
  186.1250   181.5070    26.0860    -8.7780   -18.8960    62.3110    15.5650    19.9380    23.8610     2.1770 
  186.2500   181.6180    26.1410    -8.7890   -18.8820    61.1590    15.9880    20.5020    24.7690     2.1690 
  186.3750   181.7300    26.1960    -8.7990   -18.8530    58.3270    16.5490    21.2190    25.7120     2.1620 
  186.5000   181.8420    26.2510    -8.8100   -18.8370    57.8800    16.7830    21.4950    25.8280     2.1590 
  186.6250   181.9530    26.3060    -8.8200   -18.8250    59.9280    16.7790    21.4470    25.4890     2.1570 
  186.7500   182.0650    26.3610    -8.8310   -18.8220    62.1110    16.5920    21.1800    25.1290     2.1560 
