~V
VERS. 2.00: Ver 2.00
~W
STRT.M 30.0000:
STOP.M 284.0000:
STEP.M 0.1250:
NULL. -999.2500:
UWI. FD11172:
~C
DEPT.M :
TVD. :
DX. :
DY. :
SP.MV :
GR.API :
RI. :
RML.OHMM :
RXO.OHMM :
DEN.GM/CC :
~A
# ...
   93.8750    93.0040     8.7990     2.3020    -8.4970    69.8310     4.4490     4.7090     5.5510     2.1660 
   94.0000    93.1250     8.8290     2.3110    -8.3880    66.5120     4.4080     4.6280     5.5760     2.1220 
   94.1250    93.2460     8.8590     2.3210    -8.3330    66.0740     4.3660     4.5720     5.8380     2.1110 
   94.2500    93.3670     8.8890     2.3300    -8.3290    67.2820     4.3300     4.5770     6.1120     2.1200 
   94.3750    93.4880     8.9200     2.3400    -8.3500    68.5540     4.3020     4.6470     6.1260     2.1250 
   94.5000    93.6090     8.9500     2.3490    -8.3560    69.6960     4.2600     4.7260     5.9920     2.1250 
   94.6250    93.7300     8.9800     2.3580    -8.3060    71.2440     4.2970     4.8150     5.9570     2.1250 
   94.7500    93.8510     9.0100     2.3680    -8.1900    72.3110     4.4170     4.9300     6.0050     2.1290 
   94.8750    93.9720     9.0410     2.3770    -8.0290    73.1780     4.6290     5.0830     6.0790     2.1370 
   95.0000    94.0920     9.0710     2.3860    -7.8390    72.6420     4.9010     5.3200     6.8570     2.1430 
   95.1250    94.2130     9.1010     2.3960    -7.5970    72.5100     5.1060     5.5630     9.9040     2.1430 
   95.2500    94.3340     9.1320     2.4050    -7.3140    73.7590     5.2150     5.6950    13.0530     2.1420 
   95.3750    94.4550     9.1620     2.4150    -7.0690    75.4860     5.1580     5.6440    11.8690     2.1410 
   95.5000    94.5760     9.1920     2.4240    -6.9210    75.4140     4.9350     5.4280     8.3230     2.1380 
   95.6250    94.6970     9.2230     2.4330    -6.8140    72.5770     4.6660     5.1610     6.3640     2.1290 
   95.7500    94.8180     9.2530     2.4430    -6.5960    70.8730     4.3870     4.8990     5.8840     2.1190 
   95.8750    94.9390     9.2840     2.4520    -6.1460    72.0400     4.1630     4.6870     5.8890     2.1220 
   96.0000    95.0600     9.3140     2.4620    -5.5060    75.9020     4.0160     4.5220     5.9140     2.1410 
   96.1250    95.1800     9.3440     2.4710    -4.7680    82.0230     3.8650     4.3670     5.6150     2.1610 
   96.2500    95.3010     9.3750     2.4800    -4.0500    87.7890     3.7130     4.2210     5.1770     2.1680 
   96.3750    95.4220     9.4050     2.4900    -3.4590    87.2380     3.5660     4.0780     5.0770     2.1690 
   96.5000    95.5430     9.4360     2.5000    -3.0540    80.8740     3.4210     3.9180     5.1250     2.1760 
   96.6250    95.6640     9.4660     2.5090    -2.8400    75.9490     3.3090     3.7540     4.8810     2.1890 
   96.7500    95.7850     9.4970     2.5190    -2.7250    75.5020     3.2160     3.5980     4.5490     2.1920 
   96.8750    95.9060     9.5270     2.5280    -2.6580    77.6680     3.1600     3.4730     4.4300     2.1900 
   97.0000    96.0260     9.5580     2.5380    -2.5870    80.9470     3.1440     3.4070     4.4120     2.1990 
   97.1250    96.1470     9.5880     2.5470    -2.4210    85.0220     3.1680     3.4300     4.6750     2.2140 
   97.2500    96.2680     9.6190     2.5570    -2.1220    86.5650     3.2100     3.5060     5.4200     2.2140 
   97.3750    96.3890     9.6490     2.5660    -1.7420    85.6130     3.2190     3.5950     5.7630     2.1890 
   97.5000    96.5100     9.6800     2.5760    -1.3600    86.0160     3.2110     3.6780     5.1690     2.1680 
   97.6250    96.6310     9.7110     2.5860    -0.9380    90.0330     3.1910     3.7080     4.4950     2.1700 
   97.7500    96.7510     9.7410     2.5950    -0.3980    93.6810     3.1270     3.6320     4.2120     2.1960 
   97.8750    96.8720     9.7720     2.6050     0.2710    94.6160     3.0250     3.4860     4.3540     2.2470 
   98.0000    96.9930     9.8030     2.6140     0.9430    96.3870     2.8910     3.3130     4.7210     2.2970 
   98.1250    97.1140     9.8330     2.6240     1.4610   101.1470     2.7590     3.1570     4.4910     2.3100 
   98.2500    97.2350     9.8640     2.6340     1.7590   105.0750     2.6520     3.0550     3.7810     2.2920 
   98.3750    97.3550     9.8940     2.6430     1.8590   104.1960     2.6000     3.0160     3.4220     2.2720 
   98.5000    97.4760     9.9250     2.6530     1.8360   101.3530     2.5800     3.0110     3.5440     2.2650 
   98.6250    97.5970     9.9560     2.6630     1.6910    99.6450     2.5860     3.0420     3.8890     2.2650 
   98.7500    97.7180     9.9870     2.6720     1.4490   100.6280     2.5970     3.0670     4.0070     2.2690 
   98.8750    97.8380    10.0170     2.6820     1.1760   104.1390     2.5620     3.0060     3.7120     2.2760 
   99.0000    97.9590    10.0480     2.6920     0.8900   109.2930     2.4670     2.8250     3.4360     2.2750 
   99.1250    98.0800    10.0790     2.7020     0.4980   112.3750     2.3510     2.6090     3.3470     2.2730 
   99.2500    98.2010    10.1100     2.7110    -0.0480   110.3570     2.2490     2.4440     3.2150     2.2800 
   99.3750    98.3210    10.1410     2.7210    -0.7650   104.6630     2.2370     2.4750     3.0580     2.2940 
   99.5000    98.4420    10.1710     2.7310    -1.6400   100.8850     2.3490     2.7000     3.0990     2.2930 
   99.6250    98.5630    10.2020     2.7400    -2.6810   101.7130     2.6200     3.1420     3.4280     2.2660 
   99.7500    98.6840    10.2330     2.7500    -3.8700   103.5350     3.0170     3.6820     3.8800     2.2300 
   99.8750    98.8040    10.2640     2.7600    -5.1670   100.5970     3.4660     4.2180     4.3470     2.2180 
  100.0000    98.9250    10.2950     2.7700    -6.4310    92.7860     3.8430     4.6380     4.8680     2.2270 
  100.1250    99.0460    10.3260     2.7790    -7.4600    82.6550     4.0610     4.8650     5.3710     2.2210 
  100.2500    99.1660    10.3570     2.7890    -8.1460    74.7320     4.1050     4.9180     5.6330     2.1900 
  100.3750    99.2870    10.3880     2.7980    -8.4820    71.8400     4.0040     4.8420     5.6470     2.1540 
  100.5000    99.4080    10.4200     2.8080    -8.6310    71.9540     3.8630     4.7260     5.6720     2.1380 
  100.6250    99.5280    10.4510     2.8180    -8.7120    71.9220     3.7300     4.6160     5.7760     2.1410 
  100.7500    99.6490    10.4820     2.8270    -8.7730    70.6120     3.6650     4.5800     5.8100     2.1490 
  100.8750    99.7700    10.5130     2.8370    -8.8040    71.1760     3.6510     4.5790     5.7210     2.1510 
  101.0000    99.8900    10.5450     2.8470    -8.8080    74.2080     3.6590     4.5740     5.6360     2.1390 
  101.1250   100.0110    10.5760     2.8560    -8.8020    78.2290     3.7200     4.5990     5.6410     2.1190 
  101.2500   100.1320    10.6080     2.8660    -8.7680    79.2070     3.8180     4.6610     5.7610     2.1030 
  101.3750   100.2520    10.6390     2.8760    -8.6270    75.8020     3.9260     4.7670     6.0930     2.0990 
  101.5000   100.3730    10.6700     2.8850    -8.3250    71.1470     4.0330     4.9010     6.3930     2.1020 
  101.6250   100.4930    10.7020     2.8950    -7.8240    70.1480     4.1030     4.9990     6.3570     2.1050 
  101.7500   100.6140    10.7330     2.9050    -7.1290    72.3510     4.0900     4.9780     6.1790     2.1020 
  101.8750   100.7340    10.7650     2.9150    -6.1840    74.1650     3.8930     4.7040     6.0510     2.1020 
  102.0000   100.8550    10.7970     2.9240    -4.9810    73.7170     3.5510     4.2610     6.0250     2.1220 
  102.1250   100.9750    10.8280     2.9340    -3.5360    76.8370     3.1400     3.7530     5.7510     2.1730 
  102.2500   101.0960    10.8600     2.9440    -2.0040    85.7750     2.7660     3.3170     4.8190     2.2340 
  102.3750   101.2160    10.8920     2.9530    -0.6360    97.6100     2.4960     3.0240     3.7960     2.2690 
  102.5000   101.3370    10.9240     2.9630     0.3530   105.5070     2.3040     2.8310     3.3930     2.2680 
  102.6250   101.4570    10.9560     2.9730     0.8740   108.5880     2.1920     2.7320     3.3240     2.2510 
  102.7500   101.5780    10.9880     2.9830     1.0720   107.6300     2.1480     2.6920     3.1360     2.2480 
  102.8750   101.6980    11.0200     2.9920     1.0330   105.1980     2.1800     2.7120     2.9050     2.2630 
