~V
VERS. 2.00: Ver 2.00
~W
STRT.M 50.0000:
STOP.M 268.0000:
STEP.M 0.1250:
NULL. -999.2500:
UWI. FD11187:
~C
DEPT.M :
TVD. :
DX. :
DY. :
SP.MV :
GR.API :
RI. :
RML.OHMM :
RXO.OHMM :
DEN.GM/CC :
~A
# ...
  232.5000   222.8540    46.7950   -12.2250   -10.5670    54.5610     7.1970     7.9640    10.7040     2.1020 
  232.6250   222.9660    46.8480   -12.2330   -10.6340    52.8150     7.7480     8.6340    11.5300     2.1230 
  232.7500   223.0790    46.9020   -12.2420   -10.6740    53.9570     8.1680     9.1170    12.2030     2.1360 
  232.8750   223.1910    46.9550   -12.2500   -10.7140    57.1200     8.7270     9.7460    12.7750     2.1430 
  233.0000   223.3040    47.0090   -12.2590   -10.7200    58.0200     9.0410    10.0700    12.5440     2.1370 
  233.1250   223.4170    47.0620   -12.2680   -10.6910    58.1060     9.3410    10.3800    12.1910     2.1220 
  233.2500   223.5300    47.1150   -12.2770   -10.6580    57.7210     9.4260    10.4670    12.5530     2.1210 
  233.3750   223.6420    47.1690   -12.2850   -10.6170    57.8900     9.3950    10.4290    12.9500     2.1330 
  233.5000   223.7550    47.2220   -12.2940   -10.6130    58.5470     9.2720    10.2870    13.2370     2.1410 
  233.6250   223.8680    47.2750   -12.3030   -10.6500    59.5370     8.9870     9.9290    13.4020     2.1450 
  233.7500   223.9810    47.3280   -12.3120   -10.6930    59.1710     8.7810     9.6680    12.6860     2.1460 
  233.8750   224.0930    47.3820   -12.3210   -10.7620    58.8410     8.5350     9.3750    11.4520     2.1480 
  234.0000   224.2060    47.4350   -12.3300   -10.7980    59.0610     8.5120     9.3580    11.0100     2.1470 
  234.1250   224.3190    47.4880   -12.3380   -10.8340    57.7160     8.6790     9.5860    11.5840     2.1480 
  234.2500   224.4320    47.5410   -12.3470   -10.8470    55.7620     8.9050     9.8940    12.5980     2.1490 
  234.3750   224.5440    47.5940   -12.3560   -10.8460    53.1240     9.4280    10.5150    12.9660     2.1450 
  234.5000   224.6570    47.6480   -12.3650   -10.8300    52.8910     9.8320    10.9610    12.6500     2.1440 
  234.6250   224.7700    47.7010   -12.3750   -10.7750    53.4180    10.4230    11.5680    12.7550     2.1490 
  234.7500   224.8820    47.7540   -12.3840   -10.7190    53.6460    10.7480    11.8660    13.1110     2.1510 
  234.8750   224.9950    47.8070   -12.3930   -10.6090    53.8010    11.1320    12.2390    13.3170     2.1450 
  235.0000   225.1080    47.8610   -12.4020   -10.5210    54.0620    11.3580    12.4680    13.2660     2.1380 
  235.1250   225.2210    47.9140   -12.4110   -10.3670    54.7200    11.5640    12.6660    13.6700     2.1390 
  235.2500   225.3330    47.9680   -12.4190   -10.2560    54.8120    11.5920    12.6740    13.8750     2.1440 
  235.3750   225.4460    48.0220   -12.4270   -10.0930    53.5010    11.4930    12.5200    13.4230     2.1440 
  235.5000   225.5580    48.0750   -12.4350   -10.0030    52.1840    11.3930    12.3650    12.7920     2.1400 
  235.6250   225.6710    48.1290   -12.4440    -9.9160    51.0150    11.2020    12.0860    12.1540     2.1340 
  235.7500   225.7840    48.1830   -12.4520    -9.8890    50.6140    11.0600    11.8950    12.2790     2.1310 
  235.8750   225.8960    48.2360   -12.4600    -9.8820    51.5250    10.8850    11.6570    12.5100     2.1230 
  236.0000   226.0090    48.2900   -12.4690    -9.8860    53.1850    10.8060    11.5500    12.4640     2.1230 
  236.1250   226.1210    48.3430   -12.4770    -9.8930    55.3190    10.7290    11.4190    12.1450     2.1300 
  236.2500   226.2340    48.3970   -12.4860    -9.9000    54.4710    10.6350    11.2700    12.0580     2.1310 
  236.3750   226.3470    48.4510   -12.4940    -9.9260    51.1410    10.3110    10.8260    12.4550     2.1300 
  236.5000   226.4590    48.5040   -12.5030    -9.9620    51.1990    10.0120    10.4370    12.5890     2.1330 
  236.6250   226.5720    48.5580   -12.5110   -10.0380    54.2490     9.4630     9.7360    12.2730     2.1440 
  236.7500   226.6840    48.6110   -12.5200   -10.0900    57.3460     9.0120     9.1910    12.0400     2.1510 
  236.8750   226.7970    48.6650   -12.5280   -10.1380    61.9000     8.3410     8.4240    12.1430     2.1630 
  237.0000   226.9100    48.7180   -12.5370   -10.1380    64.0920     7.9650     8.0100    12.1060     2.1730 
  237.1250   227.0220    48.7720   -12.5450   -10.0990    64.2930     7.6200     7.6630    11.4420     2.1870 
  237.2500   227.1350    48.8250   -12.5530   -10.0640    63.5980     7.5520     7.6110    10.9960     2.1960 
  237.3750   227.2480    48.8790   -12.5620   -10.0280    65.2930     7.6990     7.8090    10.4310     2.2070 
  237.5000   227.3600    48.9320   -12.5700   -10.0260    67.0270     7.9460     8.0940    10.2650     2.2060 
  237.6250   227.4730    48.9860   -12.5780   -10.0640    66.3750     8.5390     8.7550    10.6350     2.1810 
  237.7500   227.5860    49.0390   -12.5870   -10.1160    64.0390     9.0100     9.2730    10.8880     2.1600 
  237.8750   227.6990    49.0920   -12.5950   -10.2300    61.3760     9.8280    10.1730    11.1190     2.1420 
  238.0000   227.8110    49.1460   -12.6040   -10.3180    60.7880    10.4580    10.8790    11.4320     2.1420 
  238.1250   227.9240    49.1990   -12.6130   -10.4390    59.2720    11.6100    12.1580    12.0690     2.1530 
  238.2500   228.0370    49.2520   -12.6210   -10.5000    58.5970    12.5900    13.2290    12.5320     2.1580 
  238.3750   228.1490    49.3060   -12.6300   -10.5620    59.4390    14.1550    14.9560    12.8740     2.1540 
  238.5000   228.2620    49.3590   -12.6380   -10.5990    60.8490    15.1720    16.0540    12.6470     2.1490 
  238.6250   228.3750    49.4130   -12.6470   -10.6810    60.6300    16.3470    17.3500    12.5920     2.1470 
  238.7500   228.4870    49.4660   -12.6560   -10.7620    59.9990    16.8040    17.8730    13.0330     2.1500 
  238.8750   228.6000    49.5190   -12.6640   -10.9150    59.6920    16.7850    17.8720    13.5750     2.1550 
  239.0000   228.7130    49.5730   -12.6730   -11.0200    60.4410    16.3770    17.4530    13.7940     2.1550 
  239.1250   228.8260    49.6260   -12.6820   -11.1520    62.4070    15.5250    16.5500    13.9330     2.1550 
  239.2500   228.9380    49.6800   -12.6900   -11.2120    62.9110    14.9910    15.9770    13.7520     2.1620 
  239.3750   229.0510    49.7330   -12.6980   -11.2590    61.1520    14.5180    15.4840    13.1250     2.1780 
  239.5000   229.1640    49.7870   -12.7050   -11.2720    59.5240    14.4200    15.3900    12.8160     2.1780 
  239.6250   229.2760    49.8400   -12.7130   -11.2840    59.1700    14.5360    15.5410    12.9460     2.1600 
  239.7500   229.3890    49.8940   -12.7200   -11.2960    60.5310    14.7530    15.7770    12.8660     2.1470 
  239.8750   229.5020    49.9470   -12.7270   -11.3110    62.7470    15.1300    16.1390    12.3670     2.1430 
  240.0000   229.6140    50.0010   -12.7340   -11.3020    63.5730    15.2850    16.2850    12.3910     2.1460 
  240.1250   229.7270    50.0540   -12.7410   -11.2290    63.4930    15.2000    16.1300    12.6140     2.1410 
  240.2500   229.8400    50.1080   -12.7490   -11.1290    63.2810    14.9710    15.8360    12.4840     2.1370 
  240.3750   229.9530    50.1610   -12.7560   -10.9000    64.0250    14.6730    15.4430    12.1890     2.1490 
  240.5000   230.0650    50.2150   -12.7630   -10.6970    64.2420    14.6650    15.3790    12.0220     2.1770 
  240.6250   230.1780    50.2680   -12.7710   -10.3270    62.1480    14.7870    15.4760    11.8350     2.2410 
  240.7500   230.2910    50.3210   -12.7790   -10.0430    60.9680    14.8450    15.5580    12.1870     2.2770 
  240.8750   230.4040    50.3750   -12.7870    -9.5700    61.5070    14.5590    15.2120    16.2960     2.2730 
  241.0000   230.5170    50.4280   -12.7950    -9.2300    62.2740    14.0790    14.6520    19.3160     2.2360 
  241.1250   230.6290    50.4810   -12.8030    -8.6890    61.0000    13.2100    13.6300    17.3080     2.1850 
  241.2500   230.7420    50.5350   -12.8110    -8.3060    60.2650    12.6840    13.0400    15.0360     2.1760 
  241.3750   230.8550    50.5880   -12.8190    -7.6910    61.8600    12.2790    12.6180    15.2140     2.1860 
  241.5000   230.9680    50.6410   -12.8270    -7.2460    62.2930    12.3610    12.7200    15.9510     2.1950 
