~V
VERS. 2.00: Ver 2.00
~W
STRT.M 30.0000:
STOP.M 284.0000:
STEP.M 0.1250:
NULL. -999.2500:
UWI. FD11172:
~C
DEPT.M :
TVD. :
DX. :
DY. :
SP.MV :
GR.API :
RI. :
RML.OHMM :
RXO.OHMM :
DEN.GM/CC :
~A
# ...
   48.2500    48.2320     0.7320     0.0530   -22.4750    53.5680     5.2290     5.8850     7.0430     2.1310 
   48.3750    48.3570     0.7410     0.0550   -21.8560    53.3150     5.2960     5.9870     7.1170     2.1250 
   48.5000    48.4810     0.7510     0.0570   -21.2020    54.1680     5.2850     5.8760     7.2940     2.1100 
   48.6250    48.6060     0.7600     0.0590   -20.6390    55.4100     5.1840     5.7830     7.3240     2.0920 
   48.7500    48.7310     0.7700     0.0610   -20.1280    55.1760     5.0550     5.7200     7.1950     2.0860 
   48.8750    48.8550     0.7790     0.0630   -19.5270    55.6740     4.9380     5.5750     7.1520     2.0980 
   49.0000    48.9800     0.7890     0.0650   -18.7780    58.7340     4.8810     5.3550     7.3570     2.1130 
   49.1250    49.1050     0.7990     0.0670   -17.8860    61.5250     4.8810     5.1970     7.6250     2.1200 
   49.2500    49.2290     0.8080     0.0700   -16.8490    61.3500     4.8920     5.1560     7.6400     2.1230 
   49.3750    49.3540     0.8180     0.0720   -15.5330    59.7170     4.7830     5.0470     7.4740     2.1220 
   49.5000    49.4780     0.8280     0.0740   -13.7850    59.3250     4.5220     4.8920     7.3560     2.1190 
   49.6250    49.6030     0.8380     0.0760   -11.4500    59.2790     4.1170     4.6420     7.1060     2.1290 
   49.7500    49.7270     0.8480     0.0780    -8.6350    61.7190     3.6650     4.2730     6.2670     2.1570 
   49.8750    49.8520     0.8580     0.0810    -5.7160    69.9010     3.2760     3.8910     4.9280     2.1940 
   50.0000    49.9770     0.8690     0.0830    -3.3260    82.0050     2.9530     3.5800     3.9620     2.2260 
   50.1250    50.1010     0.8790     0.0860    -1.9660    93.3720     2.7530     3.3840     3.5960     2.2550 
   50.2500    50.2260     0.8890     0.0880    -1.5100    98.4850     2.6100     3.2550     3.4250     2.2820 
   50.3750    50.3500     0.9000     0.0900    -1.7090    97.3260     2.5030     3.1570     3.3660     2.2950 
   50.5000    50.4750     0.9100     0.0930    -2.3110    94.9980     2.4390     3.0910     3.3570     2.2940 
   50.6250    50.5990     0.9210     0.0950    -3.3450    95.6020     2.4730     3.1420     3.3090     2.2800 
   50.7500    50.7240     0.9310     0.0980    -4.8500   100.3580     2.6690     3.3850     3.4750     2.2460 
   50.8750    50.8480     0.9420     0.1000    -6.9010   103.5650     3.0530     3.8800     4.4540     2.1890 
   51.0000    50.9730     0.9530     0.1030    -9.3240   100.9300     3.6640     4.5910     6.0440     2.1440 
   51.1250    51.0970     0.9640     0.1050   -11.7380    93.1890     4.3360     5.3220     7.2160     2.1320 
   51.2500    51.2220     0.9750     0.1080   -13.6970    85.9120     4.8870     5.8760     7.5150     2.1370 
   51.3750    51.3460     0.9860     0.1110   -14.9710    81.8150     5.1790     6.1330     7.3420     2.1420 
   51.5000    51.4710     0.9970     0.1130   -15.7540    76.4180     5.1470     6.1180     7.1760     2.1430 
   51.6250    51.5950     1.0080     0.1160   -16.2370    70.3520     4.9670     5.9800     7.2890     2.1350 
   51.7500    51.7200     1.0190     0.1190   -16.5590    65.9070     4.7870     5.8470     7.6200     2.1210 
   51.8750    51.8440     1.0310     0.1220   -16.7570    64.5350     4.6300     5.7310     7.8250     2.1110 
   52.0000    51.9690     1.0420     0.1240   -16.8720    64.6180     4.5250     5.6430     7.8120     2.1110 
   52.1250    52.0930     1.0540     0.1270   -16.9300    65.9160     4.4620     5.5570     7.5940     2.1160 
   52.2500    52.2170     1.0650     0.1300   -16.9590    68.6490     4.4260     5.4480     7.2280     2.1230 
   52.3750    52.3420     1.0770     0.1330   -16.9970    70.9490     4.4200     5.3920     6.9290     2.1280 
   52.5000    52.4660     1.0880     0.1360   -17.1240    70.4400     4.4640     5.4780     6.8970     2.1290 
   52.6250    52.5910     1.1000     0.1380   -17.4130    67.5980     4.6150     5.7690     7.2300     2.1340 
   52.7500    52.7150     1.1120     0.1410   -17.7700    65.3280     4.8300     6.1710     7.6630     2.1780 
   52.8750    52.8400     1.1240     0.1440   -18.0000    64.3910     5.0660     6.5320     7.7020     2.2920 
   53.0000    52.9640     1.1360     0.1470   -18.0310    62.1320     5.2430     6.7500     7.3310     2.4270 
   53.1250    53.0880     1.1480     0.1500   -17.9230    59.9800     5.2910     6.7670     7.0040     2.4690 
   53.2500    53.2130     1.1600     0.1530   -17.7870    60.9610     5.2470     6.6220     6.9840     2.3820 
   53.3750    53.3370     1.1720     0.1560   -17.6660    64.2920     5.1380     6.3850     7.1740     2.2440 
   53.5000    53.4610     1.1850     0.1590   -17.5190    64.7840     5.0360     6.1810     7.3860     2.1590 
   53.6250    53.5860     1.1970     0.1620   -17.2500    62.2370     5.0050     6.1250     7.7000     2.1430 
   53.7500    53.7100     1.2090     0.1640   -16.7920    62.8870     5.0640     6.2250     8.2610     2.1470 
   53.8750    53.8340     1.2220     0.1670   -16.0940    67.6250     5.1740     6.3310     8.9460     2.1460 
   54.0000    53.9590     1.2340     0.1700   -15.1530    70.5890     5.1620     6.1590     9.2860     2.1430 
   54.1250    54.0830     1.2470     0.1730   -13.8820    69.1520     4.8900     5.5760     8.8590     2.1480 
   54.2500    54.2070     1.2600     0.1760   -12.2640    69.3070     4.4710     4.9980     7.9040     2.1650 
   54.3750    54.3320     1.2720     0.1790   -10.4010    74.5000     4.0040     4.7720     6.5420     2.1900 
   54.5000    54.4560     1.2850     0.1820    -8.5470    83.7880     3.6920     4.4680     5.1690     2.2120 
   54.6250    54.5800     1.2980     0.1850    -7.0310    94.4910     3.5550     4.0330     4.9050     2.2180 
   54.7500    54.7050     1.3110     0.1880    -6.0990   103.7850     3.5510     3.9370     5.6140     2.2090 
   54.8750    54.8290     1.3240     0.1910    -5.6830   108.4030     3.5950     3.9730     5.9960     2.2020 
   55.0000    54.9530     1.3370     0.1940    -5.2640   108.9280     3.6060     3.9220     5.5420     2.2100 
   55.1250    55.0770     1.3510     0.1970    -4.5590   108.0300     3.5350     3.8140     4.7840     2.2220 
   55.2500    55.2020     1.3640     0.2000    -3.8120   109.8670     3.3980     3.7370     4.3270     2.2330 
   55.3750    55.3260     1.3770     0.2030    -3.3870   114.0980     3.3130     3.6500     4.1560     2.2470 
   55.5000    55.4500     1.3910     0.2060    -3.3930   116.7920     3.3340     3.6220     4.0710     2.2530 
   55.6250    55.5740     1.4040     0.2090    -3.8560   113.0500     3.4430     3.7050     4.3200     2.2400 
   55.7500    55.6990     1.4180     0.2120    -4.7040   106.6770     3.5510     3.7920     4.9430     2.2130 
   55.8750    55.8230     1.4320     0.2150    -5.8080   102.5760     3.5840     4.0360     5.3530     2.1880 
   56.0000    55.9470     1.4460     0.2180    -6.8820    99.7920     3.5910     4.3570     5.3150     2.1670 
   56.1250    56.0710     1.4600     0.2210    -7.6910    96.6380     3.7040     4.5370     5.1540     2.1490 
   56.2500    56.1950     1.4740     0.2240    -8.2120    94.9170     3.9710     4.8130     5.3090     2.1570 
   56.3750    56.3200     1.4880     0.2270    -8.5070    92.6400     4.3110     5.3340     7.8620     2.2230 
   56.5000    56.4440     1.5020     0.2300    -8.6830    86.6150     4.6910     5.7660    13.9360     2.3290 
   56.6250    56.5680     1.5160     0.2330    -8.7380    80.0830     4.9300     5.9590    16.8990     2.3890 
   56.7500    56.6920     1.5300     0.2360    -8.7050    80.7490     4.9800     5.8840    12.4420     2.3380 
   56.8750    56.8160     1.5450     0.2390    -8.7570    85.7610     4.8390     5.6050     7.7550     2.2140 
   57.0000    56.9400     1.5590     0.2420    -8.9430    85.9270     4.6090     5.2800     7.0050     2.1150 
   57.1250    57.0640     1.5740     0.2460    -8.9850    80.8000     4.4550     5.0830     7.3170     2.0950 
   57.2500    57.1890     1.5880     0.2490    -8.6390    77.8110     4.4450     5.0490     7.0940     2.1270 
