~V
VERS. 2.00: Ver 2.00
~W
STRT.M 15.0000:
STOP.M 219.0000:
STEP.M 0.1250:
NULL. -999.2500:
UWI. FD11101:
~C
DEPT.M :
TVD. :
DX. :
DY. :
GR.API :
RML.OHMM :
RI. :
RXO.OHMM :
CALI.CM :
SP.MV :
DEN.GM/CC :
~A
# ...
   97.5000    96.5650     2.5050     8.8230    80.5230     7.8270     6.6420     7.0370    20.8400   -19.4850     2.2040 
   97.6250    96.6840     2.5120     8.8630    81.8930     7.9940     6.8880     7.0370    20.8670   -19.2180     2.2180 
   97.7500    96.8020     2.5200     8.9020    81.1630     8.1340     7.1050     7.0450    21.0630   -18.8140     2.2120 
   97.8750    96.9210     2.5270     8.9410    79.5390     8.1670     7.2320     7.1120    21.3130   -18.2220     2.2030 
   98.0000    97.0390     2.5350     8.9810    79.8820     8.0270     7.2190     7.0880    21.3770   -17.4110     2.2100 
   98.1250    97.1570     2.5420     9.0200    85.4230     7.6620     7.0070     7.1340    21.1730   -16.3070     2.2440 
   98.2500    97.2760     2.5500     9.0590    91.2750     7.1600     6.6470     6.9630    20.9700   -14.9850     2.2890 
   98.3750    97.3940     2.5570     9.0990    94.7130     6.6060     6.1920     6.1560    20.8600   -13.5150     2.3250 
   98.5000    97.5130     2.5640     9.1380    98.0740     6.0840     5.7110     4.7300    20.8470   -12.0030     2.3370 
   98.6250    97.6310     2.5720     9.1770   102.2260     5.6620     5.2780     3.9570    20.9300   -10.5880     2.3200 
   98.7500    97.7490     2.5790     9.2170   105.4740     5.3350     4.9200     3.6270    21.2140    -9.3610     2.2880 
   98.8750    97.8680     2.5870     9.2560   107.8870     5.0940     4.6470     3.5280    21.7620    -8.3680     2.2530 
   99.0000    97.9860     2.5940     9.2950   111.8570     4.9390     4.4610     3.5370    22.2880    -7.6580     2.2220 
   99.1250    98.1050     2.6020     9.3350   115.9660     4.9000     4.3900     3.6440    22.3350    -7.3580     2.1930 
   99.2500    98.2230     2.6090     9.3740   116.9870     4.9800     4.4350     3.7320    21.9430    -7.3930     2.1720 
   99.3750    98.3410     2.6170     9.4130   113.5160     5.1840     4.6000     3.7700    21.3400    -7.6530     2.1650 
   99.5000    98.4600     2.6240     9.4530   106.8340     5.4830     4.8520     4.0230    20.9130    -8.0740     2.1790 
   99.6250    98.5780     2.6320     9.4920   101.5940     5.8080     5.1090     4.7550    20.9090    -8.6080     2.2120 
   99.7500    98.6970     2.6390     9.5310   100.4320     6.0750     5.2830     5.2920    21.3070    -9.1580     2.2430 
   99.8750    98.8150     2.6470     9.5710   102.0660     6.2450     5.3400     5.5920    22.0180    -9.7210     2.2480 
  100.0000    98.9330     2.6540     9.6100   102.3040     6.3300     5.3040     5.5230    22.6810   -10.3140     2.2210 
  100.1250    99.0520     2.6610     9.6490    98.6870     6.3910     5.2450     5.4750    22.8590   -10.9860     2.1740 
  100.2500    99.1700     2.6690     9.6890    94.4530     6.5010     5.2390     5.4160    22.5380   -11.7000     2.1380 
  100.3750    99.2890     2.6760     9.7280    91.1540     6.6880     5.3110     5.5830    21.9060   -12.4100     2.1320 
  100.5000    99.4070     2.6840     9.7670    88.6330     6.9450     5.4550     6.1650    21.2370   -13.1290     2.1570 
  100.6250    99.5250     2.6910     9.8070    84.9520     7.2370     5.6490     7.2740    21.0060   -13.8860     2.1960 
  100.7500    99.6440     2.6990     9.8460    80.9960     7.5080     5.8450     7.6430    21.1990   -14.6460     2.2270 
  100.8750    99.7620     2.7060     9.8850    79.5170     7.7120     6.0020     7.1290    21.5890   -15.3330     2.2440 
  101.0000    99.8810     2.7140     9.9250    81.9930     7.8030     6.0770     6.7290    21.9370   -15.9190     2.2470 
  101.1250    99.9990     2.7210     9.9640    84.9160     7.7280     6.0230     6.7400    21.9650   -16.3870     2.2440 
  101.2500   100.1170     2.7290    10.0030    84.4250     7.5530     5.8760     6.7460    21.6840   -16.7640     2.2390 
  101.3750   100.2360     2.7360    10.0430    83.6870     7.3760     5.7010     6.9290    21.2490   -17.0960     2.2360 
  101.5000   100.3540     2.7440    10.0820    84.4540     7.3070     5.5770     7.1390    21.0820   -17.4570     2.2390 
  101.6250   100.4730     2.7510    10.1220    84.0800     7.4420     5.5900     6.4910    21.1850   -17.9090     2.2560 
  101.7500   100.5910     2.7580    10.1610    80.4040     7.7090     5.7240     6.0350    21.4750   -18.4310     2.2870 
  101.8750   100.7090     2.7660    10.2000    76.1790     7.9930     5.9210     6.3590    22.1120   -19.0130     2.3270 
  102.0000   100.8280     2.7730    10.2400    74.7770     8.1690     6.1000     7.1430    22.9510   -19.6550     2.3610 
  102.1250   100.9460     2.7810    10.2790    76.0870     8.1430     6.1720     7.3470    23.2640   -20.3800     2.3670 
  102.2500   101.0650     2.7880    10.3180    78.5880     7.9890     6.1460     7.2210    22.7210   -21.1630     2.3420 
  102.3750   101.1830     2.7960    10.3580    80.7660     7.8080     6.0660     7.2420    22.0340   -21.9410     2.2950 
  102.5000   101.3010     2.8030    10.3970    81.9470     7.6870     5.9930     7.5700    21.5390   -22.5850     2.2430 
  102.6250   101.4200     2.8110    10.4360    81.1430     7.6760     5.9780     7.7470    21.3680   -23.0310     2.2050 
  102.7500   101.5380     2.8180    10.4760    77.7840     7.7260     6.0100     7.6550    21.3800   -23.3390     2.1860 
  102.8750   101.6570     2.8260    10.5150    74.4260     7.7780     6.0600     7.8450    21.4430   -23.5110     2.1810 
  103.0000   101.7750     2.8330    10.5540    73.8040     7.7810     6.0900     7.8970    21.4180   -23.4710     2.1840 
  103.1250   101.8930     2.8410    10.5940    74.7850     7.6950     6.0560     8.0270    21.2300   -23.1320     2.1900 
  103.2500   102.0120     2.8480    10.6330    74.4380     7.5270     5.9510     7.8000    21.2080   -22.5710     2.1970 
  103.3750   102.1300     2.8550    10.6720    73.3980     7.2880     5.7760     7.3240    21.4320   -21.8040     2.2010 
  103.5000   102.2490     2.8630    10.7120    73.9970     7.0010     5.5490     6.6250    21.9060   -20.8530     2.1980 
  103.6250   102.3670     2.8700    10.7510    77.5180     6.7090     5.3040     5.7050    22.3120   -19.7490     2.1870 
  103.7500   102.4850     2.8780    10.7900    82.5180     6.4600     5.0860     5.2080    22.2230   -18.6010     2.1750 
  103.8750   102.6040     2.8850    10.8300    85.6680     6.2780     4.9190     5.2940    21.7880   -17.4770     2.1690 
  104.0000   102.7220     2.8930    10.8690    86.3800     6.1580     4.8020     5.7350    21.2900   -16.3740     2.1730 
  104.1250   102.8410     2.9000    10.9080    88.5030     6.0730     4.7200     5.8730    21.1480   -15.2680     2.1890 
  104.2500   102.9590     2.9080    10.9480    95.6010     5.9890     4.6480     5.8540    21.2970   -14.2680     2.2090 
  104.3750   103.0770     2.9150    10.9870   104.6290     5.9080     4.5840     5.3520    21.7430   -13.4800     2.2260 
  104.5000   103.1960     2.9230    11.0260   110.8910     5.8690     4.5520     4.8490    22.1810   -12.9200     2.2320 
  104.6250   103.3140     2.9300    11.0660   110.9660     5.9470     4.6060     4.6040    22.4700   -12.6150     2.2180 
  104.7500   103.4330     2.9380    11.1050   106.5650     6.1600     4.7690     4.8270    22.4780   -12.4960     2.1880 
  104.8750   103.5510     2.9450    11.1440   101.2460     6.4750     5.0340     5.4590    22.0820   -12.4820     2.1540 
  105.0000   103.6690     2.9520    11.1840    97.3790     6.7980     5.3480     6.4550    21.2910   -12.4750     2.1320 
  105.1250   103.7880     2.9600    11.2230    98.5090     6.9710     5.5870     7.0700    20.9070   -12.3730     2.1410 
  105.2500   103.9060     2.9670    11.2620   103.4880     6.9280     5.6640     7.1070    20.8400   -12.1300     2.1710 
  105.3750   104.0250     2.9750    11.3020   110.3020     6.6860     5.5560     6.5170    20.9000   -11.7730     2.2080 
  105.5000   104.1430     2.9820    11.3410   116.3970     6.3380     5.3120     5.4430    20.9740   -11.3460     2.2310 
  105.6250   104.2610     2.9900    11.3800   118.1670     6.0200     5.0340     4.6930    21.3810   -10.8170     2.2290 
