~V
VERS. 2.00: Ver 2.00
~W
STRT.M 15.0000:
STOP.M 219.0000:
STEP.M 0.1250:
NULL. -999.2500:
UWI. FD11101:
~C
DEPT.M :
TVD. :
DX. :
DY. :
GR.API :
RML.OHMM :
RI. :
RXO.OHMM :
CALI.CM :
SP.MV :
DEN.GM/CC :
~A
# ...
  105.7500   104.3800     2.9970    11.4200   117.1570     5.8090     4.8120     4.5170    22.0480   -10.2110     2.2130 
  105.8750   104.4980     3.0050    11.4590   113.1550     5.7080     4.6770     4.6870    22.5440    -9.6240     2.1950 
  106.0000   104.6170     3.0120    11.4980   107.5240     5.6780     4.6150     4.8790    22.6860    -9.2040     2.1820 
  106.1250   104.7340     3.0200    11.5390   104.3920     5.6600     4.5910     4.9530    22.6760    -9.0400     2.1800 
  106.2500   104.8510     3.0270    11.5850   103.7730     5.6160     4.5600     4.8680    22.4770    -9.0370     2.1840 
  106.3750   104.9670     3.0350    11.6300   105.7160     5.5480     4.5080     4.9730    22.0560    -9.1620     2.1960 
  106.5000   105.0830     3.0420    11.6750   107.3120     5.4850     4.4470     5.0140    21.7170    -9.3760     2.2150 
  106.6250   105.2000     3.0490    11.7200   109.3540     5.4650     4.4050     4.6590    21.7520    -9.6370     2.2380 
  106.7500   105.3160     3.0570    11.7660   112.6130     5.4820     4.3960     4.4360    22.0160    -9.9290     2.2540 
  106.8750   105.4320     3.0640    11.8110   113.7190     5.5100     4.4100     4.2880    22.2440   -10.2710     2.2550 
  107.0000   105.5480     3.0720    11.8560   109.0440     5.5320     4.4290     4.5940    22.2940   -10.6640     2.2400 
  107.1250   105.6650     3.0790    11.9010   100.2780     5.5770     4.4560     5.3720    22.1160   -11.1220     2.2150 
  107.2500   105.7810     3.0870    11.9470    94.6520     5.7130     4.5310     6.0640    21.9380   -11.6410     2.2010 
  107.3750   105.8970     3.0940    11.9920    94.4770     6.0050     4.7020     6.1960    21.7680   -12.2430     2.2120 
  107.5000   106.0130     3.1020    12.0370    95.7400     6.4700     5.0010     6.5860    21.5790   -12.9960     2.2600 
  107.6250   106.1300     3.1090    12.0820    95.9930     7.0430     5.4230     6.8440    21.5020   -13.9440     2.3330 
  107.7500   106.2460     3.1170    12.1280    93.8740     7.5490     5.8610     8.3590    21.5330   -15.0110     2.3930 
  107.8750   106.3620     3.1240    12.1730    90.6480     7.8480     6.2030    10.4320    21.6320   -16.1920     2.4090 
  108.0000   106.4780     3.1320    12.2180    88.8050     7.8810     6.3690     9.2700    21.7610   -17.4590     2.3720 
  108.1250   106.5950     3.1390    12.2630    88.2510     7.6900     6.3280     8.3160    21.8030   -18.7880     2.2990 
  108.2500   106.7110     3.1470    12.3090    88.2530     7.4680     6.2000     7.8480    21.6560   -20.1260     2.2330 
  108.3750   106.8270     3.1540    12.3540    89.6030     7.3330     6.0830     7.6400    21.2550   -21.4010     2.1940 
  108.5000   106.9440     3.1620    12.3990    92.3360     7.3310     6.0450     7.4090    20.7550   -22.5620     2.1820 
  108.6250   107.0600     3.1690    12.4440    91.2710     7.4430     6.1070     7.5860    20.5430   -23.6130     2.1830 
  108.7500   107.1760     3.1760    12.4900    85.5070     7.5800     6.2140     8.0080    20.6320   -24.5670     2.1800 
  108.8750   107.2920     3.1840    12.5350    80.0160     7.6900     6.3210     8.4160    20.9990   -25.3740     2.1700 
  109.0000   107.4090     3.1910    12.5800    78.5240     7.7450     6.3950     8.6720    21.5560   -26.0350     2.1540 
  109.1250   107.5250     3.1990    12.6250    79.2970     7.7260     6.4120     8.9240    22.0430   -26.6150     2.1350 
  109.2500   107.6410     3.2060    12.6700    78.1370     7.6520     6.3780     9.1250    22.1120   -27.1530     2.1200 
  109.3750   107.7570     3.2140    12.7160    75.1060     7.5430     6.3010     9.0180    21.7400   -27.5850     2.1090 
  109.5000   107.8740     3.2210    12.7610    72.7670     7.4270     6.1950     8.6480    21.0750   -27.8670     2.1050 
  109.6250   107.9900     3.2290    12.8060    73.8970     7.3400     6.0820     8.4240    20.7080   -27.9940     2.1080 
  109.7500   108.1060     3.2360    12.8510    78.1660     7.3000     5.9830     8.4120    20.7060   -28.0320     2.1170 
  109.8750   108.2230     3.2440    12.8970    83.5070     7.3060     5.9130     8.3720    20.9960   -27.9830     2.1270 
  110.0000   108.3390     3.2510    12.9420    85.8140     7.3400     5.8710     8.1740    21.4380   -27.8740     2.1340 
  110.1250   108.4550     3.2590    12.9870    82.6700     7.3690     5.8460     8.0640    21.7560   -27.7140     2.1330 
  110.2500   108.5710     3.2660    13.0320    79.3570     7.3690     5.8170     7.9850    21.8720   -27.5440     2.1280 
  110.3750   108.6880     3.2740    13.0780    80.4750     7.3330     5.7780     7.9870    21.6450   -27.3890     2.1220 
  110.5000   108.8040     3.2810    13.1230    84.8090     7.2800     5.7370     8.0260    21.1900   -27.2210     2.1200 
  110.6250   108.9200     3.2890    13.1680    87.8980     7.2490     5.7160     7.8520    20.8790   -27.0730     2.1270 
  110.7500   109.0360     3.2960    13.2130    88.1570     7.2730     5.7360     7.6410    20.8120   -26.9710     2.1400 
  110.8750   109.1530     3.3030    13.2590    85.6200     7.3670     5.8060     7.5820    20.9560   -26.8870     2.1520 
  111.0000   109.2690     3.3110    13.3040    82.5410     7.5160     5.9180     7.5330    21.3480   -26.7700     2.1610 
  111.1250   109.3850     3.3180    13.3490    81.7490     7.6720     6.0430     7.5780    21.8950   -26.6560     2.1600 
  111.2500   109.5020     3.3260    13.3940    82.8790     7.7760     6.1390     7.6820    22.1370   -26.5510     2.1500 
  111.3750   109.6180     3.3330    13.4400    84.5390     7.7910     6.1790     7.7250    21.9680   -26.4450     2.1370 
  111.5000   109.7340     3.3410    13.4850    85.6330     7.7140     6.1560     7.7470    21.5600   -26.3560     2.1230 
  111.6250   109.8500     3.3480    13.5300    87.3820     7.5680     6.0760     7.7000    21.2960   -26.2640     2.1140 
  111.7500   109.9670     3.3560    13.5750    88.6770     7.4200     5.9800     7.6450    21.2840   -26.1610     2.1100 
  111.8750   110.0830     3.3630    13.6210    88.3060     7.3180     5.9030     7.4200    21.4850   -26.0980     2.1120 
  112.0000   110.1990     3.3710    13.6660    86.5310     7.2940     5.8710     7.1420    21.7820   -26.0630     2.1180 
  112.1250   110.3150     3.3780    13.7110    84.8590     7.3650     5.9210     6.8570    22.0120   -25.9200     2.1270 
  112.2500   110.4320     3.3860    13.7560    83.4090     7.4840     6.0400     7.1690    22.0790   -25.6210     2.1340 
  112.3750   110.5480     3.3930    13.8020    81.0700     7.5940     6.1980     7.5180    21.9650   -25.1710     2.1390 
  112.5000   110.6640     3.4010    13.8470    78.5130     7.6290     6.3350     7.5930    21.6940   -24.5560     2.1430 
  112.6250   110.7800     3.4080    13.8920    79.8790     7.5120     6.3580     7.6360    21.5880   -23.6420     2.1510 
  112.7500   110.8970     3.4160    13.9370    84.4420     7.2610     6.2490     7.7810    21.4490   -22.4450     2.1640 
  112.8750   111.0130     3.4230    13.9830    89.4850     6.9310     6.0350     7.4340    21.4650   -21.0410     2.1790 
  113.0000   111.1290     3.4300    14.0280    93.4900     6.6060     5.7910     6.4040    21.7780   -19.5950     2.1900 
  113.1250   111.2460     3.4380    14.0730    96.3220     6.3930     5.6160     5.2840    22.0860   -18.2470     2.1930 
  113.2500   111.3620     3.4450    14.1180    97.0920     6.3160     5.5470     5.0000    22.0670   -17.0380     2.1920 
  113.3750   111.4780     3.4530    14.1640    96.0480     6.3540     5.5710     5.0460    21.9400   -15.9930     2.1940 
  113.5000   111.5940     3.4600    14.2090    95.0890     6.4520     5.6370     5.2260    21.6930   -15.1400     2.2040 
  113.6250   111.7110     3.4680    14.2540    96.1800     6.5190     5.6690     5.6520    21.3590   -14.6350     2.2190 
  113.7500   111.8270     3.4750    14.2990    97.3100     6.4990     5.6200     5.9150    21.2650   -14.4260     2.2360 
  113.8750   111.9430     3.4830    14.3450   100.1660     6.3860     5.4850     5.7430    21.3600   -14.3820     2.2480 
