~V
VERS. 2.00: Ver 2.00
~W
STRT.M 40.0000:
STOP.M 279.0000:
STEP.M 0.1250:
NULL. -999.2500:
UWI. FD11188:
~C
DEPT.M :
TVD. :
DX. :
DY. :
SP.MV :
GR.API :
RI. :
RML.OHMM :
RXO.OHMM :
DEN.GM/CC :
~A
# ...
   85.6250    85.5530     0.6330     1.4980   -26.8160    79.9780     5.3440     6.1190     6.3710     2.0860 
   85.7500    85.6760     0.6420     1.5110   -26.7110    79.1890     5.3970     6.1900     6.6530     2.0810 
   85.8750    85.8000     0.6520     1.5240   -26.5710    78.6240     5.4500     6.2460     7.0260     2.0820 
   86.0000    85.9240     0.6620     1.5380   -26.4130    78.1280     5.4780     6.2690     6.8790     2.0810 
   86.1250    86.0480     0.6710     1.5510   -26.2420    76.0640     5.4990     6.2830     6.5250     2.0750 
   86.2500    86.1720     0.6810     1.5650   -26.0590    72.4700     5.5320     6.3150     6.7510     2.0670 
   86.3750    86.2960     0.6910     1.5780   -25.8600    70.1220     5.5890     6.4050     7.1060     2.0610 
   86.5000    86.4200     0.7010     1.5920   -25.6430    72.0800     5.6600     6.5030     7.0930     2.0570 
   86.6250    86.5440     0.7110     1.6060   -25.4030    76.7200     5.6010     6.4140     7.0010     2.0650 
   86.7500    86.6670     0.7210     1.6190   -25.1400    80.5260     5.4430     6.1900     6.8860     2.0930 
   86.8750    86.7910     0.7310     1.6330   -24.8600    82.3140     5.2040     5.8410     6.4570     2.1280 
   87.0000    86.9150     0.7410     1.6470   -24.5850    85.0640     4.9330     5.4650     5.7720     2.1470 
   87.1250    87.0390     0.7510     1.6620   -24.3430    89.1390     4.7460     5.2130     5.7260     2.1400 
   87.2500    87.1630     0.7610     1.6760   -24.1490    91.0350     4.6550     5.0840     6.0580     2.1280 
   87.3750    87.2860     0.7710     1.6900   -24.0020    89.1750     4.6640     5.0860     5.8910     2.1250 
   87.5000    87.4100     0.7810     1.7040   -23.8750    87.3320     4.7610     5.1910     5.9120     2.1260 
   87.6250    87.5340     0.7910     1.7190   -23.7300    86.3340     4.9400     5.4050     6.4160     2.1340 
   87.7500    87.6580     0.8020     1.7330   -23.5320    84.2760     5.0740     5.5500     6.7720     2.1590 
   87.8750    87.7810     0.8120     1.7480   -23.2410    82.8320     5.0410     5.5030     6.8220     2.2060 
   88.0000    87.9050     0.8220     1.7630   -22.8470    84.7220     4.8370     5.2450     6.6030     2.2450 
   88.1250    88.0290     0.8330     1.7770   -22.3470    89.7660     4.3880     4.6980     6.1110     2.2540 
   88.2500    88.1520     0.8430     1.7920   -21.7920    97.2280     3.9190     4.1350     5.4000     2.2420 
   88.3750    88.2760     0.8540     1.8070   -21.2460   106.0420     3.5820     3.7310     4.8220     2.2400 
   88.5000    88.4000     0.8640     1.8220   -20.7750   112.7860     3.4510     3.5740     4.8800     2.2720 
   88.6250    88.5230     0.8750     1.8380   -20.4280   114.5660     3.5530     3.6970     5.7300     2.3240 
   88.7500    88.6470     0.8850     1.8530   -20.2020   111.9830     3.7930     3.9810     6.5360     2.3510 
   88.8750    88.7710     0.8960     1.8680   -20.0860   107.6730     4.0900     4.3140     6.5600     2.3140 
   89.0000    88.8940     0.9070     1.8840   -20.0370   105.7440     4.3210     4.5590     6.1930     2.2440 
   89.1250    89.0180     0.9180     1.8990   -20.0290   108.0610     4.4350     4.6760     5.8000     2.1930 
   89.2500    89.1410     0.9290     1.9150   -20.0390   110.1880     4.4390     4.6850     5.8170     2.1760 
   89.3750    89.2650     0.9400     1.9310   -20.0560   109.4870     4.3620     4.6270     6.1670     2.1750 
   89.5000    89.3880     0.9500     1.9470   -20.0740   109.0110     4.2410     4.5230     6.0890     2.1790 
   89.6250    89.5120     0.9620     1.9630   -20.0970   110.2380     4.0370     4.2900     5.6490     2.1910 
   89.7500    89.6350     0.9730     1.9790   -20.1340   110.0740     3.8050     4.0070     5.2240     2.2060 
   89.8750    89.7590     0.9840     1.9950   -20.2120   108.3130     3.7630     3.9250     4.9360     2.2180 
   90.0000    89.8820     0.9950     2.0110   -20.3500   107.6740     4.0940     4.2660     4.9360     2.2420 
   90.1250    90.0060     1.0060     2.0270   -20.5820   104.9960     5.0680     5.3880     8.4000     2.3050 
   90.2500    90.1290     1.0180     2.0430   -20.9170    97.8000     6.9790     7.6430    19.2060     2.4090 
   90.3750    90.2520     1.0290     2.0590   -21.3680    88.7900    10.0510    11.2480    31.7940     2.5160 
   90.5000    90.3760     1.0400     2.0760   -21.9180    80.9330    12.7490    14.2590    37.3410     2.5640 
   90.6250    90.4990     1.0520     2.0920   -22.5430    74.2600    13.6980    15.1650    34.2910     2.5070 
   90.7500    90.6230     1.0630     2.1090   -23.2000    69.7840    12.7560    13.8610    23.9210     2.3760 
   90.8750    90.7460     1.0750     2.1250   -23.8410    70.6770    10.1600    10.7660    12.7440     2.2470 
   91.0000    90.8690     1.0860     2.1420   -24.4290    74.3850     7.9260     8.2930     8.2580     2.1650 
   91.1250    90.9930     1.0980     2.1590   -24.9290    75.6480     6.6220     6.9500     7.8920     2.1180 
   91.2500    91.1160     1.1090     2.1760   -25.3370    73.3140     5.9070     6.2920     7.6730     2.0780 
   91.3750    91.2390     1.1210     2.1930   -25.6520    71.2450     5.6430     6.1070     7.4700     2.0430 
   91.5000    91.3620     1.1320     2.2100   -25.9010    73.3310     5.5850     6.1040     7.3000     2.0260 
   91.6250    91.4860     1.1440     2.2270   -26.0950    77.7460     5.5700     6.1020     7.2300     2.0260 
   91.7500    91.6090     1.1560     2.2440   -26.2520    79.3200     5.5650     6.0860     7.2160     2.0320 
   91.8750    91.7320     1.1670     2.2620   -26.3700    78.3150     5.5810     6.0870     7.1760     2.0350 
   92.0000    91.8550     1.1790     2.2790   -26.4480    77.5250     5.6100     6.0920     6.9790     2.0350 
   92.1250    91.9790     1.1910     2.2970   -26.4840    77.4280     5.6470     6.1170     6.8200     2.0420 
   92.2500    92.1020     1.2020     2.3140   -26.4860    76.3250     5.6950     6.1540     6.8710     2.0540 
   92.3750    92.2250     1.2140     2.3320   -26.4660    75.0060     5.7470     6.1960     6.8210     2.0590 
   92.5000    92.3480     1.2260     2.3500   -26.4370    75.2070     5.8080     6.2580     6.7750     2.0550 
   92.6250    92.4710     1.2380     2.3680   -26.4030    77.0160     5.8560     6.3140     6.9560     2.0530 
   92.7500    92.5940     1.2490     2.3860   -26.3620    77.5730     5.9050     6.3820     7.1510     2.0540 
   92.8750    92.7180     1.2610     2.4040   -26.3140    76.5210     5.9520     6.4610     7.2720     2.0550 
   93.0000    92.8410     1.2730     2.4220   -26.2680    76.1140     6.0190     6.5540     7.3680     2.0530 
   93.1250    92.9640     1.2850     2.4400   -26.2390    77.0920     6.0950     6.6670     7.4410     2.0640 
   93.2500    93.0870     1.2970     2.4590   -26.2350    76.9880     6.1770     6.7770     7.7130     2.0950 
   93.3750    93.2100     1.3080     2.4770   -26.2570    75.8530     6.2610     6.8870     8.0120     2.1270 
   93.5000    93.3330     1.3200     2.4960   -26.2880    74.1310     6.3190     6.9700     7.7960     2.1360 
   93.6250    93.4560     1.3320     2.5140   -26.3030    71.0020     6.3260     6.9760     7.3370     2.1210 
   93.7500    93.5790     1.3440     2.5330   -26.2910    66.6510     6.2870     6.9370     7.1320     2.1010 
   93.8750    93.7020     1.3560     2.5520   -26.2500    63.3530     6.2240     6.8640     7.0590     2.0880 
   94.0000    93.8250     1.3680     2.5710   -26.1940    60.8150     6.1660     6.7960     7.1330     2.0800 
   94.1250    93.9480     1.3800     2.5900   -26.1380    58.7110     6.1380     6.7710     7.4110     2.0760 
   94.2500    94.0710     1.3920     2.6090   -26.0980    60.3720     6.1540     6.7960     7.5400     2.0750 
   94.3750    94.1940     1.4040     2.6280   -26.0870    65.0850     6.1630     6.8110     7.4310     2.0750 
   94.5000    94.3170     1.4160     2.6480   -26.1090    67.7170     6.1420     6.7970     7.2290     2.0870 
   94.6250    94.4400     1.4280     2.6670   -26.1650    65.4150     6.0860     6.7290     7.0580     2.0990 
