~V
VERS. 2.00: Ver 2.00
~W
STRT.M 10.0000:
STOP.M 230.0000:
STEP.M 0.1250:
NULL. -999.2500:
UWI. FD11119:
~C
DEPT.M :
TVD. :
DX. :
DY. :
SP.MV :
DEN.GM/CC :
GR.API :
RML.OHMM :
RI. :
RXO.OHMM :
CALI.CM :
~A
# ...
  100.7500   100.2680    -5.7130    -1.8290   -29.2980     2.0640    58.2860     8.3110     6.7710    10.1780    20.1080 
  100.8750   100.3900    -5.7400    -1.8380   -29.1620     2.0790    60.7530     8.1690     6.6850     9.8210    20.0770 
  101.0000   100.5120    -5.7660    -1.8470   -28.9770     2.1160    65.1080     8.0560     6.6340     9.8390    20.2170 
  101.1250   100.6340    -5.7930    -1.8560   -28.7600     2.1520    66.6200     7.9810     6.6260    10.0930    20.4300 
  101.2500   100.7560    -5.8190    -1.8650   -28.5400     2.1660    67.2680     7.9250     6.6230    10.3440    20.7330 
  101.3750   100.8770    -5.8480    -1.8750   -28.3480     2.1530    68.3040     7.8880     6.5950    10.4440    20.6870 
  101.5000   100.9970    -5.8780    -1.8860   -28.2010     2.1260    68.1290     7.8590     6.5250    10.3240    20.5070 
  101.6250   101.1180    -5.9090    -1.8980   -28.1420     2.1070    65.7200     7.8080     6.4150     9.7950    20.0980 
  101.7500   101.2390    -5.9390    -1.9090   -28.1030     2.1090    64.2550     7.7450     6.3100     9.2820    20.0210 
  101.8750   101.3590    -5.9700    -1.9200   -28.1340     2.1270    64.9410     7.7010     6.2440     9.0470    20.1930 
  102.0000   101.4800    -6.0010    -1.9320   -28.1760     2.1490    65.4330     7.7050     6.2450     9.1850    20.3950 
  102.1250   101.6010    -6.0310    -1.9430   -28.2540     2.1560    63.8610     7.7750     6.3280     9.5090    20.4250 
  102.2500   101.7210    -6.0620    -1.9550   -28.3160     2.1450    61.4440     7.8660     6.4490     9.8550    20.3960 
  102.3750   101.8420    -6.0920    -1.9660   -28.3740     2.1270    59.9640     7.9500     6.5680     9.9270    20.2550 
  102.5000   101.9630    -6.1230    -1.9780   -28.4010     2.1130    60.2330     8.0350     6.6550     9.6980    20.1540 
  102.6250   102.0830    -6.1530    -1.9890   -28.3420     2.1170    61.2890     8.1600     6.7150     9.4220    20.3230 
  102.7500   102.2040    -6.1840    -2.0000   -28.2640     2.1370    61.9670     8.3260     6.7900     9.4640    20.9010 
  102.8750   102.3250    -6.2140    -2.0120   -28.1540     2.1660    63.6400     8.5020     6.8940     9.5990    21.3930 
  103.0000   102.4450    -6.2450    -2.0230   -28.0770     2.1940    66.3180     8.6500     7.0140     9.7310    21.5150 
  103.1250   102.5660    -6.2750    -2.0350   -27.9960     2.2070    66.7440     8.7500     7.1240     9.8320    21.4420 
  103.2500   102.6870    -6.3060    -2.0460   -27.9730     2.2020    65.3670     8.8290     7.2110     9.8690    21.1470 
  103.3750   102.8070    -6.3360    -2.0570   -27.9730     2.1860    67.3880     8.9220     7.2950     9.8190    20.6650 
  103.5000   102.9280    -6.3670    -2.0690   -28.0220     2.1730    72.9900     9.0580     7.4020     9.5710    20.2100 
  103.6250   103.0490    -6.3970    -2.0800   -28.1620     2.1740    74.8140     9.2370     7.5440     9.3640    20.2380 
  103.7500   103.1700    -6.4280    -2.0920   -28.3690     2.1900    71.8640     9.4050     7.6680     9.2940    20.5870 
  103.8750   103.2900    -6.4580    -2.1030   -28.6220     2.2130    68.2410     9.4830     7.7110     9.2740    21.0560 
  104.0000   103.4110    -6.4890    -2.1150   -28.8510     2.2300    65.0820     9.3810     7.6280     9.3700    21.2690 
  104.1250   103.5320    -6.5200    -2.1260   -29.0430     2.2260    61.7570     9.0480     7.4280     9.6180    21.2510 
  104.2500   103.6520    -6.5500    -2.1370   -29.1920     2.2040    59.8450     8.6250     7.2010     9.6460    21.0230 
  104.3750   103.7730    -6.5810    -2.1490   -29.2960     2.1770    60.8420     8.2740     7.0180     9.3020    20.5700 
  104.5000   103.8940    -6.6110    -2.1600   -29.3570     2.1590    63.6530     8.1240     6.9250     8.7930    20.4490 
  104.6250   104.0140    -6.6420    -2.1720   -29.3930     2.1650    65.2940     8.2190     6.9340     8.5620    20.7280 
  104.7500   104.1350    -6.6720    -2.1830   -29.3690     2.1890    64.2410     8.4070     6.9880     8.9360    20.9360 
  104.8750   104.2560    -6.7030    -2.1940   -29.3030     2.2150    62.2520     8.5510     7.0360     9.7960    20.9710 
  105.0000   104.3760    -6.7330    -2.2060   -29.2160     2.2230    62.6020     8.5610     7.0370    10.5040    20.9670 
  105.1250   104.4970    -6.7640    -2.2170   -29.1530     2.2010    66.8950     8.4130     6.9660    10.1440    20.8690 
  105.2500   104.6180    -6.7940    -2.2290   -29.0810     2.1640    71.5690     8.2040     6.8620     9.4760    20.4950 
  105.3750   104.7380    -6.8250    -2.2400   -29.0550     2.1330    73.3560     8.0200     6.7640     8.8590    20.0920 
  105.5000   104.8590    -6.8550    -2.2510   -29.0500     2.1220    72.5640     7.9190     6.7060     8.5820    20.0280 
  105.6250   104.9800    -6.8860    -2.2630   -29.0790     2.1370    73.3450     7.9480     6.7050     8.6510    20.3210 
  105.7500   105.1000    -6.9160    -2.2740   -29.1660     2.1600    74.6980     8.0680     6.7410     8.8630    20.7760 
  105.8750   105.2210    -6.9470    -2.2860   -29.3080     2.1770    74.8190     8.2050     6.7900     9.0870    20.9970 
  106.0000   105.3420    -6.9770    -2.2970   -29.5070     2.1780    74.2650     8.2630     6.8250     9.2290    20.9450 
  106.1250   105.4620    -7.0080    -2.3090   -29.7390     2.1620    73.8950     8.1510     6.8070     9.1890    20.5790 
  106.2500   105.5830    -7.0390    -2.3200   -29.9950     2.1430    72.0480     7.9160     6.7310     8.9330    20.1700 
  106.3750   105.7040    -7.0690    -2.3310   -30.2100     2.1320    69.1590     7.6650     6.6040     8.5710    20.0770 
  106.5000   105.8240    -7.1000    -2.3430   -30.3920     2.1330    66.8730     7.4980     6.4530     8.4210    20.1830 
  106.6250   105.9450    -7.1300    -2.3540   -30.4590     2.1450    64.5120     7.4730     6.3060     8.5900    20.3860 
  106.7500   106.0660    -7.1610    -2.3660   -30.4130     2.1580    62.1470     7.5080     6.1680     8.9070    20.4190 
  106.8750   106.1860    -7.1910    -2.3770   -30.2430     2.1630    61.6460     7.5100     6.0390     9.0930    20.4110 
  107.0000   106.3070    -7.2220    -2.3880   -29.9880     2.1570    62.9060     7.4110     5.9100     8.9500    20.3470 
  107.1250   106.4280    -7.2520    -2.4000   -29.6620     2.1430    65.5270     7.1810     5.7770     8.4300    19.9650 
  107.2500   106.5480    -7.2830    -2.4110   -29.3140     2.1350    67.3440     6.9220     5.6650     8.1940    19.6800 
  107.3750   106.6690    -7.3130    -2.4230   -28.9840     2.1380    67.8780     6.7500     5.6090     8.2080    19.6500 
  107.5000   106.7900    -7.3440    -2.4340   -28.6880     2.1550    68.4800     6.7620     5.6440     8.0060    19.9660 
  107.6250   106.9100    -7.3740    -2.4460   -28.4360     2.1760    70.0550     7.0300     5.8130     7.8000    20.3080 
  107.7500   107.0310    -7.4050    -2.4570   -28.1990     2.1870    69.4460     7.4360     6.0700     8.1400    20.4020 
  107.8750   107.1520    -7.4350    -2.4680   -27.9990     2.1820    65.8370     7.8130     6.3520     8.7520    20.3910 
  108.0000   107.2720    -7.4660    -2.4800   -27.7840     2.1640    61.5330     8.0020     6.5750     8.9880    20.2840 
  108.1250   107.3930    -7.4960    -2.4910   -27.5610     2.1450    60.6880     7.9390     6.6690     8.6660    20.2700 
  108.2500   107.5140    -7.5270    -2.5030   -27.2710     2.1340    62.9210     7.7850     6.6780     8.3030    20.2890 
  108.3750   107.6340    -7.5580    -2.5140   -26.8980     2.1350    65.2650     7.6650     6.6500     8.0830    20.3430 
  108.5000   107.7550    -7.5880    -2.5250   -26.3790     2.1440    65.5090     7.6340     6.6200     8.1250    20.4300 
  108.6250   107.8760    -7.6190    -2.5370   -25.7380     2.1560    64.2400     7.6570     6.5780     8.2280    20.5380 
  108.7500   107.9960    -7.6490    -2.5480   -25.0300     2.1660    65.6430     7.6400     6.4860     8.2300    20.6480 
  108.8750   108.1170    -7.6800    -2.5600   -24.2760     2.1770    70.7930     7.5250     6.3150     8.0420    20.6650 
