~V
VERS. 2.00: Ver 2.00
~W
STRT.M 15.0000:
STOP.M 219.0000:
STEP.M 0.1250:
NULL. -999.2500:
UWI. FD11101:
~C
DEPT.M :
TVD. :
DX. :
DY. :
GR.API :
RML.OHMM :
RI. :
RXO.OHMM :
CALI.CM :
SP.MV :
DEN.GM/CC :
~A
# ...
   64.5000    64.3920     0.8390     1.8830    88.5770     8.1670     6.3330     8.4130    22.5670   -17.3110     2.0930 
   64.6250    64.5150     0.8430     1.9000    89.4230     7.9350     6.2810     8.1220    22.5220   -17.6690     2.1170 
   64.7500    64.6390     0.8480     1.9170    86.5600     7.6200     6.1430     8.1870    22.5170   -18.0860     2.1470 
   64.8750    64.7630     0.8520     1.9340    81.4710     7.2990     5.9590     8.2420    22.5230   -18.5300     2.1720 
   65.0000    64.8870     0.8560     1.9510    78.5970     7.0250     5.7710     8.3170    22.5320   -18.9530     2.1860 
   65.1250    65.0110     0.8600     1.9680    80.3640     6.8370     5.6140     8.2660    22.5690   -19.3480     2.1890 
   65.2500    65.1340     0.8650     1.9850    83.9020     6.7270     5.4990     8.0430    22.6580   -19.6950     2.1870 
   65.3750    65.2580     0.8690     2.0020    84.4290     6.6870     5.4290     7.7730    22.8810   -19.9870     2.1850 
   65.5000    65.3820     0.8730     2.0190    80.1340     6.7010     5.4020     7.7160    23.2100   -20.2660     2.1810 
   65.6250    65.5060     0.8770     2.0360    75.4280     6.7460     5.4120     7.3740    23.5110   -20.5210     2.1730 
   65.7500    65.6290     0.8810     2.0530    75.2470     6.7870     5.4410     7.0270    23.6500   -20.7640     2.1650 
   65.8750    65.7530     0.8860     2.0700    78.5520     6.8010     5.4720     7.0720    23.6900   -20.9840     2.1590 
   66.0000    65.8770     0.8900     2.0870    80.8760     6.7670     5.4900     7.3840    23.6970   -21.1700     2.1630 
   66.1250    66.0010     0.8940     2.1040    80.8400     6.6570     5.4690     7.4670    23.7740   -21.2740     2.1750 
   66.2500    66.1240     0.8980     2.1200    81.4270     6.4780     5.4020     7.3570    23.8850   -21.2950     2.1850 
   66.3750    66.2480     0.9030     2.1370    81.8190     6.2520     5.2930     7.1530    24.0640   -21.2620     2.1780 
   66.5000    66.3720     0.9070     2.1540    80.4070     6.0270     5.1640     6.9020    24.2310   -21.1770     2.1480 
   66.6250    66.4960     0.9110     2.1710    78.9820     5.8860     5.0610     6.6330    24.3640   -21.0900     2.0980 
   66.7500    66.6190     0.9150     2.1880    79.3920     5.8660     5.0200     6.4900    24.2970   -21.0550     2.0550 
   66.8750    66.7430     0.9200     2.2050    80.4890     5.9640     5.0550     6.5070    24.0660   -21.0750     2.0360 
   67.0000    66.8670     0.9240     2.2220    80.5290     6.1270     5.1500     6.5750    23.8970   -21.1280     2.0470 
   67.1250    66.9910     0.9280     2.2390    79.9990     6.2590     5.2610     6.5080    23.8570   -21.2050     2.0770 
   67.2500    67.1150     0.9320     2.2560    80.8040     6.2870     5.3330     6.4240    23.8040   -21.2870     2.0990 
   67.3750    67.2380     0.9370     2.2730    81.2620     6.1960     5.3390     6.2400    23.5940   -21.3330     2.1050 
   67.5000    67.3620     0.9410     2.2900    79.8730     6.0220     5.2850     6.0580    23.2130   -21.3490     2.1000 
   67.6250    67.4860     0.9450     2.3070    77.2130     5.8490     5.2080     6.2710    22.9030   -21.3500     2.0970 
   67.7500    67.6100     0.9490     2.3240    77.0620     5.7580     5.1600     6.6890    22.7360   -21.3280     2.1060 
   67.8750    67.7330     0.9530     2.3410    78.7450     5.7830     5.1720     7.0970    22.7060   -21.2450     2.1250 
   68.0000    67.8570     0.9580     2.3570    79.5620     5.9090     5.2480     7.3710    22.7690   -21.0380     2.1470 
   68.1250    67.9810     0.9620     2.3740    80.1760     6.0660     5.3630     7.5610    22.8520   -20.6320     2.1630 
   68.2500    68.1050     0.9660     2.3910    79.8290     6.1480     5.4520     7.7150    22.9300   -20.0460     2.1680 
   68.3750    68.2280     0.9700     2.4080    79.0000     6.0880     5.4620     7.8030    23.0590   -19.2590     2.1610 
   68.5000    68.3520     0.9750     2.4250    79.6830     5.8670     5.3640     7.8110    23.2240   -18.2490     2.1460 
   68.6250    68.4760     0.9790     2.4420    84.5030     5.5130     5.1550     7.2080    23.3490   -17.0240     2.1320 
   68.7500    68.6000     0.9830     2.4590    92.5010     5.1260     4.8980     6.0530    23.3050   -15.7320     2.1310 
   68.8750    68.7240     0.9870     2.4760   100.1930     4.7650     4.6450     5.1570    23.2490   -14.4940     2.1500 
   69.0000    68.8470     0.9920     2.4930   106.4070     4.4940     4.4430     5.0840    23.3050   -13.4220     2.1860 
   69.1250    68.9710     0.9960     2.5100   108.7330     4.5350     4.3590     4.9320    23.4480   -12.6030     2.2230 
   69.2500    69.0950     1.0000     2.5270   106.3800     4.9580     4.4370     4.9710    23.6390   -12.0180     2.2400 
   69.3750    69.2190     1.0040     2.5440   100.8890     5.6820     4.7190     5.0300    23.7850   -11.6720     2.2290 
   69.5000    69.3420     1.0090     2.5610    94.5010     6.5220     5.2040     5.2250    23.6930   -11.5300     2.2020 
   69.6250    69.4650     1.0140     2.5810    91.4130     7.2390     5.7880     6.1990    23.1410   -11.5120     2.1990 
   69.7500    69.5880     1.0200     2.6030    93.7750     7.6040     6.2320     8.0370    22.7210   -11.4640     2.2440 
   69.8750    69.7110     1.0260     2.6260   101.2860     7.3930     6.3300    10.0420    22.6100   -11.2780     2.3320 
   70.0000    69.8340     1.0310     2.6480   109.9520     6.6120     6.0030     8.1040    22.7910   -10.8960     2.4230 
   70.1250    69.9570     1.0370     2.6700   115.7170     5.6310     5.3410     5.5590    23.1490   -10.3790     2.4530 
   70.2500    70.0800     1.0430     2.6920   118.1100     4.9000     4.6560     4.0590    23.4550    -9.8680     2.4050 
   70.3750    70.2030     1.0490     2.7140   117.4610     4.5410     4.1460     3.7090    23.5260    -9.4490     2.3010 
   70.5000    70.3260     1.0550     2.7360   115.6970     4.4960     3.9030     3.7520    23.4250    -9.1880     2.1830 
   70.6250    70.4490     1.0600     2.7580   114.6230     4.7030     3.9550     3.9710    23.2190    -9.1530     2.1040 
   70.7500    70.5710     1.0660     2.7800   112.8940     5.0050     4.1620     4.5780    23.0000    -9.2800     2.0810 
   70.8750    70.6940     1.0720     2.8020   108.8720     5.2430     4.4060     5.6590    22.7480    -9.5530     2.1090 
   71.0000    70.8170     1.0780     2.8240   106.3580     5.3250     4.5940     6.8260    22.5390    -9.9940     2.1680 
   71.1250    70.9400     1.0830     2.8460   109.1620     5.2790     4.6860     5.2390    22.5060   -10.5820     2.2340 
   71.2500    71.0630     1.0890     2.8680   111.3480     5.2600     4.7500     4.4780    22.5780   -11.2240     2.2860 
   71.3750    71.1860     1.0950     2.8900   107.5420     5.3640     4.8560     4.1840    22.6880   -11.8620     2.3120 
   71.5000    71.3090     1.1010     2.9120    97.8460     5.5990     5.0350     4.3980    22.8430   -12.3810     2.3090 
   71.6250    71.4320     1.1070     2.9350    88.7690     5.8500     5.2390     5.2950    23.0470   -12.6710     2.2720 
   71.7500    71.5550     1.1120     2.9570    83.3790     5.9370     5.3490     6.2040    23.1920   -12.7480     2.2210 
   71.8750    71.6770     1.1180     2.9790    83.8930     5.7600     5.2770     6.2670    23.0680   -12.6360     2.1770 
   72.0000    71.8000     1.1240     3.0010    90.6690     5.3570     5.0210     5.6660    22.8330   -12.4370     2.1620 
   72.1250    71.9230     1.1300     3.0230   102.8530     4.9880     4.7200     4.7030    22.7680   -12.2400     2.1880 
   72.2500    72.0460     1.1360     3.0450   113.2330     5.0030     4.6140     4.1000    22.8440   -12.0680     2.2310 
   72.3750    72.1690     1.1410     3.0670   116.0950     5.6780     4.8960     3.9890    22.9800   -11.9500     2.2720 
   72.5000    72.2920     1.1470     3.0890   108.7910     7.2710     5.6950     4.4450    23.1850   -11.9980     2.3060 
   72.6250    72.4150     1.1530     3.1110    95.0530     9.8410     7.0730     7.1050    23.3010   -12.3440     2.3340 
