~V
VERS. 2.00: Ver 2.00
~W
STRT.M 35.0000:
STOP.M 279.0000:
STEP.M 0.1250:
NULL. -999.2500:
UWI. FD11183:
~C
DEPT.M :
TVD. :
DX. :
DY. :
SP.MV :
GR.API :
RI. :
RML.OHMM :
RXO.OHMM :
DEN.GM/CC :
~A
# ...
  181.0000   174.7660   -34.3580     6.9080  -119.7480    59.3200    54.8290    57.9660    53.7660     2.1600 
  181.1250   174.8800   -34.4080     6.9130  -119.9420    59.4490    52.5580    55.0530    51.9940     2.1680 
  181.2500   174.9940   -34.4580     6.9180  -120.0160    61.7040    48.7850    50.7460    49.1710     2.1880 
  181.3750   175.1090   -34.5080     6.9230  -119.9570    67.0330    44.2780    45.8980    47.7390     2.2130 
  181.5000   175.2230   -34.5580     6.9280  -119.9350    72.1500    40.1980    41.4590    45.6640     2.2330 
  181.6250   175.3380   -34.6080     6.9340  -120.0470    72.3220    36.9320    38.0510    41.1170     2.2400 
  181.7500   175.4520   -34.6590     6.9390  -120.2540    70.6550    34.2800    34.8860    36.6440     2.2410 
  181.8750   175.5660   -34.7090     6.9440  -120.5700    70.9170    32.3890    32.8990    34.1380     2.2460 
  182.0000   175.6810   -34.7590     6.9500  -120.8890    72.4650    31.2440    31.7700    32.5950     2.2570 
  182.1250   175.7950   -34.8090     6.9550  -121.0930    73.2230    30.9910    31.5860    32.2820     2.2620 
  182.2500   175.9090   -34.8590     6.9610  -121.1570    72.2030    31.4340    32.0490    32.2820     2.2530 
  182.3750   176.0240   -34.9100     6.9660  -121.1660    68.6680    32.2550    32.9010    32.2820     2.2350 
  182.5000   176.1380   -34.9600     6.9710  -121.2800    65.0700    33.2790    34.0130    32.6670     2.2280 
  182.6250   176.2520   -35.0100     6.9770  -121.5460    64.5210    34.3530    35.2360    34.9510     2.2340 
  182.7500   176.3670   -35.0600     6.9820  -121.8530    64.2860    35.7460    36.9090    36.4620     2.2370 
  182.8750   176.4810   -35.1110     6.9880  -122.1020    61.4610    38.3000    39.9870    36.9190     2.2320 
  183.0000   176.5950   -35.1610     6.9930  -122.2940    57.8860    41.5970    43.9230    38.5740     2.2240 
  183.1250   176.7100   -35.2110     6.9980  -122.4350    56.4150    46.0580    49.2700    42.0120     2.2100 
  183.2500   176.8240   -35.2620     7.0040  -122.5250    57.0110    50.8380    55.0780    45.8140     2.1860 
  183.3750   176.9380   -35.3120     7.0090  -122.4930    57.4320    55.9770    61.3390    51.9890     2.1610 
  183.5000   177.0520   -35.3630     7.0140  -122.3590    57.1370    61.5020    68.0940    58.4130     2.1470 
  183.6250   177.1670   -35.4130     7.0200  -122.2600    58.6850    67.0940    74.9310    69.1110     2.1430 
  183.7500   177.2810   -35.4630     7.0250  -122.2410    61.6240    72.3830    81.1830    81.5950     2.1420 
  183.8750   177.3950   -35.5140     7.0310  -122.1890    62.1210    76.8010    86.1690    87.6400     2.1400 
  184.0000   177.5090   -35.5640     7.0360  -122.0240    59.6030    79.9780    89.3200    97.2530     2.1400 
  184.1250   177.6240   -35.6150     7.0410  -121.8920    58.5590    80.2420    88.6060   103.4710     2.1470 
  184.2500   177.7380   -35.6650     7.0470  -121.7970    61.1640    77.3280    84.0810    94.2490     2.1590 
  184.3750   177.8520   -35.7150     7.0520  -121.6620    65.3600    70.8040    75.4400    78.9470     2.1690 
  184.5000   177.9660   -35.7660     7.0570  -121.5850    69.0080    61.7810    64.3970    60.2040     2.1790 
  184.6250   178.0810   -35.8160     7.0620  -121.4370    70.4550    53.0150    54.3170    46.7480     2.1920 
  184.7500   178.1950   -35.8670     7.0670  -121.2320    70.2170    45.6190    46.2430    40.8710     2.2070 
  184.8750   178.3090   -35.9170     7.0720  -121.1390    69.4890    40.5230    41.0460    38.4030     2.2160 
  185.0000   178.4240   -35.9670     7.0780  -121.0530    68.4000    37.6940    38.3110    38.5540     2.2170 
  185.1250   178.5380   -36.0180     7.0830  -121.0330    65.6820    36.2710    37.0000    39.4890     2.2150 
  185.2500   178.6520   -36.0680     7.0890  -121.0430    64.1650    36.1190    36.9950    39.7960     2.2130 
  185.3750   178.7660   -36.1180     7.0940  -121.0870    66.8680    37.2200    38.4400    39.5500     2.2140 
  185.5000   178.8810   -36.1690     7.1000  -121.1580    68.9680    39.1330    40.9030    39.0290     2.2120 
  185.6250   178.9950   -36.2190     7.1050  -121.3130    67.2400    42.3330    44.8480    39.8360     2.2060 
  185.7500   179.1090   -36.2690     7.1100  -121.5490    63.9010    47.4290    50.7450    43.8460     2.1980 
  185.8750   179.2240   -36.3200     7.1150  -121.7780    61.7090    53.9480    58.0400    46.4820     2.1930 
  186.0000   179.3380   -36.3700     7.1210  -121.9360    60.1060    61.2610    66.4160    49.8250     2.1880 
  186.1250   179.4520   -36.4210     7.1260  -122.1100    58.1900    68.5130    75.4530    54.0900     2.1770 
  186.2500   179.5660   -36.4710     7.1310  -122.3430    56.7750    74.6800    83.5640    63.3640     2.1640 
  186.3750   179.6810   -36.5210     7.1360  -122.5210    56.8200    77.8510    88.0620    80.3300     2.1610 
  186.5000   179.7950   -36.5720     7.1420  -122.5540    58.6960    77.5680    87.9600    76.3050     2.1670 
  186.6250   179.9090   -36.6220     7.1470  -122.4660    60.5790    72.3280    81.1970    68.3050     2.1680 
  186.7500   180.0230   -36.6730     7.1520  -122.3710    59.1060    64.7130    71.6650    62.9240     2.1610 
  186.8750   180.1380   -36.7230     7.1580  -122.2570    55.5650    57.0710    62.2760    60.0790     2.1600 
  187.0000   180.2520   -36.7740     7.1630  -122.1510    55.2250    50.1590    54.1990    56.7720     2.1730 
  187.1250   180.3660   -36.8240     7.1680  -122.0140    59.6030    44.9730    48.6010    50.4490     2.1880 
  187.2500   180.4800   -36.8750     7.1740  -121.8290    63.7340    41.0730    44.5390    45.1110     2.1970 
  187.3750   180.5950   -36.9250     7.1790  -121.6870    64.5510    38.5520    42.0040    41.4220     2.2090 
  187.5000   180.7090   -36.9750     7.1840  -121.5380    64.3880    37.3840    40.8220    40.0570     2.2240 
  187.6250   180.8230   -37.0260     7.1900  -121.3110    65.9170    37.2600    40.6190    41.2150     2.2270 
  187.7500   180.9370   -37.0770     7.1950  -121.0330    66.7270    37.5240    40.8220    43.9470     2.2100 
  187.8750   181.0510   -37.1270     7.2000  -120.8080    64.4090    37.9340    41.2510    47.2890     2.1850 
  188.0000   181.1660   -37.1780     7.2050  -120.6130    60.7190    38.2000    41.5910    48.5710     2.1730 
  188.1250   181.2800   -37.2280     7.2100  -120.4490    60.3640    38.3170    41.8980    45.3440     2.1810 
  188.2500   181.3940   -37.2790     7.2160  -120.2400    62.6530    38.4980    42.3530    40.9310     2.1950 
  188.3750   181.5080   -37.3300     7.2210  -119.9010    63.9770    39.2150    43.5340    39.8060     2.2020 
  188.5000   181.6220   -37.3800     7.2260  -119.4340    63.0990    40.3780    45.3260    41.6870     2.2030 
  188.6250   181.7360   -37.4310     7.2310  -118.9950    61.4150    41.7240    47.4280    45.3450     2.1970 
  188.7500   181.8510   -37.4820     7.2360  -118.5520    59.7250    43.2810    49.9390    49.7710     2.1810 
  188.8750   181.9650   -37.5320     7.2420  -118.1100    57.5780    44.9240    52.6140    52.8720     2.1590 
  189.0000   182.0790   -37.5830     7.2470  -117.6880    56.2590    47.0540    55.8950    53.6220     2.1480 
  189.1250   182.1930   -37.6340     7.2530  -117.3270    56.0580    50.2650    60.4190    52.0510     2.1670 
  189.2500   182.3070   -37.6850     7.2580  -116.9730    56.8760    55.2640    67.0120    53.7370     2.2060 
  189.3750   182.4210   -37.7350     7.2630  -116.6210    58.4400    61.9450    75.2750    59.3060     2.2330 
  189.5000   182.5350   -37.7860     7.2690  -116.1930    59.7650    67.7460    81.8260    67.3480     2.2260 
  189.6250   182.6490   -37.8370     7.2740  -115.5950    60.2450    69.8690    83.3700    72.7150     2.1990 
  189.7500   182.7630   -37.8880     7.2800  -114.8610    58.7740    68.2170    80.3200    74.6130     2.1830 
  189.8750   182.8770   -37.9390     7.2850  -114.1240    57.4790    64.0950    74.7030    73.4030     2.1870 
  190.0000   182.9910   -37.9900     7.2910  -113.4610    58.7150    60.1690    69.9420    71.2600     2.1950 
