~V
VERS. 2.00: Ver 2.00
~W
STRT.M 44.0000:
STOP.M 275.0000:
STEP.M 0.1250:
NULL. -999.2500:
UWI. FD11190:
~C
DEPT.M :
TVD. :
DX. :
DY. :
SP.MV :
GR.API :
RI. :
RML.OHMM :
RXO.OHMM :
DEN.GM/CC :
~A
# ...
  162.6250   157.6230   -25.4410   -14.0980   -10.6560    74.0050     4.2930     5.3900     6.1720     2.3600 
  162.7500   157.7370   -25.4850   -14.1240   -10.5790    72.0370     4.5470     5.5830     6.4660     2.3040 
  162.8750   157.8520   -25.5280   -14.1490   -10.5910    68.2590     4.6260     5.5030     6.8690     2.2710 
  163.0000   157.9660   -25.5720   -14.1750   -10.6070    66.1700     4.4710     5.1390     6.4260     2.2760 
  163.1250   158.0800   -25.6150   -14.2010   -10.6700    65.2800     4.0740     4.5670     5.2500     2.3120 
  163.2500   158.1950   -25.6590   -14.2270   -10.6970    65.7490     3.5750     3.9650     4.3030     2.3530 
  163.3750   158.3090   -25.7020   -14.2520   -10.5840    68.2790     3.1200     3.4750     3.7050     2.3800 
  163.5000   158.4230   -25.7460   -14.2780   -10.4330    72.2130     2.7750     3.1410     3.2350     2.3870 
  163.6250   158.5380   -25.7890   -14.3040   -10.2390    77.0240     2.5790     2.9350     3.0250     2.3750 
  163.7500   158.6520   -25.8330   -14.3300   -10.0510    82.5940     2.4370     2.7770     3.0710     2.3540 
  163.8750   158.7660   -25.8760   -14.3560   -10.0220    90.2970     2.3010     2.6320     3.1420     2.3420 
  164.0000   158.8810   -25.9200   -14.3820   -10.1100    96.8610     2.1800     2.5070     3.0020     2.3460 
  164.1250   158.9950   -25.9630   -14.4070   -10.2700   100.2640     2.0960     2.4440     2.7010     2.3580 
  164.2500   159.1090   -26.0060   -14.4330   -10.4540   101.0490     2.0750     2.4660     2.5710     2.3640 
  164.3750   159.2240   -26.0500   -14.4590   -10.6400    99.9930     2.1550     2.5770     2.8040     2.3590 
  164.5000   159.3380   -26.0930   -14.4850   -10.8660    98.8460     2.2840     2.7590     3.2450     2.3490 
  164.6250   159.4520   -26.1370   -14.5100   -11.1260    99.1910     2.4750     2.9900     3.6620     2.3420 
  164.7500   159.5670   -26.1800   -14.5360   -11.4840   102.0600     2.7030     3.2550     3.9640     2.3390 
  164.8750   159.6810   -26.2240   -14.5610   -11.9100   101.9050     2.9620     3.5500     4.2550     2.3330 
  165.0000   159.7950   -26.2670   -14.5870   -12.3670    96.4210     3.2740     3.9180     4.8230     2.3190 
  165.1250   159.9100   -26.3110   -14.6120   -12.9480    88.8990     3.6760     4.4180     5.5970     2.3070 
  165.2500   160.0240   -26.3550   -14.6370   -13.7180    83.6120     4.2430     5.0700     6.1570     2.3020 
  165.3750   160.1390   -26.3980   -14.6630   -14.6540    80.5460     4.8770     5.8830     6.7810     2.2970 
  165.5000   160.2530   -26.4420   -14.6880   -15.6490    78.6880     5.6090     6.8310     7.7870     2.2810 
  165.6250   160.3670   -26.4860   -14.7130   -16.4820    78.0960     6.4480     7.8680     8.8400     2.2550 
  165.7500   160.4820   -26.5290   -14.7380   -17.0980    76.6450     7.3730     8.8250    10.2940     2.2290 
  165.8750   160.5960   -26.5730   -14.7630   -17.6440    72.1340     8.1470     9.5380    13.4370     2.2100 
  166.0000   160.7110   -26.6160   -14.7880   -18.0790    65.8900     8.6690     9.9620    15.5390     2.2040 
  166.1250   160.8250   -26.6600   -14.8130   -18.2190    63.3760     8.9370    10.2060    15.2360     2.2140 
  166.2500   160.9390   -26.7040   -14.8380   -18.2060    66.0000     9.1110    10.4910    13.9000     2.2280 
  166.3750   161.0540   -26.7470   -14.8630   -18.1300    69.9040     9.4340    11.0280    14.2350     2.2290 
  166.5000   161.1680   -26.7910   -14.8890   -18.0340    71.0890    10.0060    11.8440    16.1190     2.2170 
  166.6250   161.2830   -26.8350   -14.9140   -17.9700    69.5970    10.8770    12.8010    17.4580     2.2060 
  166.7500   161.3970   -26.8780   -14.9380   -17.9370    66.3420    11.7770    13.6070    18.0410     2.2010 
  166.8750   161.5120   -26.9220   -14.9630   -17.9970    63.2830    12.4420    13.9850    17.9650     2.2000 
  167.0000   161.6260   -26.9660   -14.9880   -18.1010    63.7610    12.6790    13.9320    17.0780     2.2010 
  167.1250   161.7410   -27.0100   -15.0130   -18.2360    68.0380    12.5130    13.6290    16.0090     2.2070 
  167.2500   161.8550   -27.0530   -15.0370   -18.3870    71.1800    12.2760    13.3290    15.3010     2.2120 
  167.3750   161.9700   -27.0970   -15.0620   -18.4490    70.2040    12.1100    13.1540    15.0120     2.2100 
  167.5000   162.0840   -27.1410   -15.0860   -18.4230    67.5970    12.0520    13.0870    15.3490     2.2040 
  167.6250   162.1990   -27.1850   -15.1100   -18.3320    65.7870    12.0860    13.0820    16.1320     2.2020 
  167.7500   162.3130   -27.2290   -15.1350   -18.2640    65.3760    12.1540    13.0830    16.3840     2.2040 
  167.8750   162.4280   -27.2730   -15.1590   -18.2110    68.0040    12.2080    13.1020    15.6490     2.2090 
  168.0000   162.5420   -27.3160   -15.1830   -18.1510    70.9480    12.3010    13.1920    14.5870     2.2120 
  168.1250   162.6570   -27.3600   -15.2080   -18.0950    71.8640    12.5170    13.4260    14.0930     2.2110 
  168.2500   162.7710   -27.4040   -15.2320   -18.0700    69.9830    12.8460    13.8510    14.4620     2.2040 
  168.3750   162.8860   -27.4470   -15.2570   -18.0630    67.4710    13.3870    14.5180    15.4080     2.1890 
  168.5000   163.0000   -27.4910   -15.2820   -18.0890    66.7420    14.1510    15.3750    16.5770     2.1740 
  168.6250   163.1150   -27.5350   -15.3060   -18.0880    67.3470    15.0170    16.2690    17.6300     2.1650 
  168.7500   163.2290   -27.5780   -15.3310   -18.0120    69.0610    15.8060    16.9730    17.6910     2.1650 
  168.8750   163.3440   -27.6220   -15.3550   -17.8620    69.2820    16.2320    17.2850    16.6260     2.1710 
  169.0000   163.4580   -27.6660   -15.3790   -17.6440    68.2980    16.2500    17.2240    15.5380     2.1770 
  169.1250   163.5730   -27.7100   -15.4040   -17.3610    67.4700    15.9730    16.9380    14.8570     2.1840 
  169.2500   163.6870   -27.7530   -15.4280   -17.0720    66.8110    15.6570    16.6690    14.7990     2.1870 
  169.3750   163.8020   -27.7970   -15.4520   -16.7710    67.4530    15.4870    16.6080    15.4400     2.1840 
  169.5000   163.9160   -27.8410   -15.4770   -16.4430    68.3340    15.5930    16.7860    16.1260     2.1800 
  169.6250   164.0310   -27.8850   -15.5010   -16.1850    65.7680    15.9390    17.1350    16.4920     2.1790 
  169.7500   164.1450   -27.9280   -15.5250   -16.1320    60.6130    16.3530    17.4640    16.1180     2.1860 
  169.8750   164.2600   -27.9720   -15.5490   -16.1900    58.0630    16.6670    17.6010    14.5740     2.1970 
  170.0000   164.3750   -28.0160   -15.5740   -16.2720    59.4910    16.7340    17.4980    12.9590     2.2050 
  170.1250   164.4890   -28.0600   -15.5980   -16.3540    62.4250    16.5690    17.2230    13.0310     2.2080 
  170.2500   164.6040   -28.1040   -15.6220   -16.3580    64.6120    16.3170    16.9690    14.5980     2.2030 
  170.3750   164.7180   -28.1480   -15.6460   -16.3540    66.1040    16.1740    16.9190    16.1150     2.1930 
  170.5000   164.8330   -28.1920   -15.6700   -16.3830    67.8980    16.2630    17.1500    17.0580     2.1840 
  170.6250   164.9470   -28.2350   -15.6950   -16.3860    69.8920    16.6580    17.6530    17.7590     2.1790 
  170.7500   165.0620   -28.2790   -15.7190   -16.4050    71.1360    17.2560    18.3390    18.1060     2.1770 
  170.8750   165.1760   -28.3230   -15.7430   -16.4120    68.1670    17.9930    19.1610    17.8570     2.1780 
  171.0000   165.2910   -28.3670   -15.7670   -16.4400    64.7100    18.8550    20.1080    17.5410     2.1790 
  171.1250   165.4050   -28.4110   -15.7910   -16.4630    66.8170    19.8320    21.2620    16.4370     2.1770 
  171.2500   165.5200   -28.4550   -15.8150   -16.4450    70.3270    21.0170    22.6660    18.0330     2.1710 
  171.3750   165.6340   -28.5000   -15.8390   -16.3880    68.7930    22.5000    24.2600    23.3710     2.1650 
  171.5000   165.7490   -28.5440   -15.8630   -16.3000    63.9840    24.0770    25.7360    23.8000     2.1610 
  171.6250   165.8630   -28.5880   -15.8870   -16.1810    60.1430    25.2970    26.6630    23.2850     2.1640 
