~V
VERS. 2.00: Ver 2.00
~W
STRT.M 30.0000:
STOP.M 284.0000:
STEP.M 0.1250:
NULL. -999.2500:
UWI. FD11172:
~C
DEPT.M :
TVD. :
DX. :
DY. :
SP.MV :
GR.API :
RI. :
RML.OHMM :
RXO.OHMM :
DEN.GM/CC :
~A
# ...
  130.3750   127.5820    19.9130     5.4120   -13.4290    72.4950     5.3040     6.4270     6.2980     2.1450 
  130.5000   127.6960    19.9620     5.4260   -13.4280    71.1210     5.4420     6.5640     6.5140     2.1630 
  130.6250   127.8100    20.0110     5.4400   -13.1200    71.5570     5.2810     6.3190     6.6370     2.1780 
  130.7500   127.9240    20.0600     5.4530   -12.6250    70.7690     4.7790     5.6670     6.6320     2.1770 
  130.8750   128.0380    20.1100     5.4670   -12.0160    69.9220     4.2090     4.9630     6.0810     2.1710 
  131.0000   128.1520    20.1590     5.4810   -11.3370    71.9430     3.6880     4.3430     5.1300     2.1770 
  131.1250   128.2660    20.2080     5.4950   -10.6580    77.3660     3.3380     3.9510     4.5080     2.1970 
  131.2500   128.3800    20.2580     5.5090   -10.1240    82.2540     3.2010     3.8130     4.2520     2.2190 
  131.3750   128.4940    20.3070     5.5230    -9.8490    84.2380     3.1830     3.8150     4.0150     2.2210 
  131.5000   128.6080    20.3570     5.5370    -9.7860    84.8520     3.3000     3.9780     4.0240     2.1990 
  131.6250   128.7220    20.4070     5.5510    -9.8640    86.6860     3.5600     4.3040     4.3810     2.1720 
  131.7500   128.8350    20.4570     5.5650    -9.9940    88.9090     3.9040     4.7050     4.6210     2.1610 
  131.8750   128.9490    20.5060     5.5790   -10.1380    89.1250     4.1760     4.9940     4.7750     2.1640 
  132.0000   129.0630    20.5560     5.5930   -10.2670    87.8060     4.2960     5.0650     5.1420     2.1700 
  132.1250   129.1770    20.6060     5.6070   -10.2450    87.2330     4.2110     4.8760     5.2820     2.1820 
  132.2500   129.2900    20.6570     5.6210    -9.9250    89.7910     4.0320     4.6110     4.7940     2.2040 
  132.3750   129.4040    20.7070     5.6360    -9.3010    94.6400     3.8430     4.3710     4.1250     2.2390 
  132.5000   129.5170    20.7570     5.6500    -8.5970    99.1410     3.6870     4.2120     3.8120     2.2950 
  132.6250   129.6310    20.8070     5.6640    -8.0430    99.6050     3.5720     4.1220     3.8940     2.3560 
  132.7500   129.7440    20.8580     5.6780    -7.7260    96.5420     3.4810     4.0340     4.1380     2.3770 
  132.8750   129.8580    20.9080     5.6930    -7.6090    93.0830     3.3540     3.8730     4.2000     2.3430 
  133.0000   129.9710    20.9590     5.7070    -7.5800    94.5470     3.1720     3.6470     3.9610     2.3040 
  133.1250   130.0850    21.0100     5.7210    -7.6140    99.0530     2.9890     3.4290     3.6930     2.2930 
  133.2500   130.1980    21.0600     5.7350    -7.7420   101.4850     2.8400     3.2550     3.5890     2.2970 
  133.3750   130.3110    21.1110     5.7500    -8.0280    99.6560     2.7930     3.1830     3.5670     2.3010 
  133.5000   130.4250    21.1620     5.7640    -8.4960    98.8370     2.8220     3.1880     3.5260     2.3060 
  133.6250   130.5380    21.2130     5.7780    -9.1420    98.9410     2.9750     3.3430     3.5240     2.3070 
  133.7500   130.6510    21.2640     5.7930    -9.8950    96.2230     3.2710     3.6760     3.7070     2.2890 
  133.8750   130.7640    21.3150     5.8070   -10.7320    90.1850     3.7100     4.1890     4.3340     2.2510 
  134.0000   130.8770    21.3660     5.8220   -11.6540    83.2800     4.1990     4.7630     5.4340     2.2070 
  134.1250   130.9900    21.4180     5.8360   -12.5800    78.6110     4.6330     5.2490     6.1520     2.1770 
  134.2500   131.1030    21.4690     5.8500   -13.3050    76.2090     4.9100     5.5630     5.9830     2.1650 
  134.3750   131.2160    21.5210     5.8650   -13.6110    73.1780     4.9920     5.6540     5.6730     2.1650 
  134.5000   131.3290    21.5720     5.8800   -13.5210    68.5950     4.8740     5.5140     5.6380     2.1650 
  134.6250   131.4420    21.6240     5.8940   -13.1430    67.8250     4.5880     5.1810     5.6270     2.1630 
  134.7500   131.5550    21.6750     5.9090   -12.6320    73.1260     4.2960     4.8210     5.5510     2.1780 
  134.8750   131.6680    21.7270     5.9240   -12.1020    77.6780     4.1440     4.6210     5.3530     2.2260 
  135.0000   131.7810    21.7790     5.9390   -11.6630    77.3130     4.3670     4.8780     5.1500     2.2970 
  135.1250   131.8940    21.8300     5.9530   -11.4480    74.6660     5.3300     6.0750     5.8620     2.3780 
  135.2500   132.0060    21.8820     5.9680   -11.5290    72.8230     6.9790     8.1230     8.2000     2.4640 
  135.3750   132.1190    21.9340     5.9830   -11.9100    69.1000     9.9490    11.7260    13.1220     2.5550 
  135.5000   132.2320    21.9860     5.9980   -12.4620    62.6010    12.9850    15.2490    20.8560     2.6180 
  135.6250   132.3450    22.0380     6.0120   -13.0870    55.7360    14.3490    16.5320    27.0170     2.6120 
  135.7500   132.4570    22.0900     6.0270   -13.7650    52.1460    13.9230    15.6760    26.5490     2.5350 
  135.8750   132.5700    22.1420     6.0420   -14.5370    54.1450    11.4830    12.5280    20.0390     2.4040 
  136.0000   132.6830    22.1940     6.0570   -15.3490    59.6400     8.8520     9.4120    12.6610     2.2610 
  136.1250   132.7950    22.2460     6.0710   -16.0200    63.5720     7.0990     7.5430     8.5840     2.1580 
  136.2500   132.9080    22.2980     6.0860   -16.4130    63.9170     5.9990     6.4810     7.4170     2.1210 
  136.3750   133.0210    22.3510     6.1010   -16.5170    62.9450     5.4260     6.0200     6.8660     2.1320 
  136.5000   133.1330    22.4030     6.1160   -16.4790    64.0310     5.1700     5.8750     6.3710     2.1490 
  136.6250   133.2460    22.4550     6.1310   -16.4160    68.1190     5.1110     5.8790     6.1750     2.1540 
  136.7500   133.3580    22.5070     6.1460   -16.3780    69.8960     5.1380     5.9380     6.0880     2.1520 
  136.8750   133.4710    22.5600     6.1610   -16.3730    67.1520     5.2210     6.0290     6.0820     2.1500 
  137.0000   133.5830    22.6120     6.1760   -16.4220    63.7310     5.3300     6.1280     6.1280     2.1510 
  137.1250   133.6960    22.6640     6.1910   -16.5770    64.7570     5.4350     6.2050     6.1470     2.1510 
  137.2500   133.8080    22.7170     6.2070   -16.8180    68.0270     5.5620     6.3070     6.1620     2.1470 
  137.3750   133.9210    22.7690     6.2220   -17.0590    70.6900     5.7310     6.4560     6.2720     2.1370 
  137.5000   134.0330    22.8210     6.2370   -17.2300    72.9180     5.9530     6.6670     6.5930     2.1260 
  137.6250   134.1460    22.8740     6.2520   -17.3300    73.4340     6.2340     6.9500     7.0270     2.1190 
  137.7500   134.2580    22.9260     6.2670   -17.4180    70.6380     6.5350     7.2570     7.4240     2.1190 
  137.8750   134.3710    22.9780     6.2830   -17.5470    67.1430     6.7900     7.5220     7.9670     2.1210 
  138.0000   134.4830    23.0310     6.2980   -17.7280    65.1110     6.9720     7.7150     8.5140     2.1190 
  138.1250   134.5960    23.0830     6.3140   -17.9490    62.5830     7.0730     7.8300     8.5550     2.1180 
  138.2500   134.7080    23.1360     6.3290   -18.1570    60.2780     7.1140     7.8970     8.2130     2.1200 
  138.3750   134.8200    23.1880     6.3450   -18.2910    61.4950     7.1170     7.9520     7.9710     2.1280 
  138.5000   134.9330    23.2400     6.3600   -18.3210    65.2510     7.1180     8.0490     7.9820     2.1340 
  138.6250   135.0450    23.2930     6.3760   -18.2030    68.1460     7.0950     8.1210     8.0810     2.1350 
  138.7500   135.1580    23.3450     6.3910   -17.9250    69.8840     6.8360     7.8640     8.1320     2.1320 
  138.8750   135.2700    23.3980     6.4070   -17.4950    69.2770     6.1850     7.0910     8.1810     2.1270 
  139.0000   135.3820    23.4500     6.4220   -16.9520    66.3490     5.3550     6.0620     8.2440     2.1360 
  139.1250   135.4950    23.5030     6.4380   -16.2950    66.0240     4.5890     5.1060     7.8260     2.1740 
  139.2500   135.6070    23.5560     6.4530   -15.5870    69.4810     4.1920     4.6260     6.4460     2.2220 
  139.3750   135.7190    23.6080     6.4690   -15.0220    74.0990     4.2570     4.7300     5.3860     2.2390 
