~V
VERS. 2.00: Ver 2.00
~W
STRT.M 56.0000:
STOP.M 276.0000:
STEP.M 0.1250:
NULL. -999.2500:
UWI. FD11178:
~C
DEPT.M :
TVD. :
DX. :
DY. :
SP.MV :
GR.API :
RI. :
RML.OHMM :
DEN.GM/CC :
RXO.OHMM :
~A
# ...
  211.1250   205.1340    -6.0190   -38.1180   -10.2650    92.0220     5.9120     7.1350     2.3170     9.1830 
  211.2500   205.2510    -6.0270   -38.1620   -10.8150    89.8230     5.8830     7.1100     2.3110     9.1870 
  211.3750   205.3670    -6.0350   -38.2070   -11.0040    88.5410     5.7650     6.8870     2.3020     8.9700 
  211.5000   205.4840    -6.0420   -38.2520   -11.1830    88.5120     5.6550     6.6320     2.2940     8.6230 
  211.6250   205.6010    -6.0500   -38.2960   -11.4820    90.2560     5.6220     6.5650     2.2850     8.7460 
  211.7500   205.7170    -6.0580   -38.3410   -11.7820    94.0270     5.6620     6.6600     2.2730     9.0520 
  211.8750   205.8340    -6.0660   -38.3850   -12.1930    94.2120     5.8160     6.9330     2.2600     9.2940 
  212.0000   205.9500    -6.0740   -38.4290   -12.6510    89.7940     6.0950     7.3430     2.2500     9.8180 
  212.1250   206.0670    -6.0820   -38.4740   -13.0370    83.5460     6.4660     7.7960     2.2500    10.4290 
  212.2500   206.1830    -6.0900   -38.5180   -13.3580    79.3920     6.8010     8.1900     2.2630    10.7060 
  212.3750   206.3000    -6.0970   -38.5630   -13.4250    76.8190     7.0050     8.4280     2.2900    11.3670 
  212.5000   206.4170    -6.1050   -38.6070   -13.0950    74.0440     7.0190     8.4180     2.3190    13.3120 
  212.6250   206.5330    -6.1130   -38.6520   -12.4200    73.0850     6.8270     8.1590     2.3330    14.3050 
  212.7500   206.6500    -6.1200   -38.6960   -11.5710    76.0730     6.4640     7.7010     2.3320    11.9730 
  212.8750   206.7660    -6.1280   -38.7410   -10.5490    82.2320     6.0170     7.1660     2.3250     9.0100 
  213.0000   206.8830    -6.1360   -38.7850    -9.5960    88.5290     5.6090     6.6930     2.3170     7.6870 
  213.1250   206.9990    -6.1430   -38.8300    -9.0780    92.9760     5.3520     6.4310     2.3120     7.2650 
  213.2500   207.1160    -6.1510   -38.8740    -9.0170    94.9490     5.3130     6.4070     2.3100     7.2910 
  213.3750   207.2320    -6.1590   -38.9190    -9.2120    95.6610     5.4080     6.4870     2.3040     7.7850 
  213.5000   207.3490    -6.1660   -38.9630    -9.6900    96.0430     5.5970     6.6180     2.2990     8.4830 
  213.6250   207.4650    -6.1730   -39.0080   -10.3660    95.2730     5.9070     6.8420     2.3030     9.3190 
  213.7500   207.5820    -6.1810   -39.0530   -11.0250    92.7850     6.3620     7.2590     2.3100    10.6920 
  213.8750   207.6980    -6.1880   -39.0980   -11.5210    88.2200     6.9970     7.9620     2.3150    11.9260 
  214.0000   207.8150    -6.1960   -39.1420   -11.7250    83.5400     7.9040     9.1600     2.3320    12.3310 
  214.1250   207.9310    -6.2030   -39.1870   -11.4800    79.7130     8.8380    10.4450     2.3670    13.1410 
  214.2500   208.0480    -6.2100   -39.2320   -10.8210    77.4240     8.9900    10.6410     2.3950    16.0510 
  214.3750   208.1640    -6.2180   -39.2770    -9.8380    76.8080     8.0600     9.4610     2.3940    18.5570 
  214.5000   208.2810    -6.2250   -39.3220    -8.5510    75.8640     6.2270     7.0810     2.3770    17.6650 
  214.6250   208.3970    -6.2320   -39.3670    -7.0710    73.3530     4.2520     4.6480     2.3460    14.4400 
  214.7500   208.5130    -6.2400   -39.4120    -5.4670    68.7800     2.7970     2.9730     2.3060     9.2990 
  214.8750   208.6300    -6.2480   -39.4570    -3.7360    63.4340     2.0380     2.1860     2.2750     4.2920 
  215.0000   208.7460    -6.2560   -39.5020    -1.9960    59.5930     1.6770     1.8800     2.2640     2.4250 
  215.1250   208.8630    -6.2640   -39.5470    -0.7030    57.4330     1.5660     1.8530     2.2680     2.3210 
  215.2500   208.9790    -6.2720   -39.5910    -0.0610    55.4390     1.6060     1.9510     2.2750     2.2230 
  215.3750   209.0950    -6.2800   -39.6360     0.1280    54.5880     1.6780     2.0360     2.2810     2.1760 
  215.5000   209.2120    -6.2880   -39.6810     0.1470    55.8930     1.7310     2.0570     2.2840     2.2020 
  215.6250   209.3280    -6.2960   -39.7260     0.1600    58.6780     1.7540     2.0370     2.2840     2.2510 
  215.7500   209.4440    -6.3040   -39.7710     0.1690    62.1280     1.7650     2.0060     2.2890     2.2540 
  215.8750   209.5610    -6.3120   -39.8170     0.1140    66.3860     1.7710     1.9770     2.3020     2.1930 
  216.0000   209.6770    -6.3200   -39.8620     0.0150    71.1890     1.7760     1.9590     2.3150     2.1210 
  216.1250   209.7930    -6.3280   -39.9070    -0.0260    76.7990     1.7990     1.9590     2.3210     2.1630 
  216.2500   209.9100    -6.3360   -39.9520     0.0470    82.7350     1.8280     1.9790     2.3170     2.3440 
  216.3750   210.0260    -6.3450   -39.9970     0.1140    86.0400     1.8590     2.0170     2.3140     2.4590 
  216.5000   210.1420    -6.3530   -40.0420     0.2290    87.4570     1.8900     2.0310     2.3150     2.5040 
  216.6250   210.2580    -6.3610   -40.0870     0.3670    90.4180     1.9010     2.0310     2.3210     2.6440 
  216.7500   210.3750    -6.3680   -40.1320     0.4990    94.2500     1.8950     2.0310     2.3270     2.7350 
  216.8750   210.4910    -6.3760   -40.1780     0.5370    94.8490     1.8710     2.0310     2.3260     2.6830 
  217.0000   210.6070    -6.3840   -40.2230     0.5280    91.9900     1.8470     2.0320     2.3130     2.6220 
  217.1250   210.7230    -6.3920   -40.2680     0.4450    89.7490     1.8420     2.0510     2.2970     2.6310 
  217.2500   210.8400    -6.4000   -40.3140     0.3700    89.3010     1.8870     2.1280     2.2920     2.6720 
  217.3750   210.9560    -6.4070   -40.3590     0.4050    92.5760     2.0150     2.2120     2.2940     2.8130 
  217.5000   211.0720    -6.4150   -40.4050     0.4900    95.7360     2.1910     2.3880     2.2960     3.2140 
  217.6250   211.1880    -6.4220   -40.4500     0.5270    97.8380     2.4170     2.7010     2.2980     3.6730 
  217.7500   211.3040    -6.4300   -40.4950     0.4990    99.0320     2.6420     2.9630     2.3010     4.1120 
  217.8750   211.4210    -6.4370   -40.5410     0.4070    97.9380     2.8310     3.1820     2.2970     4.5530 
  218.0000   211.5370    -6.4440   -40.5860     0.2770    94.0570     2.9960     3.3950     2.2880     4.7740 
  218.1250   211.6530    -6.4520   -40.6320     0.1880    88.7390     3.1410     3.6160     2.2800     4.8980 
  218.2500   211.7690    -6.4600   -40.6770     0.1060    85.4320     3.3030     3.8090     2.2790     4.9760 
  218.3750   211.8850    -6.4680   -40.7230     0.0020    85.1070     3.6130     4.0380     2.2820     5.1010 
  218.5000   212.0020    -6.4760   -40.7680    -0.1570    85.5140     4.0190     4.4030     2.2780     5.8340 
  218.6250   212.1180    -6.4840   -40.8130    -0.3360    86.3970     4.4620     4.8330     2.2710     6.9210 
  218.7500   212.2340    -6.4920   -40.8590    -0.5040    85.4600     4.9200     5.3320     2.2670     8.2180 
  218.8750   212.3500    -6.5010   -40.9040    -0.6660    84.2840     5.2410     5.9290     2.2770     9.4130 
  219.0000   212.4660    -6.5090   -40.9490    -0.8210    83.2770     5.3290     6.0960     2.2940     8.9590 
  219.1250   212.5830    -6.5170   -40.9950    -0.9080    82.2980     5.1400     5.8390     2.3120     8.0490 
  219.2500   212.6990    -6.5250   -41.0400    -0.9380    83.0090     4.7740     5.3800     2.3280     7.9660 
  219.3750   212.8150    -6.5330   -41.0850    -1.0120    85.1080     4.3050     4.8430     2.3330     8.0110 
  219.5000   212.9310    -6.5410   -41.1310    -1.1940    86.1000     3.9620     4.4090     2.3250     7.4680 
  219.6250   213.0480    -6.5490   -41.1760    -1.4470    83.4230     3.7890     4.1840     2.3120     5.6480 
  219.7500   213.1640    -6.5570   -41.2210    -1.8060    81.3670     3.9050     4.2480     2.2950     4.4750 
  219.8750   213.2800    -6.5650   -41.2660    -2.2650    81.7500     4.4980     4.9080     2.2790     5.0280 
  220.0000   213.3960    -6.5730   -41.3110    -2.9300    81.5550     5.7810     6.3390     2.2770     6.9020 
  220.1250   213.5130    -6.5810   -41.3570    -3.9190    80.0070     7.8530     8.5860     2.2880     9.7160 
