~V
VERS. 2.00: Ver 2.00
~W
STRT.M 50.0000:
STOP.M 286.0000:
STEP.M 0.1250:
NULL. -999.2500:
UWI. FD11181:
~C
DEPT.M :
TVD. :
DX. :
DY. :
SP.MV :
GR.API :
RI. :
RML.OHMM :
RXO.OHMM :
DEN.GM/CC :
~A
# ...
  259.8750   249.8420   -55.1350     4.0760   -13.5640    64.2450    33.1560    36.8370    30.6910     2.4470 
  260.0000   249.9560   -55.1870     4.0790   -13.7860    64.5180    40.9930    45.0620    97.7230     2.4660 
  260.1250   250.0690   -55.2390     4.0820   -14.0160    65.4390    47.2230    50.9000   169.2500     2.4800 
  260.2500   250.1830   -55.2910     4.0850   -14.1930    64.7880    49.2380    52.5170   129.2440     2.4820 
  260.3750   250.2960   -55.3430     4.0880   -14.3640    62.9520    47.7430    50.5770    61.3010     2.4600 
  260.5000   250.4100   -55.3950     4.0910   -14.5590    59.8420    45.0320    47.8140    35.6110     2.4360 
  260.6250   250.5240   -55.4460     4.0940   -14.7620    57.3750    43.9310    46.7680    23.2550     2.4280 
  260.7500   250.6370   -55.4980     4.0980   -14.9830    55.8700    45.1410    48.2570    27.1320     2.4250 
  260.8750   250.7510   -55.5500     4.1000   -15.1840    54.6290    48.7470    51.9100    55.8100     2.4150 
  261.0000   250.8650   -55.6020     4.1030   -15.4880    53.3440    52.9530    56.0240    96.5030     2.4110 
  261.1250   250.9780   -55.6540     4.1060   -15.8560    54.2010    55.8910    58.6220   104.2850     2.4270 
  261.2500   251.0920   -55.7060     4.1090   -15.9800    58.2430    56.1710    58.3200    87.9180     2.4480 
  261.3750   251.2060   -55.7580     4.1110   -15.6270    62.2660    52.5660    54.6780    78.7490     2.4370 
  261.5000   251.3190   -55.8100     4.1140   -15.0950    62.7210    47.8500    49.8060    65.5860     2.3950 
  261.6250   251.4330   -55.8620     4.1170   -14.7230    60.3300    43.9730    45.7870    47.2680     2.3610 
  261.7500   251.5470   -55.9140     4.1190   -14.4780    58.6490    41.6330    43.3700    34.1760     2.3540 
  261.8750   251.6600   -55.9660     4.1220   -14.3230    59.9980    40.9830    42.4900    28.0680     2.3570 
  262.0000   251.7740   -56.0180     4.1250   -14.2600    63.9420    40.9120    42.3270    29.2360     2.3490 
  262.1250   251.8880   -56.0700     4.1280   -14.2370    66.6200    41.1190    42.4210    33.8110     2.3400 
  262.2500   252.0010   -56.1220     4.1300   -14.2470    65.2250    41.6140    42.7880    36.7450     2.3510 
  262.3750   252.1150   -56.1740     4.1330   -14.1860    61.7290    42.7720    43.7080    37.8400     2.3870 
  262.5000   252.2290   -56.2250     4.1360   -13.8500    59.8520    44.6320    45.2850    37.4490     2.4330 
  262.6250   252.3420   -56.2770     4.1390   -13.4280    60.0740    47.2590    47.7270    34.4760     2.4790 
  262.7500   252.4560   -56.3290     4.1420   -12.8770    60.8030    50.6900    50.9140    42.3030     2.5100 
  262.8750   252.5700   -56.3810     4.1450   -12.0600    62.0310    54.2400    54.2310    61.3790     2.4970 
  263.0000   252.6840   -56.4330     4.1480   -11.1480    61.3710    57.0440    57.1500    65.5180     2.4450 
  263.1250   252.7970   -56.4840     4.1510   -10.4560    58.1560    59.3210    59.6870    60.2050     2.3940 
  263.2500   252.9110   -56.5360     4.1540   -10.1340    56.3570    61.0580    61.6060    56.2990     2.3780 
  263.3750   253.0250   -56.5880     4.1570    -9.9950    57.4510    61.1050    62.0010    46.1770     2.3920 
  263.5000   253.1390   -56.6400     4.1600    -9.9540    59.2810    59.2870    60.5530    42.8340     2.4110 
  263.6250   253.2520   -56.6910     4.1630    -9.9850    58.3730    55.9990    57.7720    64.1050     2.4120 
  263.7500   253.3660   -56.7430     4.1660    -9.9580    55.6360    53.2690    55.6550    80.2880     2.3930 
  263.8750   253.4800   -56.7950     4.1690    -9.7900    52.7690    53.8280    56.8480    53.8820     2.3900 
  264.0000   253.5940   -56.8460     4.1720    -9.5130    52.1930    60.1630    64.4970    23.2410     2.4370 
  264.1250   253.7080   -56.8980     4.1750    -9.1950    54.4010    76.0370    82.5770    40.3260     2.5130 
  264.2500   253.8220   -56.9490     4.1770    -8.8790    56.1340    99.2020   109.5120   102.9780     2.5720 
  264.3750   253.9350   -57.0010     4.1800    -8.4890    54.8690   124.8610   138.8520   171.6640     2.6010 
  264.5000   254.0490   -57.0520     4.1830    -8.0590    51.5400   141.3900   153.9800   203.0970     2.6240 
  264.6250   254.1630   -57.1040     4.1850    -7.5590    50.0330   128.4540   138.8460   192.8270     2.6570 
  264.7500   254.2770   -57.1550     4.1880    -7.0450    48.8670    94.1320   101.3200   173.9670     2.6870 
  264.8750   254.3910   -57.2070     4.1910    -6.6450    44.9820    53.5910    57.3480   149.2640     2.6660 
  265.0000   254.5050   -57.2580     4.1940    -6.3600    39.7920    20.6280    24.8180   119.3850     2.5630 
  265.1250   254.6190   -57.3100     4.1960    -6.2210    38.5740     8.8690    11.0890    92.8110     2.4120 
  265.2500   254.7330   -57.3610     4.1990    -6.2000    40.6660     5.8170     6.7490    50.2790     2.3010 
  265.3750   254.8470   -57.4120     4.2020    -6.3040    42.4910     4.6340     5.1040    13.6660     2.2750 
  265.5000   254.9600   -57.4640     4.2040    -6.5190    42.3800     4.1790     4.5280     4.6010     2.2980 
  265.6250   255.0740   -57.5150     4.2070    -6.6530    40.9900     4.2110     4.5520     4.6010     2.3340 
  265.7500   255.1880   -57.5660     4.2100    -6.6410    39.1920     4.3660     4.7200     4.5330     2.3580 
  265.8750   255.3020   -57.6180     4.2120    -6.5330    38.4290     4.5310     4.8730     4.3370     2.3510 
  266.0000   255.4160   -57.6690     4.2150    -6.4310    38.1740     4.6570     4.9640     4.1280     2.3190 
  266.1250   255.5300   -57.7200     4.2180    -6.4160    36.2920     4.7100     4.9950     4.0500     2.2920 
  266.2500   255.6440   -57.7720     4.2210    -6.5360    33.2880     4.7060     4.9730     4.0550     2.2950 
  266.3750   255.7580   -57.8230     4.2230    -6.8480    33.4790     4.6440     4.9080     4.1120     2.3180 
  266.5000   255.8720   -57.8740     4.2270    -6.8680    36.9940     4.5630     4.8210     4.2020     2.3340 
  266.6250   255.9860   -57.9250     4.2300    -6.7890    38.9710     4.4780     4.7370     4.2320     2.3400 
  266.7500   256.1000   -57.9770     4.2330    -6.8240    39.0130     4.4040     4.6870     4.2540     2.3480 
  266.8750   256.2140   -58.0280     4.2360    -6.8530    39.8130     4.3380     4.6810     4.2500     2.3570 
  267.0000   256.3280   -58.0790     4.2400    -6.8410    41.0980     4.2830     4.7020     4.1690     2.3510 
  267.1250   256.4420   -58.1300     4.2430    -6.9820    40.0260     4.2340     4.7380     4.2250     2.3280 
  267.2500   256.5560   -58.1810     4.2460    -7.3870    37.3870     4.1800     4.7730     4.3560     2.3060 
  267.3750   256.6700   -58.2330     4.2500    -7.4750    34.9440     4.1240     4.7990     4.3070     2.3020 
  267.5000   256.7840   -58.2840     4.2530    -7.3430    34.2080     4.0710     4.8110     4.2000     2.3120 
  267.6250   256.8980   -58.3350     4.2560    -7.2080    34.3950     4.0050     4.8060     4.1990     2.3240 
  267.7500   257.0120   -58.3860     4.2590    -6.9400    34.7150     3.9590     4.7990     4.2570     2.3320 
  267.8750   257.1260   -58.4370     4.2620    -6.7700    36.6100     3.9340     4.8110     4.3290     2.3400 
  268.0000   257.2400   -58.4880     4.2660    -6.6450    40.8220     3.9460     4.8650     4.5530     2.3460 
  268.1250   257.3540   -58.5390     4.2690    -6.6530    43.9760     4.0300     4.9890     5.2550     2.3400 
  268.2500   257.4680   -58.5910     4.2730    -6.9430    42.4240     4.1650     5.1800     5.9800     2.3210 
  268.3750   257.5820   -58.6420     4.2760    -7.3450    39.3110     4.3350     5.4090     6.5940     2.3030 
  268.5000   257.6960   -58.6930     4.2790    -7.5330    38.3710     4.5030     5.6200     6.9520     2.3060 
  268.6250   257.8100   -58.7440     4.2830    -7.8160    38.8940     4.6150     5.7500     6.0420     2.3350 
  268.7500   257.9240   -58.7950     4.2860    -8.2590    39.6210     4.6480     5.7650     4.7700     2.3690 
  268.8750   258.0380   -58.8460     4.2890    -8.6790    38.8750     4.5930     5.6650     4.2490     2.3920 
