~V
VERS. 2.00: Ver 2.00
~W
STRT.M 30.0000:
STOP.M 284.0000:
STEP.M 0.1250:
NULL. -999.2500:
UWI. FD11172:
~C
DEPT.M :
TVD. :
DX. :
DY. :
SP.MV :
GR.API :
RI. :
RML.OHMM :
RXO.OHMM :
DEN.GM/CC :
~A
# ...
  194.2500   184.4480    47.4520    14.6890    -9.1640    65.8910    73.4470    80.3860    66.5550     2.2260 
  194.3750   184.5580    47.5080    14.7100    -8.8920    71.2860    81.9880    88.6010    69.5290     2.2090 
  194.5000   184.6680    47.5630    14.7320    -8.6220    71.7560    94.7150   101.4740    75.5190     2.1900 
  194.6250   184.7780    47.6190    14.7530    -8.3590    66.9260   111.2950   117.3100    90.3990     2.1770 
  194.7500   184.8880    47.6740    14.7740    -8.0810    63.4860   124.7030   130.8900   110.7080     2.1730 
  194.8750   184.9980    47.7290    14.7940    -7.7580    64.8470   128.9570   137.7200   116.5840     2.1820 
  195.0000   185.1090    47.7850    14.8150    -7.3510    68.4620   125.1090   131.3500   100.6560     2.1940 
  195.1250   185.2190    47.8400    14.8360    -6.8130    69.7480   108.2370   112.0060    81.5030     2.2020 
  195.2500   185.3290    47.8950    14.8570    -6.1880    68.3820    85.6550    86.6790    79.5970     2.2110 
  195.3750   185.4390    47.9500    14.8780    -5.5850    67.2900    59.6740    59.0960    88.2460     2.2280 
  195.5000   185.5490    48.0060    14.8980    -5.1370    70.6550    35.9200    35.0960    84.6530     2.2530 
  195.6250   185.6590    48.0610    14.9190    -4.9430    78.9600    21.0800    21.1050    62.1590     2.2890 
  195.7500   185.7700    48.1170    14.9400    -4.9570    86.7410    14.3750    15.0490    35.0110     2.3370 
  195.8750   185.8800    48.1720    14.9600    -5.0700    89.0720    13.9650    14.7500    16.2990     2.3740 
  196.0000   185.9900    48.2270    14.9810    -5.2000    87.0950    16.8340    17.8900    10.2420     2.3760 
  196.1250   186.1000    48.2830    15.0010    -5.3820    84.8010    22.8200    24.6480    20.0500     2.3440 
  196.2500   186.2100    48.3380    15.0220    -5.6480    83.1960    32.5910    35.3580    41.9370     2.3040 
  196.3750   186.3200    48.3940    15.0420    -5.9440    79.0310    46.1220    50.2920    63.7450     2.2710 
  196.5000   186.4300    48.4500    15.0630    -6.1510    72.8510    62.0490    67.7830    77.5550     2.2420 
  196.6250   186.5400    48.5050    15.0830    -6.1660    67.7680    76.4380    83.5120    86.2170     2.2190 
  196.7500   186.6500    48.5610    15.1040    -5.9590    65.9160    85.8140    93.8750    92.3340     2.2070 
  196.8750   186.7600    48.6170    15.1240    -5.4830    65.2390    88.8760    95.7360    93.6540     2.2080 
  197.0000   186.8700    48.6730    15.1450    -4.7730    65.7070    86.8980    94.6790    91.1000     2.2160 
  197.1250   186.9800    48.7280    15.1650    -3.9210    69.0180    84.6910    94.4280    88.0530     2.2240 
  197.2500   187.0900    48.7840    15.1860    -3.0500    72.9310    83.3870    94.4280    86.0100     2.2260 
  197.3750   187.2000    48.8400    15.2070    -2.2100    74.3090    83.7360    94.5280    86.7170     2.2250 
  197.5000   187.3100    48.8950    15.2280    -1.4370    73.3100    84.4330    95.2650    91.7830     2.2250 
  197.6250   187.4200    48.9510    15.2490    -0.8280    71.1950    84.4180    95.7190    99.3280     2.2230 
  197.7500   187.5300    49.0070    15.2700    -0.4400    69.8400    83.8010    95.8380   105.1360     2.2200 
  197.8750   187.6400    49.0630    15.2910    -0.2690    70.5880    82.7940    97.2280   105.1360     2.2210 
  198.0000   187.7490    49.1180    15.3110    -0.2210    71.9410    82.0420    97.3810    97.9720     2.2250 
  198.1250   187.8590    49.1740    15.3320    -0.2120    71.9740    81.6540    97.2500    89.2820     2.2220 
  198.2500   187.9690    49.2300    15.3530    -0.1520    72.3230    81.6160    97.6110    89.7600     2.2170 
  198.3750   188.0790    49.2860    15.3740     0.0060    73.9480    81.9280    98.2960    98.7890     2.2190 
  198.5000   188.1890    49.3410    15.3950     0.2390    74.5220    82.2890    98.8200   102.1710     2.2250 
  198.6250   188.2990    49.3970    15.4160     0.4980    73.1490    82.8810    99.4320    97.3990     2.2260 
  198.7500   188.4090    49.4530    15.4370     0.7510    72.9210    82.8600    99.1090    93.5310     2.2190 
  198.8750   188.5190    49.5090    15.4580     0.9810    73.7130    81.6650    97.3830    88.0590     2.2140 
  199.0000   188.6290    49.5640    15.4780     1.1600    72.2200    79.5240    94.7390    78.6490     2.2110 
  199.1250   188.7390    49.6200    15.4990     1.2090    67.7490    76.3000    90.9470    75.0520     2.2070 
  199.2500   188.8490    49.6750    15.5200     1.0640    64.7450    73.5410    87.9600    77.8280     2.2030 
  199.3750   188.9590    49.7310    15.5410     0.7070    65.7240    72.7580    87.4640    76.2540     2.2040 
  199.5000   189.0690    49.7870    15.5610     0.2360    69.0520    74.3900    89.9500    72.6470     2.2110 
  199.6250   189.1790    49.8430    15.5820    -0.2940    72.8540    77.8470    94.5700    77.0450     2.2140 
  199.7500   189.2890    49.8980    15.6030    -0.8650    74.5640    81.4340    99.0560    87.7390     2.2070 
  199.8750   189.3990    49.9540    15.6240    -1.4510    72.5320    83.4690   101.3590    97.1040     2.1920 
  200.0000   189.5090    50.0100    15.6440    -1.9930    69.0820    83.2910   100.7730    98.7820     2.1840 
  200.1250   189.6190    50.0660    15.6650    -2.4350    66.8120    81.1260    98.0320    92.7980     2.1910 
  200.2500   189.7280    50.1220    15.6860    -2.7750    65.9810    78.7090    95.2870    84.9150     2.2040 
  200.3750   189.8380    50.1770    15.7060    -3.0410    67.1680    77.4970    94.2290    79.0670     2.2140 
  200.5000   189.9480    50.2330    15.7270    -3.2710    69.6940    78.5260    96.1250    80.6580     2.2190 
  200.6250   190.0580    50.2890    15.7480    -3.4410    70.6610    80.9650    99.6010    88.6950     2.2180 
  200.7500   190.1680    50.3450    15.7690    -3.5670    69.7880    83.1860   102.7740    93.1310     2.2100 
  200.8750   190.2780    50.4010    15.7900    -3.7390    68.9570    83.7990   103.8830    92.7150     2.1980 
  201.0000   190.3880    50.4560    15.8120    -4.0120    69.2830    82.8720   102.9670    92.0890     2.1910 
  201.1250   190.4970    50.5120    15.8330    -4.3120    69.1700    80.2980   100.0230    90.7380     2.1960 
  201.2500   190.6070    50.5680    15.8540    -4.5130    68.7140    76.9880    96.1210    89.2050     2.2040 
  201.3750   190.7170    50.6240    15.8750    -4.5830    68.4690    74.0460    92.6650    89.8480     2.2100 
  201.5000   190.8270    50.6800    15.8960    -4.5810    69.6080    72.1310    90.4800    88.8430     2.2150 
  201.6250   190.9370    50.7350    15.9170    -4.5330    71.1370    71.8460    90.2080    83.9650     2.2200 
  201.7500   191.0470    50.7910    15.9380    -4.4480    71.5150    72.9150    91.4190    82.8530     2.2210 
  201.8750   191.1570    50.8470    15.9590    -4.3420    69.2340    74.7340    93.3170    86.6580     2.2170 
  202.0000   191.2670    50.9030    15.9800    -4.2660    66.6960    76.3200    94.6390    82.7490     2.2130 
  202.1250   191.3770    50.9580    16.0010    -4.2820    66.3590    76.1820    93.7060    76.8210     2.2110 
  202.2500   191.4860    51.0140    16.0220    -4.3980    67.7960    74.3100    90.9450    72.3950     2.2150 
  202.3750   191.5960    51.0700    16.0420    -4.5570    70.0040    70.8410    86.5990    67.8020     2.2240 
  202.5000   191.7060    51.1260    16.0630    -4.6530    71.2880    66.2390    81.1510    63.7900     2.2340 
  202.6250   191.8160    51.1810    16.0830    -4.6560    70.9260    60.3090    74.1070    60.0400     2.2420 
  202.7500   191.9260    51.2370    16.1040    -4.6880    69.8940    53.0860    65.2580    58.4590     2.2520 
  202.8750   192.0360    51.2930    16.1250    -4.8790    69.7290    45.7150    56.0600    57.4530     2.2590 
  203.0000   192.1460    51.3480    16.1460    -5.1550    69.7210    38.8120    47.3610    52.9870     2.2620 
  203.1250   192.2560    51.4040    16.1660    -5.3430    69.9110    33.7870    40.8240    44.3010     2.2640 
  203.2500   192.3660    51.4600    16.1870    -5.4130    72.2390    30.4530    36.3100    34.4830     2.2680 
