~V
VERS. 2.00: Ver 2.00
~W
STRT.M 10.0000:
STOP.M 230.0000:
STEP.M 0.1250:
NULL. -999.2500:
UWI. FD11119:
~C
DEPT.M :
TVD. :
DX. :
DY. :
SP.MV :
DEN.GM/CC :
GR.API :
RML.OHMM :
RI. :
RXO.OHMM :
CALI.CM :
~A
# ...
   43.0000    43.0000     0.0000     0.0000   -18.5860     2.2270   104.2240     6.4610     3.6210     3.3810    26.2710 
   43.1250    43.1250     0.0000     0.0000   -19.1520     2.2300   103.0950     6.2900     3.5000     3.3790    26.4570 
   43.2500    43.2500     0.0000     0.0000   -19.8890     2.2260    99.4170     6.4200     3.4780     3.3220    26.7330 
   43.3750    43.3750     0.0000     0.0000   -20.7630     2.2220    98.2380     6.9930     3.6280     3.3690    26.7990 
   43.5000    43.5000     0.0000     0.0000   -21.7230     2.2160    96.8230     8.0650     4.0110     3.8090    26.2250 
   43.6250    43.6250     0.0000     0.0000   -22.7010     2.2010    90.3900     9.7050     4.7040     5.1420    25.5310 
   43.7500    43.7500     0.0000     0.0000   -23.6510     2.1730    83.7600    11.7580     5.6620     6.8890    25.5390 
   43.8750    43.8750     0.0000     0.0000   -24.5150     2.1330    78.2150    14.0840     6.8340     7.8060    25.8240 
   44.0000    44.0000     0.0000     0.0000   -25.2740     2.0880    72.3640    16.4380     8.1020     7.9070    25.7780 
   44.1250    44.1250     0.0000     0.0000   -25.8860     2.0580    66.6420    18.3140     9.2200     8.8340    25.1140 
   44.2500    44.2500     0.0000     0.0000   -26.4000     2.0620    65.0870    19.3140     9.9460    12.0950    24.6350 
   44.3750    44.3750     0.0000     0.0000   -26.8040     2.1060    67.3210    19.2240    10.1220    17.4090    24.4320 
   44.5000    44.5000     0.0000     0.0000   -27.1110     2.1710    69.4280    18.1710     9.7640    17.4580    24.4110 
   44.6250    44.6250     0.0000     0.0000   -27.3180     2.2140    73.7080    16.6090     9.0490    12.6580    24.4780 
   44.7500    44.7500     0.0000     0.0000   -27.4890     2.2080    78.2340    15.2010     8.3010    10.2920    24.5970 
   44.8750    44.8750     0.0000     0.0000   -27.6320     2.1600    78.6920    14.2590     7.6840     9.5970    24.6200 
   45.0000    45.0000     0.0000     0.0000   -27.7510     2.0990    74.3970    13.8540     7.2770     9.6410    24.6380 
   45.1250    45.1250     0.0000     0.0000   -27.7890     2.0550    71.3440    13.8980     7.1040     9.7890    24.7300 
   45.2500    45.2500     0.0000     0.0000   -27.7750     2.0340    70.9110    14.0630     7.0630     9.7470    24.8220 
   45.3750    45.3750     0.0000     0.0000   -27.6740     2.0260    70.8700    14.1470     7.0740     9.5750    24.8830 
   45.5000    45.5000     0.0000     0.0000   -27.5000     2.0240    69.7110    14.0590     7.0720     9.4530    24.9300 
   45.6250    45.6250     0.0000     0.0000   -27.2380     2.0210    68.7890    13.8190     7.0380     9.3320    24.9390 
   45.7500    45.7500     0.0000     0.0000   -26.8680     2.0160    69.9290    13.5580     7.0040     9.2100    24.9520 
   45.8750    45.8750     0.0000     0.0000   -26.3800     2.0090    72.5390    13.3440     7.0080     9.1380    24.9980 
   46.0000    46.0000     0.0000     0.0000   -25.7480     2.0010    73.7960    13.1580     7.0440     9.0000    25.0120 
   46.1250    46.1250     0.0000     0.0000   -24.9830     1.9940    71.9980    12.8590     7.0360     8.6480    24.9620 
   46.2500    46.2500    -0.0010     0.0000   -24.0330     1.9930    71.4730    12.3260     6.8990     8.3240    24.9000 
   46.3750    46.3750    -0.0010    -0.0010   -22.9540     2.0020    75.2610    11.5160     6.5850     8.0180    24.8350 
   46.5000    46.5000    -0.0020    -0.0010   -21.7920     2.0230    82.4060    10.5020     6.1080     7.3570    24.7970 
   46.6250    46.6250    -0.0030    -0.0020   -20.6670     2.0580    89.5760     9.4900     5.5500     6.2780    24.7780 
   46.7500    46.7500    -0.0030    -0.0020   -19.6190     2.0960    95.1280     8.7020     5.0360     5.5570    24.8090 
   46.8750    46.8750    -0.0040    -0.0020   -18.6940     2.1290    98.5510     8.2490     4.6530     5.2030    24.8520 
   47.0000    47.0000    -0.0050    -0.0030   -17.9220     2.1500    98.8010     8.1340     4.4630     4.7790    24.8450 
   47.1250    47.1250    -0.0050    -0.0030   -17.3830     2.1640    95.7880     8.3130     4.4960     4.6440    24.7580 
   47.2500    47.2500    -0.0060    -0.0030   -17.0760     2.1840    91.0670     8.6210     4.6670     4.7250    24.6390 
   47.3750    47.3750    -0.0070    -0.0040   -17.0120     2.2190    88.8730     8.9650     4.9120     5.4610    24.6120 
   47.5000    47.5000    -0.0070    -0.0040   -17.1830     2.2660    88.2390     9.2760     5.1620     6.6730    24.5550 
   47.6250    47.6250    -0.0080    -0.0050   -17.5470     2.3050    85.7840     9.4780     5.3540     6.2560    24.5340 
   47.7500    47.7500    -0.0090    -0.0050   -17.9970     2.3130    83.9680     9.5280     5.4660     5.5620    24.4710 
   47.8750    47.8750    -0.0090    -0.0050   -18.4880     2.2840    85.5510     9.4150     5.5030     5.9010    24.4340 
   48.0000    48.0000    -0.0100    -0.0060   -19.0190     2.2280    87.9870     9.1970     5.4920     6.4720    24.5490 
   48.1250    48.1250    -0.0110    -0.0060   -19.5670     2.1630    86.5440     8.9890     5.4640     6.3390    25.2150 
   48.2500    48.2500    -0.0110    -0.0060   -20.1690     2.1110    85.6150     8.8720     5.4240     5.4810    25.8990 
   48.3750    48.3750    -0.0120    -0.0070   -20.7770     2.0790    87.1070     8.8680     5.3590     4.8400    26.0700 
   48.5000    48.5000    -0.0130    -0.0070   -21.3680     2.0680    86.4340     8.9590     5.2530     5.0850    25.7890 
   48.6250    48.6250    -0.0130    -0.0080   -21.9470     2.0800    82.3730     9.1090     5.1250     5.9000    25.7140 
   48.7500    48.7500    -0.0140    -0.0080   -22.6130     2.1010    80.6920     9.2910     5.0230     5.7080    25.8610 
   48.8750    48.8750    -0.0150    -0.0080   -23.4080     2.1220    81.8730     9.5780     4.9960     5.4310    26.1870 
   49.0000    49.0000    -0.0150    -0.0090   -24.3340     2.1330    83.0230    10.1620     5.1100     5.6510    26.5160 
   49.1250    49.1250    -0.0160    -0.0090   -25.3440     2.1310    85.0950    11.4800     5.5150     6.5070    27.0480 
   49.2500    49.2500    -0.0170    -0.0100   -26.3510     2.1260    87.2220    13.7790     6.3160     7.9640    27.8980 
   49.3750    49.3750    -0.0170    -0.0100   -27.3210     2.1270    84.1460    17.2330     7.6440     9.9550    28.0390 
   49.5000    49.5000    -0.0180    -0.0100   -28.2760     2.1370    74.4810    21.7190     9.5480    12.4360    27.2830 
   49.6250    49.6250    -0.0190    -0.0110   -29.1730     2.1420    65.3710    26.5480    11.9240    15.0740    27.1170 
   49.7500    49.7500    -0.0190    -0.0110   -29.9510     2.1190    60.7730    30.3270    14.1870    19.8540    27.8090 
   49.8750    49.8750    -0.0200    -0.0110   -30.5920     2.0610    57.9910    31.8380    15.6710    32.8420    29.3580 
   50.0000    50.0000    -0.0210    -0.0120   -31.0950     1.9850    56.8160    30.6890    15.9350    36.5170    29.2700 
   50.1250    50.1250    -0.0230    -0.0130   -31.4580     1.9250    61.4450    27.6750    15.0290    22.4550    26.1990 
   50.2500    50.2500    -0.0250    -0.0130   -31.7600     1.9030    67.2950    24.6510    13.7760    13.8990    25.0200 
   50.3750    50.3750    -0.0260    -0.0140   -32.0030     1.9210    68.8740    22.4520    12.6540    11.5840    24.6200 
   50.5000    50.5000    -0.0280    -0.0150   -32.1630     1.9630    65.3210    21.2720    11.8960    11.1980    24.5480 
   50.6250    50.6250    -0.0300    -0.0160   -32.2570     2.0020    61.2040    20.9870    11.5890    11.0840    24.5450 
   50.7500    50.7500    -0.0320    -0.0160   -32.3150     2.0250    58.2320    21.0650    11.5630    11.0770    24.5640 
   50.8750    50.8750    -0.0340    -0.0170   -32.3270     2.0320    57.1790    21.2130    11.6780    11.0680    24.6030 
   51.0000    51.0000    -0.0360    -0.0180   -32.3030     2.0310    60.0440    21.2660    11.8150    11.1120    24.6160 
   51.1250    51.1250    -0.0380    -0.0190   -32.2380     2.0270    65.4950    21.0750    11.8510    11.2100    24.5610 
