~V
VERS. 2.00: Ver 2.00
~W
STRT.M 35.0000:
STOP.M 279.0000:
STEP.M 0.1250:
NULL. -999.2500:
UWI. FD11183:
~C
DEPT.M :
TVD. :
DX. :
DY. :
SP.MV :
GR.API :
RI. :
RML.OHMM :
RXO.OHMM :
DEN.GM/CC :
~A
# ...
  162.7500   158.0070   -27.1720     6.1680  -110.3220    64.5410     5.5670     5.8160     7.5370     2.4440 
  162.8750   158.1220   -27.2200     6.1740  -110.2920    64.9830     5.4070     5.6440     6.5540     2.4340 
  163.0000   158.2370   -27.2680     6.1790  -110.3630    62.7050     5.2960     5.5320     6.0130     2.4320 
  163.1250   158.3520   -27.3170     6.1840  -110.5120    60.0610     5.2800     5.5150     6.0050     2.4350 
  163.2500   158.4670   -27.3650     6.1890  -110.5970    58.8590     5.3650     5.6190     6.3490     2.4360 
  163.3750   158.5820   -27.4140     6.1930  -110.5670    57.9770     5.4910     5.7520     6.7680     2.4300 
  163.5000   158.6970   -27.4620     6.1980  -110.4690    55.9850     5.6060     5.8750     6.9960     2.4210 
  163.6250   158.8130   -27.5100     6.2030  -110.3170    54.3030     5.6860     5.9650     7.2630     2.4200 
  163.7500   158.9280   -27.5590     6.2080  -110.2050    53.0810     5.7510     6.0470     7.5480     2.4270 
  163.8750   159.0430   -27.6070     6.2120  -110.1410    52.1660     5.8640     6.1880     7.4960     2.4340 
  164.0000   159.1580   -27.6550     6.2170  -110.0870    52.6150     6.0320     6.3740     7.3980     2.4420 
  164.1250   159.2730   -27.7040     6.2220  -110.0430    54.6950     6.2160     6.5870     8.0730     2.4570 
  164.2500   159.3890   -27.7520     6.2260  -110.0220    56.0880     6.3990     6.8380     9.2660     2.4690 
  164.3750   159.5040   -27.8000     6.2310  -110.0850    55.3560     6.5300     7.0480    10.1390     2.4630 
  164.5000   159.6190   -27.8490     6.2360  -110.2230    55.1120     6.6040     7.1670    10.1140     2.4510 
  164.6250   159.7340   -27.8970     6.2410  -110.3030    57.9480     6.6010     7.1770     9.2560     2.4490 
  164.7500   159.8490   -27.9450     6.2450  -110.3220    61.3370     6.5250     7.1060     8.7350     2.4650 
  164.8750   159.9650   -27.9930     6.2500  -110.3340    61.9520     6.4020     7.0070     8.4010     2.4920 
  165.0000   160.0800   -28.0420     6.2550  -110.3960    59.5360     6.2620     6.9160     7.8110     2.5070 
  165.1250   160.1950   -28.0900     6.2600  -110.4760    56.7690     6.1280     6.8250     7.5400     2.4920 
  165.2500   160.3100   -28.1380     6.2640  -110.5290    55.6160     5.9790     6.7070     7.3960     2.4660 
  165.3750   160.4250   -28.1860     6.2690  -110.5550    56.5210     5.8270     6.5880     7.1230     2.4560 
  165.5000   160.5410   -28.2350     6.2740  -110.6140    58.3780     5.6750     6.4540     7.3050     2.4620 
  165.6250   160.6560   -28.2830     6.2780  -110.6940    58.2470     5.5090     6.2730     7.8720     2.4700 
  165.7500   160.7710   -28.3310     6.2830  -110.7940    56.6590     5.3990     6.1420     7.6790     2.4740 
  165.8750   160.8860   -28.3790     6.2870  -110.8000    56.1710     5.3640     6.0820     6.8020     2.4760 
  166.0000   161.0010   -28.4280     6.2920  -110.6900    55.6910     5.3930     6.0990     6.2950     2.4800 
  166.1250   161.1170   -28.4760     6.2960  -110.4610    52.9760     5.5050     6.1590     6.4420     2.4950 
  166.2500   161.2320   -28.5250     6.3000  -110.2220    49.7560     5.6700     6.2590     7.3990     2.5100 
  166.3750   161.3470   -28.5730     6.3050  -110.0490    50.6690     5.8850     6.4570     8.4420     2.5040 
  166.5000   161.4620   -28.6220     6.3100  -109.9240    53.9230     6.0480     6.6310     8.3360     2.4810 
  166.6250   161.5770   -28.6700     6.3140  -109.8770    57.6720     6.1660     6.8190     7.8840     2.4590 
  166.7500   161.6920   -28.7190     6.3190  -109.9480    62.8580     6.2180     6.9200     8.0350     2.4510 
  166.8750   161.8070   -28.7680     6.3240  -110.0820    68.1020     6.2110     6.8890     7.9560     2.4490 
  167.0000   161.9220   -28.8170     6.3300  -110.1550    70.3800     6.2070     6.8510     7.4400     2.4480 
  167.1250   162.0370   -28.8660     6.3350  -110.0810    69.0510     6.2070     6.8250     7.2880     2.4440 
  167.2500   162.1520   -28.9140     6.3400  -109.9520    67.5940     6.2530     6.8730     7.5050     2.4390 
  167.3750   162.2670   -28.9630     6.3460  -109.9120    67.7440     6.4010     7.0860     7.7420     2.4350 
  167.5000   162.3820   -29.0120     6.3510  -110.0000    69.6800     6.6220     7.3910     8.1610     2.4280 
  167.6250   162.4960   -29.0610     6.3560  -110.0990    69.8140     6.8310     7.6610     9.1760     2.4240 
  167.7500   162.6110   -29.1100     6.3610  -110.2280    67.0640     6.9880     7.8460    10.2200     2.4270 
  167.8750   162.7260   -29.1590     6.3670  -110.3890    65.6170     7.0560     7.8610    10.1920     2.4300 
  168.0000   162.8410   -29.2080     6.3720  -110.4790    67.7030     6.9840     7.6490     9.3220     2.4250 
  168.1250   162.9560   -29.2580     6.3770  -110.4910    68.8170     6.8480     7.3660     8.5600     2.4150 
  168.2500   163.0710   -29.3070     6.3830  -110.6150    67.6900     6.7320     7.1160     8.4380     2.4090 
  168.3750   163.1860   -29.3560     6.3880  -110.8950    67.5900     6.7220     7.0450     8.7330     2.4080 
  168.5000   163.3000   -29.4050     6.3930  -111.2390    68.2070     6.8490     7.1630     8.8540     2.4090 
  168.6250   163.4150   -29.4540     6.3980  -111.5280    66.4150     7.0520     7.3860     8.7450     2.4070 
  168.7500   163.5300   -29.5030     6.4030  -111.7280    65.3590     7.2040     7.5820     8.6190     2.4080 
  168.8750   163.6450   -29.5520     6.4080  -111.9300    67.1860     7.2340     7.6310     8.7500     2.4130 
  169.0000   163.7600   -29.6020     6.4130  -112.0670    68.7680     7.0850     7.5030     9.1280     2.4140 
  169.1250   163.8740   -29.6510     6.4170  -112.0880    68.0400     6.8450     7.2520     8.9510     2.4000 
  169.2500   163.9890   -29.7000     6.4220  -112.1250    67.6210     6.6190     6.9780     8.1170     2.3790 
  169.3750   164.1040   -29.7500     6.4270  -112.1480    70.1410     6.4870     6.7880     7.5290     2.3610 
  169.5000   164.2190   -29.7990     6.4320  -112.1760    71.7400     6.4340     6.6640     7.6040     2.3530 
  169.6250   164.3330   -29.8480     6.4360  -112.1890    68.4920     6.4050     6.5740     8.0180     2.3540 
  169.7500   164.4480   -29.8980     6.4410  -112.1360    63.2960     6.3860     6.5070     8.1400     2.3580 
  169.8750   164.5630   -29.9470     6.4460  -112.0450    62.4180     6.4070     6.4930     7.7400     2.3600 
  170.0000   164.6780   -29.9960     6.4510  -111.8750    65.8410     6.5090     6.5620     7.2610     2.3600 
  170.1250   164.7920   -30.0460     6.4570  -111.7230    69.2900     6.7470     6.7500     7.1380     2.3610 
  170.2500   164.9070   -30.0950     6.4620  -111.6010    69.3040     7.1040     7.0550     7.5820     2.3590 
  170.3750   165.0220   -30.1440     6.4670  -111.5080    69.7450     7.5440     7.4850     8.3060     2.3560 
  170.5000   165.1360   -30.1940     6.4720  -111.4760    71.5560     8.0090     8.0260     8.5980     2.3540 
  170.6250   165.2510   -30.2430     6.4770  -111.4970    71.2530     8.4190     8.5770     8.6100     2.3520 
  170.7500   165.3660   -30.2930     6.4820  -111.6260    68.9420     8.7230     9.0190     8.8940     2.3460 
  170.8750   165.4810   -30.3420     6.4870  -111.8650    68.2080     8.8800     9.4410     9.2320     2.3380 
  171.0000   165.5950   -30.3910     6.4920  -112.1080    69.3390     8.9080     9.6480     9.2290     2.3290 
  171.1250   165.7100   -30.4410     6.4970  -112.3550    67.1850     8.7680     9.4500     9.0260     2.3200 
  171.2500   165.8250   -30.4900     6.5020  -112.5790    64.0120     8.4380     9.0610     8.9380     2.3110 
  171.3750   165.9390   -30.5400     6.5060  -112.8270    66.5560     8.0110     8.5680     8.7050     2.3040 
  171.5000   166.0540   -30.5890     6.5110  -113.0850    72.3890     7.4910     7.9870     8.1660     2.3020 
  171.6250   166.1690   -30.6390     6.5160  -113.2970    74.4220     6.9900     7.4280     7.5140     2.3070 
  171.7500   166.2840   -30.6880     6.5210  -113.5770    70.3980     6.6460     7.0130     6.8520     2.3170 
