~V
VERS. 2.00: Ver 2.00
~W
STRT.M 20.0000:
STOP.M 285.0000:
STEP.M 0.1250:
NULL. -999.2500:
UWI. FD11157:
~C
DEPT.M :
TVD. :
DX. :
DY. :
GR.API :
RML.OHMM :
RI. :
RXO.OHMM :
CALI.CM :
SP.MV :
DEN.GM/CC :
~A
# ...
  176.7500   175.2190    -7.7060   -15.9230    56.6560   139.4340   130.1660    20.4370    20.0070   -36.0050     2.2050 
  176.8750   175.3400    -7.7200   -15.9530    56.5910   143.2740   134.1010    22.9870    20.0060   -36.0570     2.2120 
  177.0000   175.4600    -7.7350   -15.9840    55.6490   145.5350   136.2710    24.6450    20.0050   -36.0970     2.2200 
  177.1250   175.5800    -7.7490   -16.0150    50.3750   145.9820   136.5750    23.0930    19.9980   -36.1060     2.2270 
  177.2500   175.7010    -7.7640   -16.0450    45.7360   145.0200   135.6570    20.1760    20.0010   -36.0910     2.2310 
  177.3750   175.8210    -7.7780   -16.0760    46.7740   142.8480   133.8480    18.1660    20.0040   -36.0670     2.2320 
  177.5000   175.9410    -7.7930   -16.1070    52.9550   139.6090   131.2690    17.5710    19.9980   -36.0060     2.2310 
  177.6250   176.0610    -7.8070   -16.1370    57.8100   135.0750   127.5490    18.4820    19.9990   -35.8960     2.2270 
  177.7500   176.1820    -7.8220   -16.1680    59.0220   129.3290   122.4860    20.4430    20.0010   -35.8170     2.2240 
  177.8750   176.3020    -7.8360   -16.1990    59.4550   122.6200   116.0460    22.8550    20.0030   -35.7110     2.2210 
  178.0000   176.4220    -7.8510   -16.2290    60.4440   115.7670   108.8230    24.4440    20.0040   -35.5670     2.2210 
  178.1250   176.5430    -7.8660   -16.2600    58.6280   110.4620   102.3090    23.3060    19.9970   -35.4700     2.2250 
  178.2500   176.6630    -7.8800   -16.2910    55.2170   107.7900    97.8580    20.4420    19.9960   -35.3660     2.2320 
  178.3750   176.7830    -7.8950   -16.3210    54.5840   108.2580    96.2730    17.9130    19.9960   -35.2310     2.2410 
  178.5000   176.9040    -7.9090   -16.3520    56.8200   111.7340    97.7830    16.7760    19.9960   -35.1100     2.2460 
  178.6250   177.0240    -7.9240   -16.3830    57.6150   117.8790   102.3420    17.3530    19.9960   -34.9580     2.2450 
  178.7500   177.1440    -7.9380   -16.4140    56.7930   125.2170   108.4670    18.9760    19.9960   -34.7750     2.2410 
  178.8750   177.2640    -7.9530   -16.4440    55.6520   132.6880   115.0260    20.9360    19.9960   -34.5740     2.2360 
  179.0000   177.3850    -7.9670   -16.4750    56.6560   139.3760   121.0490    22.5500    19.9960   -34.3600     2.2330 
  179.1250   177.5050    -7.9820   -16.5060    61.8100   144.5730   125.7470    22.4590    19.9960   -34.1360     2.2290 
  179.2500   177.6250    -7.9960   -16.5360    67.9560   148.9000   129.3820    20.8620    19.9960   -33.8970     2.2250 
  179.3750   177.7460    -8.0110   -16.5670    70.4070   153.4000   132.5410    19.4490    19.9960   -33.6250     2.2240 
  179.5000   177.8660    -8.0250   -16.5980    69.3030   158.9240   135.8290    19.0550    19.9960   -33.3480     2.2290 
  179.6250   177.9860    -8.0400   -16.6280    68.3120   165.4330   139.5480    19.5570    19.9970   -33.0610     2.2420 
  179.7500   178.1060    -8.0550   -16.6590    67.6490   171.2960   143.1560    20.8480    20.0030   -32.7780     2.2570 
  179.8750   178.2270    -8.0690   -16.6900    67.2670   174.6190   145.4860    22.9690    20.0090   -32.5350     2.2680 
  180.0000   178.3470    -8.0840   -16.7200    67.5030   174.0080   145.3000    24.5770    20.0040   -32.2930     2.2750 
  180.1250   178.4660    -8.1000   -16.7550    65.6830   168.8370   141.5330    23.6010    19.8240   -32.0170     2.2750 
  180.2500   178.5850    -8.1160   -16.7900    61.2390   161.0430   135.2350    21.1480    19.7510   -31.7740     2.2660 
  180.3750   178.7040    -8.1320   -16.8250    56.5890   151.9670   127.4570    18.9230    19.7030   -31.6100     2.2480 
  180.5000   178.8230    -8.1490   -16.8590    54.8280   142.6730   119.2910    17.6300    19.6840   -31.4330     2.2250 
  180.6250   178.9420    -8.1650   -16.8940    54.6730   133.8450   111.7050    18.0830    19.7290   -31.2830     2.2040 
  180.7500   179.0610    -8.1810   -16.9290    54.8850   125.5650   104.9570    19.9050    19.7420   -31.1280     2.1930 
  180.8750   179.1800    -8.1970   -16.9640    56.4420   117.8480    98.9960    22.3870    19.7450   -30.9270     2.1900 
  181.0000   179.2990    -8.2140   -16.9980    58.8310   110.6110    93.6090    23.4840    19.7440   -30.7500     2.1910 
  181.1250   179.4180    -8.2300   -17.0330    60.8360   103.8900    88.6320    22.0270    19.7370   -30.5660     2.1950 
  181.2500   179.5370    -8.2460   -17.0680    63.0800    98.1490    84.2920    20.1660    19.7100   -30.3410     2.2030 
  181.3750   179.6560    -8.2630   -17.1020    66.1750    94.2600    81.3470    19.1970    19.7220   -30.1040     2.2170 
  181.5000   179.7750    -8.2790   -17.1370    69.5270    93.0330    80.5740    19.3390    19.8250   -29.8600     2.2340 
  181.6250   179.8940    -8.2950   -17.1720    71.8490    95.3050    82.7140    20.2310    19.9120   -29.5990     2.2480 
  181.7500   180.0130    -8.3110   -17.2070    73.3940    99.8660    86.9500    21.3640    19.9600   -29.3380     2.2540 
  181.8750   180.1320    -8.3280   -17.2410    72.9780   104.6790    92.0920    22.7360    19.9910   -29.0770     2.2520 
  182.0000   180.2500    -8.3440   -17.2760    68.7740   106.3570    95.7580    24.1400    20.0030   -28.8290     2.2470 
  182.1250   180.3690    -8.3600   -17.3110    61.7860    99.8630    93.3750    23.9750    19.9910   -28.6060     2.2400 
  182.2500   180.4880    -8.3760   -17.3450    57.8070    90.5520    83.8060    22.5060    19.9580   -28.3780     2.2340 
  182.3750   180.6070    -8.3930   -17.3800    58.3580    75.9950    69.0590    20.7200    19.9250   -28.1400     2.2340 
  182.5000   180.7260    -8.4090   -17.4150    60.1950    56.8750    53.3270    19.5420    19.9200   -27.9200     2.2450 
  182.6250   180.8450    -8.4250   -17.4500    62.3430    43.2170    40.9690    18.1780    19.9280   -27.7070     2.2690 
  182.7500   180.9640    -8.4410   -17.4840    66.8410    34.7080    32.7530    16.5770    19.9540   -27.5180     2.3000 
  182.8750   181.0830    -8.4580   -17.5190    71.0850    30.1610    28.0490    15.3980    20.0360   -27.3650     2.3260 
  183.0000   181.2020    -8.4740   -17.5540    71.3170    28.1110    25.8230    14.6490    20.0760   -27.2130     2.3420 
  183.1250   181.3210    -8.4900   -17.5890    67.4550    27.3290    25.2770    14.2940    20.0810   -27.1080     2.3450 
  183.2500   181.4400    -8.5060   -17.6230    63.8920    26.6250    25.1930    15.0080    20.0740   -27.0450     2.3460 
  183.3750   181.5590    -8.5230   -17.6580    63.2560    25.5020    24.7710    17.1590    20.0770   -26.9790     2.3490 
  183.5000   181.6780    -8.5390   -17.6930    65.4870    23.9190    23.6240    17.7250    20.0820   -26.9510     2.3580 
  183.6250   181.7970    -8.5550   -17.7270    67.1200    22.1360    22.0000    14.9240    20.0840   -26.9830     2.3710 
  183.7500   181.9160    -8.5720   -17.7620    68.2490    20.5690    20.5770    11.9970    20.0910   -27.0070     2.3820 
  183.8750   182.0350    -8.5880   -17.7970    70.1290    19.6570    19.7510    11.3610    20.0870   -27.0850     2.3870 
  184.0000   182.1540    -8.6040   -17.8320    73.2160    19.7620    19.7440    12.7090    20.0750   -27.1900     2.3860 
  184.1250   182.2730    -8.6200   -17.8660    74.8540    21.2020    20.7330    14.5500    20.0310   -27.3280     2.3870 
  184.2500   182.3920    -8.6370   -17.9010    74.4830    23.6600    22.4550    15.2480    20.0010   -27.5080     2.3890 
  184.3750   182.5110    -8.6530   -17.9360    74.1970    26.9170    24.7700    14.5740    19.9970   -27.7150     2.3880 
  184.5000   182.6300    -8.6690   -17.9700    73.8090    31.7710    27.5620    14.1530    20.0020   -27.9780     2.3790 
  184.6250   182.7490    -8.6850   -18.0050    72.0080    34.8850    30.7340    15.4280    20.0270   -28.3060     2.3590 
  184.7500   182.8680    -8.7020   -18.0400    66.8090    38.9690    34.0650    16.8280    20.0030   -28.6870     2.3350 
  184.8750   182.9870    -8.7180   -18.0750    61.8000    42.9310    37.3300    18.6970    19.9390   -29.0940     2.3130 
