~V
VERS. 2.00: Ver 2.00
~W
STRT.M 15.0000:
STOP.M 219.0000:
STEP.M 0.1250:
NULL. -999.2500:
UWI. FD11101:
~C
DEPT.M :
TVD. :
DX. :
DY. :
GR.API :
RML.OHMM :
RI. :
RXO.OHMM :
CALI.CM :
SP.MV :
DEN.GM/CC :
~A
# ...
  171.7500   163.0210     7.5390    41.1640    97.6120    18.1780    16.7280     9.9800    21.0700   -31.2780     2.4290 
  171.8750   163.1290     7.5480    41.2250   100.6140    18.6370    17.2360    10.2870    21.0590   -31.5230     2.4310 
  172.0000   163.2370     7.5580    41.2870   100.3250    18.6110    17.3930    10.6250    21.0830   -31.7910     2.4270 
  172.1250   163.3450     7.5680    41.3490    98.4320    18.1220    17.0880    11.0590    21.0520   -32.0640     2.4110 
  172.2500   163.4530     7.5780    41.4110    98.8340    17.5460    16.6120    11.2810    21.0320   -32.3460     2.3920 
  172.3750   163.5620     7.5870    41.4730    99.1770    17.1290    16.2110    11.2140    21.0230   -32.6330     2.3770 
  172.5000   163.6700     7.5970    41.5340    97.6940    16.9440    16.0070    10.9550    21.0000   -32.9390     2.3720 
  172.6250   163.7780     7.6070    41.5960    94.4130    16.8570    15.9410    10.6850    20.9260   -33.2730     2.3800 
  172.7500   163.8860     7.6160    41.6580    92.5310    16.6090    15.7870    10.9680    20.8290   -33.6320     2.3930 
  172.8750   163.9950     7.6260    41.7200    94.1020    16.0620    15.3900    11.2360    20.7570   -34.0320     2.4080 
  173.0000   164.1030     7.6360    41.7820    96.8500    15.2270    14.7180    10.6670    20.6800   -34.4040     2.4190 
  173.1250   164.2110     7.6460    41.8440    99.2840    14.2690    13.8730    10.0390    20.5830   -34.7090     2.4250 
  173.2500   164.3190     7.6550    41.9050   101.6730    13.4480    13.0890     9.4020    20.4730   -35.0090     2.4250 
  173.3750   164.4270     7.6650    41.9670   104.8270    12.9340    12.5330     9.2080    20.3870   -35.3310     2.4240 
  173.5000   164.5360     7.6750    42.0290   107.3340    12.8220    12.3190     9.0680    20.3320   -35.5700     2.4230 
  173.6250   164.6440     7.6840    42.0910   106.2630    13.1560    12.5360     9.0280    20.3180   -35.6870     2.4250 
  173.7500   164.7520     7.6940    42.1530   104.3640    13.7210    13.0270     9.1810    20.3100   -35.7750     2.4300 
  173.8750   164.8600     7.7040    42.2140   102.7890    14.2940    13.6020     9.6520    20.2970   -35.8000     2.4360 
  174.0000   164.9680     7.7140    42.2760   102.2330    14.6350    14.0240    10.2360    20.2850   -35.7420     2.4410 
  174.1250   165.0770     7.7230    42.3380   103.4530    14.5070    14.0140    10.6190    20.2840   -35.6230     2.4450 
  174.2500   165.1850     7.7330    42.4000   106.0880    14.0030    13.5910    10.0550    20.2800   -35.4710     2.4480 
  174.3750   165.2930     7.7430    42.4620   109.3600    13.3130    12.8960     8.6660    20.2850   -35.2220     2.4510 
  174.5000   165.4010     7.7520    42.5230   110.9220    12.6860    12.1590     7.8650    20.2840   -34.9430     2.4570 
  174.6250   165.5090     7.7620    42.5850   110.5350    12.4260    11.6640     7.8460    20.2820   -34.6940     2.4660 
  174.7500   165.6180     7.7720    42.6470   109.3920    12.6840    11.5670     7.9670    20.2730   -34.4820     2.4740 
  174.8750   165.7260     7.7820    42.7090   107.9770    13.6560    12.0160     8.0610    20.2590   -34.2570     2.4780 
  175.0000   165.8340     7.7910    42.7710   106.3960    15.6290    13.2110     8.2850    20.2560   -34.0160     2.4740 
  175.1250   165.9420     7.8010    42.8330   104.4350    19.2500    15.7170     8.8060    20.3040   -33.8740     2.4580 
  175.2500   166.0510     7.8110    42.8940   101.0320    24.5280    19.7970     9.8560    20.4220   -33.8120     2.4270 
  175.3750   166.1590     7.8200    42.9560    93.9120    31.1110    25.5520    10.9210    20.5790   -33.8320     2.3840 
  175.5000   166.2670     7.8300    43.0180    85.1510    37.7830    32.2880    11.6180    20.6850   -33.9610     2.3340 
  175.6250   166.3750     7.8400    43.0800    79.2710    41.9640    37.7840    11.6750    20.7320   -34.1660     2.2920 
  175.7500   166.4830     7.8500    43.1420    76.7740    42.2550    39.9590    11.5660    20.7420   -34.3430     2.2690 
  175.8750   166.5920     7.8590    43.2030    78.8310    38.7780    38.1760    11.4050    20.7320   -34.5840     2.2710 
  176.0000   166.7000     7.8690    43.2650    85.2570    33.1800    33.5490    11.3020    20.7040   -34.9200     2.2950 
  176.1250   166.8080     7.8790    43.3270    90.0530    27.7800    28.2550    10.8770    20.6870   -35.2320     2.3270 
  176.2500   166.9160     7.8880    43.3890    89.9980    23.9030    24.0410    10.4520    20.6920   -35.5370     2.3540 
  176.3750   167.0240     7.8980    43.4510    89.4520    21.8020    21.3740    10.0680    20.7180   -35.8880     2.3720 
  176.5000   167.1330     7.9080    43.5130    92.0320    21.4040    20.2580     9.6710    20.7460   -36.1780     2.3810 
  176.6250   167.2410     7.9180    43.5740    93.9840    22.9670    20.9240     9.4860    20.7900   -36.4270     2.3840 
  176.7500   167.3490     7.9270    43.6360    91.3610    26.3610    23.2980     9.3900    20.8710   -36.7610     2.3780 
  176.8750   167.4570     7.9370    43.6980    86.4320    31.7540    27.6750     9.1650    20.9640   -37.1230     2.3620 
  177.0000   167.5650     7.9460    43.7600    80.9850    39.1060    34.2370     8.8350    21.0180   -37.4670     2.3340 
  177.1250   167.6730     7.9560    43.8220    76.6280    47.9220    42.8100     8.8360    21.0310   -37.8950     2.2990 
  177.2500   167.7810     7.9650    43.8850    74.0200    56.5270    51.7150     9.2550    21.0310   -38.4040     2.2710 
  177.3750   167.8890     7.9740    43.9470    73.0910    63.4800    59.3470    10.0360    21.0320   -38.9070     2.2560 
  177.5000   167.9970     7.9840    44.0090    73.8940    68.0500    64.6610    10.6990    21.0310   -39.4940     2.2560 
  177.6250   168.1050     7.9930    44.0720    75.1840    70.5650    67.5820    10.7390    21.0240   -40.1940     2.2670 
  177.7500   168.2130     8.0020    44.1340    76.5000    72.7890    69.7890    10.5310    21.0140   -40.8730     2.2760 
  177.8750   168.3210     8.0120    44.1960    76.4640    75.7290    72.4100    10.4160    21.0180   -41.4650     2.2800 
  178.0000   168.4290     8.0210    44.2590    75.4520    79.5180    75.8280    10.3490    21.0270   -42.0210     2.2790 
  178.1250   168.5370     8.0300    44.3210    75.6900    83.2140    79.3950    10.3100    21.0310   -42.5140     2.2760 
  178.2500   168.6450     8.0400    44.3830    76.9380    85.4380    81.8030    10.2250    21.0310   -42.8700     2.2740 
  178.3750   168.7530     8.0490    44.4460    78.0180    85.3770    82.1530    10.0960    21.0170   -43.1110     2.2720 
  178.5000   168.8610     8.0580    44.5080    78.3090    83.1340    80.3350     9.8330    20.9720   -43.2670     2.2690 
  178.6250   168.9690     8.0680    44.5700    78.4890    79.7480    77.0780     9.7030    20.8840   -43.2820     2.2670 
  178.7500   169.0770     8.0770    44.6330    78.0390    76.9680    74.0240    10.2120    20.8860   -43.1720     2.2680 
  178.8750   169.1850     8.0860    44.6950    78.6500    75.9000    72.2930    10.9970    20.9930   -43.0440     2.2740 
  179.0000   169.2930     8.0960    44.7570    81.6830    77.1680    72.6030    11.4400    21.1050   -42.8400     2.2820 
  179.1250   169.4000     8.1050    44.8200    84.2240    81.4460    75.6950    11.9090    21.1950   -42.4540     2.2860 
  179.2500   169.5080     8.1140    44.8820    83.0670    88.3910    81.2930    12.5440    21.2610   -41.9030     2.2780 
  179.3750   169.6160     8.1240    44.9440    79.2030    98.1860    89.5450    13.0890    21.2770   -41.0460     2.2550 
  179.5000   169.7240     8.1330    45.0070    75.5770   111.1850   100.7210    13.4850    21.2240   -39.6480     2.2270 
  179.6250   169.8320     8.1420    45.0690    71.3190   128.3520   115.5440    13.9180    21.0210   -37.6190     2.2230 
  179.7500   169.9400     8.1520    45.1310    65.9510   148.5540   132.8840    14.9130    20.7710   -35.2790     2.2680 
  179.8750   170.0480     8.1610    45.1940    62.6510   169.4720   150.7790    17.1800    20.5400   -32.7410     2.3660 
