~V
VERS. 2.00: Ver 2.00
~W
STRT.M 15.0000:
STOP.M 224.0000:
STEP.M 0.1250:
NULL. -999.2500:
UWI. FD11007:
~C
DEPT.M :
TVD. :
DX. :
DY. :
DEN.GM/CC :
GR.API :
RML.OHMM :
RI. :
RXO.OHMM :
CALI.CM :
SP.MV :
~A
# ...
   39.7500    39.7500     0.0000     0.0000     2.1130    71.9930    24.3560    13.6300    12.7820    25.5790   -38.2320 
   39.8750    39.8750     0.0000     0.0000     2.1000    73.0620    23.4640    13.2950    12.6990    25.7260   -38.2460 
   40.0000    40.0000     0.0000     0.0000     2.0910    74.9540    22.0800    12.7150    12.3970    25.8850   -38.1640 
   40.1250    40.1250     0.0000     0.0000     2.0870    77.0620    20.7050    12.0870    11.8000    25.9690   -37.9780 
   40.2500    40.2500     0.0000     0.0000     2.0810    76.6420    19.9480    11.6890    11.4860    25.9300   -37.7170 
   40.3750    40.3750     0.0000     0.0000     2.0700    74.4140    20.2220    11.7200    11.5340    25.7930   -37.4250 
   40.5000    40.5000     0.0000     0.0000     2.0600    72.0100    21.6780    12.2850    11.7860    25.6280   -37.1290 
   40.6250    40.6250     0.0000     0.0000     2.0890    67.9070    24.1920    13.4010    11.6140    25.5280   -36.8720 
   40.7500    40.7500     0.0000     0.0000     2.1870    64.2710    26.7990    14.6890    10.6610    25.5500   -36.7270 
   40.8750    40.8750     0.0000     0.0000     2.3430    63.2330    28.4450    15.6810     9.9860    25.6820   -36.7050 
   41.0000    41.0000     0.0000     0.0000     2.4790    64.4220    28.3050    15.9350    10.6470    25.8420   -36.8120 
   41.1250    41.1250     0.0000     0.0000     2.4820    66.3910    26.2800    15.2550    11.7430    25.9260   -37.0630 
   41.2500    41.2500     0.0000     0.0000     2.3880    68.0540    23.7630    14.1840    12.5100    25.9420   -37.4310 
   41.3750    41.3750     0.0000     0.0000     2.2680    70.5120    21.7150    13.1610    12.6550    25.9380   -37.8590 
   41.5000    41.5000     0.0000     0.0000     2.1710    73.0210    20.5640    12.4490    12.5160    25.9390   -38.3040 
   41.6250    41.6250     0.0000     0.0000     2.1160    75.0510    20.3150    12.1650    12.5810    25.9430   -38.6920 
   41.7500    41.7500     0.0000     0.0000     2.0880    76.4280    20.4310    12.1330    12.5140    25.9430   -38.9480 
   41.8750    41.8750     0.0000     0.0000     2.0720    76.3610    20.5880    12.2120    12.4140    25.9400   -39.0810 
   42.0000    42.0000     0.0000     0.0000     2.0640    77.5440    20.6130    12.2910    12.2740    25.9350   -39.0940 
   42.1250    42.1250     0.0000     0.0000     2.0660    79.7590    20.4210    12.2930    12.2140    25.9220   -38.9830 
   42.2500    42.2500     0.0000     0.0000     2.0760    80.7930    20.0710    12.2090    12.3220    25.8970   -38.7600 
   42.3750    42.3750     0.0000     0.0000     2.0890    79.6900    19.6710    12.0710    12.3420    25.8680   -38.5410 
   42.5000    42.5000     0.0000     0.0000     2.0980    76.7910    19.3780    11.9390    12.2980    25.8570   -38.3880 
   42.6250    42.6250     0.0000     0.0000     2.1020    74.9470    19.3840    11.9020    11.6670    25.8970   -38.3320 
   42.7500    42.7500     0.0000     0.0000     2.1050    75.4910    19.7170    11.9970    11.0710    25.9660   -38.4040 
   42.8750    42.8750     0.0000     0.0000     2.1110    78.1450    20.3460    12.2390    11.1130    26.0240   -38.5900 
   43.0000    43.0000     0.0000     0.0000     2.1230    79.7580    21.1420    12.6000    12.2450    26.0780   -38.8940 
   43.1250    43.1250     0.0000     0.0000     2.1370    78.0280    21.8680    12.9960    12.4880    26.1940   -39.2560 
   43.2500    43.2500     0.0000     0.0000     2.1440    75.0430    22.3100    13.3070    12.4200    26.3500   -39.5910 
   43.3750    43.3750     0.0000     0.0000     2.1420    73.0820    22.3500    13.4420    12.6600    26.4580   -39.8540 
   43.5000    43.5000     0.0000     0.0000     2.1300    72.2840    21.9910    13.3700    13.1480    26.4340   -40.0290 
   43.6250    43.6250     0.0000     0.0000     2.1160    71.4850    21.3580    13.1170    13.1190    26.2470   -40.1070 
   43.7500    43.7500     0.0000     0.0000     2.1070    70.5070    20.7120    12.8110    12.7490    26.0090   -40.0420 
   43.8750    43.8750     0.0000     0.0000     2.1050    68.3970    20.1900    12.5250    12.5250    25.8290   -39.8710 
   44.0000    44.0000     0.0000     0.0000     2.1090    66.7330    19.8320    12.2910    12.6300    25.7600   -39.6320 
   44.1250    44.1250     0.0000     0.0000     2.1150    67.5730    19.5710    12.0940    12.9890    25.7630   -39.3510 
   44.2500    44.2500     0.0000     0.0000     2.1170    69.0190    19.1950    11.8570    13.1910    25.7690   -39.0310 
   44.3750    44.3750     0.0000     0.0000     2.1140    68.7250    18.5330    11.5030    13.1610    25.7680   -38.6910 
   44.5000    44.5000     0.0000     0.0000     2.1080    68.0370    17.5610    11.0120    12.9020    25.7650   -38.3640 
   44.6250    44.6250     0.0000     0.0000     2.1050    70.7950    16.5400    10.4790    12.4510    25.7660   -38.0640 
   44.7500    44.7500     0.0000     0.0000     2.1130    73.3700    15.9230    10.1000    12.1430    25.7690   -37.8110 
   44.8750    44.8750     0.0000     0.0000     2.1310    71.9980    16.0270    10.0280    11.7730    25.7680   -37.6010 
   45.0000    45.0000     0.0000     0.0000     2.1520    68.2820    16.9210    10.3250    11.5300    25.7660   -37.4290 
   45.1250    45.1250     0.0000     0.0000     2.1580    64.4640    18.3490    10.9360    11.2500    25.7690   -37.3200 
   45.2500    45.2500     0.0000     0.0000     2.1500    61.7920    19.5720    11.5500    11.0870    25.7650   -37.3040 
   45.3750    45.3750     0.0000     0.0000     2.1360    60.3840    19.9720    11.8690    10.7340    25.7250   -37.3780 
   45.5000    45.5000     0.0000     0.0000     2.1260    60.6760    19.2670    11.7050    10.6520    25.6490   -37.5490 
   45.6250    45.6250     0.0000     0.0000     2.1280    62.1750    17.6870    11.0620    11.2280    25.5890   -37.7950 
   45.7500    45.7500     0.0000     0.0000     2.1370    64.5220    16.0420    10.2730    12.8390    25.5720   -38.0560 
   45.8750    45.8750     0.0000     0.0000     2.1440    69.7270    14.7480     9.5410    15.3140    25.5770   -38.2890 
   46.0000    46.0000     0.0000     0.0000     2.1450    75.1650    13.8700     8.9480    15.3330    25.5820   -38.5010 
   46.1250    46.1250     0.0000     0.0000     2.1410    75.2590    13.2290     8.4800    13.4940    25.5830   -38.6810 
   46.2500    46.2500     0.0000     0.0000     2.1360    72.8370    12.5820     8.0590    11.8740    25.5660   -38.7970 
   46.3750    46.3750     0.0000     0.0000     2.1310    74.6140    11.9220     7.6790    10.9070    25.5200   -38.8880 
   46.5000    46.5000     0.0000     0.0000     2.1290    80.1340    11.3910     7.3880    10.4920    25.4650   -38.9780 
   46.6250    46.6250     0.0000     0.0000     2.1300    82.3800    11.2210     7.2770    10.4240    25.4410   -39.0830 
   46.7500    46.7500     0.0000     0.0000     2.1320    80.7210    11.4090     7.3520    10.3130    25.4510   -39.1740 
   46.8750    46.8750     0.0000     0.0000     2.1300    77.9620    11.8530     7.5810    10.6420    25.4740   -39.1690 
   47.0000    47.0000     0.0000     0.0000     2.1230    76.2860    12.3540     7.8870    11.3980    25.4880   -38.9790 
   47.1250    47.1250     0.0000     0.0000     2.1120    75.0840    12.6040     8.1250    11.4540    25.4890   -38.5250 
   47.2500    47.2500     0.0000     0.0000     2.1000    72.3570    12.4110     8.1570    11.7990    25.4870   -37.6700 
   47.3750    47.3750     0.0000     0.0000     2.0890    68.2400    11.7090     7.9090    11.8380    25.4860   -36.4020 
   47.5000    47.5000     0.0000     0.0000     2.0840    65.5220    10.5960     7.3920    11.1280    25.4860   -34.7090 
   47.6250    47.6250     0.0000     0.0000     2.0970    70.8610     9.3030     6.7040     9.3450    25.4860   -32.6550 
   47.7500    47.7500     0.0000     0.0000     2.1380    80.5770     8.1280     6.0200     6.9600    25.4860   -30.3700 
   47.8750    47.8750     0.0000     0.0000     2.2060    88.6890     7.2300     5.4420     5.4380    25.4860   -28.0800 
