~V
VERS. 2.00: Ver 2.00
~W
STRT.M 15.0000:
STOP.M 224.0000:
STEP.M 0.1250:
NULL. -999.2500:
UWI. FD11007:
~C
DEPT.M :
TVD. :
DX. :
DY. :
DEN.GM/CC :
GR.API :
RML.OHMM :
RI. :
RXO.OHMM :
CALI.CM :
SP.MV :
~A
# ...
  147.0000   146.2650     6.0780    -6.0990     2.5190    61.1050    18.1540    14.3900    12.0180    24.4010   -24.2590 
  147.1250   146.3860     6.1000    -6.1160     2.5210    59.2210    17.8610    14.1470    12.1950    24.4050   -24.2930 
  147.2500   146.5080     6.1220    -6.1330     2.5180    55.4490    17.6090    13.9270    12.1260    24.4050   -24.3270 
  147.3750   146.6300     6.1440    -6.1500     2.5090    53.2660    17.4090    13.7450    11.8590    24.4020   -24.3750 
  147.5000   146.7520     6.1670    -6.1670     2.4990    51.8390    17.2530    13.6000    11.7110    24.4000   -24.4240 
  147.6250   146.8740     6.1890    -6.1840     2.4940    52.7210    17.1290    13.4870    11.9580    24.4000   -24.4550 
  147.7500   146.9960     6.2110    -6.2010     2.4950    57.5560    17.0240    13.3960    12.4090    24.4020   -24.4780 
  147.8750   147.1170     6.2330    -6.2180     2.5010    62.7630    16.9550    13.3360    12.2040    24.4020   -24.5100 
  148.0000   147.2390     6.2560    -6.2350     2.5060    63.0510    16.9470    13.3230    12.0950    24.3990   -24.5200 
  148.1250   147.3610     6.2780    -6.2520     2.5060    59.7070    17.0320    13.3730    11.9790    24.3960   -24.4950 
  148.2500   147.4830     6.3000    -6.2690     2.5020    57.6370    17.1970    13.4750    11.4230    24.4010   -24.4410 
  148.3750   147.6050     6.3220    -6.2860     2.4990    56.2030    17.4010    13.6010    11.1430    24.4170   -24.3620 
  148.5000   147.7270     6.3440    -6.3030     2.4960    54.7240    17.5490    13.6960    11.7460    24.4390   -24.2720 
  148.6250   147.8480     6.3670    -6.3200     2.4930    55.5170    17.5050    13.6680    11.9760    24.4530   -24.1800 
  148.7500   147.9700     6.3890    -6.3370     2.4910    57.1180    17.2550    13.5020    11.8230    24.4550   -24.0710 
  148.8750   148.0920     6.4110    -6.3540     2.4940    56.7080    16.8480    13.2240    11.4350    24.4530   -23.9650 
  149.0000   148.2140     6.4330    -6.3710     2.5010    55.0210    16.3950    12.9040    10.9730    24.4540   -23.8550 
  149.1250   148.3350     6.4560    -6.3890     2.5100    54.4290    16.0760    12.6580    10.3620    24.4570   -23.7180 
  149.2500   148.4570     6.4790    -6.4060     2.5190    54.4410    15.9770    12.5560     9.8090    24.4580   -23.5650 
  149.3750   148.5790     6.5010    -6.4230     2.5270    53.6120    16.0980    12.6130     9.7540    24.4570   -23.4750 
  149.5000   148.7010     6.5240    -6.4400     2.5320    52.0480    16.3820    12.8020    10.0280    24.4600   -23.4500 
  149.6250   148.8220     6.5470    -6.4580     2.5390    51.4970    16.7300    13.0680    10.7080    24.4630   -23.4690 
  149.7500   148.9440     6.5690    -6.4750     2.5500    52.4490    16.9980    13.3120    11.7020    24.4640   -23.5650 
  149.8750   149.0660     6.5920    -6.4920     2.5660    54.6770    17.0730    13.4410    12.0560    24.4630   -23.7600 
  150.0000   149.1870     6.6150    -6.5090     2.5870    56.1180    16.8850    13.3900    11.3150    24.4610   -24.0500 
  150.1250   149.3090     6.6370    -6.5270     2.6020    55.0950    16.4170    13.1220    11.0040    24.4610   -24.4100 
  150.2500   149.4310     6.6600    -6.5440     2.6050    52.9820    15.8360    12.7470    10.9030    24.4630   -24.8310 
  150.3750   149.5530     6.6830    -6.5610     2.5970    51.8790    15.2870    12.3710    10.3650    24.4650   -25.2990 
  150.5000   149.6740     6.7050    -6.5790     2.5850    53.5300    14.8820    12.0860     9.3260    24.4660   -25.8080 
  150.6250   149.7960     6.7280    -6.5960     2.5810    55.7030    14.6540    11.9370     8.9370    24.4620   -26.3340 
  150.7500   149.9180     6.7510    -6.6130     2.5810    55.6550    14.4730    11.8500     9.4480    24.4600   -26.8220 
  150.8750   150.0390     6.7730    -6.6300     2.5730    53.9670    14.2310    11.7530    10.1610    24.4610   -27.2510 
  151.0000   150.1610     6.7960    -6.6480     2.5500    54.7110    13.8970    11.6190     9.9460    24.4650   -27.6300 
  151.1250   150.2830     6.8180    -6.6650     2.5200    62.4490    13.5770    11.5000     9.1200    24.4660   -27.9570 
  151.2500   150.4050     6.8410    -6.6820     2.5030    70.3020    13.4520    11.5010     8.5690    24.4630   -28.2070 
  151.3750   150.5260     6.8640    -6.6990     2.5100    71.4930    13.6590    11.7170     8.3710    24.4600   -28.4050 
  151.5000   150.6480     6.8860    -6.7170     2.5340    66.6490    14.2230    12.1870     9.3360    24.4580   -28.5670 
  151.6250   150.7700     6.9090    -6.7340     2.5530    64.1790    15.0050    12.8440     9.9540    24.4640   -28.6980 
  151.7500   150.8910     6.9320    -6.7510     2.5490    64.1480    15.6440    13.4210    10.2710    24.4380   -28.7990 
  151.8750   151.0130     6.9540    -6.7690     2.5260    61.1010    15.8440    13.6600    10.0260    24.3280   -28.8910 
  152.0000   151.1350     6.9770    -6.7860     2.5010    56.7850    15.4480    13.3940     8.8520    24.1460   -28.9990 
  152.1250   151.2570     7.0000    -6.8030     2.4880    57.7270    14.4660    12.5880     8.1910    23.9890   -29.1450 
  152.2500   151.3780     7.0220    -6.8200     2.4900    61.5450    13.3010    11.5680     7.8610    23.9200   -29.3510 
  152.3750   151.5000     7.0450    -6.8380     2.4990    64.5500    12.3240    10.6320     7.4410    23.8990   -29.6160 
  152.5000   151.6220     7.0680    -6.8550     2.4980    67.0140    11.9070    10.0630     6.9890    23.8670   -29.9570 
  152.6250   151.7430     7.0900    -6.8720     2.4690    70.3640    12.6640    10.2680     6.5000    23.8010   -30.3860 
  152.7500   151.8650     7.1130    -6.8890     2.4160    71.9210    14.9760    11.4860     6.1110    23.7260   -30.8780 
  152.8750   151.9870     7.1350    -6.9070     2.3500    71.1200    19.4050    14.1460     6.3110    23.6660   -31.4220 
  153.0000   152.1090     7.1580    -6.9240     2.2890    69.3650    26.3900    18.7560     7.8680    23.6290   -32.0380 
  153.1250   152.2300     7.1810    -6.9410     2.2500    68.7980    36.0610    25.9400    12.2400    23.6150   -32.7170 
  153.2500   152.3520     7.2030    -6.9590     2.2330    70.4900    46.2800    34.4390    16.9610    23.6150   -33.4290 
  153.3750   152.4740     7.2260    -6.9760     2.2320    74.2920    54.5690    42.1230    20.7770    23.6190   -34.0890 
  153.5000   152.5950     7.2490    -6.9930     2.2420    77.5940    58.5260    46.8640    23.6130    23.6230   -34.6890 
  153.6250   152.7170     7.2710    -7.0100     2.2540    75.7270    58.3290    47.9680    24.7860    23.6240   -35.2400 
  153.7500   152.8390     7.2940    -7.0280     2.2650    72.1700    57.1210    47.6430    25.4990    23.6220   -35.7080 
  153.8750   152.9610     7.3170    -7.0450     2.2750    70.5040    56.4150    47.2320    27.6710    23.6200   -36.0750 
  154.0000   153.0820     7.3390    -7.0620     2.2820    72.0280    56.4960    47.2090    30.3310    23.6200   -36.3630 
  154.1250   153.2040     7.3620    -7.0790     2.2860    73.7150    56.9940    47.4720    26.9720    23.6210   -36.5950 
  154.2500   153.3260     7.3850    -7.0970     2.2890    71.8190    57.5860    47.8730    24.9250    23.6200   -36.7670 
  154.3750   153.4470     7.4070    -7.1140     2.2940    68.2700    58.3610    48.5300    26.1090    23.6200   -36.8760 
  154.5000   153.5690     7.4300    -7.1310     2.2950    65.4850    59.4320    49.5560    27.0790    23.6250   -36.9150 
  154.6250   153.6910     7.4520    -7.1490     2.2930    65.7540    60.8900    51.0200    26.3910    23.6290   -36.8770 
  154.7500   153.8130     7.4750    -7.1660     2.2890    68.1380    62.7340    52.8580    25.7410    23.6290   -36.7660 
  154.8750   153.9340     7.4980    -7.1830     2.2880    70.8430    65.0570    55.1150    25.9060    23.6260   -36.6280 
  155.0000   154.0560     7.5200    -7.2010     2.2910    73.4610    68.0840    57.9260    24.8850    23.6250   -36.4630 
  155.1250   154.1780     7.5430    -7.2190     2.2960    75.0300    72.5150    61.8710    23.4510    23.6260   -36.2910 
