~V
VERS. 2.00: Ver 2.00
~W
STRT.M 15.0000:
STOP.M 224.0000:
STEP.M 0.1250:
NULL. -999.2500:
UWI. FD11007:
~C
DEPT.M :
TVD. :
DX. :
DY. :
DEN.GM/CC :
GR.API :
RML.OHMM :
RI. :
RXO.OHMM :
CALI.CM :
SP.MV :
~A
# ...
  188.2500   186.3030    13.7340   -12.3750     2.3530    86.3090    10.3920     8.0710     6.6880    24.7540   -35.5500 
  188.3750   186.4230    13.7600   -12.3970     2.3640    84.4180     9.8570     7.7960     6.5260    24.4340   -34.5000 
  188.5000   186.5440    13.7860   -12.4180     2.3880    81.4260     9.2470     7.4190     6.4600    24.2010   -33.1490 
  188.6250   186.6640    13.8130   -12.4400     2.4100    79.7560     8.6760     7.0220     6.3310    24.0800   -31.5670 
  188.7500   186.7840    13.8390   -12.4620     2.4230    78.4950     8.1890     6.6570     6.1230    24.0660   -29.8770 
  188.8750   186.9040    13.8650   -12.4840     2.4330    75.4970     7.7900     6.3410     5.9370    24.1920   -28.2520 
  189.0000   187.0250    13.8910   -12.5060     2.4430    70.6580     7.4640     6.0700     5.6670    24.5190   -26.7680 
  189.1250   187.1450    13.9180   -12.5280     2.4540    67.4280     7.2050     5.8450     5.1900    25.0230   -25.4730 
  189.2500   187.2650    13.9440   -12.5490     2.4600    66.8420     7.0020     5.6630     4.7500    25.4580   -24.4500 
  189.3750   187.3850    13.9700   -12.5710     2.4610    68.0540     6.8650     5.5350     4.5680    25.6700   -23.7050 
  189.5000   187.5050    13.9970   -12.5930     2.4600    72.1700     6.8110     5.4740     4.5910    25.6990   -23.2530 
  189.6250   187.6260    14.0230   -12.6150     2.4540    80.6660     6.8620     5.4970     4.7850    25.6830   -23.0780 
  189.7500   187.7460    14.0490   -12.6370     2.4380    88.9840     6.9820     5.5800     5.0260    25.7220   -23.2000 
  189.8750   187.8660    14.0760   -12.6580     2.4050    91.0290     7.1320     5.6930     5.2130    25.8460   -23.5590 
  190.0000   187.9860    14.1020   -12.6800     2.3500    86.0580     7.2640     5.8010     5.3000    26.0150   -24.1400 
  190.1250   188.1070    14.1280   -12.7020     2.2820    82.4690     7.3210     5.8600     5.4680    26.1280   -24.9030 
  190.2500   188.2270    14.1550   -12.7240     2.2230    83.8420     7.2930     5.8520     5.7110    26.1470   -25.7980 
  190.3750   188.3470    14.1810   -12.7460     2.1920    87.1350     7.2000     5.7870     5.8790    26.0160   -26.7510 
  190.5000   188.4670    14.2070   -12.7680     2.2030    90.0130     7.0930     5.6990     5.9590    25.6140   -27.7190 
  190.6250   188.5880    14.2340   -12.7890     2.2590    90.3140     7.0560     5.6470     5.5880    24.9430   -28.6670 
  190.7500   188.7080    14.2600   -12.8110     2.3310    90.1290     7.1400     5.6710     5.1890    24.3590   -29.5500 
  190.8750   188.8280    14.2860   -12.8330     2.3850    90.8130     7.3660     5.7900     5.1810    24.0680   -30.3310 
  191.0000   188.9480    14.3120   -12.8550     2.4070    91.6630     7.7080     5.9940     5.6770    24.0200   -30.9810 
  191.1250   189.0690    14.3390   -12.8770     2.4020    91.4080     8.0950     6.2430     6.3150    24.0400   -31.4970 
  191.2500   189.1890    14.3650   -12.8980     2.3910    91.9960     8.4280     6.4670     6.4710    24.0450   -31.8540 
  191.3750   189.3090    14.3910   -12.9200     2.3810    94.5100     8.6530     6.6270     6.5370    24.0430   -32.0530 
  191.5000   189.4290    14.4180   -12.9420     2.3800    95.5110     8.7670     6.7130     6.5920    24.0380   -32.0970 
  191.6250   189.5490    14.4440   -12.9640     2.3890    93.5590     8.8010     6.7400     6.5280    24.0270   -32.0200 
  191.7500   189.6700    14.4700   -12.9860     2.4030    91.9580     8.8250     6.7530     6.5360    24.0050   -31.8510 
  191.8750   189.7900    14.4970   -13.0080     2.4200    91.5070     8.8790     6.7820     6.7740    23.9910   -31.6580 
  192.0000   189.9100    14.5230   -13.0290     2.4360    91.5430     9.0020     6.8530     7.3560    24.0140   -31.4890 
  192.1250   190.0300    14.5490   -13.0510     2.4410    92.5940     9.2550     7.0130     7.4600    24.0720   -31.3680 
  192.2500   190.1510    14.5760   -13.0730     2.4300    94.8520     9.6390     7.2660     7.5590    24.1180   -31.3380 
  192.3750   190.2710    14.6020   -13.0950     2.4010    95.2750    10.1420     7.6080     7.8970    24.1540   -31.3740 
  192.5000   190.3910    14.6290   -13.1170     2.3590    91.5220    10.7320     8.0210     8.6790    24.2220   -31.4210 
  192.6250   190.5110    14.6570   -13.1400     2.3250    86.2410    11.3470     8.4760     8.8450    24.3270   -31.4270 
  192.7500   190.6300    14.6850   -13.1620     2.3190    83.2810    11.8840     8.9060     8.6210    24.3960   -31.3510 
  192.8750   190.7500    14.7120   -13.1850     2.3460    82.5380    12.2550     9.2470     8.3640    24.4020   -31.2170 
  193.0000   190.8700    14.7400   -13.2070     2.3950    83.0240    12.4270     9.4590     8.9120    24.3830   -31.0470 
  193.1250   190.9900    14.7670   -13.2300     2.4340    85.4930    12.4060     9.5230     9.1080    24.3780   -30.8660 
  193.2500   191.1100    14.7950   -13.2520     2.4440    87.8790    12.3190     9.5130     8.8270    24.3850   -30.7040 
  193.3750   191.2300    14.8220   -13.2750     2.4280    87.6770    12.2810     9.5050     8.5140    24.4010   -30.5890 
  193.5000   191.3490    14.8500   -13.2970     2.4010    85.0730    12.3460     9.5510     8.4870    24.4310   -30.5310 
  193.6250   191.4690    14.8770   -13.3200     2.3810    82.3340    12.4680     9.6440     8.7370    24.3760   -30.5180 
  193.7500   191.5890    14.9050   -13.3420     2.3760    81.0520    12.5710     9.7420     8.5010    24.1420   -30.5400 
  193.8750   191.7090    14.9320   -13.3650     2.3800    81.2470    12.6760     9.8560     8.7590    23.8230   -30.5750 
  194.0000   191.8290    14.9600   -13.3870     2.3840    81.6260    12.8690    10.0370     9.5420    23.6270   -30.6140 
  194.1250   191.9490    14.9880   -13.4100     2.3820    83.2610    13.3110    10.3810     9.3130    23.6530   -30.6500 
  194.2500   192.0680    15.0150   -13.4320     2.3780    85.8030    13.9970    10.9030     8.8650    23.7250   -30.6800 
  194.3750   192.1880    15.0430   -13.4550     2.3800    85.5580    14.7530    11.5170     9.4360    23.7510   -30.6670 
  194.5000   192.3080    15.0700   -13.4770     2.3890    82.5070    15.2210    11.9980    11.3430    23.7510   -30.5660 
  194.6250   192.4280    15.0980   -13.5000     2.3970    82.0460    14.9380    12.0040    13.0210    23.7470   -30.3850 
  194.7500   192.5480    15.1250   -13.5220     2.4020    87.1880    14.0290    11.5490    12.1180    23.7400   -30.1290 
  194.8750   192.6670    15.1530   -13.5450     2.4080    93.8370    12.8640    10.8390    10.0280    23.7320   -29.8280 
  195.0000   192.7870    15.1800   -13.5670     2.4160    97.3310    11.8910    10.1720     8.3770    23.7230   -29.5200 
  195.1250   192.9070    15.2080   -13.5900     2.4230    95.3590    11.4910     9.8410     8.1240    23.7160   -29.2340 
  195.2500   193.0270    15.2360   -13.6120     2.4220    93.4540    11.5490     9.8440     9.0670    23.7780   -28.9990 
  195.3750   193.1470    15.2630   -13.6350     2.4130    94.4490    11.8300    10.0600    10.2530    23.9570   -28.8140 
  195.5000   193.2670    15.2910   -13.6570     2.4010    96.0240    12.0610    10.2990    10.8580    24.2320   -28.6600 
  195.6250   193.3860    15.3180   -13.6800     2.3970    93.9740    12.0090    10.3520    10.4650    24.5270   -28.4730 
  195.7500   193.5060    15.3460   -13.7020     2.4010    92.0790    11.7180    10.1980     9.7320    24.7760   -28.2120 
  195.8750   193.6260    15.3730   -13.7250     2.4080    91.8450    11.3000     9.8970     8.8160    24.9620   -27.9050 
  196.0000   193.7460    15.4010   -13.7470     2.4120    91.4340    10.8630     9.5360     7.9530    25.0840   -27.5580 
  196.1250   193.8660    15.4280   -13.7700     2.4120    91.4940    10.4590     9.1750     7.9410    25.1520   -27.1940 
  196.2500   193.9860    15.4560   -13.7920     2.4150    92.7180    10.1090     8.8470     8.0750    25.1850   -26.8370 
  196.3750   194.1050    15.4840   -13.8150     2.4200    92.8050     9.9090     8.6190     8.0910    25.1870   -26.5280 
