~V
VERS. 2.00: Ver 2.00
~W
STRT.M 50.0000:
STOP.M 268.0000:
STEP.M 0.1250:
NULL. -999.2500:
UWI. FD11187:
~C
DEPT.M :
TVD. :
DX. :
DY. :
SP.MV :
GR.API :
RI. :
RML.OHMM :
RXO.OHMM :
DEN.GM/CC :
~A
# ...
  259.8750   247.5010    58.5520   -14.1290    -6.3930    59.1060    30.8210    30.1890    26.5790     2.1390 
  260.0000   247.6130    58.6060   -14.1390    -6.3930    59.1060    30.8080    30.1950    26.5760     2.1560 
  260.1250   247.7260    58.6600   -14.1490    -6.3930    59.1060    30.8090    30.2020    27.6650     2.1690 
  260.2500   247.8380    58.7130   -14.1580    -6.3930    59.1060    30.8050    30.1950    26.2190     2.1590 
  260.3750   247.9500    58.7670   -14.1680    -6.3930    59.1060    30.7950    30.2020    22.0680     2.1400 
  260.5000   248.0630    58.8210   -14.1780    -6.3930    59.1060    30.7970    30.2030    18.8080     2.1380 
  260.6250   248.1750    58.8740   -14.1880    -6.3930    59.1060    30.8040    30.2060    12.4300     2.1510 
  260.7500   248.2880    58.9280   -14.1980    -6.3930    59.1060    30.8110    30.2080     9.0960     2.1540 
  260.8750   248.4000    58.9820   -14.2070    -6.3930    59.1060    30.8130    30.2050     6.9950     2.1500 
  261.0000   248.5130    59.0350   -14.2170    -6.3930    59.1060    30.8130    30.2040     6.7310     2.1410 
  261.1250   248.6250    59.0890   -14.2270    -6.3930    59.1060    30.8180    30.2040     7.9010     2.1430 
  261.2500   248.7380    59.1430   -14.2370    -6.3930    59.1060    30.8160    30.2040     8.2920     2.1880 
  261.3750   248.8500    59.1960   -14.2460    -6.3930    59.1060    30.8160    30.2040     6.3340     2.3270 
  261.5000   248.9630    59.2500   -14.2560    -6.3930    59.1060    30.8160    30.2040     6.5450     2.4020 
  261.6250   249.0750    59.3040   -14.2660    -6.3930    59.1060    30.8160    30.2040    11.3600     2.3600 
  261.7500   249.1880    59.3570   -14.2760    -6.3930    59.1060    30.8160    30.2040    12.8380     2.2530 
  261.8750   249.3000    59.4110   -14.2860    -6.3930    59.1060    30.8160    30.2040    10.1590     2.1280 
  262.0000   249.4130    59.4650   -14.2950    -6.3930    59.1060    30.8160    30.2040     8.7340     2.1070 
  262.1250   249.5250    59.5180   -14.3050    -6.3930    59.1060    30.8160    30.2040     7.2570     2.1180 
  262.2500   249.6380    59.5720   -14.3150    -6.3930    59.1060    30.8160    30.2040     5.9050     2.1260 
  262.3750   249.7500    59.6260   -14.3250    -6.3930    59.1060    30.8160    30.2040     5.0960     2.1360 
  262.5000   249.8620    59.6790   -14.3350    -6.3930    59.1060    30.8160    30.2040     5.3570     2.1420 
  262.6250   249.9750    59.7330   -14.3440    -6.3930    59.1060    30.8160    30.2040     5.8110     2.1470 
  262.7500   250.0870    59.7870   -14.3540    -6.3930    59.1060    30.8160    30.2040     5.9240     2.1500 
  262.8750   250.2000    59.8400   -14.3640    -6.3930    59.1060    30.8160    30.2040     5.7420     2.1560 
  263.0000   250.3120    59.8940   -14.3740    -6.3930    59.1060    30.8160    30.2040     5.4850     2.1600 
  263.1250   250.4250    59.9480   -14.3840    -6.3930    59.1060    30.8160    30.2040     5.1300     2.1730 
  263.2500   250.5370    60.0010   -14.3930    -6.3930    59.1060    30.8160    30.2040     5.0400     2.2010 
  263.3750   250.6500    60.0550   -14.4030    -6.3930    59.1060    30.8160    30.2040     5.1760     2.2770 
  263.5000   250.7620    60.1090   -14.4130    -6.3930    59.1060    30.8160    30.2040     5.3320     2.3270 
  263.6250   250.8750    60.1620   -14.4230    -6.3930    59.1060    30.8160    30.2040     5.5270     2.3440 
  263.7500   250.9870    60.2160   -14.4320    -6.3930    59.1060    30.8160    30.2040     5.4420     2.3230 
  263.8750   251.1000    60.2700   -14.4420    -6.3930    59.1060    30.8160    30.2040     4.8800     2.3000 
  264.0000   251.2120    60.3230   -14.4520    -6.3930    59.1060    30.8160    30.2040     4.4660     2.3040 
  264.1250   251.3250    60.3770   -14.4620    -6.3930    59.1060    30.8160    30.2040     4.2080     2.3030 
  264.2500   251.4370    60.4310   -14.4720    -6.3930    59.1060    30.8160    30.2040     4.2260     2.2730 
  264.3750   251.5500    60.4840   -14.4810    -6.3930    59.1060    30.8160    30.2040     4.4900     2.1940 
  264.5000   251.6620    60.5380   -14.4910    -6.3930    59.1060    30.8160    30.2040     4.7160     2.1420 
  264.6250   251.7740    60.5920   -14.5010    -6.3930    59.1060    30.8160    30.2040     4.7690     2.0970 
  264.7500   251.8870    60.6450   -14.5110    -6.3930    59.1060    30.8160    30.2040     4.7580     2.0880 
  264.8750   251.9990    60.6990   -14.5210    -6.3930    59.1060    30.8160    30.2040     4.8230     2.0880 
  265.0000   252.1120    60.7530   -14.5300    -6.3930    59.1060    30.8160    30.2040     4.8050     2.0900 
  265.1250   252.2240    60.8060   -14.5400    -6.3930    59.1060    30.8160    30.2040     4.4580     2.0910 
  265.2500   252.3370    60.8600   -14.5500    -6.3930    59.1060    30.8160    30.2040     4.0730     2.0920 
  265.3750   252.4490    60.9140   -14.5600    -6.3930    59.1060    30.8160    30.2040     3.6800     2.0940 
  265.5000   252.5620    60.9670   -14.5700    -6.3930    59.1060    30.8160    30.2040     3.6530     2.0940 
  265.6250   252.6740    61.0210   -14.5790    -6.3930    59.1060    30.8160    30.2040     3.5950     2.0930 
  265.7500   252.7870    61.0750   -14.5890    -6.3930    59.1060    30.8160    30.2040     3.6610     2.0920 
  265.8750   252.8990    61.1280   -14.5990    -6.3930    59.1060    30.8160    30.2040     4.0760     2.0910 
  266.0000   253.0120    61.1820   -14.6090    -6.3930    59.1060    30.8160    30.2040     3.9960     2.0910 
  266.1250   253.1240    61.2360   -14.6180    -6.3930    59.1060    30.8160    30.2040     3.3810     2.0930 
  266.2500   253.2370    61.2890   -14.6280    -6.3930    59.1060    30.8160    30.2040     3.1440     2.0950 
  266.3750   253.3490    61.3430   -14.6380    -6.3930    59.1060    30.8160    30.2040     3.2050     2.0910 
  266.5000   253.4620    61.3970   -14.6480    -6.3930    59.1060    30.8160    30.2040     3.1330     2.0890 
  266.6250   253.5740    61.4500   -14.6580    -6.3930    59.1060    30.8160    30.2040     2.7440     2.0920 
  266.7500   253.6860    61.5040   -14.6670    -6.3930    59.1060    30.8160    30.2040     2.5790     2.0950 
  266.8750   253.7990    61.5580   -14.6770    -6.3930    59.1060    30.8160    30.2040     2.4470     2.0930 
  267.0000   253.9110    61.6110   -14.6870    -6.3930    59.1060    30.8160    30.2040     2.4080     2.0910 
  267.1250   254.0240    61.6650   -14.6970    -6.3930    59.1060    30.8160    30.2040     2.4640     2.0890 
  267.2500   254.1360    61.7180   -14.7070    -6.3930    59.1060    30.8160    30.2040     2.5710     2.0890 
  267.3750   254.2490    61.7720   -14.7160    -6.3930    59.1060    30.8160    30.2040     2.3420     2.0860 
  267.5000   254.3610    61.8260   -14.7260    -6.3930    59.1060    30.8160    30.2040     2.1600     2.0820 
  267.6250   254.4740    61.8790   -14.7360    -6.3930    59.1060    30.8160    30.2040     2.2590     2.0790 
  267.7500   254.5860    61.9330   -14.7460    -6.3930    59.1060    30.8160    30.2040     2.2410     2.0810 
  267.8750   254.6990    61.9870   -14.7560    -6.3930    59.1060    30.8160    30.2040     2.8430     2.0880 
  268.0000   254.8110    62.0400   -14.7650    -6.3930    59.1060    30.8160    30.2040     3.8070     2.0900 
