~V
VERS. 2.00: Ver 2.00
~W
STRT.M 50.0000:
STOP.M 268.0000:
STEP.M 0.1250:
NULL. -999.2500:
UWI. FD11187:
~C
DEPT.M :
TVD. :
DX. :
DY. :
SP.MV :
GR.API :
RI. :
RML.OHMM :
RXO.OHMM :
DEN.GM/CC :
~A
# ...
  123.0000   122.6560     5.1560    -2.0390   -26.4430    68.8860     3.1480     3.4610     4.6180     2.0560 
  123.1250   122.7790     5.1760    -2.0470   -26.4440    71.0410     3.2320     3.5520     4.4840     2.1470 
  123.2500   122.9020     5.1970    -2.0550   -26.4600    72.4220     3.2380     3.5450     4.2950     2.1910 
  123.3750   123.0250     5.2170    -2.0620   -26.4990    72.5010     3.2200     3.5090     4.2510     2.2040 
  123.5000   123.1480     5.2380    -2.0700   -26.5220    73.0160     3.2080     3.4930     4.2900     2.1870 
  123.6250   123.2710     5.2590    -2.0780   -26.5300    74.8030     3.1880     3.4730     4.1570     2.1500 
  123.7500   123.3940     5.2800    -2.0860   -26.5120    75.6830     3.1660     3.4490     4.0300     2.1390 
  123.8750   123.5170     5.3010    -2.0940   -26.4570    75.2320     3.1070     3.3770     3.8180     2.1560 
  124.0000   123.6400     5.3230    -2.1020   -26.4140    76.6700     3.0690     3.3230     3.7810     2.1780 
  124.1250   123.7630     5.3440    -2.1090   -26.3600    80.6000     3.0200     3.2610     3.6870     2.1930 
  124.2500   123.8860     5.3660    -2.1170   -26.3380    82.1810     2.9980     3.2440     3.4960     2.1880 
  124.3750   124.0090     5.3870    -2.1250   -26.3340    82.8170     3.0020     3.2630     3.5060     2.1840 
  124.5000   124.1310     5.4090    -2.1330   -26.3490    83.2090     3.0220     3.3000     3.6670     2.1860 
  124.6250   124.2540     5.4310    -2.1410   -26.3890    82.8730     3.0920     3.3860     3.7930     2.1860 
  124.7500   124.3770     5.4530    -2.1490   -26.4220    80.5200     3.1460     3.4440     3.8050     2.1780 
  124.8750   124.5000     5.4750    -2.1580   -26.4680    76.5740     3.2200     3.5160     3.9690     2.1690 
  125.0000   124.6230     5.4970    -2.1660   -26.4920    75.7660     3.2430     3.5360     4.1410     2.1700 
  125.1250   124.7450     5.5190    -2.1740   -26.5160    76.9550     3.2510     3.5290     4.1350     2.1810 
  125.2500   124.8680     5.5410    -2.1820   -26.5270    78.2750     3.2020     3.4650     4.0500     2.1910 
  125.3750   124.9910     5.5640    -2.1900   -26.5450    80.0110     3.0420     3.2680     3.9360     2.2100 
  125.5000   125.1140     5.5860    -2.1990   -26.5610    81.9650     2.9030     3.1040     3.8230     2.2090 
  125.6250   125.2360     5.6080    -2.2070   -26.5990    84.4720     2.7340     2.9110     3.3970     2.1700 
  125.7500   125.3590     5.6310    -2.2160   -26.6370    85.5990     2.7070     2.8870     3.0330     2.1470 
  125.8750   125.4820     5.6530    -2.2240   -26.7220    84.7810     2.7940     3.0150     3.1410     2.1520 
  126.0000   125.6040     5.6760    -2.2320   -26.7970    82.4870     2.9410     3.2210     3.6920     2.1690 
  126.1250   125.7270     5.6990    -2.2410   -26.9220    77.9930     3.2380     3.6090     4.5540     2.1680 
  126.2500   125.8500     5.7210    -2.2490   -26.9990    74.8350     3.3930     3.7870     4.8600     2.1580 
  126.3750   125.9720     5.7440    -2.2580   -27.0720    69.4940     3.4560     3.8210     4.9070     2.1620 
  126.5000   126.0950     5.7660    -2.2670   -27.0800    66.5820     3.4330     3.7530     4.7450     2.1830 
  126.6250   126.2170     5.7890    -2.2750   -27.0230    66.7730     3.4750     3.7500     4.2650     2.2400 
  126.7500   126.3400     5.8120    -2.2840   -26.9430    68.7350     3.7410     4.0580     4.0880     2.3090 
  126.8750   126.4630     5.8350    -2.2930   -26.7780    68.8370     4.6580     5.1890     5.9050     2.4480 
  127.0000   126.5850     5.8570    -2.3010   -26.6490    66.2210     5.6760     6.4630    10.3180     2.5230 
  127.1250   126.7080     5.8800    -2.3100   -26.4400    62.2810     7.3440     8.4900    17.0470     2.5020 
  127.2500   126.8300     5.9030    -2.3190   -26.2960    62.2570     8.0360     9.2620    16.1860     2.4050 
  127.3750   126.9530     5.9270    -2.3280   -26.0810    64.3000     8.0190     9.0870    10.3440     2.2450 
  127.5000   127.0750     5.9500    -2.3370   -25.9460    64.1630     7.3210     8.1570     7.9050     2.1840 
  127.6250   127.1980     5.9730    -2.3460   -25.7720    61.1410     6.1140     6.6860     6.6980     2.1470 
  127.7500   127.3200     5.9960    -2.3550   -25.6840    59.0880     5.5740     6.0750     6.5060     2.1340 
  127.8750   127.4430     6.0200    -2.3640   -25.6060    58.2860     5.2500     5.7490     6.5400     2.1220 
  128.0000   127.5650     6.0430    -2.3730   -25.5910    58.2990     5.2210     5.7390     6.7170     2.1210 
  128.1250   127.6880     6.0670    -2.3820   -25.6260    57.8770     5.2230     5.7640     6.5430     2.1270 
  128.2500   127.8100     6.0910    -2.3910   -25.6870    57.5190     5.2030     5.7450     6.1120     2.1320 
  128.3750   127.9320     6.1140    -2.4000   -25.8240    59.1410     5.1130     5.6410     6.1540     2.1300 
  128.5000   128.0550     6.1380    -2.4090   -25.9350    60.5910     5.0170     5.5260     6.6480     2.1250 
  128.6250   128.1770     6.1630    -2.4170   -26.0980    61.2130     4.8550     5.3330     6.6710     2.1170 
  128.7500   128.2990     6.1870    -2.4270   -26.1870    61.4530     4.7660     5.2290     6.1670     2.1130 
  128.8750   128.4220     6.2110    -2.4360   -26.2690    63.8950     4.6760     5.1350     5.8010     2.1090 
  129.0000   128.5440     6.2350    -2.4450   -26.2860    66.4760     4.6530     5.1130     6.0020     2.1110 
  129.1250   128.6660     6.2590    -2.4540   -26.2610    68.4660     4.6420     5.1120     6.3320     2.1190 
  129.2500   128.7880     6.2840    -2.4630   -26.2140    68.2810     4.6450     5.1240     6.3130     2.1230 
  129.3750   128.9110     6.3080    -2.4730   -26.1080    66.4750     4.6490     5.1370     6.2210     2.1220 
  129.5000   129.0330     6.3330    -2.4820   -26.0170    65.0250     4.6490     5.1460     6.1460     2.1220 
  129.6250   129.1550     6.3580    -2.4910   -25.8510    62.4970     4.6610     5.1570     5.8180     2.1260 
  129.7500   129.2770     6.3820    -2.5010   -25.7200    60.3090     4.6850     5.1970     5.6240     2.1230 
  129.8750   129.3990     6.4070    -2.5100   -25.4950    59.0060     4.7540     5.2870     6.1380     2.1150 
  130.0000   129.5220     6.4320    -2.5200   -25.3300    60.7440     4.7930     5.3380     8.2090     2.1140 
  130.1250   129.6440     6.4570    -2.5290   -25.0760    64.1040     4.8460     5.4120    10.7020     2.1180 
  130.2500   129.7660     6.4820    -2.5390   -24.9160    63.7820     4.8610     5.4300     9.2780     2.1190 
  130.3750   129.8880     6.5070    -2.5490   -24.7170    59.6550     4.8660     5.4440     6.8910     2.1240 
  130.5000   130.0100     6.5320    -2.5580   -24.6240    57.8460     4.8520     5.4390     6.6270     2.1300 
  130.6250   130.1320     6.5580    -2.5680   -24.5400    57.9780     4.8440     5.4480     6.2210     2.1300 
  130.7500   130.2540     6.5830    -2.5780   -24.4840    58.2890     4.8210     5.4390     5.9290     2.1240 
  130.8750   130.3760     6.6080    -2.5880   -24.3930    57.6140     4.8180     5.4440     6.4400     2.1150 
  131.0000   130.4980     6.6340    -2.5980   -24.2980    57.6970     4.8150     5.4340     6.8090     2.1170 
  131.1250   130.6200     6.6600    -2.6080   -24.1220    59.8120     4.8250     5.4440     6.5040     2.1260 
  131.2500   130.7420     6.6850    -2.6190   -24.0010    61.9820     4.8600     5.4850     6.0900     2.1360 
  131.3750   130.8630     6.7110    -2.6290   -23.8450    63.6380     4.8790     5.5160     6.0230     2.1600 
  131.5000   130.9850     6.7370    -2.6390   -23.7660    61.7160     4.8700     5.5080     6.0290     2.1710 
  131.6250   131.1070     6.7630    -2.6490   -23.6870    55.4920     4.8060     5.4270     6.0000     2.1490 
  131.7500   131.2290     6.7890    -2.6600   -23.6640    52.7850     4.7490     5.3540     6.0260     2.1120 
  131.8750   131.3510     6.8150    -2.6700   -23.6840    53.5440     4.6440     5.2280     6.0190     2.0730 
  132.0000   131.4720     6.8420    -2.6800   -23.7390    54.8940     4.5770     5.1520     6.0420     2.0740 
