~V
VERS. 2.00: Ver 2.00
~W
STRT.M 30.0000:
STOP.M 284.0000:
STEP.M 0.1250:
NULL. -999.2500:
UWI. FD11172:
~C
DEPT.M :
TVD. :
DX. :
DY. :
SP.MV :
GR.API :
RI. :
RML.OHMM :
RXO.OHMM :
DEN.GM/CC :
~A
# ...
  276.3750   256.0800    85.0110    28.8970   -17.0280    59.7430     2.7710     3.3700     3.7830     2.2830 
  276.5000   256.1880    85.0700    28.9200   -17.0280    61.7530     2.8450     3.4680     4.2530     2.2930 
  276.6250   256.2960    85.1290    28.9430   -17.0280    63.3990     2.9410     3.5860     5.6080     2.2900 
  276.7500   256.4040    85.1880    28.9660   -17.0280    63.8140     3.0320     3.6880     6.6960     2.2870 
  276.8750   256.5110    85.2470    28.9890   -17.0280    63.7180     3.1110     3.7710     5.9380     2.2800 
  277.0000   256.6190    85.3060    29.0120   -17.0280    63.7130     3.1490     3.8030     4.6790     2.2710 
  277.1250   256.7270    85.3660    29.0340   -17.0280    63.7130     3.1840     3.8320     4.3810     2.2720 
  277.2500   256.8340    85.4250    29.0570   -17.0280    63.7130     3.1990     3.9030     4.5960     2.2800 
  277.3750   256.9420    85.4840    29.0800   -17.0280    63.7130     3.2070     3.9300     4.8540     2.2890 
  277.5000   257.0500    85.5430    29.1030   -17.0280    63.7130     3.2030     3.9530     4.8130     2.2990 
  277.6250   257.1580    85.6020    29.1260   -17.0280    63.7130     3.1870     3.8930     4.4870     2.3160 
  277.7500   257.2650    85.6610    29.1490   -17.0280    63.7130     3.1690     3.8390     4.3770     2.3180 
  277.8750   257.3730    85.7200    29.1720   -17.0280    63.7130     3.1660     3.8290     4.8050     2.3000 
  278.0000   257.4810    85.7790    29.1940   -17.0280    63.7130     3.1640     3.8420     5.4890     2.2860 
  278.1250   257.5890    85.8380    29.2170   -17.0280    63.7130     3.1610     3.8620     5.5240     2.2830 
  278.2500   257.6960    85.8980    29.2400   -17.0280    63.7130     3.1620     3.8620     4.8100     2.2750 
  278.3750   257.8040    85.9570    29.2630   -17.0280    63.7130     3.1610     3.8610     4.2460     2.2640 
  278.5000   257.9120    86.0160    29.2860   -17.0280    63.7130     3.1600     3.8600     4.1630     2.2670 
  278.6250   258.0200    86.0750    29.3090   -17.0280    63.7130     3.1600     3.8540     4.2400     2.2920 
  278.7500   258.1270    86.1340    29.3320   -17.0280    63.7130     3.1560     3.8570     4.2920     2.3250 
  278.8750   258.2350    86.1930    29.3550   -17.0280    63.7130     3.1510     3.8600     4.4450     2.3340 
  279.0000   258.3430    86.2520    29.3770   -17.0280    63.7130     3.1470     3.8670     4.7250     2.3120 
  279.1250   258.4510    86.3110    29.4000   -17.0280    63.7130     3.1430     3.8740     4.9890     2.2820 
  279.2500   258.5580    86.3700    29.4230   -17.0280    63.7130     3.1430     3.8740     5.1930     2.2680 
  279.3750   258.6660    86.4300    29.4460   -17.0280    63.7130     3.1430     3.8740     5.2330     2.2700 
  279.5000   258.7740    86.4890    29.4690   -17.0280    63.7130     3.1430     3.8740     5.1110     2.2750 
  279.6250   258.8820    86.5480    29.4920   -17.0280    63.7130     3.1430     3.8740     5.0400     2.2900 
  279.7500   258.9890    86.6070    29.5150   -17.0280    63.7130     3.1430     3.8740     4.9480     2.3090 
  279.8750   259.0970    86.6660    29.5370   -17.0280    63.7130     3.1430     3.8740     4.8040     2.3310 
  280.0000   259.2050    86.7250    29.5600   -17.0280    63.7130     3.1430     3.8740     4.7290     2.3470 
  280.1250   259.3130    86.7840    29.5830   -17.0280    63.7130     3.1430     3.8740     4.4180     2.3410 
  280.2500   259.4200    86.8430    29.6060   -17.0280    63.7130     3.1430     3.8740     3.8610     2.3190 
  280.3750   259.5280    86.9020    29.6290   -17.0280    63.7130     3.1430     3.8740     3.5000     2.3020 
  280.5000   259.6360    86.9610    29.6520   -17.0280    63.7130     3.1430     3.8740     3.3870     2.3010 
  280.6250   259.7440    87.0210    29.6750   -17.0280    63.7130     3.1430     3.8740     3.3340     2.3070 
  280.7500   259.8510    87.0800    29.6980   -17.0280    63.7130     3.1430     3.8740     3.4220     2.3120 
  280.8750   259.9590    87.1390    29.7200   -17.0280    63.7130     3.1430     3.8740     3.6790     2.3210 
  281.0000   260.0670    87.1980    29.7430   -17.0280    63.7130     3.1430     3.8740     3.7260     2.3220 
  281.1250   260.1740    87.2570    29.7660   -17.0280    63.7130     3.1430     3.8740     3.4540     2.2950 
  281.2500   260.2820    87.3160    29.7890   -17.0280    63.7130     3.1430     3.8740     3.2160     2.2620 
  281.3750   260.3900    87.3750    29.8120   -17.0280    63.7130     3.1430     3.8740     3.1720     2.2510 
  281.5000   260.4980    87.4340    29.8350   -17.0280    63.7130     3.1430     3.8740     3.2180     2.2580 
  281.6250   260.6050    87.4930    29.8580   -17.0280    63.7130     3.1430     3.8740     3.2760     2.2550 
  281.7500   260.7130    87.5530    29.8800   -17.0280    63.7130     3.1430     3.8740     3.3710     2.2490 
  281.8750   260.8210    87.6120    29.9030   -17.0280    63.7130     3.1430     3.8740     3.5570     2.2670 
  282.0000   260.9290    87.6710    29.9260   -17.0280    63.7130     3.1430     3.8740     3.7220     2.2950 
  282.1250   261.0360    87.7300    29.9490   -17.0280    63.7130     3.1430     3.8740     3.7620     2.3020 
  282.2500   261.1440    87.7890    29.9720   -17.0280    63.7130     3.1430     3.8740     3.8210     2.2860 
  282.3750   261.2520    87.8480    29.9950   -17.0280    63.7130     3.1430     3.8740     3.9900     2.2690 
  282.5000   261.3600    87.9070    30.0180   -17.0280    63.7130     3.1430     3.8740     4.1380     2.2630 
  282.6250   261.4670    87.9660    30.0410   -17.0280    63.7130     3.1430     3.8740     4.1610     2.2610 
  282.7500   261.5750    88.0250    30.0630   -17.0280    63.7130     3.1430     3.8740     4.0560     2.2430 
  282.8750   261.6830    88.0850    30.0860   -17.0280    63.7130     3.1430     3.8740     3.8380     2.2130 
  283.0000   261.7910    88.1440    30.1090   -17.0280    63.7130     3.1430     3.8740     3.6120     2.1960 
  283.1250   261.8980    88.2030    30.1320   -17.0280    63.7130     3.1430     3.8740     3.4720     2.2000 
  283.2500   262.0060    88.2620    30.1550   -17.0280    63.7130     3.1430     3.8740     3.4030     2.2060 
  283.3750   262.1140    88.3210    30.1780   -17.0280    63.7130     3.1430     3.8740     3.3760     2.2000 
  283.5000   262.2220    88.3800    30.2010   -17.0280    63.7130     3.1430     3.8740     3.3690     2.1930 
  283.6250   262.3290    88.4390    30.2230   -17.0280    63.7130     3.1430     3.8740     3.3690     2.1930 
  283.7500   262.4370    88.4980    30.2460   -17.0280    63.7130     3.1430     3.8740     3.3690     2.1980 
  283.8750   262.5450    88.5570    30.2690   -17.0280    63.7130     3.1430     3.8740     3.3690     2.2000 
  284.0000   262.6530    88.6170    30.2920   -17.0280    63.7130     3.1430     3.8740     3.3680     2.1980 
