~V
VERS. 2.00: Ver 2.00
~W
STRT.M 56.0000:
STOP.M 276.0000:
STEP.M 0.1250:
NULL. -999.2500:
UWI. FD11178:
~C
DEPT.M :
TVD. :
DX. :
DY. :
SP.MV :
GR.API :
RI. :
RML.OHMM :
DEN.GM/CC :
RXO.OHMM :
~A
# ...
  247.6250   239.0660    -8.2250   -51.3860    -3.9060    66.1460     6.2100     6.8250     2.1400     9.1400 
  247.7500   239.1820    -8.2320   -51.4320    -4.0030    65.1860     6.0090     6.5230     2.1550     8.0160 
  247.8750   239.2980    -8.2380   -51.4780    -4.0160    65.0480     5.8150     6.2730     2.1610     7.5050 
  248.0000   239.4130    -8.2450   -51.5240    -3.9720    67.0530     5.7620     6.2280     2.1590     7.7990 
  248.1250   239.5290    -8.2520   -51.5700    -3.9600    69.6980     5.8540     6.3730     2.1550     8.1880 
  248.2500   239.6450    -8.2600   -51.6160    -3.9310    70.4740     6.0100     6.5980     2.1470     8.0220 
  248.3750   239.7610    -8.2670   -51.6620    -3.8720    67.8120     6.1080     6.7010     2.1390     7.9590 
  248.5000   239.8770    -8.2740   -51.7080    -3.9110    64.9710     6.0570     6.6110     2.1440     8.2410 
  248.6250   239.9930    -8.2810   -51.7540    -3.9370    64.7770     5.8950     6.4030     2.1630     8.1390 
  248.7500   240.1090    -8.2890   -51.8000    -3.8870    64.8990     5.6870     6.1780     2.1790     7.5990 
  248.8750   240.2250    -8.2960   -51.8460    -3.8330    63.5800     5.4880     5.9980     2.1800     7.0410 
  249.0000   240.3410    -8.3030   -51.8930    -3.8910    64.4540     5.3600     5.8960     2.1730     6.7480 
  249.1250   240.4570    -8.3110   -51.9390    -4.0530    67.6350     5.3640     5.9150     2.1650     7.0400 
  249.2500   240.5730    -8.3180   -51.9850    -4.3010    69.6850     5.4940     6.0330     2.1550     7.5550 
  249.3750   240.6890    -8.3250   -52.0310    -4.5320    69.8990     5.7620     6.3100     2.1440     7.5610 
  249.5000   240.8050    -8.3320   -52.0770    -4.8400    70.1490     6.1180     6.6920     2.1380     7.2830 
  249.6250   240.9210    -8.3400   -52.1230    -5.1790    69.5260     6.5230     7.1110     2.1450     7.4550 
  249.7500   241.0370    -8.3470   -52.1690    -5.4980    66.9090     6.8740     7.4770     2.1550     7.9580 
  249.8750   241.1530    -8.3540   -52.2150    -5.8610    65.2500     7.0550     7.6380     2.1580     8.2860 
  250.0000   241.2690    -8.3610   -52.2620    -6.2740    65.0630     7.0450     7.5850     2.1580     8.3340 
  250.1250   241.3850    -8.3690   -52.3080    -6.7290    65.6340     6.9050     7.3930     2.1570     8.2230 
  250.2500   241.5010    -8.3760   -52.3540    -7.2140    65.1640     6.7250     7.1460     2.1700     8.2660 
  250.3750   241.6170    -8.3830   -52.4000    -7.7090    63.4390     6.4870     6.8700     2.2070     8.6140 
  250.5000   241.7330    -8.3900   -52.4460    -8.1120    62.5540     6.2120     6.5830     2.2410    11.4850 
  250.6250   241.8490    -8.3970   -52.4920    -8.3340    65.4670     5.8010     6.1520     2.2310    14.1640 
  250.7500   241.9650    -8.4040   -52.5390    -8.5090    71.3370     5.3670     5.6940     2.1910    11.1520 
  250.8750   242.0800    -8.4110   -52.5850    -8.6620    76.5470     4.9730     5.2590     2.1710     7.3040 
  251.0000   242.1960    -8.4180   -52.6310    -8.7870    77.0250     4.6710     4.9290     2.1770     6.3000 
  251.1250   242.3120    -8.4250   -52.6770    -8.9840    73.3680     4.4690     4.7190     2.1850     5.9660 
  251.2500   242.4280    -8.4330   -52.7230    -9.2350    69.2140     4.3460     4.5990     2.1810     5.7790 
  251.3750   242.5440    -8.4400   -52.7700    -9.3700    66.5680     4.2670     4.5370     2.1680     5.6260 
  251.5000   242.6600    -8.4470   -52.8160    -9.4110    65.8090     4.2130     4.4980     2.1560     5.5380 
  251.6250   242.7760    -8.4540   -52.8620    -9.5620    67.4910     4.1730     4.4670     2.1520     5.5520 
  251.7500   242.8920    -8.4610   -52.9080    -9.8860    71.0290     4.1460     4.4270     2.1580     5.5900 
  251.8750   243.0080    -8.4680   -52.9550   -10.1110    71.0440     4.1370     4.3930     2.1670     5.6400 
  252.0000   243.1240    -8.4760   -53.0010    -9.9600    68.9350     4.1640     4.4000     2.1760     5.6280 
  252.1250   243.2400    -8.4830   -53.0470    -9.6500    68.8560     4.2460     4.4810     2.1800     5.6280 
  252.2500   243.3560    -8.4900   -53.0930    -9.4080    70.7330     4.3730     4.6200     2.1790     5.9330 
  252.3750   243.4710    -8.4970   -53.1400    -9.3260    69.3520     4.5370     4.8080     2.1750     6.4200 
  252.5000   243.5870    -8.5050   -53.1860    -9.3230    65.1980     4.7840     5.0840     2.1670     6.6840 
  252.6250   243.7030    -8.5120   -53.2320    -9.3990    63.7970     5.0770     5.3850     2.1630     6.7790 
  252.7500   243.8190    -8.5190   -53.2790    -9.4450    64.6860     5.3560     5.6660     2.1700     7.0800 
  252.8750   243.9350    -8.5260   -53.3250    -9.5570    66.1170     5.5620     5.8680     2.1910     7.6640 
  253.0000   244.0510    -8.5330   -53.3720    -9.6820    66.3240     5.6330     5.9270     2.2060     8.3400 
  253.1250   244.1660    -8.5400   -53.4180    -9.5940    65.6370     5.5870     5.8760     2.2000     8.7600 
  253.2500   244.2820    -8.5470   -53.4650    -9.2080    62.7810     5.5070     5.7840     2.1830     8.3870 
  253.3750   244.3980    -8.5540   -53.5120    -8.8530    59.7650     5.4170     5.6920     2.1750     7.6860 
  253.5000   244.5140    -8.5610   -53.5580    -8.7130    58.6850     5.4070     5.7010     2.1800     7.6490 
  253.6250   244.6300    -8.5680   -53.6050    -8.7990    58.3880     5.4880     5.7960     2.1870     8.4010 
  253.7500   244.7450    -8.5740   -53.6510    -9.0410    58.4780     5.5830     5.8750     2.1850     8.9320 
  253.8750   244.8610    -8.5810   -53.6980    -9.3890    60.2240     5.6310     5.8840     2.1730     8.7130 
  254.0000   244.9770    -8.5880   -53.7450    -9.9940    63.9250     5.6160     5.8070     2.1610     8.7490 
  254.1250   245.0930    -8.5940   -53.7920   -10.6620    65.3980     5.5840     5.7360     2.1600     9.0740 
  254.2500   245.2080    -8.6020   -53.8380   -11.1570    63.9770     5.6420     5.7740     2.1700    11.2390 
  254.3750   245.3240    -8.6090   -53.8850   -11.4780    62.6110     5.8920     6.0350     2.1850    13.2650 
  254.5000   245.4400    -8.6160   -53.9320   -11.9910    63.6700     6.3090     6.4710     2.1970    10.9550 
  254.6250   245.5560    -8.6230   -53.9780   -12.7410    64.5150     6.7470     6.9220     2.2040     9.0250 
  254.7500   245.6710    -8.6300   -54.0250   -13.1340    64.3410     7.1050     7.2700     2.2010     9.9920 
  254.8750   245.7870    -8.6370   -54.0720   -13.3880    63.5060     7.2820     7.6410     2.1840    10.5580 
  255.0000   245.9030    -8.6440   -54.1180   -13.5550    63.9540     7.3090     7.6360     2.1640     9.8180 
  255.1250   246.0190    -8.6510   -54.1650   -13.5280    64.7140     7.2880     7.6190     2.1620     8.8450 
  255.2500   246.1340    -8.6580   -54.2110   -13.5240    64.8390     7.3030     7.6640     2.1760    14.3980 
  255.3750   246.2500    -8.6650   -54.2580   -13.4820    64.5610     7.3690     7.7450     2.1810    25.3690 
  255.5000   246.3660    -8.6710   -54.3050   -13.4700    63.7670     7.4890     7.8610     2.1650    25.8710 
  255.6250   246.4820    -8.6780   -54.3510   -13.4950    61.5510     7.6750     8.0180     2.1490    16.3130 
  255.7500   246.5970    -8.6840   -54.3980   -13.4830    59.6850     7.8770     8.1720     2.1580    10.4690 
  255.8750   246.7130    -8.6900   -54.4450   -13.3390    59.6840     8.1050     8.3610     2.1990     9.8050 
  256.0000   246.8290    -8.6970   -54.4910   -12.9650    62.4750     8.3510     8.5760     2.2500    11.6840 
  256.1250   246.9450    -8.7030   -54.5380   -12.2510    66.6630     8.6220     8.8420     2.2830    15.8710 
  256.2500   247.0610    -8.7090   -54.5850   -11.2490    70.8480     8.9890     9.2250     2.2850    15.7940 
  256.3750   247.1760    -8.7150   -54.6310   -10.0230    71.9160     9.4440     9.7100     2.2770    11.2390 
  256.5000   247.2920    -8.7210   -54.6780    -8.7800    70.8280     9.8830    10.1780     2.2780    11.9810 
  256.6250   247.4080    -8.7270   -54.7250    -7.9110    70.7560    10.1450    10.4550     2.2920    15.5990 
