~V
VERS. 2.00: Ver 2.00
~W
STRT.M 56.0000:
STOP.M 276.0000:
STEP.M 0.1250:
NULL. -999.2500:
UWI. FD11178:
~C
DEPT.M :
TVD. :
DX. :
DY. :
SP.MV :
GR.API :
RI. :
RML.OHMM :
DEN.GM/CC :
RXO.OHMM :
~A
# ...
  220.2500   213.6290    -6.5890   -41.4020    -5.2340    77.9780    10.4180    11.2740     2.2790    14.9250 
  220.3750   213.7450    -6.5960   -41.4470    -6.8540    73.9220    13.0620    13.9410     2.2300    20.9510 
  220.5000   213.8620    -6.6040   -41.4920    -8.5720    67.5970    15.1040    15.8900     2.1690    21.3360 
  220.6250   213.9780    -6.6110   -41.5370   -10.3870    63.4950    16.5540    17.2360     2.1320    20.5320 
  220.7500   214.0940    -6.6180   -41.5820   -12.0930    63.1530    17.5540    18.1820     2.1260    22.3760 
  220.8750   214.2110    -6.6260   -41.6270   -13.4390    63.3210    18.2280    18.8740     2.1320    24.0680 
  221.0000   214.3270    -6.6330   -41.6720   -14.4110    62.4260    18.9250    19.6470     2.1350    23.2220 
  221.1250   214.4430    -6.6400   -41.7180   -15.0590    61.4730    19.6250    20.5030     2.1350    20.7780 
  221.2500   214.5600    -6.6470   -41.7630   -15.5990    61.0140    20.5170    21.6190     2.1360    19.2010 
  221.3750   214.6760    -6.6540   -41.8080   -16.0090    60.3120    21.7600    23.0850     2.1440    20.0950 
  221.5000   214.7920    -6.6610   -41.8530   -16.3540    61.4410    23.2930    24.7900     2.1660    21.9170 
  221.6250   214.9090    -6.6680   -41.8980   -16.6190    65.4100    24.7920    26.3570     2.2030    22.0990 
  221.7500   215.0250    -6.6750   -41.9430   -16.8670    67.1280    25.9370    27.4880     2.2310    21.5520 
  221.8750   215.1420    -6.6820   -41.9880   -17.0850    64.2720    26.5470    28.0170     2.2200    21.4710 
  222.0000   215.2580    -6.6890   -42.0330   -17.2450    59.8200    26.6670    27.9890     2.1850    24.4220 
  222.1250   215.3740    -6.6950   -42.0780   -17.3700    58.4820    26.6700    27.7830     2.1610    25.1890 
  222.2500   215.4910    -6.7020   -42.1230   -17.4570    60.1930    26.8070    27.6150     2.1590    25.5500 
  222.3750   215.6070    -6.7100   -42.1680   -17.4070    62.4410    27.1640    27.6850     2.1640    25.6670 
  222.5000   215.7240    -6.7170   -42.2130   -17.2280    63.4520    27.7930    28.0960     2.1660    25.2790 
  222.6250   215.8400    -6.7240   -42.2580   -17.0000    63.9630    28.5590    28.7370     2.1680    25.7630 
  222.7500   215.9560    -6.7310   -42.3030   -16.8130    66.1820    29.1210    29.3330     2.1720    25.9230 
  222.8750   216.0730    -6.7380   -42.3480   -16.7370    70.5040    29.0690    29.6640     2.1810    25.6390 
  223.0000   216.1890    -6.7460   -42.3940   -16.7130    74.0100    28.2870    29.2540     2.1910    31.5170 
  223.1250   216.3050    -6.7530   -42.4390   -16.7080    74.4820    27.2960    28.3110     2.1910    40.8230 
  223.2500   216.4220    -6.7600   -42.4840   -16.7140    73.6490    26.4260    27.3870     2.1800    37.8880 
  223.3750   216.5380    -6.7680   -42.5290   -16.7450    73.2530    26.1730    27.0760     2.1660    26.9770 
  223.5000   216.6550    -6.7760   -42.5740   -16.7560    72.5310    26.5110    27.3930     2.1580    23.5040 
  223.6250   216.7710    -6.7830   -42.6190   -16.6930    71.1190    27.3820    28.2980     2.1560    24.8400 
  223.7500   216.8870    -6.7910   -42.6630   -16.6260    69.1530    28.4460    29.3290     2.1560    26.1270 
  223.8750   217.0040    -6.7990   -42.7080   -16.6010    66.8250    28.8400    29.5740     2.1550    25.6120 
  224.0000   217.1200    -6.8070   -42.7530   -16.5730    63.9680    27.9260    28.4550     2.1580    24.8310 
  224.1250   217.2370    -6.8140   -42.7980   -16.4820    63.2010    26.0730    26.4350     2.1630    27.8130 
  224.2500   217.3530    -6.8220   -42.8430   -16.4120    65.7230    24.0280    24.3180     2.1650    32.0770 
  224.3750   217.4690    -6.8300   -42.8880   -16.3180    68.6490    22.6680    23.0070     2.1670    29.2400 
  224.5000   217.5860    -6.8370   -42.9330   -16.2130    70.5150    22.2710    22.7190     2.1670    22.7330 
  224.6250   217.7020    -6.8450   -42.9770   -16.3020    69.9280    22.8150    23.4040     2.1600    21.8710 
  224.7500   217.8190    -6.8530   -43.0220   -16.5130    67.7200    23.8710    24.6010     2.1450    25.7830 
  224.8750   217.9350    -6.8600   -43.0670   -16.6890    63.9500    25.0980    25.9310     2.1340    28.3150 
  225.0000   218.0520    -6.8680   -43.1120   -16.8470    61.3040    25.9100    26.8310     2.1290    27.3650 
  225.1250   218.1680    -6.8750   -43.1560   -17.0630    62.5040    26.0570    27.0990     2.1250    26.2250 
  225.2500   218.2850    -6.8830   -43.2010   -17.2250    65.6950    25.9060    27.0860     2.1230    27.0340 
  225.3750   218.4010    -6.8900   -43.2460   -17.1720    67.9100    25.7200    27.0440     2.1300    27.0130 
  225.5000   218.5180    -6.8980   -43.2910   -17.0980    68.1980    25.5190    26.9820     2.1450    25.0400 
  225.6250   218.6340    -6.9060   -43.3350   -16.9750    66.2060    25.3560    26.9620     2.1550    23.3250 
  225.7500   218.7500    -6.9130   -43.3800   -16.8050    64.0700    25.1850    27.0110     2.1470    21.9590 
  225.8750   218.8670    -6.9200   -43.4250   -16.6340    65.0390    25.0230    27.1030     2.1220    22.0660 
  226.0000   218.9830    -6.9270   -43.4700   -16.4370    68.0940    24.8620    27.0570     2.1040    24.3500 
  226.1250   219.1000    -6.9340   -43.5150   -16.2970    69.3870    24.6460    26.9230     2.1080    25.3310 
  226.2500   219.2160    -6.9410   -43.5600   -16.1500    68.4420    24.4110    26.6540     2.1330    24.8670 
  226.3750   219.3320    -6.9490   -43.6050   -15.9680    68.4020    24.1600    26.3130     2.1550    24.7740 
  226.5000   219.4490    -6.9560   -43.6500   -15.7720    69.2770    23.9090    25.9470     2.1650    25.5650 
  226.6250   219.5650    -6.9630   -43.6950   -15.4740    70.2390    23.6310    25.4660     2.1640    26.2400 
  226.7500   219.6820    -6.9710   -43.7410   -15.1800    70.7080    23.4580    25.0700     2.1620    25.6880 
  226.8750   219.7980    -6.9780   -43.7860   -14.8990    70.0240    23.5610    24.9780     2.1520    25.3030 
  227.0000   219.9140    -6.9860   -43.8310   -14.4930    69.7220    24.0260    25.2970     2.1320    25.3760 
  227.1250   220.0300    -6.9940   -43.8760   -14.0090    69.1360    24.9370    26.1610     2.1200    25.5030 
  227.2500   220.1470    -7.0010   -43.9210   -13.4170    67.7150    26.2460    27.6000     2.1170    26.0570 
  227.3750   220.2630    -7.0090   -43.9670   -12.7390    64.3710    27.7960    29.5170     2.1180    26.3250 
  227.5000   220.3790    -7.0160   -44.0120   -11.9870    62.1160    29.0140    31.1320     2.1210    25.5410 
  227.6250   220.4950    -7.0240   -44.0580   -11.0620    63.8480    27.6610    29.0060     2.1270    22.9920 
  227.7500   220.6120    -7.0320   -44.1030   -10.0360    66.9320    23.2360    24.1090     2.1380    17.8190 
  227.8750   220.7280    -7.0400   -44.1480    -9.1240    70.1370    16.9040    17.2050     2.1690    16.5210 
  228.0000   220.8440    -7.0480   -44.1940    -8.2160    72.8870    10.7260    10.6200     2.2180    13.1890 
  228.1250   220.9600    -7.0550   -44.2390    -7.2710    75.5500     7.1660     7.1030     2.2480     7.8810 
  228.2500   221.0760    -7.0630   -44.2850    -6.4040    79.4640     5.8220     5.8660     2.2420     4.9010 
  228.3750   221.1920    -7.0700   -44.3310    -5.7620    82.7760     5.9750     6.1730     2.2220     7.3330 
  228.5000   221.3090    -7.0770   -44.3760    -5.6970    82.5610     7.3500     7.8010     2.2070    10.2340 
  228.6250   221.4250    -7.0840   -44.4220    -6.6620    77.6250     9.7490    10.4740     2.1840    10.3930 
  228.7500   221.5410    -7.0920   -44.4680    -8.4380    74.2680    12.8070    13.7840     2.1590    10.2490 
  228.8750   221.6570    -7.0990   -44.5130   -10.2530    74.1510    16.2100    17.3740     2.1460    12.6030 
  229.0000   221.7730    -7.1060   -44.5590   -11.5390    73.4560    19.2200    20.4600     2.1410    16.9440 
  229.1250   221.8890    -7.1140   -44.6050   -12.4030    70.7110    21.4530    22.7100     2.1300    21.3780 
  229.2500   222.0050    -7.1210   -44.6500   -12.9310    68.6680    22.2780    23.4660     2.1160    24.1740 
