~V
VERS. 2.00: Ver 2.00
~W
STRT.M 44.0000:
STOP.M 275.0000:
STEP.M 0.1250:
NULL. -999.2500:
UWI. FD11190:
~C
DEPT.M :
TVD. :
DX. :
DY. :
SP.MV :
GR.API :
RI. :
RML.OHMM :
RXO.OHMM :
DEN.GM/CC :
~A
# ...
   71.3750    71.3470    -0.9080    -0.6640   -16.1010    61.2460     6.2360     6.8210     7.7770     2.1290 
   71.5000    71.4720    -0.9180    -0.6680   -16.0690    64.7890     6.2920     6.8160     7.5120     2.1220 
   71.6250    71.5960    -0.9280    -0.6730   -15.9510    67.2900     6.2660     6.7400     7.6030     2.1160 
   71.7500    71.7210    -0.9380    -0.6770   -15.8330    67.8970     6.1610     6.6040     7.4830     2.1160 
   71.8750    71.8450    -0.9480    -0.6810   -15.6860    68.7150     5.9970     6.4330     7.1930     2.1200 
   72.0000    71.9700    -0.9590    -0.6860   -15.4510    71.2110     5.8150     6.2790     6.7940     2.1230 
   72.1250    72.0940    -0.9690    -0.6900   -15.1380    74.3400     5.6630     6.1910     6.3750     2.1280 
   72.2500    72.2190    -0.9800    -0.6940   -14.8520    76.4020     5.5850     6.1930     6.2530     2.1320 
   72.3750    72.3430    -0.9900    -0.6990   -14.7020    76.8200     5.5990     6.2840     6.5970     2.1310 
   72.5000    72.4680    -1.0010    -0.7030   -14.7450    75.8800     5.6850     6.4210     7.0800     2.1220 
   72.6250    72.5920    -1.0120    -0.7080   -14.9760    74.4570     5.8110     6.5620     7.4820     2.1100 
   72.7500    72.7160    -1.0230    -0.7120   -15.3200    72.3700     5.9320     6.6760     7.7330     2.1000 
   72.8750    72.8410    -1.0340    -0.7170   -15.6880    70.4750     6.0180     6.7530     7.7130     2.0990 
   73.0000    72.9650    -1.0450    -0.7210   -16.0400    68.2950     6.0720     6.8120     7.6810     2.1070 
   73.1250    73.0900    -1.0560    -0.7260   -16.3570    65.6400     6.1160     6.8640     7.8160     2.1190 
   73.2500    73.2140    -1.0670    -0.7300   -16.6240    63.0130     6.1540     6.9130     7.9340     2.1270 
   73.3750    73.3380    -1.0790    -0.7350   -16.8150    63.5120     6.1810     6.9460     7.9810     2.1270 
   73.5000    73.4630    -1.0900    -0.7400   -16.9850    64.1460     6.1900     6.9610     8.0240     2.1230 
   73.6250    73.5870    -1.1020    -0.7440   -17.1600    62.7220     6.1820     6.9620     7.9740     2.1160 
   73.7500    73.7120    -1.1130    -0.7490   -17.3660    61.6430     6.1700     6.9600     7.8070     2.1080 
   73.8750    73.8360    -1.1250    -0.7530   -17.5350    62.1500     6.1570     6.9570     7.7470     2.1010 
   74.0000    73.9600    -1.1370    -0.7580   -17.5780    61.5820     6.1460     6.9550     7.8600     2.1000 
   74.1250    74.0850    -1.1490    -0.7630   -17.5190    59.2010     6.1320     6.9490     8.0510     2.1060 
   74.2500    74.2090    -1.1610    -0.7670   -17.4940    57.6230     6.1130     6.9370     8.2270     2.1130 
   74.3750    74.3330    -1.1730    -0.7720   -17.5560    57.4840     6.0950     6.9170     8.2330     2.1150 
   74.5000    74.4580    -1.1860    -0.7770   -17.6510    57.3410     6.0720     6.8950     8.0060     2.1130 
   74.6250    74.5820    -1.1980    -0.7810   -17.7180    57.4960     6.0550     6.8820     7.6620     2.1090 
   74.7500    74.7060    -1.2100    -0.7860   -17.7750    57.8430     6.0560     6.8910     7.5350     2.1050 
   74.8750    74.8300    -1.2230    -0.7910   -17.8550    59.4890     6.0730     6.9220     7.7810     2.1060 
   75.0000    74.9550    -1.2360    -0.7950   -17.9590    61.8840     6.1120     6.9690     8.1360     2.1080 
   75.1250    75.0790    -1.2480    -0.8000   -18.0480    62.2180     6.1600     7.0240     8.3480     2.1080 
   75.2500    75.2030    -1.2610    -0.8050   -18.0380    60.7870     6.2020     7.0800     8.4610     2.1070 
   75.3750    75.3270    -1.2740    -0.8090   -17.9490    58.5710     6.2350     7.1240     8.4840     2.1100 
   75.5000    75.4520    -1.2870    -0.8140   -17.7820    58.1720     6.2570     7.1420     8.3480     2.1160 
   75.6250    75.5760    -1.3010    -0.8190   -17.5740    59.5230     6.2520     7.1230     8.2140     2.1230 
   75.7500    75.7000    -1.3140    -0.8240   -17.3700    62.3000     6.2140     7.0660     8.1090     2.1260 
   75.8750    75.8240    -1.3270    -0.8280   -17.1480    64.1860     6.1550     6.9870     7.9920     2.1250 
   76.0000    75.9490    -1.3410    -0.8330   -16.9570    63.4350     6.0800     6.9140     7.9270     2.1210 
   76.1250    76.0730    -1.3540    -0.8380   -16.8490    62.4500     6.0310     6.8770     7.9670     2.1150 
   76.2500    76.1970    -1.3680    -0.8430   -16.8500    63.3570     6.0070     6.8940     7.9460     2.1070 
   76.3750    76.3210    -1.3820    -0.8470   -16.8960    65.1450     6.0310     6.9690     7.7380     2.1020 
   76.5000    76.4450    -1.3960    -0.8520   -16.8720    66.0150     6.0870     7.0840     7.5950     2.1020 
   76.6250    76.5690    -1.4100    -0.8570   -16.7620    65.3980     6.1620     7.2060     7.6410     2.1090 
   76.7500    76.6930    -1.4240    -0.8610   -16.6360    65.4260     6.2330     7.3020     7.7550     2.1210 
   76.8750    76.8170    -1.4380    -0.8660   -16.5210    66.5700     6.2660     7.3410     7.6830     2.1340 
   77.0000    76.9420    -1.4520    -0.8710   -16.4500    67.4430     6.2560     7.3040     7.6680     2.1470 
   77.1250    77.0660    -1.4660    -0.8760   -16.3680    67.9450     6.1740     7.1750     7.9560     2.1620 
   77.2500    77.1900    -1.4810    -0.8810   -16.3130    67.5770     6.0410     6.9740     7.9950     2.1780 
   77.3750    77.3140    -1.4950    -0.8860   -16.3680    66.2370     5.8710     6.7930     7.6800     2.1900 
   77.5000    77.4380    -1.5100    -0.8910   -16.5170    64.6390     5.7790     6.7840     7.4110     2.1880 
   77.6250    77.5620    -1.5250    -0.8960   -16.7150    63.9090     5.9140     7.1900     7.5660     2.1870 
   77.7500    77.6860    -1.5400    -0.9000   -16.8240    64.2530     6.4570     8.0780     8.7880     2.2280 
   77.8750    77.8100    -1.5550    -0.9050   -16.8040    65.3720     7.4840     9.2970    13.2410     2.3340 
   78.0000    77.9340    -1.5700    -0.9100   -16.7030    66.9460     8.5820    10.3810    19.6400     2.4540 
   78.1250    78.0580    -1.5850    -0.9150   -16.4950    67.5980     9.3300    10.7860    23.2440     2.5000 
   78.2500    78.1820    -1.6000    -0.9200   -16.2770    65.6240     9.3220    10.3640    20.8890     2.4420 
   78.3750    78.3060    -1.6150    -0.9250   -16.1690    63.0460     8.5520     9.2700    13.5620     2.3140 
   78.5000    78.4300    -1.6310    -0.9300   -16.3230    62.9530     7.4330     8.0550     8.5860     2.1980 
   78.6250    78.5540    -1.6460    -0.9350   -16.8830    64.0970     6.4260     7.1470     8.0100     2.1350 
   78.7500    78.6780    -1.6620    -0.9400   -17.4460    64.1210     5.8310     6.7000     8.1540     2.1130 
   78.8750    78.8010    -1.6780    -0.9450   -17.8250    62.8190     5.6370     6.6320     8.1700     2.1100 
   79.0000    78.9250    -1.6940    -0.9500   -17.9800    61.6300     5.7100     6.7340     8.1570     2.1120 
   79.1250    79.0490    -1.7100    -0.9550   -17.9260    61.0580     5.8520     6.8720     8.0960     2.1130 
   79.2500    79.1730    -1.7260    -0.9600   -17.8180    59.0270     5.9990     7.0000     8.1930     2.1120 
   79.3750    79.2970    -1.7420    -0.9650   -17.6360    57.1270     6.1490     7.1220     8.4710     2.1080 
   79.5000    79.4210    -1.7580    -0.9700   -17.3860    57.8850     6.2970     7.2380     8.3030     2.1050 
   79.6250    79.5450    -1.7750    -0.9750   -17.0100    59.3760     6.4170     7.3340     7.8630     2.1050 
   79.7500    79.6680    -1.7910    -0.9800   -16.5330    58.5300     6.5100     7.3660     7.7210     2.1100 
   79.8750    79.7920    -1.8080    -0.9850   -15.9350    56.1760     6.5140     7.2430     7.7330     2.1140 
   80.0000    79.9160    -1.8240    -0.9900   -15.2180    56.9020     6.3350     6.9170     7.8350     2.1190 
   80.1250    80.0400    -1.8410    -0.9950   -14.3580    60.8910     5.9430     6.3810     7.5890     2.1400 
   80.2500    80.1630    -1.8580    -1.0000   -13.2900    67.0780     5.3980     5.7660     6.4930     2.1780 
   80.3750    80.2870    -1.8750    -1.0050   -11.9040    74.7720     4.8420     5.2940     5.2700     2.2130 
