~V
VERS. 2.00: Ver 2.00
~W
STRT.M 40.0000:
STOP.M 259.0000:
STEP.M 0.1250:
NULL. -999.2500:
UWI. FD11192:
~C
DEPT.M :
TVD. :
DX. :
DY. :
SP.MV :
GR.API :
RI. :
RML.OHMM :
RXO.OHMM :
DEN.GM/CC :
~A
# ...
  176.8750   171.0490    22.0370    24.6110  -216.1100    89.4530    21.4850    23.5270    30.7690     2.2580 
  177.0000   171.1630    22.0720    24.6480  -216.1340    91.1820    19.2100    20.9860    28.1250     2.2710 
  177.1250   171.2770    22.1070    24.6850  -216.1170    93.4080    18.4450    20.2860    23.3240     2.2790 
  177.2500   171.3910    22.1410    24.7230  -216.0700    92.6150    18.8530    20.9470    20.2190     2.2840 
  177.3750   171.5050    22.1760    24.7600  -216.0090    89.7890    20.0280    22.4360    19.9550     2.2830 
  177.5000   171.6190    22.2110    24.7970  -216.0050    87.1960    21.7390    24.4200    21.1020     2.2800 
  177.6250   171.7340    22.2460    24.8340  -215.9630    86.9810    24.2320    27.2700    25.8440     2.2740 
  177.7500   171.8480    22.2810    24.8710  -215.9310    86.2980    27.6230    31.4140    34.0630     2.2640 
  177.8750   171.9620    22.3160    24.9090  -215.8590    83.6420    32.3790    37.2930    38.8410     2.2490 
  178.0000   172.0760    22.3510    24.9460  -215.7850    80.7460    38.4430    44.7610    39.0640     2.2300 
  178.1250   172.1900    22.3860    24.9830  -215.7640    79.3090    45.0440    52.8260    41.2030     2.2120 
  178.2500   172.3040    22.4210    25.0200  -215.8120    77.8390    51.4510    60.6270    53.4960     2.1980 
  178.3750   172.4180    22.4560    25.0570  -215.8800    75.7400    56.3680    66.6300    70.8860     2.1910 
  178.5000   172.5320    22.4910    25.0950  -215.9070    75.6620    58.4370    69.1410    73.9530     2.1890 
  178.6250   172.6460    22.5270    25.1320  -215.8660    77.1460    57.9650    69.0490    57.2730     2.1830 
  178.7500   172.7600    22.5620    25.1690  -215.8220    77.4680    59.2190    71.7480    42.3050     2.1720 
  178.8750   172.8740    22.5970    25.2060  -215.8390    78.4770    64.4760    79.8030    51.5800     2.1600 
  179.0000   172.9880    22.6320    25.2440  -215.9140    80.1730    74.9170    94.4160    73.2400     2.1490 
  179.1250   173.1020    22.6670    25.2810  -216.0320    78.8690    90.6480   115.7970    88.6560     2.1360 
  179.2500   173.2160    22.7030    25.3180  -216.1270    74.1320   114.4130   146.9830   109.4180     2.1260 
  179.3750   173.3300    22.7380    25.3560  -216.2190    68.6650   143.8680   184.3040   150.8920     2.1250 
  179.5000   173.4440    22.7730    25.3930  -216.2320    63.7910   172.7140   220.2550   200.8000     2.1310 
  179.6250   173.5580    22.8090    25.4310  -216.0590    59.1180   197.9640   250.8630   235.0090     2.1360 
  179.7500   173.6720    22.8440    25.4680  -215.7780    55.9980   213.6580   269.2580   257.6220     2.1410 
  179.8750   173.7850    22.8790    25.5060  -215.4950    56.3910   222.9170   279.6280   265.6170     2.1470 
  180.0000   173.8990    22.9150    25.5430  -215.0390    59.9000   225.5240   280.3810   260.0280     2.1490 
  180.1250   174.0130    22.9500    25.5810  -214.4980    64.0480   218.9390   268.9870   224.8400     2.1430 
  180.2500   174.1270    22.9860    25.6190  -214.0690    64.7760   208.9090   253.4640   227.3290     2.1370 
  180.3750   174.2400    23.0220    25.6560  -213.8370    61.1440   198.9800   238.7650   219.9850     2.1380 
  180.5000   174.3540    23.0570    25.6940  -213.7060    59.2180   193.0340   229.5300   219.5470     2.1430 
  180.6250   174.4680    23.0930    25.7320  -213.6030    60.5650   188.0920   221.1530   221.6240     2.1460 
  180.7500   174.5810    23.1290    25.7700  -213.3300    61.5380   183.3680   212.8450   217.7520     2.1510 
  180.8750   174.6950    23.1650    25.8070  -212.9330    60.8570   175.7370   200.4800   200.1260     2.1570 
  181.0000   174.8090    23.2010    25.8450  -212.6010    60.3470   165.4860   185.8270   171.8030     2.1600 
  181.1250   174.9220    23.2360    25.8840  -212.3430    61.6610   154.4380   171.3710   171.3420     2.1590 
  181.2500   175.0360    23.2720    25.9220  -212.0990    62.4420   145.3770   160.2810   173.4750     2.1580 
  181.3750   175.1490    23.3080    25.9600  -211.8890    61.6470   141.7160   156.3240   162.5610     2.1630 
  181.5000   175.2630    23.3440    25.9980  -211.8920    62.1160   144.7190   160.0200   139.3130     2.1660 
  181.6250   175.3760    23.3800    26.0360  -212.1750    63.9010   153.0980   169.1990    95.5430     2.1640 
  181.7500   175.4900    23.4160    26.0740  -212.4890    64.9970   162.7900   178.9860    74.1520     2.1620 
  181.8750   175.6030    23.4520    26.1120  -212.7310    62.7260   172.0750   187.9820    99.9630     2.1630 
  182.0000   175.7170    23.4880    26.1510  -212.9970    58.9620   179.0210   194.2500   167.4330     2.1640 
  182.1250   175.8300    23.5240    26.1890  -213.2450    57.0600   180.1680   194.3010   225.9240     2.1570 
  182.2500   175.9440    23.5590    26.2270  -213.4380    57.8190   175.1340   187.0080   216.6900     2.1480 
  182.3750   176.0570    23.5950    26.2650  -213.6940    59.4240   164.8300   174.8310   150.2020     2.1430 
  182.5000   176.1710    23.6310    26.3040  -214.0620    60.7010   150.9470   159.1340    99.0280     2.1410 
  182.6250   176.2840    23.6670    26.3420  -214.2760    60.1240   138.8900   145.5160    93.4850     2.1490 
  182.7500   176.3970    23.7030    26.3800  -214.2250    58.0140   131.0040   136.8380   111.0590     2.1710 
  182.8750   176.5110    23.7390    26.4180  -214.2840    56.4740   129.4750   135.1680   141.0100     2.2020 
  183.0000   176.6240    23.7750    26.4560  -214.4280    57.1750   134.2080   140.2130   168.0380     2.2150 
  183.1250   176.7380    23.8110    26.4940  -214.5350    58.2110   143.4050   150.2410   158.4810     2.1950 
  183.2500   176.8510    23.8470    26.5320  -214.6250    56.4720   151.3090   163.6850   117.6080     2.1620 
  183.3750   176.9650    23.8840    26.5700  -214.6010    53.8570   144.1500   157.0770    83.1750     2.1440 
  183.5000   177.0780    23.9200    26.6080  -214.4010    54.6380   126.4030   135.0890    65.3270     2.1500 
  183.6250   177.1920    23.9560    26.6460  -214.1080    58.0600   102.1360   106.7060    51.7840     2.1680 
  183.7500   177.3050    23.9920    26.6840  -213.9670    61.4090    79.9290    82.9920    51.7230     2.1860 
  183.8750   177.4190    24.0290    26.7220  -213.8600    61.5230    66.9610    69.0300    63.8120     2.2030 
  184.0000   177.5320    24.0650    26.7600  -213.8150    60.3580    59.1790    60.7290    70.5100     2.2140 
  184.1250   177.6450    24.1010    26.7980  -214.0420    59.6970    55.6530    57.3050    69.9680     2.2130 
  184.2500   177.7590    24.1380    26.8360  -214.4690    59.7140    55.8630    57.6440    64.3150     2.2060 
  184.3750   177.8720    24.1740    26.8750  -214.9860    61.5420    57.3960    59.4020    58.3050     2.1990 
  184.5000   177.9850    24.2110    26.9130  -215.4520    64.2080    58.5690    60.8790    52.8940     2.1940 
  184.6250   178.0980    24.2470    26.9510  -215.7290    66.2060    59.3280    62.1180    50.7930     2.1910 
  184.7500   178.2120    24.2840    26.9890  -215.9950    66.2530    61.0950    64.5080    51.8640     2.1920 
  184.8750   178.3250    24.3210    27.0280  -216.2530    65.3350    65.3890    69.7480    50.6730     2.1950 
  185.0000   178.4380    24.3570    27.0660  -216.4630    64.5560    73.5370    79.0270    54.2510     2.1980 
  185.1250   178.5510    24.3940    27.1040  -216.7150    62.1790    84.8720    92.5320    61.4640     2.1870 
  185.2500   178.6640    24.4310    27.1430  -217.0600    59.4510   100.6430   111.6680    66.8900     2.1660 
  185.3750   178.7770    24.4680    27.1810  -217.3900    58.7980   123.7620   137.7860    63.6800     2.1480 
  185.5000   178.8900    24.5050    27.2190  -217.6840    58.9090   147.1260   164.3890    51.7200     2.1490 
  185.6250   179.0030    24.5420    27.2580  -217.9600    59.6440   168.8580   188.1190    42.4520     2.1590 
  185.7500   179.1160    24.5790    27.2960  -218.1210    61.3020   185.1210   200.9140    51.0760     2.1570 
  185.8750   179.2290    24.6160    27.3350  -218.0460    62.7850   182.3250   195.7630    80.0140     2.1440 
