~V
VERS. 2.00: Ver 2.00
~W
STRT.M 44.0000:
STOP.M 275.0000:
STEP.M 0.1250:
NULL. -999.2500:
UWI. FD11190:
~C
DEPT.M :
TVD. :
DX. :
DY. :
SP.MV :
GR.API :
RI. :
RML.OHMM :
RXO.OHMM :
DEN.GM/CC :
~A
# ...
  263.0000   249.0610   -61.3900   -34.6020   -14.5490    35.8970     2.8880     3.5510     2.8750     2.3310 
  263.1250   249.1740   -61.4360   -34.6280   -14.5490    36.4400     2.8240     3.5080     2.6840     2.3250 
  263.2500   249.2870   -61.4820   -34.6540   -14.5490    37.4380     2.7830     3.5100     2.8080     2.3280 
  263.3750   249.4010   -61.5280   -34.6800   -14.5490    38.6150     2.7660     3.5400     3.0120     2.3340 
  263.5000   249.5140   -61.5740   -34.7060   -14.5490    39.4660     2.7610     3.5750     3.0130     2.3400 
  263.6250   249.6270   -61.6200   -34.7320   -14.5490    40.0700     2.7500     3.6030     2.7990     2.3440 
  263.7500   249.7400   -61.6660   -34.7580   -14.5490    40.1980     2.7330     3.6070     2.5270     2.3400 
  263.8750   249.8540   -61.7120   -34.7840   -14.5490    38.6440     2.6880     3.5800     2.3360     2.3300 
  264.0000   249.9670   -61.7580   -34.8100   -14.5490    36.6110     2.6260     3.5250     2.2510     2.3260 
  264.1250   250.0800   -61.8050   -34.8360   -14.5490    35.6160     2.5640     3.4590     2.2530     2.3340 
  264.2500   250.1930   -61.8510   -34.8630   -14.5490    35.9550     2.4980     3.3910     2.3340     2.3510 
  264.3750   250.3070   -61.8970   -34.8890   -14.5490    36.2950     2.4430     3.3380     2.4430     2.3580 
  264.5000   250.4200   -61.9430   -34.9150   -14.5490    36.7960     2.3960     3.3060     2.4510     2.3420 
  264.6250   250.5330   -61.9890   -34.9410   -14.5490    37.9050     2.3810     3.3060     2.3300     2.3080 
  264.7500   250.6460   -62.0350   -34.9670   -14.5490    38.2900     2.3890     3.3310     2.2270     2.2860 
  264.8750   250.7600   -62.0810   -34.9930   -14.5490    38.2060     2.4120     3.3700     2.2050     2.2890 
  265.0000   250.8730   -62.1270   -35.0190   -14.5490    37.8510     2.4320     3.4030     2.1970     2.3080 
  265.1250   250.9860   -62.1730   -35.0450   -14.5490    37.4510     2.4460     3.4190     2.1830     2.3300 
  265.2500   251.1000   -62.2190   -35.0710   -14.5490    36.9820     2.4450     3.4240     2.1730     2.3360 
  265.3750   251.2130   -62.2650   -35.0970   -14.5490    36.1660     2.4520     3.4230     2.1460     2.3160 
  265.5000   251.3260   -62.3110   -35.1230   -14.5490    35.2000     2.4510     3.4220     2.0990     2.2850 
  265.6250   251.4390   -62.3570   -35.1490   -14.5490    35.2690     2.4510     3.4190     2.0620     2.2660 
  265.7500   251.5530   -62.4030   -35.1750   -14.5490    35.6610     2.4480     3.4160     2.0580     2.2640 
  265.8750   251.6660   -62.4490   -35.2010   -14.5490    35.5120     2.4440     3.4120     2.0790     2.2710 
  266.0000   251.7790   -62.4950   -35.2270   -14.5490    35.8380     2.4450     3.4090     2.0970     2.2740 
  266.1250   251.8920   -62.5410   -35.2530   -14.5490    37.6390     2.4440     3.4070     2.1060     2.2690 
  266.2500   252.0060   -62.5870   -35.2790   -14.5490    39.2890     2.4420     3.4060     2.1260     2.2620 
  266.3750   252.1190   -62.6330   -35.3050   -14.5490    38.9500     2.4390     3.4060     2.1510     2.2600 
  266.5000   252.2320   -62.6790   -35.3310   -14.5490    37.9520     2.4420     3.4040     2.1500     2.2630 
  266.6250   252.3450   -62.7260   -35.3570   -14.5490    37.4420     2.4450     3.4020     2.1300     2.2700 
  266.7500   252.4590   -62.7720   -35.3830   -14.5490    37.8710     2.4480     3.3990     2.1340     2.2740 
  266.8750   252.5720   -62.8180   -35.4090   -14.5490    39.8040     2.4510     3.3990     2.1550     2.2740 
  267.0000   252.6850   -62.8640   -35.4350   -14.5490    42.5930     2.4450     3.3990     2.1500     2.2740 
  267.1250   252.7980   -62.9100   -35.4610   -14.5490    44.6780     2.4480     3.4010     2.1060     2.2770 
  267.2500   252.9120   -62.9560   -35.4870   -14.5490    45.5070     2.4480     3.4010     2.0660     2.2810 
  267.3750   253.0250   -63.0020   -35.5140   -14.5490    45.4160     2.4480     3.3990     2.0730     2.2830 
  267.5000   253.1380   -63.0480   -35.5400   -14.5490    45.3720     2.4480     3.3960     2.1180     2.2810 
  267.6250   253.2510   -63.0940   -35.5660   -14.5490    45.3720     2.4420     3.3940     2.1740     2.2730 
  267.7500   253.3650   -63.1400   -35.5920   -14.5490    45.3720     2.4420     3.3930     2.2320     2.2610 
  267.8750   253.4780   -63.1860   -35.6180   -14.5490    45.3720     2.4420     3.3930     2.3170     2.2430 
  268.0000   253.5910   -63.2320   -35.6440   -14.5490    45.3720     2.4480     3.3940     2.4410     2.2180 
  268.1250   253.7040   -63.2780   -35.6700   -14.5490    45.3720     2.4490     3.3940     2.5300     2.1970 
  268.2500   253.8180   -63.3240   -35.6960   -14.5490    45.3720     2.4480     3.3940     2.5550     2.1890 
  268.3750   253.9310   -63.3700   -35.7220   -14.5490    45.3720     2.4460     3.3940     2.6330     2.1900 
  268.5000   254.0440   -63.4160   -35.7480   -14.5490    45.3720     2.4390     3.3940     2.7900     2.1860 
  268.6250   254.1570   -63.4620   -35.7740   -14.5490    45.3720     2.4390     3.3940     2.9420     2.1770 
  268.7500   254.2710   -63.5080   -35.8000   -14.5490    45.3720     2.4390     3.3940     3.0420     2.1670 
  268.8750   254.3840   -63.5540   -35.8260   -14.5490    45.3720     2.4390     3.3940     3.0560     2.1670 
  269.0000   254.4970   -63.6000   -35.8520   -14.5490    45.3720     2.4390     3.3940     3.0380     2.1740 
  269.1250   254.6100   -63.6460   -35.8780   -14.5490    45.3720     2.4400     3.3940     3.0990     2.1790 
  269.2500   254.7240   -63.6930   -35.9040   -14.5490    45.3720     2.4410     3.3970     3.1910     2.1770 
  269.3750   254.8370   -63.7390   -35.9300   -14.5490    45.3720     2.4410     3.4000     3.2450     2.1750 
  269.5000   254.9500   -63.7850   -35.9560   -14.5490    45.3720     2.4410     3.4050     3.3250     2.1800 
  269.6250   255.0630   -63.8310   -35.9820   -14.5490    45.3720     2.4380     3.4090     3.4220     2.1850 
  269.7500   255.1770   -63.8770   -36.0080   -14.5490    45.3720     2.4380     3.4110     3.5020     2.1750 
  269.8750   255.2900   -63.9230   -36.0340   -14.5490    45.3720     2.4380     3.4110     3.6350     2.1440 
  270.0000   255.4030   -63.9690   -36.0600   -14.5490    45.3720     2.4380     3.4110     3.8520     2.1040 
  270.1250   255.5160   -64.0150   -36.0860   -14.5490    45.3720     2.4380     3.4110     4.1160     2.0780 
  270.2500   255.6300   -64.0610   -36.1120   -14.5490    45.3720     2.4380     3.4110     4.3550     2.0700 
  270.3750   255.7430   -64.1070   -36.1380   -14.5490    45.3720     2.4380     3.4110     4.5020     2.0730 
  270.5000   255.8560   -64.1530   -36.1650   -14.5490    45.3720     2.4380     3.4110     4.5550     2.0790 
  270.6250   255.9690   -64.1990   -36.1910   -14.5490    45.3720     2.4380     3.4110     4.5590     2.0830 
  270.7500   256.0830   -64.2450   -36.2170   -14.5490    45.3720     2.4380     3.4110     4.5590     2.0840 
  270.8750   256.1960   -64.2910   -36.2430   -14.5490    45.3720     2.4380     3.4110     4.5580     2.0820 
  271.0000   256.3090   -64.3370   -36.2690   -14.5490    45.3720     2.4380     3.4110     4.5580     2.0800 
  271.1250   256.4220   -64.3830   -36.2950   -14.5490    45.3720     2.4380     3.4110     4.5580     2.0750 
  271.2500   256.5360   -64.4290   -36.3210   -14.5490    45.3720     2.4380     3.4110     4.5590     2.0690 
  271.3750   256.6490   -64.4750   -36.3470   -14.5490    45.3720     2.4380     3.4110     4.5590     2.0650 
  271.5000   256.7620   -64.5210   -36.3730   -14.5490    45.3720     2.4380     3.4110     4.5590     2.0690 
  271.6250   256.8750   -64.5670   -36.3990   -14.5490    45.3720     2.4380     3.4110     4.5580     2.0800 
  271.7500   256.9890   -64.6140   -36.4250   -14.5490    45.3720     2.4380     3.4110     4.5580     2.0870 
  271.8750   257.1020   -64.6600   -36.4510   -14.5490    45.3720     2.4380     3.4110     4.5580     2.0830 
  272.0000   257.2150   -64.7060   -36.4770   -14.5490    45.3720     2.4380     3.4110     4.5580     2.0760 
