~V
VERS. 2.00: Ver 2.00
~W
STRT.M 10.0000:
STOP.M 230.0000:
STEP.M 0.1250:
NULL. -999.2500:
UWI. FD11119:
~C
DEPT.M :
TVD. :
DX. :
DY. :
SP.MV :
DEN.GM/CC :
GR.API :
RML.OHMM :
RI. :
RXO.OHMM :
CALI.CM :
~A
# ...
  142.0000   139.8050   -16.5720    -6.2840   -21.0060     2.3290    84.9250     5.9120     5.7560     5.4610    21.4000 
  142.1250   139.9240   -16.6070    -6.2990   -21.1880     2.3210    84.8740     5.9430     5.7320     5.4300    21.2180 
  142.2500   140.0430   -16.6420    -6.3140   -21.3750     2.3150    86.9420     5.9440     5.6810     5.4310    21.1450 
  142.3750   140.1620   -16.6780    -6.3300   -21.5540     2.3140    86.7370     5.9380     5.6140     5.4960    21.1310 
  142.5000   140.2810   -16.7130    -6.3450   -21.7320     2.3180    83.2130     5.9440     5.5290     5.6300    21.1300 
  142.6250   140.4000   -16.7490    -6.3610   -21.8800     2.3240    83.9620     5.9680     5.4250     5.7830    21.1300 
  142.7500   140.5180   -16.7840    -6.3760   -22.0280     2.3270    90.0460     6.0350     5.3350     5.9220    21.1300 
  142.8750   140.6370   -16.8200    -6.3920   -22.1940     2.3250    94.3630     6.2360     5.3310     6.0650    21.1300 
  143.0000   140.7560   -16.8550    -6.4070   -22.4030     2.3220    93.1940     6.7340     5.5130     6.0860    21.1300 
  143.1250   140.8750   -16.8900    -6.4220   -22.6070     2.3250    90.0230     7.1020     6.0690     6.0400    21.1300 
  143.2500   140.9940   -16.9260    -6.4380   -22.8300     2.3350    85.6840     8.6220     7.0590     6.3160    21.1300 
  143.3750   141.1130   -16.9610    -6.4530   -23.0480     2.3480    79.0140    10.5500     8.4770     8.7050    21.1300 
  143.5000   141.2320   -16.9970    -6.4690   -23.2570     2.3560    71.1160    12.5060    10.1270    11.4810    21.1300 
  143.6250   141.3510   -17.0320    -6.4840   -23.4230     2.3460    65.9750    13.7830    11.4950    12.3060    21.1300 
  143.7500   141.4700   -17.0670    -6.4990   -23.5650     2.3230    66.2390    14.1470    12.1970    12.4540    21.1300 
  143.8750   141.5880   -17.1030    -6.5150   -23.6470     2.2970    70.4810    13.8930    12.2960    11.7650    21.1300 
  144.0000   141.7070   -17.1380    -6.5300   -23.6950     2.2780    73.1330    13.6740    12.2180    10.9270    21.1300 
  144.1250   141.8260   -17.1740    -6.5460   -23.7440     2.2730    69.5500    14.1900    12.5140    10.4590    21.1300 
  144.2500   141.9450   -17.2090    -6.5610   -23.8080     2.2740    65.2370    15.4920    13.3860    10.9180    21.1300 
  144.3750   142.0640   -17.2440    -6.5770   -23.8810     2.2750    64.2550    17.3760    14.8180    12.2650    21.1300 
  144.5000   142.1830   -17.2800    -6.5920   -23.9760     2.2720    64.5940    19.4600    16.6130    13.5390    21.1300 
  144.6250   142.3020   -17.3150    -6.6070   -24.0970     2.2660    65.8480    21.1760    18.3350    14.1680    21.1300 
  144.7500   142.4210   -17.3510    -6.6230   -24.2220     2.2600    68.2500    22.1930    19.5350    14.2070    21.1300 
  144.8750   142.5400   -17.3860    -6.6380   -24.3560     2.2580    69.7490    22.4060    19.9980    13.9690    21.1280 
  145.0000   142.6580   -17.4210    -6.6540   -24.4690     2.2590    68.0300    21.8310    19.7010    13.8820    21.1070 
  145.1250   142.7770   -17.4570    -6.6690   -24.5800     2.2620    63.2750    20.4160    18.6270    13.8560    20.9910 
  145.2500   142.8960   -17.4920    -6.6840   -24.6340     2.2640    61.0470    18.5090    17.1030    13.5560    20.8300 
  145.3750   143.0150   -17.5280    -6.7000   -24.6870     2.2650    64.1740    16.5380    15.4590    12.9380    20.8030 
  145.5000   143.1340   -17.5630    -6.7150   -24.7250     2.2660    70.9830    15.0130    14.0660    11.9380    20.8000 
  145.6250   143.2530   -17.5980    -6.7310   -24.8180     2.2690    75.5290    14.4330    13.3240    10.7090    20.8000 
  145.7500   143.3720   -17.6340    -6.7460   -24.9380     2.2710    74.5740    14.7060    13.2520    10.2180    20.7960 
  145.8750   143.4910   -17.6690    -6.7620   -25.0680     2.2700    70.0240    15.6290    13.7860    10.4670    20.7790 
  146.0000   143.6090   -17.7050    -6.7770   -25.2060     2.2630    66.9050    16.8520    14.7410    10.7430    20.6730 
  146.1250   143.7280   -17.7400    -6.7920   -25.3450     2.2510    67.8580    17.8570    15.7690    10.7800    20.5860 
  146.2500   143.8470   -17.7750    -6.8080   -25.4750     2.2400    69.5770    18.3090    16.4890    10.7030    20.5710 
  146.3750   143.9660   -17.8110    -6.8230   -25.5810     2.2350    67.8070    18.1880    16.7640    10.4540    20.5680 
  146.5000   144.0850   -17.8460    -6.8390   -25.6760     2.2400    64.1750    17.7660    16.7150    10.2930    20.5680 
  146.6250   144.2040   -17.8820    -6.8540   -25.7060     2.2510    65.6780    17.4650    16.6230    10.3940    20.5700 
  146.7500   144.3230   -17.9170    -6.8690   -25.6940     2.2610    69.0130    17.5010    16.6950    10.7920    20.5780 
  146.8750   144.4420   -17.9520    -6.8850   -25.6720     2.2650    70.5400    17.8590    16.9530    11.2230    20.6280 
  147.0000   144.5610   -17.9880    -6.9000   -25.6320     2.2630    70.9080    18.3500    17.2890    11.4880    20.6520 
  147.1250   144.6790   -18.0230    -6.9160   -25.5650     2.2560    71.1940    18.5810    17.4130    11.4840    20.6570 
  147.2500   144.7980   -18.0590    -6.9310   -25.5310     2.2480    69.3810    18.2760    17.1020    11.2120    20.6610 
  147.3750   144.9170   -18.0940    -6.9470   -25.5110     2.2420    66.7420    17.4100    16.3220    10.7810    20.6920 
  147.5000   145.0360   -18.1300    -6.9620   -25.5160     2.2410    66.4830    16.2210    15.2670    10.5160    20.8710 
  147.6250   145.1540   -18.1670    -6.9780   -25.5520     2.2450    68.3770    15.1720    14.3070    10.5040    21.2090 
  147.7500   145.2730   -18.2030    -6.9940   -25.6410     2.2510    70.8130    14.6620    13.7750    10.5310    21.4480 
  147.8750   145.3910   -18.2400    -7.0100   -25.7380     2.2560    74.2540    14.9090    13.8680    10.6060    21.5070 
  148.0000   145.5100   -18.2760    -7.0260   -25.8930     2.2560    75.3020    15.9270    14.6540    10.9730    21.5150 
  148.1250   145.6280   -18.3120    -7.0420   -26.0540     2.2510    70.4540    17.5160    16.0940    11.3660    21.5150 
  148.2500   145.7470   -18.3490    -7.0570   -26.2170     2.2450    65.5470    19.0480    17.6970    11.8760    21.5150 
  148.3750   145.8650   -18.3850    -7.0730   -26.3750     2.2430    65.0720    19.9290    18.9230    12.4230    21.5150 
  148.5000   145.9840   -18.4220    -7.0890   -26.5150     2.2460    67.5300    19.7480    19.2940    12.8810    21.5150 
  148.6250   146.1020   -18.4580    -7.1050   -26.6190     2.2520    68.9700    18.4870    18.5850    12.8730    21.5150 
  148.7500   146.2210   -18.4950    -7.1210   -26.7100     2.2550    68.3980    16.8930    17.3540    12.4680    21.5120 
  148.8750   146.3390   -18.5310    -7.1370   -26.7790     2.2530    66.5090    15.4310    16.0190    11.8490    21.4930 
  149.0000   146.4580   -18.5680    -7.1530   -26.8020     2.2470    65.4500    14.3170    14.8360    10.8650    21.3790 
  149.1250   146.5770   -18.6040    -7.1680   -26.8300     2.2390    65.9380    13.6500    13.9820    10.3040    21.2910 
  149.2500   146.6950   -18.6400    -7.1840   -26.8470     2.2360    64.5870    13.3230    13.4630    10.1700    21.2750 
  149.3750   146.8140   -18.6770    -7.2000   -26.8730     2.2390    62.6300    13.3100    13.2870    10.4920    21.2730 
  149.5000   146.9320   -18.7130    -7.2160   -26.9110     2.2490    63.6380    13.6300    13.4530    10.5180    21.2730 
  149.6250   147.0510   -18.7500    -7.2320   -26.9590     2.2610    68.3430    14.3720    14.0060    10.1560    21.2730 
  149.7500   147.1690   -18.7860    -7.2480   -27.0110     2.2680    71.8210    15.3980    14.8320    10.6100    21.2730 
  149.8750   147.2880   -18.8230    -7.2640   -27.0900     2.2700    71.9110    16.5060    15.7900    11.6820    21.2730 
  150.0000   147.4060   -18.8590    -7.2790   -27.2090     2.2670    70.0150    17.4420    16.6660    12.6630    21.2730 
  150.1250   147.5250   -18.8960    -7.2950   -27.3860     2.2630    67.8460    17.9690    17.1910    12.9050    21.2730 
