~V
VERS. 2.00: Ver 2.00
~W
STRT.M 50.0000:
STOP.M 268.0000:
STEP.M 0.1250:
NULL. -999.2500:
UWI. FD11187:
~C
DEPT.M :
TVD. :
DX. :
DY. :
SP.MV :
GR.API :
RI. :
RML.OHMM :
RXO.OHMM :
DEN.GM/CC :
~A
# ...
  150.3750   149.0730    11.6900    -4.6660   -25.5360    47.5610     8.5440     9.1930    13.2510     2.5430 
  150.5000   149.1900    11.7300    -4.6810   -25.6200    44.9670     8.7050     9.3130    12.2160     2.5320 
  150.6250   149.3080    11.7710    -4.6970   -25.7450    42.3830     8.7390     9.2850    10.5060     2.5140 
  150.7500   149.4250    11.8110    -4.7130   -25.8360    42.4890     8.6910     9.2270    10.7100     2.5190 
  150.8750   149.5420    11.8520    -4.7280   -25.9840    43.9440     8.5870     9.1400    13.5720     2.5370 
  151.0000   149.6590    11.8930    -4.7440   -26.0790    44.3560     8.4790     9.0450    14.5410     2.5260 
  151.1250   149.7760    11.9340    -4.7600   -26.2010    44.9270     8.3110     8.9170    12.6370     2.4920 
  151.2500   149.8930    11.9750    -4.7750   -26.2660    45.3180     8.2560     8.8860    11.6060     2.4840 
  151.3750   150.0100    12.0160    -4.7910   -26.3470    43.9370     8.1560     8.7900    12.5350     2.5000 
  151.5000   150.1270    12.0570    -4.8070   -26.3990    41.7160     8.0990     8.7250    13.5020     2.5020 
  151.6250   150.2440    12.0990    -4.8230   -26.4790    39.0370     8.0930     8.6840    14.1230     2.4890 
  151.7500   150.3610    12.1400    -4.8380   -26.5330    38.6090     8.1200     8.6740    13.3030     2.4910 
  151.8750   150.4780    12.1810    -4.8540   -26.6060    39.5450     8.1410     8.6130    11.5540     2.5040 
  152.0000   150.5940    12.2230    -4.8700   -26.6420    41.1580     8.1530     8.5820    11.7930     2.5050 
  152.1250   150.7110    12.2650    -4.8860   -26.6700    43.1970     8.1710     8.5470    13.5170     2.4880 
  152.2500   150.8280    12.3060    -4.9020   -26.6670    42.6120     8.2120     8.5580    14.5430     2.4730 
  152.3750   150.9450    12.3480    -4.9180   -26.6280    40.4670     8.3080     8.6110    14.6790     2.4550 
  152.5000   151.0620    12.3890    -4.9350   -26.5830    40.7320     8.3990     8.6860    13.2380     2.4580 
  152.6250   151.1780    12.4310    -4.9510   -26.4990    42.9570     8.6140     8.8900    10.5580     2.4830 
  152.7500   151.2950    12.4730    -4.9680   -26.4420    43.7250     8.7270     9.0070     9.7290     2.5010 
  152.8750   151.4110    12.5150    -4.9840   -26.3620    43.7400     8.7140     8.9970    11.2490     2.5040 
  153.0000   151.5280    12.5570    -5.0000   -26.3150    44.1550     8.4800     8.7290    13.2970     2.4850 
  153.1250   151.6450    12.5990    -5.0160   -26.2510    45.0660     7.7880     7.9600    12.6070     2.4470 
  153.2500   151.7610    12.6410    -5.0330   -26.2110    45.7750     7.2370     7.3520    10.2750     2.4260 
  153.3750   151.8780    12.6840    -5.0490   -26.1570    48.8680     6.5670     6.6430     9.5620     2.4120 
  153.5000   151.9940    12.7260    -5.0650   -26.1220    52.0080     6.3740     6.4510    10.1660     2.4150 
  153.6250   152.1100    12.7690    -5.0810   -26.0650    55.1710     6.4280     6.5640     9.6760     2.4300 
  153.7500   152.2270    12.8120    -5.0980   -26.0200    54.3770     6.6780     6.8600     9.4460     2.4420 
  153.8750   152.3430    12.8550    -5.1140   -25.9380    51.6860     7.1320     7.3690    10.6220     2.4460 
  154.0000   152.4590    12.8980    -5.1300   -25.8790    50.9710     7.4660     7.7250    10.8950     2.4380 
  154.1250   152.5750    12.9410    -5.1470   -25.8000    50.3750     7.8280     8.0760     9.7160     2.4210 
  154.2500   152.6910    12.9840    -5.1630   -25.7640    49.7230     7.9800     8.2000     9.5940     2.4130 
  154.3750   152.8080    13.0270    -5.1800   -25.7450    51.1950     8.0760     8.2400    11.6850     2.4090 
  154.5000   152.9240    13.0700    -5.1960   -25.7550    53.1960     8.1010     8.2390    13.1630     2.4070 
  154.6250   153.0400    13.1140    -5.2130   -25.7960    54.4870     8.0900     8.1860    12.6920     2.3990 
  154.7500   153.1560    13.1570    -5.2290   -25.8340    54.7380     8.0600     8.1410    10.7460     2.3960 
  154.8750   153.2720    13.2010    -5.2460   -25.9010    55.8150     7.9280     7.9970     8.3490     2.4030 
  155.0000   153.3880    13.2450    -5.2620   -25.9480    55.6300     7.7720     7.8400     8.6430     2.4070 
  155.1250   153.5040    13.2890    -5.2780   -26.0200    53.6290     7.4240     7.4780    10.4510     2.4000 
  155.2500   153.6190    13.3320    -5.2950   -26.0670    53.0860     7.1210     7.1580    10.7890     2.3910 
  155.3750   153.7350    13.3770    -5.3110   -26.1360    53.3830     6.5690     6.5840    10.1090     2.3950 
  155.5000   153.8510    13.4210    -5.3280   -26.1830    54.1530     6.2220     6.2360     9.5620     2.4060 
  155.6250   153.9670    13.4650    -5.3440   -26.2580    54.6780     5.8260     5.8660     8.4500     2.4090 
  155.7500   154.0820    13.5100    -5.3600   -26.3120    54.2220     5.6510     5.7170     8.0200     2.4040 
  155.8750   154.1980    13.5540    -5.3770   -26.3950    53.4950     5.5310     5.6300     7.9610     2.4020 
  156.0000   154.3140    13.5990    -5.3930   -26.4480    54.1600     5.5190     5.6350     7.8060     2.4100 
  156.1250   154.4290    13.6440    -5.4090   -26.5180    54.5870     5.6120     5.7470     7.7970     2.4150 
  156.2500   154.5450    13.6890    -5.4250   -26.5520    53.5620     5.7340     5.8810     7.8420     2.4140 
  156.3750   154.6600    13.7340    -5.4420   -26.5850    51.1990     5.9780     6.1520     7.7860     2.4180 
  156.5000   154.7760    13.7790    -5.4580   -26.5940    50.1690     6.1990     6.4070     7.4800     2.4170 
  156.6250   154.8910    13.8240    -5.4740   -26.5950    49.4720     6.5960     6.8700     7.5980     2.4050 
  156.7500   155.0060    13.8700    -5.4900   -26.5870    50.9890     6.8490     7.1650     8.9070     2.3940 
  156.8750   155.1210    13.9160    -5.5060   -26.5650    53.0520     7.0270     7.3610    11.0130     2.3850 
  157.0000   155.2370    13.9610    -5.5220   -26.5410    53.1970     6.9780     7.3040    11.8560     2.3870 
  157.1250   155.3520    14.0070    -5.5390   -26.4860    51.8590     6.7190     7.0180    12.0580     2.4080 
  157.2500   155.4670    14.0530    -5.5550   -26.4340    52.3750     6.4960     6.7800    10.8010     2.4380 
  157.3750   155.5820    14.0990    -5.5710   -26.3350    52.8030     6.2320     6.5190     8.2360     2.4760 
  157.5000   155.6970    14.1450    -5.5870   -26.2570    51.0320     6.1100     6.4130     7.8600     2.4740 
  157.6250   155.8120    14.1910    -5.6030   -26.1320    46.4900     6.0350     6.3700     8.6760     2.4350 
  157.7500   155.9270    14.2370    -5.6200   -26.0530    45.9250     6.0460     6.4050     8.8020     2.4090 
  157.8750   156.0420    14.2830    -5.6360   -25.9580    48.9180     6.1040     6.4910     9.0410     2.3950 
  158.0000   156.1570    14.3300    -5.6530   -25.9160    49.8220     6.1440     6.5370     9.3330     2.4040 
  158.1250   156.2720    14.3760    -5.6690   -25.8880    48.0630     6.1360     6.5200     9.3800     2.4320 
  158.2500   156.3870    14.4230    -5.6860   -25.8830    47.7630     6.1130     6.4960     9.1060     2.4460 
  158.3750   156.5020    14.4690    -5.7020   -25.8830    49.0220     6.0510     6.4140     8.3520     2.4380 
  158.5000   156.6160    14.5160    -5.7190   -25.8810    49.2480     6.0010     6.3540     8.5970     2.4270 
  158.6250   156.7310    14.5630    -5.7360   -25.8770    48.4540     5.9820     6.3440     9.3350     2.4240 
  158.7500   156.8460    14.6090    -5.7520   -25.8770    49.4350     5.9840     6.3500     9.6390     2.4340 
  158.8750   156.9600    14.6560    -5.7690   -25.8860    50.8870     6.0070     6.3850    10.6250     2.4560 
  159.0000   157.0750    14.7030    -5.7860   -25.8960    51.1040     6.0300     6.4090    10.8660     2.4740 
  159.1250   157.1900    14.7510    -5.8030   -25.9110    51.0670     6.0330     6.4090     9.9610     2.4900 
  159.2500   157.3040    14.7980    -5.8190   -25.9190    51.4560     6.0010     6.3770     9.1690     2.4730 
  159.3750   157.4190    14.8450    -5.8350   -25.9350    52.4400     5.9830     6.3870     9.0290     2.4040 
