~V
VERS. 2.00: Ver 2.00
~W
STRT.M 20.0000:
STOP.M 285.0000:
STEP.M 0.1250:
NULL. -999.2500:
UWI. FD11157:
~C
DEPT.M :
TVD. :
DX. :
DY. :
GR.API :
RML.OHMM :
RI. :
RXO.OHMM :
CALI.CM :
SP.MV :
DEN.GM/CC :
~A
# ...
  259.2500   253.0280   -17.9680   -41.2900    51.6590     7.1460     6.4960     5.9030    17.6310   -14.7780     2.3420 
  259.3750   253.1460   -17.9830   -41.3290    51.7780     7.0330     6.3940     5.9620    17.6760   -14.7950     2.3440 
  259.5000   253.2640   -17.9980   -41.3670    49.9360     7.0410     6.4010     6.0100    17.7840   -14.8340     2.3460 
  259.6250   253.3820   -18.0130   -41.4060    49.4740     7.1110     6.4650     6.0480    17.9060   -14.9040     2.3430 
  259.7500   253.5000   -18.0290   -41.4450    51.6310     7.1340     6.4850     6.0730    17.9880   -14.9830     2.3340 
  259.8750   253.6180   -18.0440   -41.4830    55.3930     7.0750     6.4320     6.0750    18.0880   -15.0540     2.3220 
  260.0000   253.7360   -18.0590   -41.5220    57.8730     6.9850     6.3500     6.1030    18.0630   -15.1460     2.3130 
  260.1250   253.8540   -18.0740   -41.5610    58.2360     6.9800     6.3450     6.2170    17.1600   -15.2880     2.3230 
  260.2500   253.9720   -18.0890   -41.5990    57.4110     7.0940     6.4500     6.3630    16.9670   -15.4540     2.3530 
  260.3750   254.0900   -18.1040   -41.6380    56.7310     7.2810     6.6190     6.5740    16.9210   -15.6020     2.3900 
  260.5000   254.2080   -18.1190   -41.6770    57.8500     7.4650     6.7870     6.8960    16.9640   -15.7320     2.4150 
  260.6250   254.3260   -18.1340   -41.7150    59.1590     7.5830     6.8930     7.3860    16.9690   -15.8700     2.4110 
  260.7500   254.4430   -18.1490   -41.7540    57.8790     7.6330     6.9390     7.8620    16.9680   -16.0130     2.3880 
  260.8750   254.5610   -18.1650   -41.7920    53.8000     7.6410     6.9470     8.1190    17.0090   -16.1390     2.3630 
  261.0000   254.6790   -18.1800   -41.8310    50.1310     7.6430     6.9480     8.0160    17.3350   -16.2090     2.3480 
  261.1250   254.7970   -18.1950   -41.8700    51.9940     7.6530     6.9580     7.4900    17.6290   -16.2180     2.3490 
  261.2500   254.9150   -18.2100   -41.9080    57.1330     7.6500     6.9550     6.9190    17.7210   -16.2000     2.3570 
  261.3750   255.0330   -18.2250   -41.9470    60.4920     7.6190     6.9260     6.4690    17.7340   -16.1500     2.3650 
  261.5000   255.1510   -18.2400   -41.9860    58.6790     7.5690     6.8810     6.2330    17.8700   -16.0510     2.3690 
  261.6250   255.2690   -18.2550   -42.0240    55.7340     7.5170     6.8340     6.1190    18.1620   -15.8640     2.3670 
  261.7500   255.3870   -18.2700   -42.0630    54.6590     7.4630     6.7840     6.0090    18.4710   -15.6330     2.3640 
  261.8750   255.5050   -18.2860   -42.1020    53.9010     7.4090     6.7350     5.8780    18.5040   -15.4400     2.3620 
  262.0000   255.6230   -18.3010   -42.1400    53.4450     7.3670     6.6970     5.6830    18.2540   -15.3070     2.3630 
  262.1250   255.7400   -18.3160   -42.1790    54.8040     7.3670     6.6970     5.4760    18.1250   -15.1810     2.3650 
  262.2500   255.8580   -18.3310   -42.2170    56.9460     7.4180     6.7440     5.4140    18.0960   -15.0360     2.3690 
  262.3750   255.9760   -18.3460   -42.2560    57.0240     7.5240     6.8400     5.5410    18.1000   -14.8910     2.3780 
  262.5000   256.0940   -18.3610   -42.2950    54.6360     7.6830     6.9850     5.7870    18.1640   -14.7890     2.3940 
  262.6250   256.2120   -18.3760   -42.3330    53.4290     7.8990     7.1810     6.0320    18.3860   -14.7450     2.4110 
  262.7500   256.3300   -18.3910   -42.3720    54.1630     8.1530     7.4110     6.3030    18.6700   -14.7130     2.4170 
  262.8750   256.4480   -18.4070   -42.4110    55.8340     8.4090     7.6450     6.7150    18.9300   -14.6630     2.4050 
  263.0000   256.5660   -18.4220   -42.4490    56.9290     8.6040     7.8220     7.4110    19.0800   -14.5760     2.3790 
  263.1250   256.6840   -18.4370   -42.4880    57.3760     8.6480     7.8620     8.2280    19.1230   -14.4940     2.3560 
  263.2500   256.8020   -18.4520   -42.5270    57.1150     8.5450     7.7680     8.3090    19.1820   -14.4360     2.3510 
  263.3750   256.9200   -18.4670   -42.5650    54.5580     8.3300     7.5730     7.7960    19.3090   -14.4150     2.3640 
  263.5000   257.0380   -18.4820   -42.6040    51.1870     8.0540     7.3210     7.4980    19.7470   -14.3940     2.3830 
  263.6250   257.1550   -18.4970   -42.6420    51.0020     7.7590     7.0530     7.3870    20.2100   -14.3770     2.3900 
  263.7500   257.2730   -18.5120   -42.6810    53.9530     7.5030     6.8210     6.9140    20.4790   -14.3910     2.3810 
  263.8750   257.3910   -18.5280   -42.7200    56.6170     7.3370     6.6700     6.3460    20.3740   -14.4190     2.3640 
  264.0000   257.5090   -18.5430   -42.7580    56.5610     7.3020     6.6390     6.0870    20.0770   -14.4860     2.3550 
  264.1250   257.6270   -18.5580   -42.7970    54.6510     7.4470     6.7700     6.1020    19.5390   -14.5260     2.3670 
  264.2500   257.7450   -18.5730   -42.8360    53.9530     7.7280     7.0260     6.1640    19.0410   -14.5480     2.3950 
  264.3750   257.8630   -18.5880   -42.8740    55.4140     8.0900     7.3540     6.2560    18.7600   -14.5460     2.4210 
  264.5000   257.9810   -18.6030   -42.9130    57.5110     8.4380     7.6710     6.4040    18.7220   -14.5110     2.4320 
  264.6250   258.0990   -18.6180   -42.9510    58.9860     8.6570     7.8700     6.7660    18.8270   -14.4600     2.4220 
  264.7500   258.2170   -18.6330   -42.9900    59.0940     8.7410     7.9460     7.5180    18.9200   -14.3900     2.4020 
  264.8750   258.3350   -18.6490   -43.0290    57.3390     8.7400     7.9450     8.8010    18.9890   -14.3060     2.3860 
  265.0000   258.4520   -18.6640   -43.0670    54.1110     8.7460     7.9510    10.1780    19.0380   -14.2190     2.3820 
  265.1250   258.5700   -18.6790   -43.1060    51.0440     8.8590     8.0540    10.9740    19.0920   -14.1930     2.3940 
  265.2500   258.6880   -18.6940   -43.1450    50.0810     9.0820     8.2560    11.1960    19.1010   -14.1860     2.4120 
  265.3750   258.8060   -18.7090   -43.1840    52.6070     9.3730     8.5210    11.0890    19.1090   -14.1830     2.4230 
  265.5000   258.9240   -18.7250   -43.2230    57.2000     9.6740     8.7940    10.4290    19.1450   -14.2140     2.4220 
  265.6250   259.0410   -18.7400   -43.2630    59.2370     9.9150     9.0140     9.3130    19.1810   -14.2260     2.4170 
  265.7500   259.1590   -18.7550   -43.3020    58.2400    10.0530     9.1390     8.0720    19.1860   -14.2200     2.4230 
  265.8750   259.2770   -18.7700   -43.3410    57.4350    10.0420     9.1290     7.1890    19.1800   -14.1820     2.4420 
  266.0000   259.3950   -18.7860   -43.3800    58.6820     9.8560     8.9600     6.7860    19.1370   -14.1230     2.4620 
  266.1250   259.5120   -18.8010   -43.4190    59.6440     9.4680     8.6080     6.6030    19.1080   -14.0410     2.4630 
  266.2500   259.6300   -18.8160   -43.4580    60.3490     8.9380     8.1260     6.5090    19.1030   -13.9460     2.4470 
  266.3750   259.7480   -18.8320   -43.4970    61.0060     8.3230     7.5670     6.4190    19.1040   -13.8700     2.4220 
  266.5000   259.8660   -18.8470   -43.5360    60.7730     7.7040     7.0040     6.3230    19.1270   -13.7880     2.4020 
  266.6250   259.9830   -18.8620   -43.5750    58.7770     7.2010     6.5460     6.1650    19.1730   -13.7010     2.3920 
  266.7500   260.1010   -18.8770   -43.6140    57.0310     6.8660     6.2420     6.0680    19.2680   -13.6110     2.3850 
  266.8750   260.2190   -18.8930   -43.6530    55.9780     6.7050     6.0960     6.0310    19.3250   -13.5260     2.3800 
  267.0000   260.3370   -18.9080   -43.6920    55.9380     6.6750     6.0690     6.0330    19.3470   -13.4170     2.3770 
  267.1250   260.4540   -18.9230   -43.7310    58.4310     6.7100     6.1000     6.0380    19.3460   -13.2890     2.3760 
  267.2500   260.5720   -18.9380   -43.7700    61.1720     6.7500     6.1360     6.1180    19.3280   -13.1760     2.3770 
  267.3750   260.6900   -18.9540   -43.8090    60.4640     6.7870     6.1700     6.2440    19.2980   -13.0680     2.3790 
