~V
VERS. 2.00: Ver 2.00
~W
STRT.M 44.0000:
STOP.M 275.0000:
STEP.M 0.1250:
NULL. -999.2500:
UWI. FD11190:
~C
DEPT.M :
TVD. :
DX. :
DY. :
SP.MV :
GR.API :
RI. :
RML.OHMM :
RXO.OHMM :
DEN.GM/CC :
~A
# ...
  171.7500   165.9770   -28.6320   -15.9110   -16.0440    58.3820    25.8540    26.8180    22.5650     2.1700 
  171.8750   166.0920   -28.6760   -15.9350   -15.9190    59.6320    25.5470    26.1200    21.6900     2.1720 
  172.0000   166.2060   -28.7200   -15.9590   -15.8520    62.7040    24.5290    24.9050    20.8320     2.1720 
  172.1250   166.3210   -28.7640   -15.9830   -15.8100    64.3680    23.1650    23.5670    20.4920     2.1740 
  172.2500   166.4350   -28.8080   -16.0070   -15.8360    65.1170    21.9530    22.5160    20.9240     2.1790 
  172.3750   166.5500   -28.8520   -16.0310   -15.8510    67.1000    21.1440    22.0800    21.5890     2.1820 
  172.5000   166.6640   -28.8970   -16.0550   -15.7730    68.5040    21.0770    22.2920    21.8790     2.1870 
  172.6250   166.7790   -28.9410   -16.0790   -15.5520    65.7760    21.6650    23.0940    22.4720     2.2030 
  172.7500   166.8930   -28.9850   -16.1030   -15.2930    62.3470    22.6630    24.2360    23.6830     2.2230 
  172.8750   167.0080   -29.0290   -16.1270   -15.0040    62.5420    23.9000    25.5140    25.0660     2.2300 
  173.0000   167.1220   -29.0740   -16.1510   -14.7010    63.4620    25.2300    26.6910    26.5730     2.2150 
  173.1250   167.2360   -29.1180   -16.1750   -14.4250    62.7840    26.2580    27.6890    27.8950     2.1910 
  173.2500   167.3510   -29.1620   -16.1990   -14.1970    62.4150    27.1190    28.5670    28.3050     2.1790 
  173.3750   167.4650   -29.2060   -16.2230   -13.9790    63.7090    27.9480    29.4340    27.3450     2.1820 
  173.5000   167.5800   -29.2510   -16.2460   -13.7740    62.9420    28.6710    30.2930    25.1370     2.1930 
  173.6250   167.6940   -29.2950   -16.2700   -13.5850    59.1160    29.4420    31.0740    26.2370     2.2010 
  173.7500   167.8090   -29.3390   -16.2940   -13.2980    57.8690    30.0600    31.7040    27.9530     2.2000 
  173.8750   167.9230   -29.3830   -16.3180   -12.8610    60.2390    30.4990    32.1580    27.8490     2.1880 
  174.0000   168.0370   -29.4280   -16.3420   -12.3830    61.6320    30.8440    32.5210    26.7010     2.1750 
  174.1250   168.1520   -29.4720   -16.3660   -12.0010    61.8790    31.1490    32.8240    26.4020     2.1700 
  174.2500   168.2660   -29.5160   -16.3900   -11.6730    63.6990    31.3690    33.1060    26.6280     2.1720 
  174.3750   168.3810   -29.5600   -16.4140   -11.4610    66.4840    31.5830    33.4220    26.1580     2.1710 
  174.5000   168.4950   -29.6050   -16.4380   -11.3620    66.7060    31.9020    33.8710    25.0570     2.1690 
  174.6250   168.6100   -29.6490   -16.4620   -11.3420    63.4700    32.3910    34.6190    24.2500     2.1750 
  174.7500   168.7240   -29.6930   -16.4860   -11.3730    60.3620    33.2380    35.7140    24.2350     2.1920 
  174.8750   168.8390   -29.7370   -16.5100   -11.4010    60.1140    34.4770    37.0730    25.6200     2.2120 
  175.0000   168.9530   -29.7810   -16.5340   -11.4590    61.9490    35.7620    38.4300    28.2550     2.2210 
  175.1250   169.0670   -29.8250   -16.5590   -11.5520    63.7400    36.9370    39.4620    29.1890     2.2100 
  175.2500   169.1820   -29.8690   -16.5830   -11.6340    65.0490    37.7100    40.0010    27.0260     2.1890 
  175.3750   169.2960   -29.9130   -16.6070   -11.6890    65.6470    37.8820    40.0140    24.6360     2.1740 
  175.5000   169.4110   -29.9570   -16.6310   -11.6650    64.5600    37.6390    39.7580    23.9510     2.1690 
  175.6250   169.5250   -30.0020   -16.6550   -11.5440    60.9770    37.2120    39.5250    24.2380     2.1680 
  175.7500   169.6400   -30.0460   -16.6790   -11.4060    57.4770    36.9590    39.5260    25.8620     2.1680 
  175.8750   169.7540   -30.0900   -16.7030   -11.3230    57.2150    37.1360    39.8470    26.3130     2.1700 
  176.0000   169.8680   -30.1350   -16.7270   -11.3460    59.7270    37.5470    40.4290    27.3890     2.1700 
  176.1250   169.9830   -30.1790   -16.7500   -11.5080    62.3090    38.2030    41.2240    28.9430     2.1680 
  176.2500   170.0970   -30.2240   -16.7740   -11.7100    63.0540    39.0010    42.1270    29.9470     2.1640 
  176.3750   170.2120   -30.2680   -16.7980   -11.8630    60.7210    39.8420    42.9120    29.8750     2.1620 
  176.5000   170.3260   -30.3120   -16.8210   -11.9790    57.4350    40.5180    43.3280    29.6960     2.1660 
  176.6250   170.4400   -30.3570   -16.8450   -12.0410    55.8340    40.6770    43.1690    30.1250     2.1730 
  176.7500   170.5550   -30.4010   -16.8680   -12.0420    56.1250    40.3110    42.4850    30.6580     2.1790 
  176.8750   170.6690   -30.4460   -16.8920   -12.0370    57.1410    39.4920    41.3880    30.9700     2.1850 
  177.0000   170.7840   -30.4900   -16.9150   -12.0500    57.2750    38.3740    40.0050    31.0630     2.1890 
  177.1250   170.8980   -30.5350   -16.9390   -12.1010    58.2430    37.0160    38.3940    30.4010     2.1880 
  177.2500   171.0120   -30.5800   -16.9620   -12.2200    60.4030    35.3970    36.6660    29.0340     2.1880 
  177.3750   171.1270   -30.6240   -16.9850   -12.3520    62.0120    33.7750    34.9790    27.9290     2.1970 
  177.5000   171.2410   -30.6690   -17.0090   -12.4150    61.4080    32.2190    33.5130    27.6030     2.2080 
  177.6250   171.3560   -30.7140   -17.0320   -12.4000    60.7140    31.0340    32.3410    27.7610     2.2100 
  177.7500   171.4700   -30.7580   -17.0560   -12.3820    61.9540    30.1100    31.4670    27.7130     2.1990 
  177.8750   171.5840   -30.8030   -17.0790   -12.4200    65.0390    29.4280    30.8720    27.1940     2.1880 
  178.0000   171.6990   -30.8470   -17.1020   -12.5400    67.5590    29.0340    30.4940    26.6070     2.1860 
  178.1250   171.8130   -30.8920   -17.1260   -12.7470    67.0370    28.7740    30.2610    26.1980     2.1950 
  178.2500   171.9280   -30.9370   -17.1490   -13.0120    63.4680    28.5840    30.0770    25.8270     2.2090 
  178.3750   172.0420   -30.9810   -17.1730   -13.2640    60.1970    28.4320    29.9440    25.2150     2.2200 
  178.5000   172.1560   -31.0260   -17.1970   -13.4100    59.3830    28.3100    29.8800    24.7040     2.2270 
  178.6250   172.2710   -31.0700   -17.2200   -13.4920    62.2070    28.3120    29.9500    25.3260     2.2310 
  178.7500   172.3850   -31.1150   -17.2440   -13.5440    66.9890    28.4310    30.1730    27.0140     2.2340 
  178.8750   172.4990   -31.1600   -17.2670   -13.5310    71.0800    28.7370    30.4970    28.5970     2.2390 
  179.0000   172.6140   -31.2040   -17.2910   -13.5080    71.1600    29.0970    30.7780    29.4930     2.2460 
  179.1250   172.7280   -31.2490   -17.3150   -13.4830    69.1230    29.2880    30.8750    29.6990     2.2460 
  179.2500   172.8430   -31.2930   -17.3380   -13.4690    67.9700    29.2700    30.8050    28.8210     2.2360 
  179.3750   172.9570   -31.3380   -17.3620   -13.4540    66.3720    29.0730    30.7780    27.1220     2.2150 
  179.5000   173.0710   -31.3820   -17.3860   -13.4360    63.4120    29.0410    31.0460    24.7990     2.1910 
  179.6250   173.1850   -31.4270   -17.4100   -13.4450    61.8670    29.4740    31.8150    25.0800     2.1650 
  179.7500   173.3000   -31.4720   -17.4340   -13.4710    62.9420    30.3530    32.9390    26.5140     2.1470 
  179.8750   173.4140   -31.5160   -17.4580   -13.4940    63.3350    31.5100    34.1610    29.0280     2.1440 
  180.0000   173.5280   -31.5610   -17.4820   -13.4550    61.1530    32.5430    35.1550    30.7230     2.1540 
  180.1250   173.6430   -31.6050   -17.5060   -13.3510    58.1010    33.3500    35.6710    29.7950     2.1700 
  180.2500   173.7570   -31.6500   -17.5300   -13.2800    55.6430    33.6580    35.7650    28.2570     2.1790 
  180.3750   173.8710   -31.6950   -17.5540   -13.2220    54.0350    33.6260    35.6650    28.8110     2.1780 
  180.5000   173.9860   -31.7390   -17.5780   -13.1600    53.3690    33.6150    35.6960    30.3940     2.1710 
  180.6250   174.1000   -31.7840   -17.6020   -13.1570    54.0300    33.8080    36.0670    30.9980     2.1650 
  180.7500   174.2140   -31.8280   -17.6260   -13.2190    55.2830    34.3720    36.7150    30.8310     2.1640 
