~V
VERS. 2.00: Ver 2.00
~W
STRT.M 15.0000:
STOP.M 224.0000:
STEP.M 0.1250:
NULL. -999.2500:
UWI. FD11007:
~C
DEPT.M :
TVD. :
DX. :
DY. :
DEN.GM/CC :
GR.API :
RML.OHMM :
RI. :
RXO.OHMM :
CALI.CM :
SP.MV :
~A
# ...
   97.5000    97.4840     0.2350    -0.4380     2.3470    68.3870    10.5830     7.6670    20.1110    27.7000   -29.5950 
   97.6250    97.6080     0.2390    -0.4450     2.3060    59.4840    10.8490     8.1720    17.7680    27.7530   -31.5830 
   97.7500    97.7330     0.2430    -0.4520     2.2640    57.5450    10.2480     8.0970    12.0960    27.8260   -33.3570 
   97.8750    97.8580     0.2470    -0.4590     2.2230    59.2230     9.2850     7.6700     9.6440    27.9570   -34.7840 
   98.0000    97.9830     0.2500    -0.4660     2.1860    61.0800     8.4780     7.2120     9.3030    28.1330   -35.8220 
   98.1250    98.1070     0.2540    -0.4730     2.1570    63.2580     8.1600     6.9830     9.2880    28.2740   -36.4790 
   98.2500    98.2320     0.2580    -0.4800     2.1360    63.4640     8.2230     6.9900     9.2730    28.2990   -36.7510 
   98.3750    98.3570     0.2610    -0.4870     2.1180    63.5330     8.4970     7.1490     9.5880    28.2320   -36.7880 
   98.5000    98.4820     0.2650    -0.4930     2.0950    65.7310     8.8030     7.3390    10.0500    28.2120   -36.7050 
   98.6250    98.6060     0.2690    -0.5000     2.0610    68.0810     9.0230     7.4640    10.1980    28.4110   -36.5900 
   98.7500    98.7310     0.2720    -0.5070     2.0180    67.0300     9.1490     7.5140    10.2130    28.7480   -36.4580 
   98.8750    98.8560     0.2760    -0.5140     1.9750    64.3680     9.1860     7.5010    10.2650    29.0560   -36.2710 
   99.0000    98.9800     0.2840    -0.5240     1.9460    63.8010     9.1260     7.4290    10.1580    29.1350   -35.9790 
   99.1250    99.1040     0.2920    -0.5350     1.9460    64.2880     8.9370     7.2790     9.3090    28.7010   -35.5260 
   99.2500    99.2290     0.3010    -0.5460     1.9750    64.6750     8.6660     7.0730     8.6360    27.7660   -34.8380 
   99.3750    99.3530     0.3090    -0.5570     2.0260    67.2090     8.4240     6.8690     8.9750    26.6400   -33.8940 
   99.5000    99.4770     0.3180    -0.5680     2.0850    70.3070     8.4060     6.7800     9.6880    25.8120   -32.6370 
   99.6250    99.6010     0.3260    -0.5790     2.1420    70.4010     8.9810     7.0280     9.8660    25.5590   -31.0640 
   99.7500    99.7250     0.3350    -0.5900     2.2100    68.9140    10.3030     7.7380    10.2420    25.5580   -29.2090 
   99.8750    99.8500     0.3430    -0.6000     2.3020    67.4420    12.3650     8.9690    11.9020    25.5770   -27.2190 
  100.0000    99.9740     0.3520    -0.6110     2.3980    65.9750    14.7650    10.5680    15.9060    25.5790   -25.2430 
  100.1250   100.0980     0.3610    -0.6220     2.4360    65.3290    16.3080    11.8760    22.0180    25.5790   -23.4110 
  100.2500   100.2220     0.3690    -0.6330     2.4070    69.0770    16.0080    12.1160    23.4390    25.5760   -21.8970 
  100.3750   100.3470     0.3780    -0.6440     2.3410    77.5630    13.9000    11.0930    18.6180    25.5890   -20.7390 
  100.5000   100.4710     0.3860    -0.6550     2.2790    87.6880    11.0620     9.3630    11.0010    25.5980   -19.9740 
  100.6250   100.5950     0.3950    -0.6660     2.2580    96.2600     8.8220     7.7670     6.8470    25.5180   -19.5660 
  100.7500   100.7190     0.4030    -0.6770     2.2740   101.5620     7.5280     6.6870     5.7290    25.3610   -19.4780 
  100.8750   100.8430     0.4120    -0.6880     2.3070   102.6130     7.0440     6.1400     5.5760    25.2180   -19.6070 
  101.0000   100.9680     0.4200    -0.6990     2.3270   100.0390     7.1070     6.0210     5.7520    25.1590   -19.8750 
  101.1250   101.0920     0.4290    -0.7090     2.3140    97.1400     7.4360     6.1820     6.2010    25.1650   -20.1910 
  101.2500   101.2160     0.4370    -0.7200     2.2830    96.5740     7.6740     6.3550     6.4190    25.1800   -20.4860 
  101.3750   101.3400     0.4460    -0.7310     2.2540    97.0480     7.6080     6.3580     6.3590    25.2150   -20.7640 
  101.5000   101.4640     0.4550    -0.7420     2.2400    96.9350     7.1740     6.1010     5.8950    25.2700   -21.0550 
  101.6250   101.5890     0.4630    -0.7530     2.2480    99.2370     6.5000     5.6300     5.8010    25.3210   -21.3930 
  101.7500   101.7130     0.4720    -0.7640     2.2720   103.3020     5.9210     5.1790     5.4830    25.3500   -21.8760 
  101.8750   101.8370     0.4800    -0.7750     2.3160   107.4220     5.6730     4.9240     4.8800    25.3610   -22.5920 
  102.0000   101.9610     0.4890    -0.7860     2.3830   109.7310     5.8940     4.9790     4.5170    25.3660   -23.6120 
  102.1250   102.0860     0.4970    -0.7970     2.4410   107.8620     6.6640     5.4200     6.2800    25.3940   -24.9740 
  102.2500   102.2100     0.5060    -0.8070     2.4370    99.7720     7.7240     6.0980    11.1660    25.5160   -26.6700 
  102.3750   102.3340     0.5140    -0.8180     2.3600    85.1800     8.7530     6.8230    15.9010    25.7580   -28.5240 
  102.5000   102.4580     0.5230    -0.8290     2.2480    71.0760     9.3900     7.3560    14.0550    26.0200   -30.4040 
  102.6250   102.5820     0.5310    -0.8400     2.1550    67.1100     9.3680     7.4810    10.3860    26.0730   -32.1880 
  102.7500   102.7070     0.5400    -0.8510     2.1120    71.0200     8.9870     7.3260     8.8810    25.8740   -33.7100 
  102.8750   102.8310     0.5490    -0.8620     2.1270    76.9760     8.5830     7.0810     8.4560    25.5600   -34.9190 
  103.0000   102.9550     0.5570    -0.8730     2.1790    80.0120     8.3970     6.9100     8.4070    25.3140   -35.8130 
  103.1250   103.0790     0.5660    -0.8840     2.2270    81.3590     8.5080     6.8990     8.9440    25.2510   -36.4200 
  103.2500   103.2030     0.5740    -0.8950     2.2380    81.6620     8.7510     6.9800     9.3900    25.2840   -36.7580 
  103.3750   103.3280     0.5830    -0.9060     2.2140    80.2530     8.9860     7.0730     9.5930    25.3320   -36.9270 
  103.5000   103.4520     0.5910    -0.9160     2.1710    78.9890     9.1170     7.1160     9.6210    25.3590   -36.9930 
  103.6250   103.5760     0.6000    -0.9270     2.1350    78.7470     9.0950     7.0690     9.4850    25.3630   -37.0100 
  103.7500   103.7000     0.6080    -0.9380     2.1250    79.3250     8.9910     6.9710     9.2490    25.3600   -37.0570 
  103.8750   103.8250     0.6170    -0.9490     2.1500    79.6440     8.8820     6.8690     8.9400    25.3560   -37.1770 
  104.0000   103.9490     0.6250    -0.9600     2.1960    80.0460     8.8330     6.8090     8.5170    25.3550   -37.3960 
  104.1250   104.0730     0.6340    -0.9710     2.2280    80.1170     8.8930     6.8300     8.4970    25.3860   -37.7190 
  104.2500   104.1970     0.6430    -0.9820     2.2200    79.1190     9.0290     6.9130     9.0540    25.4510   -38.1360 
  104.3750   104.3210     0.6510    -0.9930     2.1790    77.3060     9.1860     7.0260     9.5410    25.5560   -38.6040 
  104.5000   104.4460     0.6600    -1.0040     2.1280    75.6300     9.3040     7.1270     9.9380    25.7320   -39.0650 
  104.6250   104.5700     0.6680    -1.0150     2.0990    74.5260     9.3180     7.1710    10.0790    25.9620   -39.4640 
  104.7500   104.6940     0.6770    -1.0250     2.1050    73.0150     9.2420     7.1570    10.0700    26.1410   -39.7490 
  104.8750   104.8180     0.6850    -1.0360     2.1450    70.8370     9.1150     7.1030     9.8870    26.2070   -39.8960 
  105.0000   104.9430     0.6940    -1.0470     2.1990    68.1290     8.9890     7.0420     9.7130    26.2030   -39.8920 
  105.1250   105.0670     0.7020    -1.0580     2.2350    65.3480     8.9110     7.0040     9.6890    26.1950   -39.7590 
  105.2500   105.1910     0.7110    -1.0690     2.2490    65.1740     8.8740     6.9940     9.6000    26.2020   -39.5120 
  105.3750   105.3150     0.7200    -1.0800     2.2430    66.2160     8.8580     6.9990     9.5530    26.2610   -39.1940 
  105.5000   105.4390     0.7280    -1.0910     2.2250    66.0200     8.8310     7.0010     9.8760    26.4380   -38.8530 
  105.6250   105.5640     0.7370    -1.1020     2.2020    66.4220     8.7660     6.9770    10.0440    26.7950   -38.5230 
