~V
VERS. 2.00: Ver 2.00
~W
STRT.M 56.0000:
STOP.M 276.0000:
STEP.M 0.1250:
NULL. -999.2500:
UWI. FD11178:
~C
DEPT.M :
TVD. :
DX. :
DY. :
SP.MV :
GR.API :
RI. :
RML.OHMM :
DEN.GM/CC :
RXO.OHMM :
~A
   56.0000    56.0000     0.0000     0.0000    65.7260    30.2500     0.1660     0.1760     2.3740     0.2740 
   56.1250    56.1250     0.0010    -0.0020    66.1400    30.4310     0.1690     0.1650     2.3850     0.2510 
   56.2500    56.2500     0.0020    -0.0050    66.6800    31.5010     0.1810     0.1580     2.3790     0.2430 
   56.3750    56.3750     0.0030    -0.0070    67.4230    32.8360     0.1970     0.1530     2.3610     0.2240 
   56.5000    56.5000     0.0050    -0.0100    68.4030    33.6540     0.2150     0.1440     2.3450     0.1810 
   56.6250    56.6250     0.0060    -0.0120    69.6630    33.7760     0.2320     0.1350     2.3390     0.1070 
   56.7500    56.7500     0.0070    -0.0150    71.1720    34.6170     0.2380     0.1290     2.3410     0.0420 
   56.8750    56.8750     0.0080    -0.0170    72.8880    35.8550     0.2310     0.1240     2.3460     0.0180 
   57.0000    57.0000     0.0100    -0.0200    74.6700    36.1950     0.2070     0.1150     2.3500     0.0140 
   57.1250    57.1250     0.0110    -0.0230    76.3810    35.8860     0.1650     0.0960     2.3490     0.0140 
   57.2500    57.2500     0.0130    -0.0250    77.8880    36.7060     0.1090     0.0690     2.3490     0.0140 
   57.3750    57.3750     0.0140    -0.0280    81.2830    39.7830     0.0590     0.0450     2.3440     0.0390 
   57.5000    57.5000     0.0150    -0.0310    83.6740    41.7390     0.0290     0.0300     2.3650     0.1070 
   57.6250    57.6250     0.0170    -0.0340    81.6470    41.4460     0.0210     0.0530     2.4180     0.3950 
   57.7500    57.7500     0.0180    -0.0360    76.9600    39.4210     0.0860     0.1340     2.4070     1.6900 
   57.8750    57.8740     0.0200    -0.0390    68.9890    39.9050     0.3630     0.4180     2.2610     3.5820 
   58.0000    57.9990     0.0210    -0.0420    56.9390    46.2250     1.1620     1.6120     2.0870     4.7640 
   58.1250    58.1240     0.0230    -0.0450    39.9790    57.1500     3.0310     4.4060     2.0250     5.6980 
   58.2500    58.2490     0.0240    -0.0480    21.8790    64.9640     4.6290     9.8550     2.0540     6.5200 
   58.3750    58.3740     0.0260    -0.0510     9.0000    67.4210     6.3880    18.6980     2.0820     6.7180 
   58.5000    58.4990     0.0270    -0.0540     1.6610    66.6780     6.9120    23.7750     2.0870     6.5110 
   58.6250    58.6240     0.0290    -0.0570    -2.8300    64.8850     6.6550    22.2610     2.0780     6.5280 
   58.7500    58.7490     0.0310    -0.0600    -5.4610    63.1540     6.1980    15.9250     2.0640     7.0800 
   58.8750    58.8740     0.0320    -0.0630    -8.5460    62.9520     5.5830     6.9000     2.0520     7.5750 
   59.0000    58.9990     0.0340    -0.0660   -10.3180    64.9070     5.5610     4.4350     2.0440    11.0070 
   59.1250    59.1240     0.0350    -0.0700   -11.7650    65.8020     5.6760     4.5800     2.0450    17.6910 
   59.2500    59.2490     0.0370    -0.0730   -12.8970    64.6380     5.6890     4.6170     2.0510    17.8170 
   59.3750    59.3740     0.0390    -0.0760   -13.7960    63.6380     5.6320     4.6270     2.0580    10.8970 
   59.5000    59.4990     0.0400    -0.0800   -14.4890    64.3510     5.5310     4.6310     2.0650     6.8590 
   59.6250    59.6240     0.0420    -0.0830   -15.0410    66.5250     5.4760     4.7810     2.0710     6.2860 
   59.7500    59.7490     0.0440    -0.0860   -15.6100    67.7570     5.5800     5.1080     2.0750     6.1730 
   59.8750    59.8740     0.0450    -0.0900   -16.1850    66.8210     5.8230     5.5310     2.0990     6.4920 
   60.0000    59.9990     0.0470    -0.0930   -16.6760    64.8050     6.0960     5.8650     2.1750     8.7830 
   60.1250    60.1240     0.0490    -0.0970   -17.0330    62.8680     6.2780     6.0680     2.2770    20.0600 
   60.2500    60.2480     0.0510    -0.1010   -17.3450    62.5560     6.3530     6.1300     2.3050    28.3020 
   60.3750    60.3730     0.0520    -0.1040   -17.7960    62.8710     6.2660     6.0570     2.2120    18.0170 
   60.5000    60.4980     0.0540    -0.1080   -18.3950    62.1030     5.9900     5.8670     2.0950     7.6430 
   60.6250    60.6230     0.0560    -0.1120   -19.1380    58.7070     5.6680     5.6030     2.0480     6.3820 
   60.7500    60.7480     0.0580    -0.1160   -19.8820    55.6920     5.3670     5.2920     2.0570     6.0840 
   60.8750    60.8730     0.0600    -0.1190   -20.2710    56.9630     5.2660     5.1980     2.0690     6.0930 
   61.0000    60.9980     0.0610    -0.1230   -20.4330    60.9940     5.3290     5.1610     2.0680     6.3520 
   61.1250    61.1230     0.0630    -0.1270   -20.6440    61.9120     5.3940     5.2050     2.0680     6.5700 
   61.2500    61.2480     0.0650    -0.1310   -20.8720    58.3870     5.4500     5.3080     2.0730     6.7260 
   61.3750    61.3730     0.0670    -0.1350   -21.0930    54.0250     5.5110     5.3790     2.0840     6.8370 
   61.5000    61.4980     0.0690    -0.1390   -21.2330    53.0320     5.5550     5.4270     2.0990     6.9260 
   61.6250    61.6230     0.0710    -0.1440   -21.3420    54.8590     5.5630     5.4170     2.1160     6.9770 
   61.7500    61.7480     0.0730    -0.1480   -21.3800    59.1660     5.5320     5.3730     2.1220     6.8520 
   61.8750    61.8720     0.0750    -0.1520   -21.2540    63.6740     5.4730     5.3990     2.1070     6.6360 
   62.0000    61.9970     0.0770    -0.1560   -20.9750    65.2630     5.4210     5.4040     2.0850     6.4790 
   62.1250    62.1220     0.0790    -0.1600   -20.6230    63.8020     5.3870     5.4030     2.0720     6.4050 
   62.2500    62.2470     0.0810    -0.1650   -20.2850    62.6560     5.3760     5.4110     2.0690     6.5750 
   62.3750    62.3720     0.0830    -0.1690   -20.0480    63.3320     5.4030     5.4570     2.0720     7.0920 
   62.5000    62.4970     0.0850    -0.1740   -19.7980    64.4840     5.4550     5.5610     2.0780     7.4820 
   62.6250    62.6220     0.0870    -0.1780   -19.5430    66.6400     5.5300     5.6660     2.0860     7.2740 
   62.7500    62.7470     0.0890    -0.1830   -19.3350    70.2650     5.6270     5.8060     2.0910     6.8130 
   62.8750    62.8720     0.0910    -0.1870   -19.0930    70.9370     5.7160     5.9250     2.0960     6.5280 
   63.0000    62.9970     0.0930    -0.1920   -18.8010    66.4340     5.7710     6.0620     2.1040     6.4670 
   63.1250    63.1220     0.0950    -0.1970   -18.3470    60.3110     5.7180     6.1260     2.1070     6.6010 
   63.2500    63.2460     0.0970    -0.2010   -17.7510    58.8680     5.4800     6.0220     2.1000     6.8290 
   63.3750    63.3710     0.0990    -0.2060   -17.0650    62.9170     5.0980     5.7670     2.0940     7.0170 
   63.5000    63.4960     0.1010    -0.2110   -16.3020    68.2740     4.6340     5.3910     2.1100     6.9880 
   63.6250    63.6210     0.1030    -0.2160   -15.4140    71.8240     4.2920     5.2030     2.1440     6.3240 
   63.7500    63.7460     0.1050    -0.2210   -14.4250    73.6930     4.3310     5.5500     2.1720     5.2410 
   63.8750    63.8710     0.1070    -0.2260   -13.3150    74.2860     4.8800     6.2260     2.2040     5.7590 
   64.0000    63.9960     0.1090    -0.2310   -12.2730    73.2740     5.9560     6.9040     2.2920    16.9870 
   64.1250    64.1210     0.1110    -0.2370   -11.7840    70.5710     7.1580     8.1020     2.4110    41.6760 
   64.2500    64.2450     0.1130    -0.2420   -12.3020    67.7900     7.9900     8.9130     2.4500    57.0120 
   64.3750    64.3700     0.1160    -0.2470   -13.4490    66.3770     7.8340     8.7590     2.3500    44.2780 
   64.5000    64.4950     0.1180    -0.2530   -14.3310    66.6490     7.0390     7.7220     2.2100    20.6250 
   64.6250    64.6200     0.1200    -0.2580   -15.0660    66.8080     6.1070     6.6880     2.1410     9.1560 
   64.7500    64.7450     0.1220    -0.2640   -15.9600    67.3190     5.4630     6.1450     2.1510     7.4310 
   64.8750    64.8700     0.1240    -0.2690   -16.8460    69.1630     5.3760     6.2600     2.1990     7.1360 
   65.0000    64.9950     0.1260    -0.2750   -17.5110    71.1240     5.4290     6.4730     2.2280     7.3180 
