~V
VERS. 2.00: Ver 2.00
~W
STRT.M 20.0000:
STOP.M 285.0000:
STEP.M 0.1250:
NULL. -999.2500:
UWI. FD11157:
~C
DEPT.M :
TVD. :
DX. :
DY. :
GR.API :
RML.OHMM :
RI. :
RXO.OHMM :
CALI.CM :
SP.MV :
DEN.GM/CC :
~A
# ...
   53.0000    53.0000     0.0000     0.0000    57.5030     7.9210     6.6010    10.6080    22.6830   -44.2980     2.2140 
   53.1250    53.1250     0.0000     0.0000    57.5230     7.7050     6.4210    10.8340    22.6300   -44.3340     2.2000 
   53.2500    53.2500     0.0000     0.0000    60.1340     7.6410     6.3680    11.1920    22.6160   -44.3710     2.1740 
   53.3750    53.3750     0.0000     0.0000    62.5550     7.6400     6.3660    11.6210    22.5930   -44.4080     2.1460 
   53.5000    53.5000     0.0000     0.0000    61.7950     7.6300     6.3580    11.8590    22.4710   -44.4810     2.1290 
   53.6250    53.6250     0.0000     0.0000    57.2240     7.6040     6.3370    11.8480    22.3870   -44.6010     2.1320 
   53.7500    53.7500     0.0000     0.0000    54.9480     7.6190     6.3490    11.8730    22.3580   -44.7050     2.1490 
   53.8750    53.8750     0.0000     0.0000    58.0880     7.7280     6.4400    11.9590    22.3000   -44.7810     2.1770 
   54.0000    54.0000     0.0000     0.0000    64.5770     7.9350     6.6130    11.9520    22.1530   -44.8480     2.2090 
   54.1250    54.1250     0.0000     0.0000    70.4270     8.1880     6.8230    12.0080    21.9100   -44.9400     2.2320 
   54.2500    54.2500     0.0000     0.0000    70.2620     8.4060     7.0050    12.0760    22.1100   -45.0290     2.2390 
   54.3750    54.3750     0.0000     0.0000    64.8850     8.5560     7.1300    12.1680    22.3670   -45.0900     2.2290 
   54.5000    54.5000     0.0000     0.0000    59.0020     8.6370     7.1980    12.2110    22.5040   -45.1300     2.2060 
   54.6250    54.6250     0.0000     0.0000    55.5260     8.6670     7.2220    12.1300    22.5130   -45.1510     2.1780 
   54.7500    54.7500     0.0000     0.0000    53.9920     8.6530     7.2110    12.1130    22.4580   -45.1670     2.1550 
   54.8750    54.8750     0.0000     0.0000    53.4650     8.5830     7.1520    12.2770    22.3350   -45.1500     2.1480 
   55.0000    55.0000     0.0000     0.0000    53.5670     8.4500     7.0410    12.4720    22.2840   -45.0940     2.1560 
   55.1250    55.1250     0.0000     0.0000    54.0070     8.2880     6.9070    12.3630    22.2910   -44.9660     2.1720 
   55.2500    55.2500     0.0000     0.0000    54.6240     8.1600     6.8000    12.1050    22.4060   -44.7680     2.1780 
   55.3750    55.3750     0.0000     0.0000    54.8520     8.1130     6.7610    11.9560    22.4930   -44.5060     2.1660 
   55.5000    55.5000     0.0000     0.0000    52.4290     8.1780     6.8150    11.9940    22.5220   -44.1670     2.1340 
   55.6250    55.6250     0.0000     0.0000    48.2960     8.3800     6.9840    12.1590    22.5260   -43.7060     2.0950 
   55.7500    55.7500     0.0000     0.0000    47.2490     8.6740     7.2280    12.2710    22.5280   -43.0960     2.0630 
   55.8750    55.8750     0.0000     0.0000    50.5480     9.0180     7.5150    12.2440    22.5370   -42.3400     2.0510 
   56.0000    56.0000     0.0000     0.0000    54.3440     9.3640     7.8030    12.3090    22.5600   -41.4150     2.0660 
   56.1250    56.1250     0.0000     0.0000    52.8570     9.6370     8.0310    12.3630    22.6950   -40.2480     2.1060 
   56.2500    56.2500     0.0000     0.0000    49.1610     9.7590     8.1330    12.4010    23.1510   -38.8610     2.1490 
   56.3750    56.3750     0.0000     0.0000    48.5400     9.6360     8.0300    12.1990    24.1080   -37.2450     2.1750 
   56.5000    56.5000     0.0000     0.0000    53.1540     9.1870     7.6560    11.7650    24.8260   -35.3920     2.1790 
   56.6250    56.6250     0.0000     0.0000    62.1420     8.3650     6.9710    10.7520    24.3190   -33.3350     2.1760 
   56.7500    56.7500     0.0000     0.0000    72.4560     7.3690     6.1410     8.8720    23.5390   -31.2510     2.1860 
   56.8750    56.8750     0.0000     0.0000    81.0230     6.8590     5.3280     6.5910    23.4820   -29.2350     2.2170 
   57.0000    57.0000     0.0000     0.0000    87.5110     4.9710     4.6620     5.1190    23.6710   -27.3420     2.2610 
   57.1250    57.1250     0.0000     0.0000    92.3650     4.6280     4.2440     4.6650    23.9410   -25.6990     2.3010 
   57.2500    57.2500     0.0000     0.0000    95.7400     4.5110     4.0260     4.5500    24.2770   -24.3270     2.3260 
   57.3750    57.3750     0.0000     0.0000    95.1520     4.5050     3.9540     4.5680    24.2270   -23.2390     2.3390 
   57.5000    57.5000     0.0000     0.0000    91.7720     4.5190     3.9650     4.5970    24.3110   -22.4350     2.3450 
   57.6250    57.6250     0.0000     0.0000    89.8710     4.5270     4.0270     4.6480    24.3070   -21.9530     2.3470 
   57.7500    57.7500     0.0000     0.0000    90.8110     4.6100     4.1560     4.6780    24.3760   -21.6820     2.3440 
   57.8750    57.8750     0.0000     0.0000    93.0660     4.8920     4.4180     4.8530    24.1720   -21.5620     2.3340 
   58.0000    58.0000     0.0000     0.0000    92.7400     5.4790     4.8840     5.2740    23.9120   -21.5150     2.3200 
   58.1250    58.1250     0.0000     0.0000    85.5840     6.4470     5.6290     6.2150    23.7970   -21.4290     2.3160 
   58.2500    58.2500     0.0000     0.0000    76.9730     7.6090     6.5630     7.8830    23.8160   -21.3010     2.3340 
   58.3750    58.3750     0.0000     0.0000    72.6870     8.6800     7.5050     9.6470    24.0160   -21.1410     2.3770 
   58.5000    58.5000     0.0000     0.0000    73.1100     9.2860     8.1720    10.2310    24.4600   -20.9840     2.4320 
   58.6250    58.6250     0.0000     0.0000    74.4590     9.0830     8.2280     8.7710    24.7100   -20.8810     2.4710 
   58.7500    58.7500     0.0000     0.0000    75.8920     8.3640     7.8160     8.1390    24.8810   -20.7890     2.4750 
   58.8750    58.8750     0.0000     0.0000    79.4520     7.5090     7.1870     7.4960    24.7870   -20.6890     2.4450 
   59.0000    59.0000     0.0000     0.0000    83.3920     6.8460     6.5840     6.7490    24.6700   -20.6130     2.3990 
   59.1250    59.1250     0.0000     0.0000    82.6300     6.5730     6.1840     6.1940    24.5640   -20.5960     2.3530 
   59.2500    59.2500     0.0000     0.0000    81.9480     6.5960     5.9820     6.2630    24.4120   -20.6310     2.3270 
   59.3750    59.3750     0.0000     0.0000    83.8530     6.7920     5.9450     6.7130    24.2930   -20.7490     2.3230 
   59.5000    59.5000     0.0000     0.0000    85.0330     7.0100     6.0080     7.4080    23.9380   -20.9250     2.3330 
   59.6250    59.6250     0.0000     0.0000    80.9460     7.0600     6.0780     7.0960    23.7480   -21.0150     2.3370 
   59.7500    59.7500     0.0000     0.0000    76.0120     6.9160     6.0790     6.8040    23.5630   -21.0290     2.3220 
   59.8750    59.8750     0.0000     0.0000    75.9100     6.6510     6.0020     6.6740    23.5100   -21.0020     2.2950 
   60.0000    60.0000     0.0000     0.0000    81.8240     6.3900     5.8850     6.0870    23.9790   -20.9560     2.2700 
   60.1250    60.1250     0.0000     0.0000    90.5860     6.2710     5.7920     5.7050    24.2870   -20.9030     2.2690 
   60.2500    60.2500     0.0000     0.0000    96.2570     6.3000     5.7640     5.7380    24.1850   -20.8650     2.2940 
   60.3750    60.3750     0.0000     0.0000    95.8600     6.4170     5.8050     6.2520    23.6730   -20.8540     2.3320 
   60.5000    60.5000     0.0000     0.0000    92.3230     6.5490     5.8900     6.5620    23.2820   -20.8840     2.3640 
   60.6250    60.6250     0.0000     0.0000    88.8770     6.6420     5.9780     6.0960    23.4650   -20.9750     2.3630 
   60.7500    60.7500    -0.0040    -0.0050    85.0510     6.6710     6.0190     5.9200    23.4580   -21.1250     2.3370 
   60.8750    60.8750    -0.0080    -0.0110    81.0630     6.6040     5.9730     6.1470    23.0310   -21.3200     2.3000 
   61.0000    60.9990    -0.0120    -0.0170    79.7950     6.4450     5.8350     6.3500    22.8830   -21.5130     2.2690 
   61.1250    61.1240    -0.0170    -0.0230    82.4980     6.2460     5.6520     6.0150    23.2100   -21.6870     2.2550 
