~V
VERS. 2.00: Ver 2.00
~W
STRT.M 45.0000:
STOP.M 272.0000:
STEP.M 0.1250:
NULL. -999.2500:
UWI. FD11191:
~C
DEPT.M :
TVD. :
DX. :
DY. :
SP.MV :
GR.API :
RI. :
RML.OHMM :
RXO.OHMM :
DEN.GM/CC :
~A
# ...
  118.0000   117.7850    -3.4720     1.0940   -44.9450   103.1740     3.7730     4.1060     4.8030     2.1600 
  118.1250   117.9080    -3.4930     1.0980   -44.9150   100.5540     3.7330     4.0810     4.9380     2.1730 
  118.2500   118.0310    -3.5150     1.1010   -44.8700    99.2240     3.6680     4.0380     4.7870     2.1950 
  118.3750   118.1540    -3.5360     1.1040   -44.8120    99.7780     3.5630     3.9510     4.5760     2.2110 
  118.5000   118.2770    -3.5580     1.1080   -44.7520   100.5040     3.3990     3.7730     4.6190     2.2190 
  118.6250   118.4000    -3.5790     1.1110   -44.7060    97.8840     3.1740     3.5180     4.7180     2.2230 
  118.7500   118.5230    -3.6010     1.1140   -44.6890    94.3680     3.0000     3.3170     4.5100     2.2300 
  118.8750   118.6460    -3.6230     1.1170   -44.7180    95.6200     2.9940     3.3030     4.1870     2.2550 
  119.0000   118.7700    -3.6440     1.1200   -44.8000   101.3250     3.1320     3.4810     3.9730     2.3130 
  119.1250   118.8930    -3.6660     1.1230   -44.9410   103.5430     3.4290     3.8690     5.1760     2.3760 
  119.2500   119.0160    -3.6880     1.1260   -45.1290    99.0930     3.8770     4.4170     7.8560     2.3750 
  119.3750   119.1390    -3.7100     1.1290   -45.3480    93.0510     4.2540     4.8430     8.3640     2.2820 
  119.5000   119.2620    -3.7320     1.1320   -45.5660    89.4120     4.4700     5.0470     6.7000     2.1730 
  119.6250   119.3850    -3.7540     1.1350   -45.7360    87.7930     4.5550     5.0970     6.0680     2.1390 
  119.7500   119.5080    -3.7760     1.1380   -45.8260    86.2480     4.6370     5.1710     5.8400     2.1990 
  119.8750   119.6310    -3.7990     1.1410   -45.8140    82.1110     4.7130     5.2610     5.2190     2.3190 
  120.0000   119.7530    -3.8210     1.1430   -45.7240    77.8480     4.8260     5.3870     5.2610     2.4110 
  120.1250   119.8760    -3.8440     1.1460   -45.5910    77.0630     4.7730     5.3160     5.6080     2.3900 
  120.2500   119.9990    -3.8660     1.1490   -45.4540    78.8360     4.5340     5.0120     5.4490     2.2880 
  120.3750   120.1220    -3.8890     1.1520   -45.3330    80.2660     4.1670     4.5830     5.0890     2.1980 
  120.5000   120.2450    -3.9120     1.1540   -45.2290    83.0960     3.7700     4.1410     4.8660     2.1690 
  120.6250   120.3680    -3.9350     1.1570   -45.1360    88.4150     3.4540     3.8120     4.6610     2.1730 
  120.7500   120.4910    -3.9580     1.1590   -45.0500    92.1200     3.3190     3.7090     4.4350     2.1700 
  120.8750   120.6140    -3.9810     1.1610   -44.9720    93.8850     3.3590     3.7830     4.4480     2.1570 
  121.0000   120.7360    -4.0040     1.1640   -44.9030    95.1740     3.4210     3.8600     4.7350     2.1510 
  121.1250   120.8590    -4.0270     1.1660   -44.8360    96.3060     3.4740     3.9160     4.8770     2.1620 
  121.2500   120.9820    -4.0510     1.1680   -44.7660    96.3030     3.5020     3.9390     4.7720     2.1780 
  121.3750   121.1050    -4.0740     1.1700   -44.6870    95.4210     3.5310     3.9540     4.5340     2.1810 
  121.5000   121.2270    -4.0980     1.1720   -44.6040    94.5050     3.5780     3.9950     4.3890     2.1700 
  121.6250   121.3500    -4.1210     1.1740   -44.5240    95.0290     3.6410     4.0740     4.5350     2.1590 
  121.7500   121.4730    -4.1450     1.1750   -44.4440    97.5050     3.7280     4.1770     4.8480     2.1600 
  121.8750   121.5960    -4.1690     1.1770   -44.3540    97.0800     3.7700     4.2210     5.1040     2.1650 
  122.0000   121.7180    -4.1930     1.1790   -44.2420    93.8280     3.7030     4.1390     4.9810     2.1690 
  122.1250   121.8410    -4.2170     1.1800   -44.1060    92.0570     3.5550     3.9620     4.6480     2.1880 
  122.2500   121.9640    -4.2410     1.1820   -43.9640    92.6540     3.3720     3.7630     4.3330     2.2360 
  122.3750   122.0860    -4.2650     1.1830   -43.8410    94.7190     3.2260     3.6090     4.0580     2.2790 
  122.5000   122.2090    -4.2890     1.1840   -43.7590    97.2490     3.1510     3.5530     4.1530     2.2720 
  122.6250   122.3320    -4.3130     1.1850   -43.7320    99.9200     3.1730     3.6110     4.2320     2.2210 
  122.7500   122.4540    -4.3370     1.1870   -43.7530   100.3050     3.2520     3.7250     4.0150     2.1800 
  122.8750   122.5770    -4.3620     1.1880   -43.8210    98.2930     3.3610     3.8570     4.0660     2.1720 
  123.0000   122.6990    -4.3860     1.1890   -43.9330    94.7960     3.4520     3.9380     4.4790     2.1780 
  123.1250   122.8220    -4.4110     1.1900   -44.0940    90.8200     3.4760     3.9160     4.9380     2.1840 
  123.2500   122.9450    -4.4350     1.1920   -44.3020    88.9790     3.5210     3.9160     5.0860     2.1900 
  123.3750   123.0670    -4.4600     1.1930   -44.5520    89.3220     3.7690     4.1760     4.9110     2.2110 
  123.5000   123.1900    -4.4840     1.1940   -44.8270    87.8920     4.3140     4.7950     4.8200     2.2780 
  123.6250   123.3120    -4.5090     1.1950   -45.1010    84.1970     5.2140     5.8760     7.0800     2.3840 
  123.7500   123.4350    -4.5340     1.1960   -45.3460    80.1600     6.3230     7.2060    14.0870     2.4420 
  123.8750   123.5570    -4.5590     1.1970   -45.5350    76.1900     7.2070     8.2120    21.9230     2.3770 
  124.0000   123.6800    -4.5840     1.1990   -45.6540    71.4440     7.3250     8.2380    25.8110     2.2450 
  124.1250   123.8020    -4.6090     1.2000   -45.6870    67.9470     6.5570     7.2510    23.4160     2.1610 
  124.2500   123.9240    -4.6350     1.2010   -45.6340    68.0640     5.3330     5.7590    14.8240     2.1570 
  124.3750   124.0470    -4.6600     1.2020   -45.4950    71.7140     4.1910     4.4790     7.2680     2.1840 
  124.5000   124.1690    -4.6850     1.2030   -45.3040    77.5860     3.6990     4.0210     4.7330     2.2230 
  124.6250   124.2920    -4.7110     1.2040   -45.1000    83.0870     3.8190     4.2810     4.4130     2.2920 
  124.7500   124.4140    -4.7370     1.2050   -44.9190    86.6360     4.3030     4.9770     4.9920     2.3840 
  124.8750   124.5360    -4.7620     1.2060   -44.7750    84.8430     4.9760     5.8540     7.5650     2.4180 
  125.0000   124.6580    -4.7880     1.2070   -44.6550    80.3820     5.4740     6.3990    12.1800     2.3520 
  125.1250   124.7810    -4.8140     1.2080   -44.5460    77.7570     5.4490     6.2140    13.4770     2.2420 
  125.2500   124.9030    -4.8400     1.2080   -44.4380    79.5800     4.9600     5.4580     9.2610     2.1830 
  125.3750   125.0250    -4.8660     1.2090   -44.3370    84.0680     4.2080     4.4580     5.6050     2.1930 
  125.5000   125.1480    -4.8920     1.2100   -44.2560    89.3240     3.6150     3.7670     4.6620     2.2250 
  125.6250   125.2700    -4.9180     1.2100   -44.2070    94.2320     3.4020     3.5600     4.2580     2.2430 
  125.7500   125.3920    -4.9450     1.2110   -44.1910    97.8850     3.4280     3.6260     4.0830     2.2380 
  125.8750   125.5140    -4.9710     1.2120   -44.1940    96.5410     3.6260     3.8620     4.4730     2.2150 
  126.0000   125.6360    -4.9970     1.2130   -44.1900    91.0120     3.8400     4.0860     5.0530     2.1960 
  126.1250   125.7580    -5.0240     1.2140   -44.1470    83.7290     3.9830     4.2260     5.2350     2.1940 
  126.2500   125.8810    -5.0500     1.2140   -44.0530    78.5340     4.0120     4.2240     5.1400     2.2090 
  126.3750   126.0030    -5.0770     1.2150   -43.9140    79.6780     3.8840     4.0540     4.8850     2.2300 
  126.5000   126.1250    -5.1040     1.2160   -43.7650    84.7410     3.7010     3.8390     4.6770     2.2460 
  126.6250   126.2470    -5.1300     1.2160   -43.6460    89.1100     3.5610     3.6910     4.4750     2.2400 
  126.7500   126.3690    -5.1570     1.2170   -43.5820    88.4120     3.5140     3.6640     4.0310     2.2190 
  126.8750   126.4910    -5.1840     1.2170   -43.5770    84.9390     3.5350     3.7160     4.0320     2.2070 
  127.0000   126.6130    -5.2110     1.2180   -43.6030    81.0780     3.5770     3.7950     4.6760     2.2140 
