~V
VERS. 2.00: Ver 2.00
~W
STRT.M 35.0000:
STOP.M 279.0000:
STEP.M 0.1250:
NULL. -999.2500:
UWI. FD11183:
~C
DEPT.M :
TVD. :
DX. :
DY. :
SP.MV :
GR.API :
RI. :
RML.OHMM :
RXO.OHMM :
DEN.GM/CC :
~A
# ...
  190.1250   183.1050   -38.0410     7.2970  -112.8430    61.3390    57.4330    66.9550    64.0580     2.1960 
  190.2500   183.2190   -38.0920     7.3020  -112.6340    62.3010    55.1650    64.2970    59.2870     2.1900 
  190.3750   183.3330   -38.1420     7.3080  -112.7480    60.8790    50.9860    58.3970    55.4270     2.1780 
  190.5000   183.4470   -38.1930     7.3140  -113.0240    59.4140    43.2410    48.8640    47.3300     2.1670 
  190.6250   183.5610   -38.2440     7.3190  -113.4040    58.2680    34.1920    37.8950    40.7110     2.1750 
  190.7500   183.6750   -38.2950     7.3250  -113.7940    57.9960    25.4650    27.9650    36.7350     2.2190 
  190.8750   183.7890   -38.3460     7.3310  -114.1100    59.7230    20.7330    23.0840    28.4850     2.2770 
  191.0000   183.9030   -38.3970     7.3360  -114.4630    62.3510    19.7060    21.9410    21.3060     2.3090 
  191.1250   184.0170   -38.4480     7.3420  -114.9170    62.2860    21.2680    23.6990    22.1650     2.3010 
  191.2500   184.1310   -38.4990     7.3480  -115.3010    60.7500    24.8100    27.8770    28.7770     2.2730 
  191.3750   184.2450   -38.5500     7.3530  -115.5520    60.0380    29.4460    33.2550    34.2250     2.2400 
  191.5000   184.3590   -38.6010     7.3590  -115.6610    60.8040    34.0210    38.5000    35.8860     2.2130 
  191.6250   184.4730   -38.6520     7.3640  -115.7080    62.9360    37.0660    41.9800    36.5130     2.1980 
  191.7500   184.5870   -38.7030     7.3700  -115.6850    66.6910    38.7540    43.8680    37.4970     2.1940 
  191.8750   184.7010   -38.7540     7.3760  -115.7270    70.5870    39.2800    44.6200    38.0850     2.1940 
  192.0000   184.8150   -38.8050     7.3810  -115.7730    71.8500    38.9570    44.4530    38.3010     2.2000 
  192.1250   184.9290   -38.8560     7.3860  -115.7330    70.6990    37.8440    43.3300    38.4650     2.2110 
  192.2500   185.0440   -38.9070     7.3910  -115.6350    69.0390    36.3540    41.6990    38.4860     2.2200 
  192.3750   185.1580   -38.9580     7.3970  -115.4960    68.1620    34.8850    40.0180    37.7270     2.2240 
  192.5000   185.2710   -39.0090     7.4020  -115.3090    68.1670    33.8590    38.8310    36.5350     2.2230 
  192.6250   185.3850   -39.0600     7.4070  -115.1010    68.3560    33.5860    38.3640    35.8780     2.2200 
  192.7500   185.4990   -39.1110     7.4130  -114.9060    67.6960    34.0500    38.5670    35.6970     2.2210 
  192.8750   185.6130   -39.1620     7.4180  -114.7400    66.4990    35.1510    39.3780    35.5620     2.2240 
  193.0000   185.7270   -39.2130     7.4230  -114.6250    68.3620    36.5640    40.5240    35.8040     2.2210 
  193.1250   185.8410   -39.2640     7.4290  -114.5610    71.2270    37.7040    41.4550    36.4540     2.2130 
  193.2500   185.9550   -39.3150     7.4340  -114.5340    71.4200    37.8780    41.2650    36.8130     2.2090 
  193.3750   186.0690   -39.3660     7.4390  -114.4800    69.2170    35.8870    38.6570    36.8540     2.2130 
  193.5000   186.1830   -39.4180     7.4450  -114.3680    68.7030    31.3770    33.3110    35.2450     2.2270 
  193.6250   186.2970   -39.4690     7.4500  -114.2950    71.7160    25.5600    26.7110    29.0750     2.2490 
  193.7500   186.4110   -39.5200     7.4560  -114.2130    74.2530    20.1900    20.8430    22.1530     2.2760 
  193.8750   186.5250   -39.5710     7.4610  -114.0670    76.0030    16.5610    17.0120    19.3610     2.3020 
  194.0000   186.6390   -39.6220     7.4670  -113.8600    76.8070    15.1630    15.7080    17.7040     2.3200 
  194.1250   186.7530   -39.6740     7.4720  -113.6640    78.8760    15.4320    16.1890    15.8070     2.3150 
  194.2500   186.8670   -39.7250     7.4770  -113.5180    82.2340    17.2850    18.3410    15.6420     2.2870 
  194.3750   186.9800   -39.7760     7.4830  -113.5250    83.0290    20.9450    22.4420    19.7740     2.2540 
  194.5000   187.0940   -39.8270     7.4880  -113.6130    79.4060    26.1660    28.3060    29.6320     2.2320 
  194.6250   187.2080   -39.8780     7.4940  -113.8100    72.9450    31.9060    34.5660    40.0460     2.2250 
  194.7500   187.3220   -39.9300     7.4990  -114.1400    69.2240    36.9920    40.0560    44.7870     2.2290 
  194.8750   187.4360   -39.9810     7.5040  -114.5910    68.5010    40.3150    43.4590    44.6710     2.2360 
  195.0000   187.5500   -40.0320     7.5100  -115.0620    68.4580    41.8860    44.9740    42.3080     2.2340 
  195.1250   187.6640   -40.0830     7.5150  -115.4740    68.4730    43.0890    46.5140    40.8370     2.2150 
  195.2500   187.7780   -40.1340     7.5200  -115.9200    68.5170    45.2770    49.3770    46.6710     2.1920 
  195.3750   187.8920   -40.1860     7.5250  -116.3920    66.7180    48.5790    53.4200    58.8100     2.1750 
  195.5000   188.0060   -40.2370     7.5310  -116.8870    63.5630    51.9860    57.3450    63.8610     2.1670 
  195.6250   188.1200   -40.2880     7.5360  -117.3600    63.0230    54.2160    59.6090    64.3850     2.1680 
  195.7500   188.2330   -40.3390     7.5410  -117.7010    64.8350    54.7950    59.9290    61.2250     2.1760 
  195.8750   188.3470   -40.3910     7.5470  -117.8830    65.0070    54.0390    58.8380    57.3280     2.1880 
  196.0000   188.4610   -40.4420     7.5520  -118.1290    63.5990    53.0650    57.5270    55.4980     2.1940 
  196.1250   188.5750   -40.4930     7.5570  -118.4990    64.6770    52.3090    56.4270    55.6720     2.1940 
  196.2500   188.6890   -40.5440     7.5630  -118.9390    67.8110    52.0990    56.0450    56.6280     2.1930 
  196.3750   188.8030   -40.5950     7.5680  -119.4450    68.0500    52.4660    56.6380    58.2020     2.1920 
  196.5000   188.9170   -40.6470     7.5730  -120.0490    65.5720    53.3780    58.1020    60.4440     2.1930 
  196.6250   189.0310   -40.6980     7.5790  -120.5200    62.9790    55.3310    60.7850    62.2830     2.1960 
  196.7500   189.1440   -40.7490     7.5840  -120.9040    60.3750    58.3870    64.4430    61.9540     2.1960 
  196.8750   189.2580   -40.8010     7.5900  -121.2340    57.5920    62.5360    68.7500    60.3800     2.1940 
  197.0000   189.3720   -40.8520     7.5950  -121.3680    56.7800    67.3360    73.4420    62.9690     2.1890 
  197.1250   189.4860   -40.9040     7.6000  -121.2940    59.1000    72.5840    78.6310    70.7000     2.1810 
  197.2500   189.6000   -40.9550     7.6060  -121.1720    60.7880    77.6570    83.6620    81.5770     2.1700 
  197.3750   189.7140   -41.0060     7.6110  -121.0030    60.4580    81.8410    87.9570    85.0070     2.1650 
  197.5000   189.8270   -41.0580     7.6160  -120.7380    60.0670    85.0000    91.4330    83.8100     2.1680 
  197.6250   189.9410   -41.1090     7.6220  -120.3980    59.3670    87.2970    94.1430    82.2050     2.1740 
  197.7500   190.0550   -41.1610     7.6270  -120.0680    57.4000    89.8260    97.3240    83.7810     2.1750 
  197.8750   190.1690   -41.2120     7.6330  -119.7000    55.5680    93.6780   101.9560    91.7380     2.1690 
  198.0000   190.2820   -41.2640     7.6380  -119.3460    56.2570    97.5600   106.2840   101.6150     2.1660 
  198.1250   190.3960   -41.3150     7.6440  -119.0030    57.9240   100.1230   108.7570   106.8970     2.1650 
  198.2500   190.5100   -41.3670     7.6490  -118.5320    57.7240   100.3480   108.4780   105.1790     2.1620 
  198.3750   190.6240   -41.4180     7.6550  -118.0320    54.7930    97.7920   105.1270    98.8600     2.1630 
  198.5000   190.7380   -41.4700     7.6600  -117.5730    52.5250    94.2450   100.9390    93.2910     2.1700 
  198.6250   190.8510   -41.5210     7.6660  -117.1600    54.3010    91.5260    97.9700    89.5960     2.1760 
  198.7500   190.9650   -41.5730     7.6720  -116.7930    58.0830    90.3210    96.6920    87.5180     2.1730 
  198.8750   191.0790   -41.6240     7.6770  -116.5000    61.1310    91.3950    97.8590    89.0960     2.1650 
  199.0000   191.1930   -41.6760     7.6830  -116.2550    62.5920    94.0660   100.7610    93.3010     2.1580 
  199.1250   191.3060   -41.7270     7.6880  -116.0140    61.4500    97.1970   104.2080    97.2340     2.1520 
