~V
VERS. 2.00: Ver 2.00
~W
STRT.M 56.0000:
STOP.M 276.0000:
STEP.M 0.1250:
NULL. -999.2500:
UWI. FD11178:
~C
DEPT.M :
TVD. :
DX. :
DY. :
SP.MV :
GR.API :
RI. :
RML.OHMM :
DEN.GM/CC :
RXO.OHMM :
~A
# ...
  183.7500   179.5810    -4.2980   -28.4510    -2.4170    60.6740    87.6950    90.7320     2.1780    92.5580 
  183.8750   179.6980    -4.3070   -28.4940    -2.6640    61.5310    86.5000    89.9770     2.1710    91.8640 
  184.0000   179.8150    -4.3160   -28.5370    -2.7920    61.1220    89.0540    92.9330     2.1630    92.3550 
  184.1250   179.9320    -4.3260   -28.5810    -2.8080    60.0700    95.2870    99.7350     2.1480    97.6390 
  184.2500   180.0490    -4.3350   -28.6240    -2.8000    58.5800   105.2180   110.5680     2.1320   108.5550 
  184.3750   180.1660    -4.3450   -28.6670    -2.7140    56.1780   117.3570   123.7210     2.1230   119.3840 
  184.5000   180.2830    -4.3540   -28.7100    -2.5850    54.5560   129.0520   136.1460     2.1210   128.6690 
  184.6250   180.4000    -4.3630   -28.7540    -2.4500    53.1860   134.6730   141.2700     2.1210   132.2970 
  184.7500   180.5170    -4.3720   -28.7970    -2.3960    50.6970   132.2790   137.3700     2.1230   128.9190 
  184.8750   180.6330    -4.3810   -28.8400    -2.4600    49.9660   118.4800   121.9210     2.1370   120.7530 
  185.0000   180.7500    -4.3900   -28.8840    -2.6320    54.0860    99.4600   101.6860     2.1660   109.6410 
  185.1250   180.8670    -4.3990   -28.9280    -2.7750    60.6700    81.5140    83.6750     2.1990    87.6910 
  185.2500   180.9840    -4.4070   -28.9710    -2.8300    62.5150    69.6230    72.3740     2.2140    73.0920 
  185.3750   181.1010    -4.4160   -29.0150    -2.7680    59.4070    68.0120    71.4890     2.1970    74.5620 
  185.5000   181.2180    -4.4250   -29.0590    -2.6280    58.3830    75.1870    80.1150     2.1620    79.6650 
  185.6250   181.3340    -4.4330   -29.1030    -2.4920    59.9290    89.4730    96.5230     2.1320    83.2030 
  185.7500   181.4510    -4.4420   -29.1460    -2.3590    60.0540   106.0610   114.6680     2.1150    92.5290 
  185.8750   181.5680    -4.4500   -29.1900    -2.2390    57.6640   119.0840   128.4830     2.1060   134.1980 
  186.0000   181.6840    -4.4580   -29.2340    -2.0820    55.9540   124.3860   133.2430     2.0990   256.8800 
  186.1250   181.8010    -4.4670   -29.2780    -1.9000    56.2210   122.6300   130.7800     2.1030   226.8250 
  186.2500   181.9180    -4.4760   -29.3220    -1.7990    56.1200   117.8480   125.8640     2.1140   118.5260 
  186.3750   182.0350    -4.4850   -29.3660    -1.7420    54.5220   111.1220   119.3450     2.1230    74.4050 
  186.5000   182.1510    -4.4940   -29.4090    -1.6790    51.8810   104.6920   113.3490     2.1240    89.7510 
  186.6250   182.2680    -4.5020   -29.4530    -1.6050    50.5730    99.6710   108.6930     2.1170    99.7330 
  186.7500   182.3850    -4.5100   -29.4970    -1.5780    51.5990    95.8650   105.2200     2.1090    85.8490 
  186.8750   182.5020    -4.5180   -29.5410    -1.5540    55.3020    94.4250   104.2120     2.1130    73.5010 
  187.0000   182.6190    -4.5270   -29.5840    -1.5830    60.3110    95.5190   105.9330     2.1280    85.7670 
  187.1250   182.7360    -4.5350   -29.6280    -1.6620    64.0910    98.5130   109.6780     2.1410   120.9380 
  187.2500   182.8520    -4.5430   -29.6710    -1.7820    64.8810   103.1320   114.9800     2.1460   167.6820 
  187.3750   182.9690    -4.5510   -29.7150    -1.9050    62.9660   108.4160   120.9890     2.1490   218.2620 
  187.5000   183.0860    -4.5600   -29.7590    -2.0140    59.4030   113.3200   126.0010     2.1620   228.2660 
  187.6250   183.2030    -4.5680   -29.8020    -2.0600    57.0210   112.6380   124.1950     2.1840   166.3990 
  187.7500   183.3200    -4.5760   -29.8450    -2.0320    57.4730   106.7160   116.6050     2.2130   107.4490 
  187.8750   183.4370    -4.5840   -29.8890    -2.0230    60.1360    95.2390   102.8190     2.2380   101.1860 
  188.0000   183.5540    -4.5920   -29.9320    -2.1020    62.6580    82.3480    88.4050     2.2430   108.2200 
  188.1250   183.6710    -4.6000   -29.9760    -2.2520    64.3520    74.3410    79.8090     2.2260    92.6860 
  188.2500   183.7880    -4.6080   -30.0190    -2.3880    65.0980    70.5060    75.8530     2.2040    73.0130 
  188.3750   183.9050    -4.6160   -30.0630    -2.6370    64.9530    70.8150    76.4820     2.1930    61.9390 
  188.5000   184.0220    -4.6230   -30.1070    -3.0270    65.7360    73.1130    79.1130     2.1920    53.9240 
  188.6250   184.1380    -4.6310   -30.1500    -3.4350    67.6370    75.5520    81.5890     2.1910    56.7350 
  188.7500   184.2550    -4.6380   -30.1940    -3.7650    68.8650    76.6820    82.4560     2.1860    67.5150 
  188.8750   184.3720    -4.6460   -30.2380    -3.9930    69.6460    76.8050    82.2350     2.1780    71.3600 
  189.0000   184.4890    -4.6530   -30.2810    -4.0850    69.8280    76.5130    81.7210     2.1670    72.4200 
  189.1250   184.6060    -4.6600   -30.3250    -4.0280    67.8470    77.2370    82.5500     2.1600    74.7590 
  189.2500   184.7230    -4.6670   -30.3690    -3.8730    65.1830    79.3820    84.9530     2.1620    80.0420 
  189.3750   184.8400    -4.6750   -30.4130    -3.6750    65.2300    82.1530    87.8410     2.1730   114.7070 
  189.5000   184.9560    -4.6820   -30.4570    -3.4850    66.3130    84.2030    89.7350     2.1810   180.4240 
  189.6250   185.0730    -4.6890   -30.5010    -3.3410    65.3580    84.2150    89.3760     2.1840   195.2480 
  189.7500   185.1900    -4.6960   -30.5450    -3.2660    63.9320    82.5170    87.3260     2.1910   137.5860 
  189.8750   185.3070    -4.7030   -30.5890    -3.2160    63.3550    79.7960    84.3480     2.1990    88.8400 
  190.0000   185.4240    -4.7110   -30.6330    -3.2370    64.6140    76.9480    81.4140     2.2010    76.3280 
  190.1250   185.5400    -4.7180   -30.6770    -3.3000    68.1030    75.1620    79.6380     2.1970    74.0160 
  190.2500   185.6570    -4.7250   -30.7200    -3.3440    71.9070    74.5880    79.0400     2.1970    73.4470 
  190.3750   185.7740    -4.7330   -30.7640    -3.2820    72.7990    75.0130    79.3650     2.2000    71.7100 
  190.5000   185.8910    -4.7400   -30.8080    -3.1420    71.0860    75.4540    79.5810     2.2000    71.7100 
  190.6250   186.0080    -4.7470   -30.8520    -2.9410    69.5210    75.6680    79.4250     2.1940    71.7100 
  190.7500   186.1250    -4.7550   -30.8960    -2.7160    69.2680    75.1670    78.4850     2.1900    72.7030 
  190.8750   186.2410    -4.7630   -30.9390    -2.5080    68.7870    74.6420    77.6860     2.1960    74.9900 
  191.0000   186.3580    -4.7700   -30.9830    -2.3350    67.9790    74.8820    77.6730     2.2020    76.8170 
  191.1250   186.4750    -4.7780   -31.0270    -2.2070    67.8330    75.6180    78.2810     2.2030    77.8890 
  191.2500   186.5920    -4.7860   -31.0710    -2.0950    69.6500    77.6310    80.2150     2.2000    80.0550 
  191.3750   186.7090    -4.7940   -31.1140    -1.9300    70.8600    80.3810    82.7470     2.1960    79.4340 
  191.5000   186.8260    -4.8010   -31.1580    -1.7240    70.5510    82.8130    84.8350     2.1950    76.1050 
  191.6250   186.9420    -4.8090   -31.2020    -1.5280    70.9880    84.8810    86.5830     2.1920    75.4700 
  191.7500   187.0590    -4.8160   -31.2460    -1.3590    73.3610    87.2460    88.7780     2.1920    79.0440 
  191.8750   187.1760    -4.8240   -31.2900    -1.2570    74.6830    90.7820    92.2460     2.1920    88.0950 
  192.0000   187.2930    -4.8310   -31.3340    -1.1710    73.2410    94.3750    95.7440     2.1890    89.6500 
  192.1250   187.4090    -4.8390   -31.3780    -1.1300    70.3280    96.8070    97.9500     2.1820    96.7170 
  192.2500   187.5260    -4.8460   -31.4220    -1.1930    66.9610    96.9190    97.6790     2.1800   109.3480 
  192.3750   187.6430    -4.8540   -31.4660    -1.2800    63.5750    93.9670    94.1520     2.1890   139.3230 
  192.5000   187.7600    -4.8620   -31.5100    -1.3200    63.0730    88.9960    88.6530     2.2000   152.8210 
  192.6250   187.8760    -4.8700   -31.5540    -1.3070    66.7200    82.9430    82.5350     2.2030   123.9300 
  192.7500   187.9930    -4.8780   -31.5980    -1.2980    71.9480    79.0340    79.0130     2.2010    92.1720 
