~V
VERS. 2.00: Ver 2.00
~W
STRT.M 10.0000:
STOP.M 249.0000:
STEP.M 0.1250:
NULL. -999.2500:
UWI. FD11114:
~C
DEPT.M :
TVD. :
DX. :
DY. :
GR.API :
RML.OHMM :
RI. :
RXO.OHMM :
CALI.CM :
SP.MV :
DEN.GM/CC :
~A
# ...
  150.2500   149.8030     6.2670    -0.4250    74.6730     9.1940     8.4030     5.7700    25.5800   -23.2630     2.2720 
  150.3750   149.9250     6.2930    -0.4300    71.0880    10.5920     9.3620     6.5710    25.5950   -23.4360     2.2600 
  150.5000   150.0470     6.3190    -0.4350    68.3280    12.4570    10.7040     7.3490    25.6330   -23.6110     2.2380 
  150.6250   150.1690     6.3450    -0.4400    65.1810    14.7100    12.3640     8.9150    25.8220   -23.7780     2.2060 
  150.7500   150.2920     6.3710    -0.4460    63.0080    17.3710    14.3280     9.7570    26.1910   -23.9570     2.1780 
  150.8750   150.4140     6.3970    -0.4510    63.2560    20.5520    16.6280    10.4220    26.3330   -24.1700     2.1680 
  151.0000   150.5360     6.4230    -0.4560    64.3860    24.7340    19.5590    10.9470    25.9110   -24.4210     2.1800 
  151.1250   150.6580     6.4490    -0.4610    65.2560    30.7270    23.7020    11.4820    25.1170   -24.6910     2.2030 
  151.2500   150.7800     6.4750    -0.4660    65.6510    40.2490    30.4800    12.1480    24.5820   -24.9690     2.2190 
  151.3750   150.9020     6.5010    -0.4710    63.6270    54.0370    40.7500    12.9980    24.4380   -25.2320     2.2200 
  151.5000   151.0240     6.5270    -0.4760    60.0170    72.7240    55.1960    14.2310    24.4230   -25.4770     2.2120 
  151.6250   151.1470     6.5530    -0.4810    57.9260    95.6780    73.2800    16.2420    24.3660   -25.6940     2.2070 
  151.7500   151.2690     6.5790    -0.4870    58.8050   119.4130    92.1240    21.2020    24.3220   -25.8820     2.2080 
  151.8750   151.3910     6.6050    -0.4920    60.9310   138.3170   107.4750    25.3430    24.3030   -26.0600     2.2120 
  152.0000   151.5130     6.6310    -0.4970    62.1370   149.4240   117.2090    30.1780    24.2930   -26.2480     2.2160 
  152.1250   151.6350     6.6570    -0.5020    61.7010   153.2630   121.4880    36.0170    24.2640   -26.4510     2.2190 
  152.2500   151.7570     6.6830    -0.5070    60.5300   151.9470   121.4500    42.0710    24.2180   -26.6490     2.2240 
  152.3750   151.8790     6.7090    -0.5120    60.8820   148.9510   119.6890    47.6110    24.1790   -26.8020     2.2290 
  152.5000   152.0010     6.7390    -0.5190    62.0800   146.0770   117.7260    52.5150    24.1590   -26.8880     2.2400 
  152.6250   152.1210     6.7710    -0.5250    62.6550   144.6470   116.7940    56.9120    24.1580   -26.9050     2.2540 
  152.7500   152.2420     6.8020    -0.5320    63.8130   145.6080   117.8600    61.7440    24.1600   -26.8760     2.2530 
  152.8750   152.3630     6.8340    -0.5380    65.4520   148.2010   120.4340    67.0120    24.1610   -26.8290     2.2410 
  153.0000   152.4840     6.8660    -0.5450    64.0370   151.2640   123.6410    72.3320    24.1640   -26.7930     2.2240 
  153.1250   152.6040     6.8970    -0.5520    60.2820   153.1930   126.1610    91.7190    24.1400   -26.7870     2.2150 
  153.2500   152.7250     6.9290    -0.5580    59.0460   152.2870   126.3990    97.7800    24.0560   -26.8230     2.2230 
  153.3750   152.8460     6.9600    -0.5650    60.9300   149.3830   124.6680    90.1790    23.9540   -26.8880     2.2440 
  153.5000   152.9670     6.9920    -0.5720    63.2410   146.3300   122.2750    73.9490    23.8880   -26.9550     2.2700 
  153.6250   153.0870     7.0230    -0.5780    63.1420   145.2890   121.0620    55.9820    23.8790   -27.0040     2.2850 
  153.7500   153.2080     7.0550    -0.5850    59.2790   148.6250   123.2560    46.5460    23.8970   -27.0430     2.2800 
  153.8750   153.3290     7.0860    -0.5920    53.8200   156.2990   129.1480    44.2480    23.9110   -27.0930     2.2630 
  154.0000   153.4500     7.1180    -0.5980    50.3010   167.8360   138.4650    48.2650    23.9120   -27.1790     2.2430 
  154.1250   153.5700     7.1500    -0.6050    51.8780   182.0310   150.2130    54.2240    23.9050   -27.3190     2.2270 
  154.2500   153.6910     7.1810    -0.6110    55.8870   197.0860   162.8820    61.9610    23.9050   -27.5170     2.2180 
  154.3750   153.8120     7.2130    -0.6180    57.2260   211.0040   174.7700    63.3240    23.9080   -27.7290     2.2130 
  154.5000   153.9330     7.2440    -0.6250    55.1010   222.8380   185.1210    56.9640    23.9110   -27.9260     2.2070 
  154.6250   154.0530     7.2760    -0.6310    53.1020   232.2330   193.6750    47.0530    23.9100   -28.0820     2.1990 
  154.7500   154.1740     7.3070    -0.6380    53.7410   237.8120   199.3590    40.2110    23.9080   -28.1730     2.1940 
  154.8750   154.2950     7.3390    -0.6450    54.4050   238.0800   200.9110    39.3610    23.9090   -28.2230     2.1950 
  155.0000   154.4160     7.3700    -0.6510    54.1520   231.0260   196.5350    42.6230    23.9100   -28.2610     2.2010 
  155.1250   154.5360     7.4020    -0.6580    54.4210   216.3960   185.6060    46.8600    23.9090   -28.2920     2.2100 
  155.2500   154.6570     7.4340    -0.6650    55.0870   196.8040   169.5210    47.2040    23.9090   -28.3320     2.2160 
  155.3750   154.7780     7.4650    -0.6710    54.3900   178.3220   153.3050    44.5200    23.9080   -28.3770     2.2180 
  155.5000   154.8990     7.4970    -0.6780    53.5280   164.9280   140.6800    39.8850    23.9070   -28.3970     2.2150 
  155.6250   155.0190     7.5280    -0.6840    55.1390   158.9630   134.1770    35.9510    23.9080   -28.3610     2.2100 
  155.7500   155.1400     7.5600    -0.6910    57.9710   162.7750   136.3270    34.1300    23.9110   -28.2470     2.2030 
  155.8750   155.2610     7.5910    -0.6980    58.6140   174.6400   145.8940    34.5880    23.9110   -28.0660     2.1950 
  156.0000   155.3820     7.6230    -0.7040    56.6170   192.8000   161.4760    37.8890    23.9110   -27.8490     2.1850 
  156.1250   155.5020     7.6540    -0.7110    54.8880   213.5230   179.9500    43.8800    23.9230   -27.6370     2.1770 
  156.2500   155.6230     7.6860    -0.7180    55.6580   229.6540   195.5340    47.1480    23.9560   -27.4670     2.1750 
  156.3750   155.7440     7.7180    -0.7240    56.0560   235.7290   203.3990    50.9200    23.9910   -27.3350     2.1810 
  156.5000   155.8650     7.7490    -0.7310    55.8460   229.8570   201.3370    53.0830    24.0200   -27.2270     2.1940 
  156.6250   155.9850     7.7810    -0.7380    56.9270   214.1710   190.3010    48.9760    24.0370   -27.1060     2.2080 
  156.7500   156.1060     7.8120    -0.7440    60.0940   192.8120   173.1510    43.3950    24.0190   -26.9390     2.2220 
  156.8750   156.2270     7.8440    -0.7510    62.4110   170.9490   154.6610    42.8120    23.9950   -26.7450     2.2330 
  157.0000   156.3480     7.8750    -0.7570    64.1190   150.8980   137.1310    44.6490    24.0050   -26.5510     2.2430 
  157.1250   156.4690     7.9070    -0.7640    67.0540   134.0920   122.0660    46.5990    24.0480   -26.3830     2.2520 
  157.2500   156.5890     7.9380    -0.7710    67.6320   121.9580   110.9970    46.0410    24.0740   -26.2730     2.2560 
  157.3750   156.7100     7.9700    -0.7770    64.9820   113.8580   103.5550    46.8940    24.0730   -26.2190     2.2570 
  157.5000   156.8310     8.0020    -0.7840    64.0800   109.4420    99.5000    50.0650    24.0730   -26.2040     2.2560 
  157.6250   156.9520     8.0330    -0.7910    67.1800   108.1010    98.3410    54.5570    24.0760   -26.2070     2.2570 
  157.7500   157.0720     8.0650    -0.7970    70.6170   109.1170    99.4950    56.9960    24.0810   -26.2060     2.2600 
  157.8750   157.1930     8.0960    -0.8040    71.0380   110.9240   101.4910    57.0020    24.0950   -26.1870     2.2630 
  158.0000   157.3140     8.1280    -0.8110    70.1480   112.6080   103.4440    57.9020    24.1240   -26.1550     2.2630 
  158.1250   157.4350     8.1590    -0.8170    69.2170   113.6120   104.7900    61.2270    24.1700   -26.1380     2.2610 
  158.2500   157.5550     8.1910    -0.8240    65.7760   113.6580   105.1880    62.7940    24.2190   -26.1420     2.2600 
  158.3750   157.6760     8.2220    -0.8310    61.1850   113.1880   104.9700    61.8970    24.2520   -26.1580     2.2600 
