~V
VERS. 2.00: Ver 2.00
~W
STRT.M 15.0000:
STOP.M 219.0000:
STEP.M 0.1250:
NULL. -999.2500:
UWI. FD11101:
~C
DEPT.M :
TVD. :
DX. :
DY. :
GR.API :
RML.OHMM :
RI. :
RXO.OHMM :
CALI.CM :
SP.MV :
DEN.GM/CC :
~A
# ...
  130.5000   126.9880     4.4960    21.3260    76.2160     9.9370     8.8220     9.3600    20.5690   -19.4680     2.3740 
  130.6250   127.0990     4.5040    21.3820    74.6730    10.3300     9.3610    13.1960    20.5420   -19.5160     2.4710 
  130.7500   127.2100     4.5120    21.4380    79.9870    10.0270     9.2180    13.8990    20.9150   -19.5880     2.5120 
  130.8750   127.3220     4.5200    21.4940    84.9530     9.1630     8.4570    10.7170    21.6380   -19.6820     2.4820 
  131.0000   127.4330     4.5280    21.5510    88.8560     8.0860     7.3910     7.9870    22.1740   -19.7800     2.4000 
  131.1250   127.5440     4.5360    21.6070    95.6670     7.2040     6.4280     6.7950    22.1070   -19.9060     2.3100 
  131.2500   127.6560     4.5450    21.6630   102.3510     6.6590     5.7600     6.3270    21.7610   -20.1010     2.2490 
  131.3750   127.7670     4.5530    21.7190   104.4820     6.4230     5.3980     6.1840    21.3570   -20.3010     2.2240 
  131.5000   127.8780     4.5610    21.7760   103.5680     6.4210     5.2850     6.6500    20.9680   -20.4340     2.2220 
  131.6250   127.9900     4.5690    21.8320   103.8890     6.6400     5.4010     7.4600    20.6990   -20.4830     2.2320 
  131.7500   128.1010     4.5770    21.8880   104.2480     7.0810     5.7150     7.7270    20.7490   -20.4800     2.2430 
  131.8750   128.2120     4.5850    21.9440   100.4870     7.7890     6.2690     7.1980    20.9200   -20.4630     2.2560 
  132.0000   128.3240     4.5930    22.0010    92.0190     8.7590     7.0880     6.8980    21.1350   -20.4770     2.2810 
  132.1250   128.4350     4.6010    22.0570    81.7830     9.8630     8.1310     7.9920    21.2580   -20.5350     2.3270 
  132.2500   128.5460     4.6090    22.1130    74.3110    10.8100     9.1460    11.0790    21.1120   -20.6330     2.3840 
  132.3750   128.6580     4.6170    22.1700    72.4200    11.3570     9.8730    13.9780    20.8880   -20.7680     2.4270 
  132.5000   128.7690     4.6250    22.2260    76.6530    11.4000    10.1260    12.4720    20.7940   -21.0030     2.4310 
  132.6250   128.8800     4.6330    22.2820    84.7940    11.0160     9.8680     9.4990    20.7790   -21.3110     2.3830 
  132.7500   128.9920     4.6410    22.3380    89.4320    10.5520     9.4110     8.8270    20.7760   -21.6190     2.3120 
  132.8750   129.1030     4.6490    22.3950    89.6400    10.2290     8.9900     8.7440    20.8150   -21.9280     2.2450 
  133.0000   129.2140     4.6580    22.4510    89.1120    10.1490     8.7510     8.6910    20.9310   -22.1870     2.2010 
  133.1250   129.3260     4.6660    22.5070    89.9220    10.3320     8.7620     8.9650    21.1780   -22.3610     2.1840 
  133.2500   129.4370     4.6740    22.5630    89.6520    10.6810     8.9500     9.6140    21.7200   -22.4530     2.1760 
  133.3750   129.5480     4.6820    22.6200    88.0560    11.1870     9.2910    10.3750    22.4330   -22.4670     2.1670 
  133.5000   129.6590     4.6900    22.6760    86.8810    11.9050     9.8100    10.6890    22.8520   -22.3770     2.1500 
  133.6250   129.7710     4.6980    22.7320    86.2810    12.9830    10.6230    10.6520    22.8300   -22.1770     2.1310 
  133.7500   129.8820     4.7060    22.7880    83.9010    14.4030    11.7520    10.6020    22.4690   -21.9440     2.1300 
  133.8750   129.9930     4.7140    22.8450    78.5680    16.0750    13.1770    10.9980    21.8720   -21.6740     2.1700 
  134.0000   130.1050     4.7220    22.9010    71.7760    17.7680    14.7520    11.9510    21.2500   -21.3710     2.2590 
  134.1250   130.2160     4.7300    22.9580    68.1200    19.0850    16.1480    13.6150    21.0180   -21.0780     2.3800 
  134.2500   130.3260     4.7390    23.0170    67.5470    19.8380    17.0950    14.7610    21.2990   -20.8340     2.4840 
  134.3750   130.4350     4.7480    23.0760    67.8140    20.0620    17.5150    14.3380    21.7750   -20.6310     2.5400 
  134.5000   130.5450     4.7570    23.1350    66.1890    20.0090    17.5580    13.2760    22.0650   -20.4440     2.5400 
  134.6250   130.6550     4.7660    23.1940    62.5390    20.0770    17.5390    13.2250    22.0860   -20.3280     2.5070 
  134.7500   130.7650     4.7750    23.2530    58.9200    20.4710    17.7350    12.8940    21.8450   -20.3100     2.4820 
  134.8750   130.8750     4.7840    23.3120    56.5080    21.1180    18.1820    12.9410    21.2810   -20.3780     2.4830 
  135.0000   130.9850     4.7930    23.3710    57.0050    21.7440    18.7230    13.6180    20.8180   -20.4870     2.5130 
  135.1250   131.0940     4.8020    23.4300    59.7920    21.9400    19.0320    14.0180    20.7750   -20.5980     2.5570 
  135.2500   131.2040     4.8110    23.4890    62.5890    21.6420    18.9570    14.2800    21.0420   -20.6920     2.5880 
  135.3750   131.3140     4.8200    23.5480    65.0090    21.0300    18.5630    14.7470    21.3710   -20.7300     2.5880 
  135.5000   131.4240     4.8290    23.6070    66.8600    20.4570    18.0950    15.3580    21.6940   -20.7560     2.5540 
  135.6250   131.5340     4.8380    23.6660    66.9560    20.4030    17.9400    14.5120    21.8210   -20.7810     2.5010 
  135.7500   131.6430     4.8470    23.7250    65.0950    21.0190    18.3030    14.0750    21.6230   -20.7780     2.4580 
  135.8750   131.7530     4.8560    23.7840    63.7020    22.2840    19.2510    13.9520    21.1750   -20.7200     2.4440 
  136.0000   131.8630     4.8650    23.8430    64.5430    23.9830    20.6880    14.8570    20.7810   -20.6410     2.4620 
  136.1250   131.9730     4.8740    23.9020    66.0450    25.6750    22.3200    15.2940    20.6170   -20.5670     2.5020 
  136.2500   132.0830     4.8830    23.9620    66.9310    26.8520    23.6530    15.3480    20.5770   -20.5040     2.5430 
  136.3750   132.1920     4.8920    24.0210    66.5040    27.1770    24.3070    15.6380    20.5890   -20.4950     2.5730 
  136.5000   132.3020     4.9000    24.0800    65.6760    26.5680    24.1020    16.6670    20.5670   -20.5370     2.5880 
  136.6250   132.4120     4.9090    24.1390    66.3480    25.1960    23.0810    16.7050    20.3700   -20.6210     2.5910 
  136.7500   132.5220     4.9180    24.1980    68.6980    23.6730    21.7790    15.6460    20.0810   -20.6690     2.5870 
  136.8750   132.6320     4.9270    24.2570    70.9490    22.4160    20.5890    13.9990    19.8630   -20.6710     2.5810 
  137.0000   132.7410     4.9360    24.3160    70.3240    21.6750    19.7790    12.3570    19.7190   -20.6420     2.5730 
  137.1250   132.8510     4.9450    24.3750    66.2100    21.5570    19.5210    11.2220    19.6050   -20.6280     2.5670 
  137.2500   132.9610     4.9540    24.4340    63.1180    21.7850    19.6470    11.3480    19.5690   -20.6240     2.5640 
  137.3750   133.0710     4.9630    24.4930    63.9020    22.1260    19.9750    11.8760    19.6250   -20.5920     2.5620 
  137.5000   133.1810     4.9720    24.5520    67.6890    22.4060    20.3290    12.0710    19.7730   -20.5320     2.5590 
  137.6250   133.2900     4.9810    24.6110    68.7730    22.5910    20.6110    12.1740    19.9380   -20.4520     2.5500 
  137.7500   133.4000     4.9900    24.6700    64.9330    22.8280    20.8990    12.1890    20.1900   -20.4170     2.5350 
  137.8750   133.5100     4.9990    24.7290    60.9810    23.2520    21.3180    12.3010    20.5030   -20.4410     2.5210 
  138.0000   133.6200     5.0080    24.7880    60.8700    23.8880    21.9400    12.5000    20.8120   -20.4960     2.5140 
  138.1250   133.7300     5.0170    24.8470    63.3880    24.5620    22.6790    12.9120    21.1070   -20.5790     2.5200 
  138.2500   133.8390     5.0260    24.9060    63.2380    24.9550    23.2440    13.4370    21.2800   -20.6680     2.5320 
  138.3750   133.9490     5.0350    24.9650    60.2160    24.8440    23.3840    14.0150    21.3650   -20.7750     2.5420 
  138.5000   134.0590     5.0440    25.0250    58.9500    24.1880    22.9860    14.6680    21.5330   -20.9360     2.5430 
  138.6250   134.1690     5.0530    25.0840    61.9430    23.1350    22.1040    14.2860    21.9820   -21.1400     2.5300 
