~V
VERS. 2.00: Ver 2.00
~W
STRT.M 10.0000:
STOP.M 249.0000:
STEP.M 0.1250:
NULL. -999.2500:
UWI. FD11114:
~C
DEPT.M :
TVD. :
DX. :
DY. :
GR.API :
RML.OHMM :
RI. :
RXO.OHMM :
CALI.CM :
SP.MV :
DEN.GM/CC :
~A
# ...
  208.0000   204.3150    24.8100    -3.8500    66.8210    19.8800    18.9000    13.2630    24.5220   -22.1510     2.2690 
  208.1250   204.4310    24.8560    -3.8570    65.6850    20.0730    19.0730    14.2940    24.5200   -22.2840     2.2600 
  208.2500   204.5470    24.9030    -3.8630    65.0820    20.3960    19.3290    15.0120    24.5190   -22.3820     2.2520 
  208.3750   204.6620    24.9490    -3.8700    64.2820    20.7020    19.5750    15.8150    24.5240   -22.4430     2.2490 
  208.5000   204.7780    24.9960    -3.8760    62.8950    20.8420    19.6950    16.8870    24.5250   -22.4760     2.2520 
  208.6250   204.8940    25.0420    -3.8830    62.2010    20.7440    19.6150    16.5230    24.5250   -22.4800     2.2580 
  208.7500   205.0100    25.0880    -3.8900    62.5180    20.5360    19.4030    14.4240    24.5270   -22.4640     2.2650 
  208.8750   205.1260    25.1350    -3.8960    62.7380    20.5480    19.3220    12.9050    24.5260   -22.4330     2.2700 
  209.0000   205.2420    25.1810    -3.9030    64.0860    21.0630    19.6140    12.5900    24.5200   -22.4020     2.2690 
  209.1250   205.3580    25.2280    -3.9090    66.7680    22.2640    20.4620    13.4350    24.5130   -22.3940     2.2600 
  209.2500   205.4740    25.2740    -3.9160    66.8470    24.2760    22.0360    15.2660    24.5090   -22.4140     2.2450 
  209.3750   205.5900    25.3200    -3.9230    63.1720    26.7420    24.0910    17.2570    24.4930   -22.4450     2.2300 
  209.5000   205.7050    25.3670    -3.9290    59.4920    29.2720    26.3170    17.8530    24.4540   -22.4800     2.2200 
  209.6250   205.8210    25.4130    -3.9360    59.8700    31.4310    28.3250    17.0200    24.4060   -22.5140     2.2160 
  209.7500   205.9370    25.4590    -3.9420    62.8420    32.7900    29.6790    16.1780    24.3820   -22.5530     2.2240 
  209.8750   206.0530    25.5060    -3.9490    63.4710    33.4580    30.4000    15.6460    24.3800   -22.5880     2.2440 
  210.0000   206.1690    25.5520    -3.9560    61.2370    33.6640    30.6530    15.0300    24.3790   -22.6170     2.2740 
  210.1250   206.2850    25.5990    -3.9620    59.2470    33.6820    30.6750    15.3220    24.3770   -22.6440     2.3030 
  210.2500   206.4010    25.6450    -3.9690    60.0320    33.6960    30.6460    17.4500    24.4270   -22.6810     2.3150 
  210.3750   206.5170    25.6910    -3.9750    60.1360    33.7260    30.6220    20.8850    24.5370   -22.7400     2.3050 
  210.5000   206.6320    25.7380    -3.9820    58.3740    33.7190    30.5810    22.9730    24.6540   -22.8240     2.2800 
  210.6250   206.7480    25.7840    -3.9890    56.8350    33.6400    30.5050    23.9280    24.7150   -22.9230     2.2550 
  210.7500   206.8640    25.8310    -3.9950    57.5760    33.4820    30.4120    23.1340    24.7160   -23.0280     2.2470 
  210.8750   206.9800    25.8770    -4.0020    58.3780    33.2820    30.3350    22.6260    24.7090   -23.1420     2.2510 
  211.0000   207.0960    25.9230    -4.0080    57.7290    33.0350    30.2670    23.2900    24.7150   -23.2740     2.2580 
  211.1250   207.2120    25.9700    -4.0150    56.1000    32.6940    30.1590    24.7510    24.7820   -23.4220     2.2570 
  211.2500   207.3280    26.0160    -4.0220    54.9040    32.1740    29.9150    24.7790    25.0110   -23.5860     2.2410 
  211.3750   207.4440    26.0630    -4.0280    56.6280    31.4940    29.5130    23.0200    25.2560   -23.7660     2.2200 
  211.5000   207.5600    26.1090    -4.0350    60.3550    30.7030    28.9770    21.9000    25.2800   -23.9730     2.2090 
  211.6250   207.6750    26.1550    -4.0410    61.3990    29.8830    28.3680    22.3050    25.0480   -24.1990     2.2190 
  211.7500   207.7910    26.2020    -4.0480    59.5340    29.1080    27.7450    23.0540    24.8090   -24.4210     2.2480 
  211.8750   207.9070    26.2480    -4.0550    59.4920    28.3730    27.1130    22.8350    24.7580   -24.6160     2.2700 
  212.0000   208.0230    26.2950    -4.0610    62.2680    27.6240    26.4200    21.9060    24.8630   -24.7750     2.2700 
  212.1250   208.1390    26.3410    -4.0680    64.3990    26.8130    25.6150    20.0040    25.0530   -24.9000     2.2520 
  212.2500   208.2550    26.3870    -4.0740    63.1270    25.9640    24.7050    18.0910    25.2620   -25.0080     2.2280 
  212.3750   208.3710    26.4340    -4.0810    60.9270    25.2130    23.8310    16.5730    25.3650   -25.1090     2.2100 
  212.5000   208.4870    26.4800    -4.0880    60.2860    24.7350    23.1620    16.0130    25.3230   -25.2030     2.1990 
  212.6250   208.6020    26.5270    -4.0940    61.1590    24.7260    22.8760    15.9400    25.1990   -25.3030     2.1920 
  212.7500   208.7180    26.5730    -4.1010    62.8640    25.5630    23.2910    16.5610    25.0200   -25.4110     2.1840 
  212.8750   208.8340    26.6190    -4.1070    65.2690    27.4320    24.5580    17.6840    24.7940   -25.5030     2.1830 
  213.0000   208.9500    26.6660    -4.1140    66.1160    30.6640    26.9730    18.7860    24.5650   -25.5740     2.2040 
  213.1250   209.0660    26.7120    -4.1210    63.5970    35.6390    30.9010    18.7400    24.3610   -25.6160     2.2590 
  213.2500   209.1820    26.7590    -4.1270    60.3770    43.0380    37.0380    19.7880    24.1680   -25.6240     2.3510 
  213.3750   209.2980    26.8050    -4.1340    59.1040    52.4310    45.0920    25.7960    23.9960   -25.6050     2.4420 
  213.5000   209.4140    26.8510    -4.1400    57.6430    62.8290    54.2470    37.4540    23.9080   -25.5740     2.5040 
  213.6250   209.5300    26.8980    -4.1470    55.4990    72.0100    62.6120    46.3810    23.9010   -25.5410     2.5250 
  213.7500   209.6450    26.9440    -4.1540    56.0340    75.8880    66.7880    44.1450    23.9060   -25.5050     2.5240 
  213.8750   209.7610    26.9910    -4.1600    58.5970    73.1370    65.4550    37.3050    23.9060   -25.4680     2.5340 
  214.0000   209.8770    27.0370    -4.1670    60.5900    64.0590    58.4210    30.0320    23.9080   -25.4140     2.5610 
  214.1250   209.9930    27.0830    -4.1730    61.4530    50.7820    47.1230    25.9780    23.9100   -25.3280     2.5900 
  214.2500   210.1090    27.1300    -4.1800    63.9310    36.9100    34.7560    21.6380    23.9080   -25.2060     2.5900 
  214.3750   210.2250    27.1760    -4.1870    66.4830    25.5460    24.4830    20.5840    23.9030   -25.0600     2.5600 
  214.5000   210.3410    27.2230    -4.1930    66.7220    17.6240    17.2280    17.0680    23.9140   -24.9040     2.5130 
  214.6250   210.4570    27.2690    -4.2000    63.1040    12.9190    12.7700    12.1050    23.9610   -24.7490     2.4660 
  214.7500   210.5720    27.3150    -4.2060    55.0010    11.0250    10.7440     8.4690    24.0390   -24.6180     2.4370 
  214.8750   210.6880    27.3620    -4.2130    45.4590    10.7120    10.1330     8.6450    24.1090   -24.5210     2.4340 
  215.0000   210.8040    27.4080    -4.2200    36.9460    11.3660    10.4830    10.6000    24.1600   -24.4660     2.4570 
  215.1250   210.9200    27.4550    -4.2260    32.5570    12.3950    11.3570    12.6620    24.1930   -24.4540     2.4950 
  215.2500   211.0360    27.5010    -4.2330    34.3170    13.0010    12.1030    12.8690    24.2020   -24.4570     2.5230 
  215.3750   211.1520    27.5470    -4.2390    38.3550    12.7140    12.1520    11.8800    24.1980   -24.4390     2.5260 
  215.5000   211.2680    27.5940    -4.2460    42.9590    11.5830    11.3940    10.1220    24.2340   -24.3870     2.5040 
  215.6250   211.3840    27.6400    -4.2530    47.9020    10.0480    10.1380     8.0010    24.3840   -24.2920     2.4680 
  215.7500   211.5000    27.6870    -4.2590    51.3650     8.6090     8.8230     6.9790    24.6170   -24.1470     2.4320 
  215.8750   211.6150    27.7330    -4.2660    51.4490     7.4780     7.7140     6.3470    24.7180   -23.9670     2.4040 
  216.0000   211.7310    27.7790    -4.2720    49.4460     6.6940     6.8840     5.5150    24.5750   -23.7680     2.3890 
  216.1250   211.8470    27.8260    -4.2790    47.7610     6.2310     6.3360     4.9090    24.2920   -23.5640     2.3880 
