~V
VERS. 2.00: Ver 2.00
~W
STRT.M 30.0000:
STOP.M 272.0000:
STEP.M 0.1250:
NULL. -999.2500:
UWI. FD11176:
~C
DEPT.M :
TVD. :
DX. :
DY. :
SP.MV :
GR.API :
RI. :
RML.OHMM :
RXO.OHMM :
DEN.GM/CC :
~A
# ...
  203.3750   194.6710    44.0390   -20.5060    -5.0330    98.3680     4.4840     5.8410     5.8970     2.3800 
  203.5000   194.7860    44.0850   -20.5280    -5.6580    93.1890     4.9620     6.4760     5.8630     2.3600 
  203.6250   194.9000    44.1310   -20.5510    -6.1620    90.7510     5.3860     7.0720     5.8220     2.3570 
  203.7500   195.0140    44.1770   -20.5730    -6.5720    87.9800     5.6970     7.5220     6.8740     2.3780 
  203.8750   195.1280    44.2230   -20.5950    -6.9310    85.2300     5.8030     7.6760     8.6310     2.4110 
  204.0000   195.2420    44.2690   -20.6170    -7.2850    86.2590     5.6630     7.4920     9.8310     2.4340 
  204.1250   195.3560    44.3150   -20.6390    -7.6560    88.7570     5.2960     7.0060     9.6310     2.4280 
  204.2500   195.4700    44.3610   -20.6620    -8.0290    90.2400     4.8540     6.4450     8.1520     2.4020 
  204.3750   195.5840    44.4070   -20.6840    -8.3620    90.2650     4.4770     6.0080     7.2490     2.3780 
  204.5000   195.6980    44.4530   -20.7060    -8.6220    89.6860     4.2420     5.7360     7.5730     2.3650 
  204.6250   195.8120    44.4990   -20.7280    -8.7850    88.1390     4.1120     5.5740     7.2710     2.3510 
  204.7500   195.9260    44.5450   -20.7500    -8.8420    86.5110     4.0980     5.5470     6.1340     2.3220 
  204.8750   196.0400    44.5920   -20.7720    -8.7700    87.1150     4.2460     5.7490     5.2510     2.2940 
  205.0000   196.1540    44.6380   -20.7940    -8.5840    89.3480     4.5060     6.1170     5.0520     2.2900 
  205.1250   196.2680    44.6840   -20.8160    -8.2850    88.5840     4.8770     6.6260     7.6610     2.3210 
  205.2500   196.3820    44.7300   -20.8380    -7.9010    84.8080     5.3460     7.2320    11.4120     2.3870 
  205.3750   196.4970    44.7760   -20.8600    -7.4860    83.7630     5.7600     7.7240    11.8950     2.4640 
  205.5000   196.6110    44.8230   -20.8820    -7.1310    87.2650     6.0210     8.0240    10.2880     2.4930 
  205.6250   196.7250    44.8690   -20.9040    -6.8940    90.3740     6.0300     8.0480     9.6220     2.4570 
  205.7500   196.8390    44.9150   -20.9260    -6.7270    90.5420     5.7810     7.7560    10.3880     2.4100 
  205.8750   196.9530    44.9610   -20.9480    -6.5360    91.6790     5.3320     7.1580    10.2070     2.3940 
  206.0000   197.0670    45.0070   -20.9710    -6.2520    95.3110     4.7440     6.3470     8.2980     2.3890 
  206.1250   197.1810    45.0530   -20.9930    -5.8650    98.3390     4.1680     5.5160     6.4350     2.3710 
  206.2500   197.2950    45.0980   -21.0160    -5.4440    98.4210     3.7070     4.8660     5.2510     2.3570 
  206.3750   197.4090    45.1440   -21.0380    -5.0740    95.0860     3.5760     4.6990     4.5180     2.3540 
  206.5000   197.5230    45.1900   -21.0610    -4.8290    91.3500     3.7150     4.9040     4.3140     2.3500 
  206.6250   197.6370    45.2360   -21.0830    -4.7770    87.8680     4.1080     5.4790     4.6310     2.3390 
  206.7500   197.7510    45.2820   -21.1060    -4.8990    85.9610     4.7060     6.3890     5.0630     2.3340 
  206.8750   197.8650    45.3280   -21.1280    -5.1400    86.1260     5.3760     7.3540     6.4360     2.3420 
  207.0000   197.9800    45.3730   -21.1510    -5.3930    87.4020     5.9060     8.0530     9.7150     2.3550 
  207.1250   198.0940    45.4190   -21.1740    -5.5490    87.5080     6.1560     8.2800    12.2620     2.3710 
  207.2500   198.2080    45.4650   -21.1960    -5.5450    86.4370     6.0950     8.0510    11.2560     2.3830 
  207.3750   198.3220    45.5110   -21.2190    -5.3520    86.1200     5.8600     7.6650     8.7120     2.3900 
  207.5000   198.4360    45.5570   -21.2410    -5.0230    88.1740     5.6310     7.3810     7.2580     2.3900 
  207.6250   198.5500    45.6030   -21.2640    -4.6170    91.0950     5.4540     7.2410     7.5210     2.3880 
  207.7500   198.6640    45.6490   -21.2870    -4.1930    94.5520     5.2350     7.0500     8.7170     2.3880 
  207.8750   198.7780    45.6940   -21.3090    -3.7550   100.2230     4.8990     6.6370     8.4660     2.3860 
  208.0000   198.8920    45.7400   -21.3320    -3.2630   103.7860     4.3520     5.8880     6.5580     2.3740 
  208.1250   199.0060    45.7860   -21.3550    -2.6530   100.2260     3.7570     5.0410     5.4010     2.3580 
  208.2500   199.1200    45.8320   -21.3780    -1.9260    89.7250     3.2010     4.2820     4.8380     2.3520 
  208.3750   199.2340    45.8780   -21.4010    -1.1560    78.4120     2.8060     3.7780     3.8990     2.3530 
  208.5000   199.3480    45.9240   -21.4230    -0.4720    71.9850     2.5630     3.4900     3.5310     2.3520 
  208.6250   199.4620    45.9700   -21.4460     0.0010    70.6700     2.4480     3.3730     3.4940     2.3420 
  208.7500   199.5760    46.0170   -21.4680     0.2590    71.4150     2.4470     3.3850     3.1500     2.3320 
  208.8750   199.6900    46.0630   -21.4910     0.3420    71.8220     2.5060     3.4550     2.9620     2.3280 
  209.0000   199.8040    46.1090   -21.5140     0.3310    72.5350     2.5560     3.4880     3.0860     2.3290 
  209.1250   199.9180    46.1550   -21.5360     0.2620    74.8560     2.5790     3.4550     3.2900     2.3340 
  209.2500   200.0320    46.2020   -21.5590     0.1620    76.6730     2.5850     3.3970     3.3860     2.3370 
  209.3750   200.1450    46.2480   -21.5810     0.0600    79.5240     2.6040     3.3600     3.4020     2.3370 
  209.5000   200.2590    46.2940   -21.6040    -0.0230    85.1330     2.6610     3.3810     3.3390     2.3320 
  209.6250   200.3730    46.3400   -21.6260    -0.1100    90.5130     2.7530     3.4680     3.1020     2.3280 
  209.7500   200.4870    46.3870   -21.6490    -0.2470    91.4640     2.8760     3.6050     3.0230     2.3290 
  209.8750   200.6010    46.4330   -21.6710    -0.4490    89.4340     2.9880     3.7330     3.4330     2.3320 
  210.0000   200.7150    46.4800   -21.6930    -0.6750    89.1920     3.0510     3.8010     4.0740     2.3340 
  210.1250   200.8290    46.5260   -21.7150    -0.8720    90.1320     3.1050     3.8510     4.5440     2.3350 
  210.2500   200.9430    46.5720   -21.7370    -1.0230    90.4500     3.1710     3.9200     4.6220     2.3300 
  210.3750   201.0570    46.6190   -21.7600    -1.1540    89.6380     3.2470     4.0250     4.3160     2.3200 
  210.5000   201.1710    46.6650   -21.7820    -1.3100    89.5110     3.3080     4.1170     4.0310     2.3150 
  210.6250   201.2850    46.7110   -21.8050    -1.5110    90.1150     3.2970     4.1140     4.5820     2.3170 
  210.7500   201.3990    46.7570   -21.8270    -1.7410    90.4690     3.2240     4.0010     5.6200     2.3190 
  210.8750   201.5130    46.8030   -21.8490    -1.9830    90.1650     3.1040     3.7980     5.5760     2.3120 
  211.0000   201.6270    46.8490   -21.8720    -2.2400    90.7500     3.0310     3.6470     4.4250     2.2980 
  211.1250   201.7410    46.8950   -21.8940    -2.5360    91.0560     3.1250     3.7190     3.5670     2.2860 
  211.2500   201.8550    46.9410   -21.9170    -2.8630    88.0540     3.3890     4.0280     3.6080     2.2810 
  211.3750   201.9690    46.9870   -21.9400    -3.1670    82.6100     3.9550     4.7490     4.1700     2.2800 
  211.5000   202.0830    47.0330   -21.9620    -3.4100    80.3560     4.7910     5.8230     5.4840     2.2780 
  211.6250   202.1970    47.0790   -21.9850    -3.6140    79.7370     5.6690     6.9280     7.5490     2.2780 
  211.7500   202.3110    47.1250   -22.0080    -3.8490    78.8820     6.5080     7.9430     9.2130     2.2810 
  211.8750   202.4250    47.1710   -22.0300    -4.1700    79.2340     7.1900     8.7400    10.1500     2.2810 
  212.0000   202.5390    47.2170   -22.0530    -4.5710    79.5570     7.6570     9.2270    10.3510     2.2780 
  212.1250   202.6530    47.2630   -22.0760    -5.0500    77.9900     7.7950     9.3190     9.5410     2.2750 
  212.2500   202.7670    47.3090   -22.0980    -5.6230    74.3070     7.8320     9.2900    10.8210     2.2760 
  212.3750   202.8810    47.3560   -22.1210    -6.3490    72.7780     7.8500     9.2360    16.2250     2.2850 
