~V
VERS. 2.00: Ver 2.00
~W
STRT.M 30.0000:
STOP.M 284.0000:
STEP.M 0.1250:
NULL. -999.2500:
UWI. FD11172:
~C
DEPT.M :
TVD. :
DX. :
DY. :
SP.MV :
GR.API :
RI. :
RML.OHMM :
RXO.OHMM :
DEN.GM/CC :
~A
# ...
  258.1250   240.2950    76.4760    25.5730   -12.3680    73.9780     5.5890     6.3980     7.3110     2.2080 
  258.2500   240.4040    76.5340    25.5950   -12.4310    72.2470     5.9510     6.8870     7.9670     2.1980 
  258.3750   240.5120    76.5920    25.6170   -12.4000    67.8400     6.7250     7.8020     8.2450     2.2000 
  258.5000   240.6210    76.6500    25.6390   -12.2970    64.7140     7.5910     8.7400     8.4410     2.2120 
  258.6250   240.7300    76.7080    25.6620   -12.1520    62.6830     8.3760     9.5140    10.6930     2.2660 
  258.7500   240.8380    76.7660    25.6840   -12.0290    61.2530     8.7010     9.6790    15.8310     2.3650 
  258.8750   240.9470    76.8240    25.7060   -11.9660    60.8470     8.2490     8.9550    18.7330     2.4390 
  259.0000   241.0550    76.8820    25.7270   -11.9420    62.3570     7.4490     7.9400    15.5810     2.4170 
  259.1250   241.1640    76.9400    25.7490   -11.9280    64.6530     6.5240     6.8840    10.8990     2.3140 
  259.2500   241.2720    76.9980    25.7710   -11.8870    66.9760     5.8600     6.2530     8.6520     2.2230 
  259.3750   241.3810    77.0560    25.7920   -11.8210    69.5730     5.5880     6.0820     7.9540     2.1900 
  259.5000   241.4890    77.1140    25.8140   -11.8100    71.4210     5.5110     6.0930     7.8750     2.1920 
  259.6250   241.5980    77.1720    25.8370   -11.9010    71.6690     5.4960     6.1000     7.7690     2.1970 
  259.7500   241.7060    77.2300    25.8590   -11.9810    71.1920     5.4180     5.9560     7.3800     2.1950 
  259.8750   241.8140    77.2880    25.8820   -11.9130    71.5430     5.2620     5.6770     7.4040     2.1960 
  260.0000   241.9230    77.3470    25.9040   -11.7280    72.8140     5.0730     5.3370     7.7430     2.2040 
  260.1250   242.0310    77.4050    25.9270   -11.5440    74.5190     4.9520     5.1250     7.5370     2.2130 
  260.2500   242.1390    77.4630    25.9500   -11.4920    75.8110     4.9640     5.1220     6.7760     2.2130 
  260.3750   242.2480    77.5210    25.9720   -11.7130    77.5960     5.1250     5.3120     6.2570     2.2110 
  260.5000   242.3560    77.5790    25.9950   -12.2250    78.5400     5.4960     5.7450     6.3400     2.2130 
  260.6250   242.4640    77.6370    26.0180   -12.9600    76.7110     5.9900     6.2920     6.7300     2.2110 
  260.7500   242.5720    77.6960    26.0410   -13.7350    73.3640     6.4870     6.8180     7.0110     2.2000 
  260.8750   242.6810    77.7540    26.0630   -14.3550    73.6170     6.8490     7.1860     7.0200     2.1920 
  261.0000   242.7890    77.8120    26.0860   -14.7450    75.1920     7.0150     7.3350     6.9990     2.1910 
  261.1250   242.8970    77.8700    26.1090   -14.9760    74.9060     7.0810     7.3870     7.1440     2.1910 
  261.2500   243.0050    77.9290    26.1320   -15.1970    75.0520     7.1400     7.4360     7.2800     2.1840 
  261.3750   243.1130    77.9870    26.1550   -15.4660    79.5140     7.2480     7.5620     7.3690     2.1780 
  261.5000   243.2220    78.0450    26.1780   -15.7700    81.3580     7.3980     7.7060     7.5660     2.1780 
  261.6250   243.3300    78.1030    26.2010   -16.0180    76.7140     7.5540     7.8530     7.7980     2.1830 
  261.7500   243.4380    78.1620    26.2230   -16.1060    72.8990     7.6700     7.9560     7.8550     2.1890 
  261.8750   243.5460    78.2200    26.2460   -16.0380    73.7450     7.7240     7.9890     7.7010     2.1960 
  262.0000   243.6550    78.2780    26.2690   -15.9380    73.9960     7.7420     7.9910     7.6000     2.1980 
  262.1250   243.7630    78.3360    26.2910   -15.9200    73.2360     7.7800     8.0380     7.7290     2.1970 
  262.2500   243.8710    78.3950    26.3140   -16.0540    74.3150     7.9320     8.2150     7.9110     2.1960 
  262.3750   243.9790    78.4530    26.3360   -16.4500    74.0880     8.3360     8.6170     8.0480     2.1980 
  262.5000   244.0870    78.5120    26.3590   -16.7390    69.0200     9.0110     9.3030     8.3150     2.2000 
  262.6250   244.1960    78.5700    26.3820   -17.1230    63.8200    10.0330    10.3330     8.8580     2.2000 
  262.7500   244.3040    78.6280    26.4040   -17.4810    61.9350    11.1080    11.4290     9.7870     2.1910 
  262.8750   244.4120    78.6870    26.4270   -17.7060    63.0490    11.8940    12.3620    11.0090     2.1740 
  263.0000   244.5200    78.7450    26.4490   -17.7640    65.4420    12.1250    13.1020    11.7790     2.1610 
  263.1250   244.6280    78.8040    26.4720   -17.6780    66.3810    11.7790    12.7180    11.4730     2.1660 
  263.2500   244.7360    78.8630    26.4940   -17.5250    64.9850    11.1750    12.0220    10.3820     2.1840 
  263.3750   244.8440    78.9210    26.5170   -17.3600    63.5930    10.6650    11.4370     9.3650     2.2000 
  263.5000   244.9520    78.9800    26.5400   -17.2310    65.4580    10.4580    11.1690     9.1640     2.2030 
  263.6250   245.0600    79.0380    26.5630   -17.1840    68.1980    10.6650    11.3310     9.5590     2.1940 
  263.7500   245.1680    79.0960    26.5870   -17.2340    70.9110    11.2000    11.8470     9.9520     2.1820 
  263.8750   245.2760    79.1550    26.6100   -17.3700    72.1550    12.0210    12.7160    10.1980     2.1760 
  264.0000   245.3850    79.2130    26.6330   -17.5500    71.1820    13.0150    13.8010    10.2460     2.1820 
  264.1250   245.4930    79.2710    26.6570   -17.7450    68.5610    14.0710    14.9460    10.2190     2.1930 
  264.2500   245.6010    79.3300    26.6800   -17.9280    67.8360    15.0680    15.9430    10.6310     2.2030 
  264.3750   245.7090    79.3880    26.7040   -18.0390    70.1620    15.6770    16.4600    12.0100     2.2070 
  264.5000   245.8170    79.4470    26.7270   -18.0190    71.0500    15.8850    16.4750    13.7080     2.2040 
  264.6250   245.9250    79.5050    26.7510   -17.8310    67.2530    15.4420    15.8380    14.2690     2.1910 
  264.7500   246.0330    79.5630    26.7740   -17.4940    63.7630    14.3460    14.6490    13.6310     2.1770 
  264.8750   246.1410    79.6220    26.7980   -16.9650    64.4900    13.0090    13.2540    13.3100     2.1770 
  265.0000   246.2490    79.6800    26.8210   -16.1680    68.3430    11.7130    11.9700    14.5380     2.1960 
  265.1250   246.3570    79.7380    26.8440   -15.0150    72.0530    10.8570    11.1230    15.6300     2.2200 
  265.2500   246.4650    79.7970    26.8670   -13.6520    73.5960    10.5940    10.8650    14.0310     2.2380 
  265.3750   246.5730    79.8550    26.8900   -12.4420    74.2510    10.8860    11.2370    11.9360     2.2480 
  265.5000   246.6810    79.9140    26.9140   -11.7740    74.7550    11.7390    12.1990    12.2030     2.2580 
  265.6250   246.7890    79.9720    26.9370   -11.8950    75.2930    13.0520    13.5890    13.0660     2.2620 
  265.7500   246.8970    80.0310    26.9590   -12.6200    74.9900    14.2390    14.8290    13.3870     2.2510 
  265.8750   247.0050    80.0890    26.9830   -13.6440    73.1150    14.9690    15.5220    14.7380     2.2320 
  266.0000   247.1130    80.1480    27.0060   -14.6030    69.3830    14.9430    15.4680    17.4180     2.2240 
  266.1250   247.2210    80.2070    27.0280   -15.2330    64.0170    14.4350    14.8990    19.1830     2.2280 
  266.2500   247.3290    80.2650    27.0510   -15.4640    61.0540    13.8510    14.2670    17.9330     2.2250 
  266.3750   247.4370    80.3240    27.0740   -15.3650    63.4040    13.4540    13.8870    14.9500     2.2100 
  266.5000   247.5450    80.3830    27.0970   -15.1980    68.4010    13.4520    13.9480    12.9880     2.1980 
  266.6250   247.6530    80.4410    27.1200   -15.1760    70.6230    13.8720    14.4270    12.8450     2.1880 
  266.7500   247.7610    80.5000    27.1430   -15.3090    69.6950    14.4120    14.9790    14.3600     2.1860 
  266.8750   247.8690    80.5590    27.1660   -15.5090    69.7360    14.7940    15.3400    17.1360     2.2010 
  267.0000   247.9770    80.6170    27.1890   -15.6930    72.3870    14.9440    15.4970    19.2460     2.2340 
  267.1250   248.0850    80.6760    27.2120   -15.8370    73.5820    15.1320    15.7060    19.6620     2.2700 
