~V
VERS. 2.00: Ver 2.00
~W
STRT.M 44.0000:
STOP.M 275.0000:
STEP.M 0.1250:
NULL. -999.2500:
UWI. FD11190:
~C
DEPT.M :
TVD. :
DX. :
DY. :
SP.MV :
GR.API :
RI. :
RML.OHMM :
RXO.OHMM :
DEN.GM/CC :
~A
# ...
   89.6250    89.4040    -3.3680    -1.4500   -10.7260    63.8180     5.2810     5.6710     7.1440     2.1490 
   89.7500    89.5260    -3.3910    -1.4580   -10.3520    64.7820     4.9380     5.1340     7.4850     2.1780 
   89.8750    89.6490    -3.4140    -1.4660    -9.7880    69.3440     4.3380     4.4630     6.6760     2.2220 
   90.0000    89.7720    -3.4380    -1.4730    -8.9220    76.1880     3.7280     3.8680     4.6700     2.2650 
   90.1250    89.8940    -3.4610    -1.4810    -7.9140    85.9290     3.3390     3.5280     3.5850     2.2900 
   90.2500    90.0170    -3.4840    -1.4890    -6.9540    94.7790     3.1510     3.4750     3.4080     2.2930 
   90.3750    90.1390    -3.5080    -1.4970    -6.4240    99.5430     3.2610     3.7350     3.4290     2.2710 
   90.5000    90.2620    -3.5310    -1.5050    -6.4460   100.9160     3.6260     4.2360     4.4370     2.2300 
   90.6250    90.3840    -3.5550    -1.5130    -7.0320    98.6710     4.1870     4.8920     6.2040     2.1830 
   90.7500    90.5070    -3.5780    -1.5200    -7.9870    91.3540     4.8490     5.5240     6.9650     2.1500 
   90.8750    90.6290    -3.6020    -1.5280    -9.1470    79.9600     5.4000     5.9230     6.6070     2.1390 
   91.0000    90.7520    -3.6260    -1.5360   -10.2300    71.2440     5.6370     5.9720     6.5280     2.1400 
   91.1250    90.8740    -3.6500    -1.5440   -10.9660    69.0950     5.4840     5.6840     6.8590     2.1490 
   91.2500    90.9970    -3.6730    -1.5530   -11.3230    70.3680     5.0920     5.2770     6.6470     2.1710 
   91.3750    91.1190    -3.6970    -1.5610   -11.4830    71.6320     4.7280     4.9970     5.6710     2.1970 
   91.5000    91.2410    -3.7210    -1.5690   -11.5620    74.6770     4.5760     5.0110     4.9290     2.2090 
   91.6250    91.3640    -3.7450    -1.5780   -11.4250    80.3850     4.7360     5.4740     4.9700     2.1920 
   91.7500    91.4860    -3.7690    -1.5860   -11.2410    84.2980     5.2820     6.3730     5.7860     2.1550 
   91.8750    91.6090    -3.7940    -1.5950   -11.2850    82.2670     6.2650     7.5690     6.9220     2.1270 
   92.0000    91.7310    -3.8180    -1.6030   -11.6830    77.0330     7.3970     8.6370     7.4030     2.1340 
   92.1250    91.8530    -3.8420    -1.6120   -12.3770    73.1070     8.2050     9.1480     7.4210     2.1810 
   92.2500    91.9750    -3.8670    -1.6200   -13.0980    70.3490     8.3680     9.0190     7.5860     2.2270 
   92.3750    92.0980    -3.8910    -1.6290   -13.6900    67.3290     8.0060     8.4240     7.7210     2.2250 
   92.5000    92.2200    -3.9160    -1.6380   -14.2050    65.5330     7.3690     7.7450     7.6540     2.1830 
   92.6250    92.3420    -3.9400    -1.6460   -14.7040    64.3760     6.8610     7.2020     7.5350     2.1390 
   92.7500    92.4640    -3.9650    -1.6550   -15.1590    64.0650     6.4790     6.8430     7.5680     2.1160 
   92.8750    92.5870    -3.9900    -1.6640   -15.5110    64.4280     6.2250     6.6340     7.7580     2.1090 
   93.0000    92.7090    -4.0150    -1.6730   -15.7330    65.8100     6.0870     6.5460     7.7490     2.1080 
   93.1250    92.8310    -4.0400    -1.6820   -15.8420    66.2880     6.0530     6.5500     7.4570     2.1120 
   93.2500    92.9530    -4.0650    -1.6910   -15.8940    65.7130     6.0930     6.6100     7.3640     2.1210 
   93.3750    93.0750    -4.0900    -1.7000   -15.8610    65.5330     6.1690     6.6950     7.5940     2.1290 
   93.5000    93.1970    -4.1150    -1.7090   -15.7730    66.6390     6.2630     6.7720     7.6740     2.1310 
   93.6250    93.3190    -4.1410    -1.7190   -15.6700    69.1160     6.3460     6.8120     7.4590     2.1260 
   93.7500    93.4410    -4.1660    -1.7280   -15.6630    70.8250     6.4040     6.7940     7.4400     2.1170 
   93.8750    93.5630    -4.1910    -1.7380   -15.7580    69.9910     6.4030     6.7180     7.5900     2.1090 
   94.0000    93.6850    -4.2170    -1.7470   -15.9250    67.5600     6.3570     6.6190     7.5660     2.1060 
   94.1250    93.8070    -4.2430    -1.7570   -16.0830    65.9730     6.3130     6.5580     7.5030     2.1100 
   94.2500    93.9290    -4.2680    -1.7660   -16.1810    65.7280     6.2990     6.5840     7.5360     2.1300 
   94.3750    94.0510    -4.2940    -1.7760   -16.2170    65.7100     6.3730     6.7340     7.5790     2.1770 
   94.5000    94.1730    -4.3200    -1.7860   -16.2190    65.3320     6.5380     6.9870     7.5170     2.2340 
   94.6250    94.2950    -4.3460    -1.7960   -16.1030    64.1990     6.7800     7.2750     7.5320     2.2580 
   94.7500    94.4170    -4.3720    -1.8050   -15.8920    63.6810     7.0150     7.4870     7.7160     2.2340 
   94.8750    94.5390    -4.3980    -1.8150   -15.6380    65.4050     7.0920     7.4990     8.2760     2.1910 
   95.0000    94.6600    -4.4240    -1.8250   -15.3980    69.3650     6.9840     7.2700     9.0970     2.1590 
   95.1250    94.7820    -4.4510    -1.8360   -15.2270    72.0270     6.6300     6.8880     8.9370     2.1390 
   95.2500    94.9040    -4.4770    -1.8460   -15.0670    72.5610     6.2420     6.5800     7.9400     2.1210 
   95.3750    95.0260    -4.5040    -1.8560   -14.9180    69.9160     6.1080     6.6830     7.4430     2.1150 
   95.5000    95.1470    -4.5300    -1.8660   -14.6540    65.5540     6.4620     7.4250     7.5090     2.1410 
   95.6250    95.2690    -4.5570    -1.8770   -14.2960    61.6240     7.5040     9.1810    11.1070     2.2290 
   95.7500    95.3910    -4.5840    -1.8870   -13.8320    60.9100     9.5860    12.3850    20.7540     2.3670 
   95.8750    95.5120    -4.6100    -1.8970   -13.2590    61.2970    13.6100    17.5850    31.1290     2.5020 
   96.0000    95.6340    -4.6370    -1.9080   -12.5610    59.6660    19.8780    24.1450    37.4870     2.5890 
   96.1250    95.7560    -4.6640    -1.9190   -11.8590    59.0850    26.8190    30.4540    42.5350     2.6230 
   96.2500    95.8770    -4.6910    -1.9290   -11.3830    62.1150    32.4960    34.0910    50.1970     2.6320 
   96.3750    95.9990    -4.7180    -1.9400   -11.3040    64.8960    33.9950    33.0930    54.3760     2.6230 
   96.5000    96.1200    -4.7460    -1.9510   -11.5090    65.4290    30.0650    28.1210    47.2170     2.5870 
   96.6250    96.2420    -4.7730    -1.9620   -11.8700    65.0460    23.4180    21.1250    34.6840     2.5080 
   96.7500    96.3630    -4.8000    -1.9730   -12.3380    64.7090    16.3200    14.7010    22.9800     2.3970 
   96.8750    96.4850    -4.8270    -1.9840   -12.9750    61.3720    10.8120    10.2720    12.9990     2.2960 
   97.0000    96.6060    -4.8550    -1.9950   -13.7640    58.2870     8.0470     7.8010     7.9800     2.2360 
   97.1250    96.7280    -4.8820    -2.0070   -14.6510    58.1990     6.5270     6.6850     7.0780     2.2000 
   97.2500    96.8490    -4.9100    -2.0180   -15.4300    58.0640     5.8320     6.2460     6.9910     2.1590 
   97.3750    96.9700    -4.9370    -2.0300   -15.9090    58.2960     5.7040     6.2090     7.1180     2.1210 
   97.5000    97.0920    -4.9650    -2.0410   -16.2210    61.3130     5.7600     6.2940     7.3640     2.1030 
   97.6250    97.2130    -4.9930    -2.0520   -16.4460    63.5480     5.8720     6.3870     7.4940     2.1020 
   97.7500    97.3340    -5.0210    -2.0640   -16.6940    62.0720     5.9810     6.4520     7.5350     2.1030 
   97.8750    97.4560    -5.0490    -2.0750   -16.8270    61.6040     6.0630     6.4740     7.5650     2.1040 
   98.0000    97.5770    -5.0770    -2.0870   -16.8100    64.2720     6.1080     6.4450     7.4860     2.1080 
   98.1250    97.6980    -5.1050    -2.0990   -16.6530    65.3270     6.0820     6.3680     7.3540     2.1150 
   98.2500    97.8190    -5.1330    -2.1100   -16.4690    63.3030     6.0150     6.2650     7.3740     2.1170 
   98.3750    97.9410    -5.1610    -2.1220   -16.2210    62.1370     5.9380     6.1700     7.3650     2.1120 
   98.5000    98.0620    -5.1890    -2.1340   -15.9110    62.9470     5.8670     6.1120     7.2570     2.1030 
   98.6250    98.1830    -5.2170    -2.1460   -15.5420    62.0420     5.8410     6.1270     7.2770     2.0990 
