~V
VERS. 2.00: Ver 2.00
~W
STRT.M 30.0000:
STOP.M 284.0000:
STEP.M 0.1250:
NULL. -999.2500:
UWI. FD11172:
~C
DEPT.M :
TVD. :
DX. :
DY. :
SP.MV :
GR.API :
RI. :
RML.OHMM :
RXO.OHMM :
DEN.GM/CC :
~A
# ...
  176.0000   168.3230    39.4360    11.7310    -8.2110    64.6240    13.2180    15.0190    14.7060     2.4120 
  176.1250   168.4330    39.4900    11.7500    -7.9750    65.1450    12.8800    14.7280    14.1190     2.4010 
  176.2500   168.5440    39.5450    11.7700    -7.7900    66.9220    12.5740    14.4600    13.3950     2.3940 
  176.3750   168.6550    39.6000    11.7890    -7.6710    67.6410    12.3610    14.2370    13.1850     2.3970 
  176.5000   168.7650    39.6550    11.8090    -7.5580    65.5340    12.3070    14.1670    13.4960     2.4010 
  176.6250   168.8760    39.7090    11.8280    -7.4560    63.9930    12.4410    14.2820    13.7360     2.4030 
  176.7500   168.9870    39.7640    11.8480    -7.4300    66.1190    12.6780    14.5030    13.5790     2.3990 
  176.8750   169.0970    39.8190    11.8670    -7.5280    68.1730    12.9710    14.8070    13.5600     2.3940 
  177.0000   169.2080    39.8740    11.8870    -7.6720    67.5140    13.2010    15.0840    14.2610     2.3940 
  177.1250   169.3180    39.9280    11.9070    -7.7360    67.0610    13.1150    15.0720    15.4010     2.4010 
  177.2500   169.4290    39.9830    11.9270    -7.7070    67.9400    12.7660    14.7560    15.9750     2.4110 
  177.3750   169.5400    40.0380    11.9470    -7.6760    66.1950    12.2120    14.1820    15.7230     2.4210 
  177.5000   169.6500    40.0930    11.9660    -7.6780    61.7600    11.6010    13.4670    14.9190     2.4350 
  177.6250   169.7610    40.1480    11.9860    -7.6640    58.3070    11.0780    12.8290    13.2990     2.4600 
  177.7500   169.8710    40.2030    12.0060    -7.6040    56.1550    10.7640    12.4620    11.4790     2.4910 
  177.8750   169.9820    40.2570    12.0260    -7.5080    55.4110    10.6380    12.3580    10.6960     2.5100 
  178.0000   170.0920    40.3120    12.0460    -7.3970    54.8980    10.7250    12.5260    11.0520     2.5150 
  178.1250   170.2030    40.3670    12.0660    -7.2760    54.1620    10.9140    12.8370    11.7350     2.5050 
  178.2500   170.3140    40.4220    12.0860    -7.1450    53.3490    11.0940    13.1260    11.9960     2.4860 
  178.3750   170.4240    40.4760    12.1060    -7.0170    53.8910    11.1840    13.2890    11.8110     2.4650 
  178.5000   170.5350    40.5310    12.1260    -6.9050    56.2530    11.1790    13.3030    11.6440     2.4560 
  178.6250   170.6450    40.5860    12.1450    -6.8050    57.2270    11.0590    13.1380    11.7530     2.4710 
  178.7500   170.7560    40.6410    12.1650    -6.7310    54.8300    10.8770    12.8880    11.8380     2.4990 
  178.8750   170.8670    40.6950    12.1850    -6.7180    50.0560    10.6750    12.6320    11.5230     2.5280 
  179.0000   170.9770    40.7500    12.2050    -6.7820    47.9130    10.5220    12.4460    11.2870     2.5460 
  179.1250   171.0880    40.8050    12.2260    -6.9180    48.7770    10.4560    12.4190    12.3560     2.5450 
  179.2500   171.1990    40.8590    12.2460    -7.0750    49.7480    10.4770    12.5330    14.3170     2.5220 
  179.3750   171.3090    40.9140    12.2650    -7.1940    48.9830    10.5720    12.7390    14.7480     2.4930 
  179.5000   171.4200    40.9680    12.2850    -7.2650    48.0690    10.7240    12.9900    13.3840     2.4820 
  179.6250   171.5310    41.0230    12.3050    -7.3100    48.2360    10.9500    13.2740    12.1820     2.4900 
  179.7500   171.6410    41.0770    12.3240    -7.3680    49.6700    11.2600    13.6020    12.0370     2.4970 
  179.8750   171.7520    41.1320    12.3440    -7.4980    52.6480    11.5880    13.9160    13.1390     2.4920 
  180.0000   171.8630    41.1860    12.3630    -7.7200    54.3700    11.9320    14.2770    14.5890     2.4870 
  180.1250   171.9740    41.2410    12.3830    -7.9940    53.9400    12.2790    14.6290    14.9400     2.4800 
  180.2500   172.0850    41.2950    12.4020    -8.2260    53.0280    12.4370    14.8200    14.4050     2.4620 
  180.3750   172.1950    41.3500    12.4210    -8.3440    52.2910    12.4030    14.8440    13.7080     2.4360 
  180.5000   172.3060    41.4050    12.4400    -8.3600    52.4850    12.2080    14.6760    13.2550     2.4200 
  180.6250   172.4170    41.4590    12.4600    -8.2910    54.0580    11.9130    14.4150    13.0110     2.4200 
  180.7500   172.5280    41.5140    12.4790    -8.1290    56.8140    11.6670    14.1290    12.4880     2.4250 
  180.8750   172.6390    41.5680    12.4990    -7.8820    59.3550    11.4640    13.8410    11.8760     2.4360 
  181.0000   172.7490    41.6230    12.5190    -7.6680    60.1150    11.3070    13.6010    11.7870     2.4540 
  181.1250   172.8600    41.6780    12.5380    -7.6280    58.1490    11.2620    13.5170    12.1260     2.4710 
  181.2500   172.9710    41.7320    12.5580    -7.8130    54.3300    11.3270    13.6450    12.2920     2.4730 
  181.3750   173.0810    41.7870    12.5770    -8.2460    50.8780    11.4130    13.8210    12.2280     2.4570 
  181.5000   173.1920    41.8420    12.5970    -8.7900    49.6140    11.5010    14.0190    12.3350     2.4350 
  181.6250   173.3020    41.8970    12.6170    -9.2320    49.9410    11.5970    14.2120    12.7130     2.4250 
  181.7500   173.4130    41.9520    12.6370    -9.5170    51.3330    11.6690    14.2970    13.3080     2.4320 
  181.8750   173.5230    42.0060    12.6570    -9.7290    55.2160    11.6310    14.1730    13.7470     2.4450 
  182.0000   173.6340    42.0610    12.6770    -9.9250    59.1290    11.4810    13.9080    13.1410     2.4560 
  182.1250   173.7450    42.1160    12.6970   -10.1130    59.6690    11.2830    13.6190    11.8890     2.4630 
  182.2500   173.8550    42.1710    12.7170   -10.3320    57.7400    11.1250    13.4230    11.3980     2.4690 
  182.3750   173.9660    42.2260    12.7370   -10.5920    56.2690    11.0650    13.3780    11.5980     2.4580 
  182.5000   174.0760    42.2800    12.7570   -10.8280    54.5640    11.0860    13.4400    11.7710     2.4310 
  182.6250   174.1870    42.3350    12.7770   -10.9930    51.6710    11.1420    13.5350    11.8590     2.4050 
  182.7500   174.2970    42.3900    12.7970   -11.1050    52.0660    11.1900    13.6090    11.9770     2.3990 
  182.8750   174.4080    42.4450    12.8180   -11.1990    55.5110    11.1810    13.5640    12.1290     2.4090 
  183.0000   174.5180    42.5000    12.8380   -11.3080    55.7420    11.0990    13.4310    12.0580     2.4220 
  183.1250   174.6290    42.5540    12.8580   -11.4320    51.3640    10.9960    13.3090    11.6500     2.4290 
  183.2500   174.7390    42.6090    12.8790   -11.5280    48.4900    10.9060    13.2440    11.2410     2.4270 
  183.3750   174.8500    42.6640    12.8990   -11.5590    49.6700    10.8910    13.2710    11.0990     2.4270 
  183.5000   174.9600    42.7190    12.9190   -11.5360    51.8460    10.9290    13.3280    11.3160     2.4280 
  183.6250   175.0710    42.7730    12.9390   -11.4780    54.6800    11.0020    13.4090    11.7970     2.4230 
  183.7500   175.1820    42.8280    12.9590   -11.4160    55.5410    11.1230    13.5330    12.2190     2.4200 
  183.8750   175.2920    42.8830    12.9800   -11.3600    54.0300    11.2720    13.7080    12.3950     2.4320 
  184.0000   175.4030    42.9370    13.0000   -11.2660    53.1150    11.4500    13.9260    12.3590     2.4550 
  184.1250   175.5130    42.9920    13.0200   -11.1180    53.5610    11.6580    14.1790    12.3050     2.4740 
  184.2500   175.6240    43.0460    13.0410   -10.9920    53.0420    11.8780    14.4670    12.3870     2.4890 
  184.3750   175.7340    43.1010    13.0610   -10.9510    52.1680    12.0420    14.6790    12.7740     2.4990 
  184.5000   175.8450    43.1560    13.0810   -10.9510    53.3310    12.0950    14.7620    13.8650     2.4930 
  184.6250   175.9560    43.2100    13.1010   -10.9230    55.0410    12.0140    14.6290    15.1960     2.4690 
  184.7500   176.0660    43.2650    13.1220   -10.8700    55.9930    11.7960    14.2950    15.3310     2.4470 
  184.8750   176.1770    43.3190    13.1420   -10.8710    57.0050    11.5330    13.9080    14.2420     2.4390 
  185.0000   176.2870    43.3740    13.1620   -10.9540    56.6160    11.2670    13.5580    13.0740     2.4430 
