~V
VERS. 2.00: Ver 2.00
~W
STRT.M 40.0000:
STOP.M 259.0000:
STEP.M 0.1250:
NULL. -999.2500:
UWI. FD11192:
~C
DEPT.M :
TVD. :
DX. :
DY. :
SP.MV :
GR.API :
RI. :
RML.OHMM :
RXO.OHMM :
DEN.GM/CC :
~A
# ...
  231.6250   219.3900    40.0500    42.8590  -210.2780    53.1160   114.3000   121.1610   102.5540     2.1820 
  231.7500   219.4980    40.0920    42.9040  -210.5190    53.7370   112.8480   120.6550   100.0290     2.1850 
  231.8750   219.6070    40.1350    42.9490  -210.6680    55.0530   110.0290   116.9330    96.9310     2.1880 
  232.0000   219.7150    40.1780    42.9950  -210.8540    57.6170   105.4080   110.8460    92.5220     2.1920 
  232.1250   219.8240    40.2200    43.0400  -210.9320    60.1710    95.3040    98.6900    90.7660     2.1920 
  232.2500   219.9320    40.2630    43.0850  -210.9320    61.0020    82.3700    83.9720    92.0730     2.1850 
  232.3750   220.0410    40.3050    43.1300  -211.0600    59.8250    69.9220    70.1570    90.2350     2.1850 
  232.5000   220.1490    40.3480    43.1750  -211.1430    59.9700    61.0230    60.9270    82.8170     2.1970 
  232.6250   220.2580    40.3900    43.2200  -211.1630    61.4460    57.8970    57.6890    65.3660     2.2050 
  232.7500   220.3670    40.4320    43.2660  -211.1460    62.4610    57.8560    57.6450    52.4880     2.2000 
  232.8750   220.4750    40.4730    43.3120  -211.1240    62.2820    63.2060    63.5290    64.7340     2.1890 
  233.0000   220.5840    40.5150    43.3570  -211.0950    60.6240    72.4870    73.4030    81.4490     2.1840 
  233.1250   220.6930    40.5570    43.4020  -211.0630    58.3680    82.0010    83.5240    81.5420     2.1870 
  233.2500   220.8010    40.5990    43.4480  -211.1490    56.6140    87.3620    88.9230    72.6320     2.1950 
  233.3750   220.9100    40.6410    43.4930  -211.3880    56.0660    84.2120    85.3170    61.6070     2.2060 
  233.5000   221.0190    40.6830    43.5380  -211.4990    54.8180    78.0300    79.0300    55.4230     2.2090 
  233.6250   221.1270    40.7260    43.5830  -211.3410    54.2600    72.0830    72.9920    56.6520     2.2020 
  233.7500   221.2360    40.7680    43.6280  -211.2240    56.4890    68.3110    69.2230    57.4770     2.1960 
  233.8750   221.3450    40.8100    43.6730  -211.3870    59.5870    66.9640    67.9960    55.6500     2.1960 
  234.0000   221.4530    40.8520    43.7180  -211.6990    61.0960    67.4880    68.7230    55.2380     2.1930 
  234.1250   221.5620    40.8950    43.7630  -211.8040    60.9250    69.1380    70.5990    61.6450     2.1900 
  234.2500   221.6710    40.9370    43.8070  -211.7330    59.4940    70.4430    72.0040    71.0070     2.1920 
  234.3750   221.7800    40.9800    43.8520  -211.7560    57.5500    69.9180    71.4590    74.0610     2.1990 
  234.5000   221.8880    41.0230    43.8970  -211.9840    57.5350    67.0010    68.1990    71.3460     2.2010 
  234.6250   221.9970    41.0650    43.9420  -212.3240    60.2850    61.8950    62.7780    64.3800     2.1990 
  234.7500   222.1050    41.1080    43.9860  -212.7130    62.0500    57.2460    57.9370    54.0130     2.1940 
  234.8750   222.2140    41.1510    44.0310  -212.9280    61.6380    53.3150    53.8860    46.9920     2.1900 
  235.0000   222.3220    41.1940    44.0760  -213.0110    61.1530    51.1640    51.8610    45.8460     2.1940 
  235.1250   222.4310    41.2360    44.1220  -213.1040    61.8090    50.5510    51.4690    46.6930     2.1990 
  235.2500   222.5390    41.2790    44.1670  -213.1470    63.0600    50.8990    52.0060    49.1060     2.1950 
  235.3750   222.6480    41.3220    44.2120  -213.0970    63.7780    51.2460    52.3920    52.9270     2.1810 
  235.5000   222.7560    41.3650    44.2570  -212.8550    64.1320    51.4000    52.5420    55.7690     2.1720 
  235.6250   222.8640    41.4070    44.3030  -212.6230    64.0670    51.4200    52.4430    55.9060     2.1770 
  235.7500   222.9730    41.4500    44.3480  -212.4650    62.6780    51.3000    52.4570    53.7740     2.1930 
  235.8750   223.0810    41.4930    44.3940  -212.5970    61.8350    51.9800    53.3780    50.8660     2.2070 
  236.0000   223.1890    41.5360    44.4390  -213.0550    61.9750    53.8860    56.0710    49.3060     2.2090 
  236.1250   223.2970    41.5790    44.4850  -213.7840    61.3870    58.7440    61.6490    50.8890     2.2000 
  236.2500   223.4050    41.6220    44.5310  -214.4790    58.7770    65.0300    68.5240    57.3990     2.1880 
  236.3750   223.5140    41.6640    44.5760  -215.0130    56.1280    69.9370    74.1770    70.9000     2.1820 
  236.5000   223.6220    41.7070    44.6220  -215.4350    54.5320    72.6960    76.4800    84.2030     2.1830 
  236.6250   223.7300    41.7500    44.6680  -215.7140    53.3760    71.6450    74.7750    87.5620     2.1860 
  236.7500   223.8380    41.7930    44.7140  -215.8150    53.1270    68.7770    71.9560    79.9040     2.1900 
  236.8750   223.9460    41.8360    44.7590  -215.7710    53.9600    65.1770    68.7150    64.4150     2.1940 
  237.0000   224.0540    41.8800    44.8050  -215.5680    55.1310    62.5070    66.5490    52.9440     2.1990 
  237.1250   224.1620    41.9220    44.8510  -215.1350    57.8940    62.0810    66.1700    54.6530     2.2090 
  237.2500   224.2700    41.9660    44.8970  -214.8960    62.3370    63.1670    67.6930    70.7580     2.2380 
  237.3750   224.3780    42.0090    44.9430  -214.7280    67.6780    65.2860    70.0320    73.6070     2.2830 
  237.5000   224.4860    42.0520    44.9890  -214.5470    71.8090    66.6100    71.1900    66.4460     2.3090 
  237.6250   224.5940    42.0950    45.0350  -214.3490    74.0670    67.7570    72.4350    61.8250     2.3040 
  237.7500   224.7020    42.1380    45.0820  -214.0960    75.5430    69.2090    73.9030    57.7440     2.2960 
  237.8750   224.8090    42.1810    45.1280  -213.7820    75.9110    70.6050    75.5700    54.0890     2.3020 
  238.0000   224.9170    42.2250    45.1740  -213.4420    75.2230    70.9890    75.9690    58.8070     2.3030 
  238.1250   225.0250    42.2680    45.2200  -213.1160    75.1410    67.9490    72.4640    68.0000     2.2860 
  238.2500   225.1330    42.3110    45.2660  -212.8620    75.3750    63.1190    67.1820    66.9920     2.2620 
  238.3750   225.2410    42.3550    45.3120  -212.6280    75.1230    56.9120    60.2730    56.4150     2.2420 
  238.5000   225.3480    42.3980    45.3580  -212.4620    73.8010    52.1820    55.2790    47.1570     2.2290 
  238.6250   225.4560    42.4420    45.4040  -212.3110    72.0380    50.0640    53.1580    40.5710     2.2200 
  238.7500   225.5640    42.4860    45.4500  -212.1940    69.1870    51.7100    55.3520    36.4550     2.2010 
  238.8750   225.6710    42.5290    45.4960  -212.0850    65.1090    58.4780    62.9270    41.4170     2.1810 
  239.0000   225.7790    42.5730    45.5420  -211.9060    61.3530    67.8710    73.0420    56.9670     2.1730 
  239.1250   225.8870    42.6160    45.5880  -211.6380    58.0510    79.4440    84.8980    76.2410     2.1740 
  239.2500   225.9950    42.6600    45.6340  -211.3260    56.7340    87.3950    91.9610    89.5230     2.1730 
  239.3750   226.1020    42.7040    45.6810  -211.1050    57.4400    90.3760    94.0240    92.4560     2.1710 
  239.5000   226.2100    42.7470    45.7270  -210.9870    57.1340    90.5060    93.5520    88.6680     2.1730 
  239.6250   226.3170    42.7910    45.7730  -210.8260    55.1960    84.3030    86.3230    81.5180     2.1770 
  239.7500   226.4250    42.8350    45.8200  -210.6580    54.1900    74.1400    75.2470    71.8550     2.1820 
  239.8750   226.5320    42.8780    45.8660  -210.4190    56.9030    60.8550    60.5220    55.8490     2.1890 
  240.0000   226.6400    42.9220    45.9130  -210.1490    60.5930    46.4430    45.1060    54.9160     2.2040 
  240.1250   226.7470    42.9650    45.9600  -209.9340    63.7020    35.7810    34.2810    51.2910     2.2260 
  240.2500   226.8550    43.0090    46.0070  -209.7050    67.1790    28.8000    27.5320    35.8400     2.2450 
  240.3750   226.9620    43.0530    46.0530  -209.4640    70.7130    25.8020    24.9140    22.4360     2.2500 
  240.5000   227.0690    43.0960    46.1000  -209.1620    72.6390    25.7690    25.1430    18.3140     2.2390 
  240.6250   227.1770    43.1400    46.1470  -209.0470    71.9480    30.1850    30.3270    21.9450     2.2210 
