~V
VERS. 2.00: Ver 2.00
~W
STRT.M 40.0000:
STOP.M 279.0000:
STEP.M 0.1250:
NULL. -999.2500:
UWI. FD11188:
~C
DEPT.M :
TVD. :
DX. :
DY. :
SP.MV :
GR.API :
RI. :
RML.OHMM :
RXO.OHMM :
DEN.GM/CC :
~A
# ...
  103.8750   103.4820     2.3440     4.3810   -19.2870    89.1050     3.6970     4.1070     5.5310     2.1970 
  104.0000   103.6030     2.3560     4.4080   -19.1480    86.8810     3.8210     4.2700     5.2400     2.1770 
  104.1250   103.7250     2.3680     4.4350   -19.0880    83.9380     4.0400     4.5440     5.2620     2.1550 
  104.2500   103.8460     2.3800     4.4620   -19.0540    81.8450     4.2250     4.7760     5.9190     2.1400 
  104.3750   103.9680     2.3910     4.4890   -18.9660    80.5250     4.2990     4.8400     6.7100     2.1480 
  104.5000   104.0890     2.4030     4.5160   -18.7670    80.0100     4.1420     4.5990     6.4540     2.1740 
  104.6250   104.2110     2.4140     4.5440   -18.4390    81.5210     3.9230     4.2920     5.6970     2.2150 
  104.7500   104.3320     2.4260     4.5720   -18.0420    84.6170     3.7730     4.0830     5.3780     2.2570 
  104.8750   104.4530     2.4370     4.5990   -17.6550    87.7700     3.7400     4.0550     5.2130     2.3110 
  105.0000   104.5750     2.4490     4.6270   -17.3470    88.0980     3.8490     4.2160     6.7290     2.3270 
  105.1250   104.6960     2.4600     4.6550   -17.1570    86.4270     4.0140     4.4330     8.7230     2.2820 
  105.2500   104.8170     2.4710     4.6830   -17.0720    84.2380     4.1620     4.5820     7.7230     2.2210 
  105.3750   104.9390     2.4830     4.7110   -17.0710    82.6360     4.0930     4.4710     5.9050     2.1950 
  105.5000   105.0600     2.4940     4.7390   -17.1170    82.4980     3.9540     4.2970     5.4090     2.1960 
  105.6250   105.1810     2.5050     4.7670   -17.1820    82.8140     3.7580     4.0800     5.4140     2.1980 
  105.7500   105.3020     2.5160     4.7950   -17.2420    82.2490     3.6190     3.9450     5.3870     2.1970 
  105.8750   105.4240     2.5280     4.8240   -17.2820    83.1620     3.5490     3.8710     5.3280     2.2040 
  106.0000   105.5450     2.5390     4.8520   -17.3070    87.6050     3.4910     3.8090     5.1950     2.2210 
  106.1250   105.6660     2.5500     4.8810   -17.3400    92.3340     3.5060     3.8300     4.7120     2.2280 
  106.2500   105.7870     2.5620     4.9090   -17.4100    93.0410     3.5490     3.9020     4.5000     2.2110 
  106.3750   105.9080     2.5730     4.9380   -17.5400    90.3300     3.6220     4.0170     5.2140     2.1940 
  106.5000   106.0290     2.5850     4.9670   -17.7300    86.0560     3.6120     4.0180     5.9730     2.2000 
  106.6250   106.1500     2.5960     4.9960   -17.9810    81.4740     3.5360     3.9260     5.6190     2.2120 
  106.7500   106.2710     2.6080     5.0250   -18.2970    79.6970     3.4850     3.8440     4.8280     2.1990 
  106.8750   106.3930     2.6190     5.0540   -18.7080    81.6510     3.5380     3.8840     4.3500     2.1650 
  107.0000   106.5140     2.6310     5.0830   -19.2340    82.4880     3.7570     4.1450     4.6110     2.1330 
  107.1250   106.6350     2.6420     5.1120   -19.8840    79.3840     4.1850     4.6670     5.9940     2.1100 
  107.2500   106.7560     2.6540     5.1410   -20.6090    74.9890     4.7830     5.3910     7.2730     2.1010 
  107.3750   106.8760     2.6650     5.1710   -21.3380    72.3130     5.4090     6.1280     7.7060     2.1080 
  107.5000   106.9970     2.6760     5.2000   -21.9970    71.6920     5.9110     6.7010     7.8580     2.1190 
  107.6250   107.1180     2.6870     5.2300   -22.5250    71.7120     6.2250     7.0580     8.0540     2.1310 
  107.7500   107.2390     2.6980     5.2590   -22.9140    72.6110     6.3490     7.2040     8.3100     2.1490 
  107.8750   107.3600     2.7100     5.2890   -23.1730    75.4980     6.3520     7.2170     8.4500     2.1640 
  108.0000   107.4810     2.7210     5.3190   -23.3570    78.8700     6.2750     7.1420     8.4640     2.1600 
  108.1250   107.6020     2.7320     5.3490   -23.5140    80.0050     6.1340     6.9820     8.5670     2.1400 
  108.2500   107.7230     2.7430     5.3790   -23.6790    78.4580     5.9840     6.8090     8.7660     2.1230 
  108.3750   107.8440     2.7540     5.4090   -23.8510    75.5320     5.9030     6.7270     8.7830     2.1150 
  108.5000   107.9640     2.7650     5.4390   -24.0030    72.7440     5.9540     6.8110     8.5530     2.1030 
  108.6250   108.0850     2.7760     5.4690   -24.1010    71.0030     6.1380     7.0740    10.7120     2.0930 
  108.7500   108.2060     2.7870     5.4990   -24.1330    70.6520     6.4230     7.4540    29.9080     2.0980 
  108.8750   108.3270     2.7980     5.5300   -24.1010    70.6940     6.6180     7.6990    48.5130     2.1180 
  109.0000   108.4480     2.8090     5.5600   -24.0260    69.4750     6.6500     7.7130    46.9670     2.1320 
  109.1250   108.5680     2.8190     5.5910   -23.9280    67.6600     6.4270     7.3890    41.3340     2.1190 
  109.2500   108.6890     2.8300     5.6210   -23.8230    66.2540     6.0280     6.8560    25.2090     2.0930 
  109.3750   108.8100     2.8410     5.6520   -23.7170    66.5110     5.5800     6.2920     9.4840     2.0810 
  109.5000   108.9300     2.8510     5.6830   -23.6060    67.7930     5.2200     5.8690     7.4230     2.0860 
  109.6250   109.0510     2.8620     5.7140   -23.4820    70.0320     5.0240     5.6490     7.3150     2.0890 
  109.7500   109.1710     2.8720     5.7460   -23.3400    71.9860     4.9790     5.6130     7.3750     2.0830 
  109.8750   109.2920     2.8830     5.7770   -23.1720    72.0470     5.0440     5.6840     7.5980     2.0820 
  110.0000   109.4130     2.8930     5.8080   -22.9740    71.1650     5.1320     5.7720     7.7370     2.0910 
  110.1250   109.5330     2.9040     5.8400   -22.7360    71.1650     5.2300     5.8600     7.7760     2.1000 
  110.2500   109.6540     2.9140     5.8710   -22.4480    72.2640     5.2920     5.8860     7.9370     2.1010 
  110.3750   109.7740     2.9250     5.9030   -22.0880    72.2700     5.2100     5.7320     8.1320     2.1010 
  110.5000   109.8940     2.9350     5.9350   -21.6570    72.5260     5.0040     5.4390     8.3430     2.1120 
  110.6250   110.0150     2.9450     5.9670   -21.1660    73.9770     4.7300     5.0810     8.0970     2.1390 
  110.7500   110.1350     2.9560     5.9990   -20.4650    77.9530     4.4750     4.7630     6.5230     2.1590 
  110.8750   110.2560     2.9660     6.0310   -20.0090    80.8290     4.3750     4.6540     6.3460     2.1510 
  111.0000   110.3760     2.9760     6.0630   -19.5960    83.6670     4.3150     4.6040     6.7950     2.1370 
  111.1250   110.4960     2.9860     6.0950   -19.2020    85.4450     4.2290     4.5220     7.0290     2.1500 
  111.2500   110.6170     2.9970     6.1280   -18.8110    85.3110     4.1080     4.3960     6.4720     2.1820 
  111.3750   110.7370     3.0070     6.1600   -18.4460    83.8980     3.9460     4.2180     5.5310     2.1980 
  111.5000   110.8570     3.0170     6.1930   -18.1710    83.8130     3.7680     4.0260     5.3250     2.1870 
  111.6250   110.9770     3.0270     6.2260   -18.0680    86.0350     3.6420     3.9130     5.5830     2.1700 
  111.7500   111.0970     3.0370     6.2590   -18.1610    88.2770     3.6200     3.9220     5.6790     2.1640 
  111.8750   111.2180     3.0470     6.2920   -18.4530    88.7990     3.7260     4.0490     5.6820     2.1690 
  112.0000   111.3380     3.0570     6.3250   -18.8870    88.2640     3.8660     4.2020     5.6890     2.1680 
  112.1250   111.4580     3.0670     6.3580   -19.4270    85.1600     4.0550     4.4010     6.2040     2.1510 
  112.2500   111.5780     3.0780     6.3910   -20.0210    80.8120     4.2820     4.6230     7.0000     2.1330 
  112.3750   111.6980     3.0880     6.4240   -20.6310    78.1980     4.6520     5.0140     7.1110     2.1300 
  112.5000   111.8180     3.0980     6.4580   -21.2120    78.6400     5.2100     5.6140     7.7190     2.1390 
  112.6250   111.9380     3.1080     6.4910   -21.7260    78.7570     6.0890     6.6060    12.4240     2.1710 
  112.7500   112.0580     3.1180     6.5250   -22.1660    76.9120     7.1130     7.7710    22.5530     2.2520 
  112.8750   112.1780     3.1280     6.5590   -22.5380    74.3700     7.9590     8.7290    30.8040     2.3470 
