~V
VERS. 2.00: Ver 2.00
~W
STRT.M 10.0000:
STOP.M 249.0000:
STEP.M 0.1250:
NULL. -999.2500:
UWI. FD11114:
~C
DEPT.M :
TVD. :
DX. :
DY. :
GR.API :
RML.OHMM :
RI. :
RXO.OHMM :
CALI.CM :
SP.MV :
DEN.GM/CC :
~A
# ...
  109.0000   108.9870     0.7500     0.2290    63.0440     8.4360     6.3660     8.3470    25.9640   -37.1130     2.1420 
  109.1250   109.1120     0.7580     0.2290    63.2570     8.6270     6.4810     8.5370    25.9350   -37.1320     2.1580 
  109.2500   109.2370     0.7660     0.2290    63.4810     9.0660     6.7650     8.7710    25.8970   -37.0710     2.1530 
  109.3750   109.3610     0.7740     0.2300    61.8940     9.7000     7.1970     8.9140    25.8870   -36.9620     2.1230 
  109.5000   109.4860     0.7810     0.2300    59.4950    10.3960     7.7030     8.9110    25.9080   -36.8500     2.0790 
  109.6250   109.6110     0.7890     0.2300    58.2500    10.9270     8.1400     8.7670    25.9310   -36.7650     2.0440 
  109.7500   109.7360     0.7970     0.2300    59.5330    10.9740     8.2790     8.6300    25.9300   -36.7150     2.0450 
  109.8750   109.8600     0.8050     0.2310    61.6500    10.5520     8.0840     8.9000    25.9200   -36.6930     2.0750 
  110.0000   109.9850     0.8130     0.2310    63.7470     9.8440     7.6420     9.2610    25.9150   -36.7010     2.1130 
  110.1250   110.1100     0.8200     0.2310    64.1930     9.1090     7.1150     9.3230    25.9160   -36.7210     2.1300 
  110.2500   110.2350     0.8280     0.2320    62.5290     8.5980     6.6810     8.7620    25.9150   -36.7290     2.1180 
  110.3750   110.3590     0.8360     0.2320    61.3000     8.3420     6.4070     8.4930    25.9140   -36.7050     2.1010 
  110.5000   110.4840     0.8440     0.2320    62.7030     8.2820     6.2850     8.4590    25.9140   -36.6500     2.0980 
  110.6250   110.6090     0.8510     0.2320    66.5000     8.3140     6.2610     8.5250    25.9140   -36.5900     2.1120 
  110.7500   110.7340     0.8590     0.2330    68.1140     8.3460     6.2760     8.4440    25.9180   -36.5630     2.1360 
  110.8750   110.8580     0.8670     0.2330    67.7740     8.3530     6.2910     8.2550    25.9340   -36.5950     2.1580 
  111.0000   110.9830     0.8750     0.2330    68.3980     8.3500     6.2990     8.0450    25.9530   -36.6750     2.1690 
  111.1250   111.1080     0.8830     0.2330    69.6750     8.3570     6.3090     8.0320    25.9630   -36.7760     2.1670 
  111.2500   111.2330     0.8900     0.2340    68.3430     8.3930     6.3300     8.1610    25.9650   -36.8510     2.1530 
  111.3750   111.3570     0.8980     0.2340    65.0630     8.4450     6.3620     8.3130    25.9950   -36.8690     2.1340 
  111.5000   111.4820     0.9060     0.2340    63.3050     8.4950     6.3950     8.4070    26.0660   -36.8180     2.1200 
  111.6250   111.6070     0.9140     0.2340    63.5120     8.5350     6.4230     8.4130    26.1250   -36.7090     2.1180 
  111.7500   111.7320     0.9220     0.2350    62.6130     8.5740     6.4470     8.3800    26.0910   -36.5830     2.1310 
  111.8750   111.8560     0.9290     0.2350    62.1020     8.6310     6.4790     8.2300    26.0070   -36.4870     2.1520 
  112.0000   111.9810     0.9370     0.2350    63.2390     8.7120     6.5240     8.0960    25.9570   -36.4390     2.1720 
  112.1250   112.1060     0.9450     0.2360    63.5190     8.8060     6.5820     8.3880    25.9810   -36.4570     2.1870 
  112.2500   112.2310     0.9530     0.2360    62.4900     8.8790     6.6310     8.7430    26.0710   -36.5100     2.1950 
  112.3750   112.3550     0.9610     0.2360    61.5310     8.8980     6.6530     8.9920    26.2020   -36.5440     2.1980 
  112.5000   112.4800     0.9680     0.2360    61.0620     8.8490     6.6350     8.9810    26.3400   -36.5310     2.1980 
  112.6250   112.6050     0.9760     0.2370    62.4950     8.7420     6.5810     8.7110    26.4330   -36.4600     2.1970 
  112.7500   112.7300     0.9840     0.2370    65.9140     8.6130     6.5070     8.2160    26.4750   -36.3250     2.2000 
  112.8750   112.8540     0.9920     0.2370    66.9120     8.5070     6.4410     8.0170    26.5710   -36.1720     2.2060 
  113.0000   112.9790     0.9990     0.2370    62.9450     8.4410     6.3950     7.9960    26.7940   -36.0370     2.2120 
  113.1250   113.1040     1.0070     0.2380    58.3710     8.4120     6.3730     7.9360    27.1140   -35.9410     2.2120 
  113.2500   113.2290     1.0150     0.2380    58.3370     8.4070     6.3700     8.0300    27.4230   -35.9100     2.1980 
  113.3750   113.3530     1.0230     0.2380    59.6110     8.4060     6.3720     8.2020    27.6660   -35.9220     2.1740 
  113.5000   113.4780     1.0310     0.2380    61.0380     8.4030     6.3720     8.2270    27.8310   -35.9430     2.1460 
  113.6250   113.6030     1.0380     0.2390    62.7090     8.3930     6.3650     8.1590    27.9140   -35.9420     2.1240 
  113.7500   113.7280     1.0460     0.2390    62.5480     8.3750     6.3480     8.1240    27.9480   -35.8800     2.1190 
  113.8750   113.8520     1.0540     0.2390    60.6710     8.3520     6.3260     8.1290    28.0040   -35.7670     2.1320 
  114.0000   113.9770     1.0620     0.2400    60.8660     8.3340     6.3050     8.1380    28.1000   -35.6330     2.1550 
  114.1250   114.1020     1.0700     0.2400    63.4820     8.3430     6.2980     8.1300    28.2320   -35.5070     2.1780 
  114.2500   114.2270     1.0770     0.2400    64.1210     8.4130     6.3250     8.0850    28.4180   -35.4300     2.1810 
  114.3750   114.3510     1.0850     0.2400    62.2980     8.5410     6.3900     8.0260    28.6050   -35.4110     2.1590 
  114.5000   114.4760     1.0930     0.2410    60.6490     8.7070     6.4880     7.9650    28.6930   -35.4620     2.1180 
  114.6250   114.6010     1.1010     0.2410    61.0150     8.8700     6.5990     7.9010    28.6020   -35.5740     2.0710 
  114.7500   114.7260     1.1080     0.2410    62.3360     8.9720     6.6950     8.1540    28.2910   -35.7290     2.0380 
  114.8750   114.8500     1.1160     0.2410    62.6960     8.9990     6.7600     8.2040    27.8280   -35.8790     2.0320 
  115.0000   114.9750     1.1240     0.2420    61.8210     8.9650     6.7950     8.2650    27.3290   -35.9970     2.0560 
  115.1250   115.1000     1.1320     0.2420    60.4450     8.8990     6.8090     8.3110    26.9580   -36.0620     2.1000 
  115.2500   115.2250     1.1400     0.2420    60.8390     8.8400     6.8200     8.4140    26.8220   -36.0400     2.1450 
  115.3750   115.3490     1.1500     0.2420    64.3120     8.8140     6.8400     8.5200    26.9050   -35.9200     2.1770 
  115.5000   115.4740     1.1620     0.2420    69.1690     8.8390     6.8690     8.6040    27.1910   -35.6990     2.1880 
  115.6250   115.5980     1.1730     0.2420    72.5320     8.9240     6.8920     8.6350    27.4950   -35.3870     2.1730 
  115.7500   115.7230     1.1850     0.2410    71.3050     9.0380     6.8820     8.6470    27.5700   -34.9880     2.1260 
  115.8750   115.8470     1.1970     0.2410    69.2070     9.0810     6.8230     8.5030    27.5920   -34.5240     2.0600 
  116.0000   115.9710     1.2080     0.2410    69.2640     8.9520     6.7000     7.9440    27.7770   -33.9880     1.9910 
  116.1250   116.0960     1.2200     0.2410    69.7330     8.5900     6.4910     6.9140    27.9620   -33.3940     1.9370 
  116.2500   116.2200     1.2320     0.2400    69.6610     7.9830     6.1580     5.7330    27.7070   -32.7730     1.9270 
  116.3750   116.3450     1.2440     0.2400    71.1850     7.2550     5.7110     5.4310    27.1370   -32.1810     1.9720 
  116.5000   116.4690     1.2550     0.2400    75.7760     6.4910     5.1810     5.4470    26.6410   -31.6750     2.0720 
  116.6250   116.5940     1.2670     0.2400    82.3600     5.7810     4.6390     4.8600    26.5170   -31.3150     2.2010 
  116.7500   116.7180     1.2790     0.2390    86.1150     5.2720     4.2080     3.9940    26.7820   -31.2160     2.3100 
  116.8750   116.8430     1.2910     0.2390    87.0880     5.0480     3.9640     3.6150    27.0320   -31.3940     2.3600 
  117.0000   116.9670     1.3020     0.2390    85.1070     5.1630     3.9550     3.6330    26.9170   -31.8540     2.3450 
  117.1250   117.0910     1.3140     0.2390    80.6110     5.6110     4.1890     4.1420    26.3920   -32.5530     2.2870 
