~V
VERS. 2.00: Ver 2.00
~W
STRT.M 20.0000:
STOP.M 286.0000:
STEP.M 0.1250:
NULL. -999.2500:
UWI. FD11156:
~C
DEPT.M :
TVD. :
DX. :
DY. :
DEN.GM/CC :
GR.API :
RML.OHMM :
RI. :
RXO.OHMM :
CALI.CM :
SP.MV :
~A
# ...
  119.0000   118.9090     0.3800    -1.9990     2.1710    58.9450     8.5860     7.1550    12.6260    24.4400   -30.2090 
  119.1250   119.0330     0.3840    -2.0150     2.1760    56.4440     8.6010     7.1680    12.2640    24.9560   -29.8330 
  119.2500   119.1570     0.3870    -2.0310     2.1780    54.6250     8.6100     7.1750    12.1760    24.7610   -29.3750 
  119.3750   119.2810     0.3910    -2.0470     2.1800    54.8460     8.6140     7.1780    12.3530    23.8930   -28.7980 
  119.5000   119.4050     0.3950    -2.0630     2.1900    55.1990     8.6380     7.1980    12.5840    23.1570   -28.1270 
  119.6250   119.5290     0.3980    -2.0790     2.2100    55.7430     8.7280     7.2730    12.5900    23.1700   -27.3710 
  119.7500   119.6530     0.4020    -2.0950     2.2350    58.9490     8.9050     7.4210    12.4430    23.0410   -26.5460 
  119.8750   119.7770     0.4060    -2.1110     2.2580    63.1860     9.1730     7.6440    12.3510    22.9070   -25.6190 
  120.0000   119.9000     0.4090    -2.1270     2.2710    64.5700     9.5060     7.9210    12.5180    22.8590   -24.6710 
  120.1250   120.0240     0.4130    -2.1430     2.2750    61.7330     9.8500     8.2090    12.9190    22.8470   -23.6870 
  120.2500   120.1480     0.4170    -2.1590     2.2780    59.3550    10.1150     8.4290    13.1880    22.8150   -22.5620 
  120.3750   120.2720     0.4200    -2.1750     2.2880    60.0200    10.1890     8.4910    12.9030    22.7570   -21.3500 
  120.5000   120.3960     0.4240    -2.1910     2.3060    62.8380     9.9680     8.3070    12.0580    22.7800   -20.0990 
  120.6250   120.5200     0.4270    -2.2070     2.3290    66.3740     9.3490     7.7910    10.7880    22.7850   -18.7930 
  120.7500   120.6440     0.4310    -2.2230     2.3480    69.7850     8.4790     7.0660     9.1160    22.7920   -17.5020 
  120.8750   120.7680     0.4350    -2.2390     2.3590    71.9920     7.5360     6.2800     7.3960    22.8170   -16.3160 
  121.0000   120.8920     0.4380    -2.2550     2.3610    72.4410     6.7130     5.5940     6.2170    22.9370   -15.2340 
  121.1250   121.0160     0.4420    -2.2710     2.3530    71.9980     6.2040     5.1700     5.6520    23.0020   -14.3440 
  121.2500   121.1400     0.4460    -2.2870     2.3370    72.6430     5.9980     4.9990     5.5170    23.0130   -13.7500 
  121.3750   121.2640     0.4490    -2.3030     2.3130    73.1470     6.0690     5.0570     6.0180    22.9960   -13.4450 
  121.5000   121.3870     0.4530    -2.3190     2.2860    70.0800     6.3890     5.3240     6.9850    22.8970   -13.3530 
  121.6250   121.5110     0.4570    -2.3350     2.2640    65.0870     7.0220     5.8520     8.3090    22.6110   -13.4060 
  121.7500   121.6350     0.4600    -2.3510     2.2630    62.3470     7.9880     6.6560     9.3220    22.3450   -13.4620 
  121.8750   121.7590     0.4640    -2.3670     2.2940    61.5610     9.3190     7.7660    10.0630    22.1900   -13.4090 
  122.0000   121.8830     0.4680    -2.3830     2.3600    60.4400    12.0360     9.1180    11.3380    22.1270   -13.1630 
  122.1250   122.0070     0.4710    -2.3990     2.4430    57.6370    14.6840    10.4630    14.6640    22.0380   -12.6970 
  122.2500   122.1310     0.4750    -2.4150     2.5050    53.5350    15.8800    11.4870    18.9210    22.1550   -12.0790 
  122.3750   122.2550     0.4790    -2.4310     2.5240    49.0960    16.5190    12.1050    20.2310    22.6450   -11.3190 
  122.5000   122.3790     0.4820    -2.4470     2.5030    48.0100    17.0870    12.5360    17.0680    23.2540   -10.5010 
  122.6250   122.5030     0.4860    -2.4630     2.4750    52.0370    18.4200    13.2800    14.0780    23.2650    -9.7160 
  122.7500   122.6270     0.4900    -2.4790     2.4790    54.7860    20.8480    14.6510    18.3370    22.8450    -8.9840 
  122.8750   122.7510     0.4930    -2.4950     2.5240    51.9180    24.2080    16.7250    28.7740    22.3680    -8.3610 
  123.0000   122.8740     0.4970    -2.5110     2.5910    46.0360    27.7070    19.2270    36.5330    22.1950    -7.9430 
  123.1250   122.9980     0.5010    -2.5260     2.6390    43.6410    29.7300    21.2910    29.8170    22.2340    -7.7100 
  123.2500   123.1220     0.5040    -2.5420     2.6420    44.0820    29.6680    22.1940    23.3820    22.4930    -7.5480 
  123.3750   123.2460     0.5080    -2.5580     2.6050    43.4880    28.1460    21.9500    21.1260    23.1870    -7.4690 
  123.5000   123.3700     0.5120    -2.5740     2.5490    41.2000    26.4740    21.1920    21.4040    23.6820    -7.4230 
  123.6250   123.4940     0.5150    -2.5900     2.5070    40.5180    25.7880    20.6880    20.8490    23.6160    -7.3680 
  123.7500   123.6180     0.5190    -2.6060     2.4980    41.2930    26.0160    20.7370    19.1560    23.1940    -7.3490 
  123.8750   123.7420     0.5230    -2.6220     2.5240    41.6610    26.7490    21.3540    19.1010    22.6350    -7.3720 
  124.0000   123.8660     0.5260    -2.6380     2.5740    42.1150    27.5470    22.3430    21.2900    22.2400    -7.3910 
  124.1250   123.9900     0.5300    -2.6540     2.6180    43.0320    28.0660    23.2790    24.2190    22.2500    -7.4020 
  124.2500   124.1140     0.5340    -2.6700     2.6310    42.5420    28.2750    23.7550    23.8850    22.4490    -7.4220 
  124.3750   124.2380     0.5370    -2.6860     2.6110    41.1640    28.2120    23.6390    22.1220    22.8730    -7.4460 
  124.5000   124.3620     0.5410    -2.7020     2.5730    40.3880    27.9470    23.0480    20.6560    23.3020    -7.4760 
  124.6250   124.4850     0.5450    -2.7190     2.5400    41.7180    27.5240    22.2450    19.3440    23.2650    -7.5020 
  124.7500   124.6090     0.5490    -2.7360     2.5260    44.2850    26.9760    21.5060    17.9760    22.8250    -7.5000 
  124.8750   124.7330     0.5530    -2.7540     2.5280    45.6490    26.3690    20.9350    18.0060    22.6640    -7.4890 
  125.0000   124.8560     0.5570    -2.7720     2.5390    44.3080    25.8730    20.5760    18.8790    22.7570    -7.4510 
  125.1250   124.9800     0.5610    -2.7890     2.5430    43.0980    25.7690    20.4960    18.6630    22.8090    -7.4000 
  125.2500   125.1040     0.5650    -2.8070     2.5330    45.2500    26.0540    20.6350    17.6750    22.9670    -7.3470 
  125.3750   125.2270     0.5690    -2.8240     2.5110    48.2280    26.5370    20.9060    18.1350    23.3140    -7.2520 
  125.5000   125.3510     0.5740    -2.8420     2.4850    47.8120    26.9070    21.1800    19.0920    23.5760    -7.1260 
  125.6250   125.4750     0.5780    -2.8590     2.4750    44.4760    26.8090    21.3200    20.0570    23.5330    -7.0270 
  125.7500   125.5990     0.5820    -2.8770     2.4890    42.4730    26.3330    21.2890    19.2680    23.2470    -6.9460 
  125.8750   125.7220     0.5860    -2.8950     2.5270    43.0400    25.7390    21.1110    18.2060    22.8170    -6.8420 
  126.0000   125.8460     0.5900    -2.9120     2.5770    45.8810    25.2130    20.8450    17.4130    22.5160    -6.7650 
  126.1250   125.9700     0.5940    -2.9300     2.6150    47.9240    24.7330    20.5590    17.8860    22.4880    -6.6980 
  126.2500   126.0930     0.5980    -2.9470     2.6270    47.2270    24.2290    20.3160    18.4280    22.5840    -6.6060 
  126.3750   126.2170     0.6020    -2.9650     2.6150    44.4360    23.8000    20.1440    18.7790    22.8000    -6.5470 
  126.5000   126.3410     0.6070    -2.9820     2.5950    41.7510    23.6530    20.0610    18.5770    23.1480    -6.5080 
  126.6250   126.4640     0.6110    -3.0000     2.5840    40.9780    23.9510    20.0940    18.3240    23.2870    -6.4500 
  126.7500   126.5880     0.6150    -3.0180     2.5890    40.3670    24.4410    20.1790    18.8590    23.0800    -6.3670 
  126.8750   126.7120     0.6190    -3.0350     2.6070    39.4910    24.7790    20.2360    19.8680    22.7190    -6.3120 
  127.0000   126.8350     0.6230    -3.0530     2.6280    39.1730    24.7100    20.1810    20.5390    22.3840    -6.2570 
  127.1250   126.9590     0.6270    -3.0700     2.6350    40.4490    24.2020    19.9530    20.1750    22.3380    -6.1900 
