~V
VERS. 2.00: Ver 2.00
~W
STRT.M 10.0000:
STOP.M 249.0000:
STEP.M 0.1250:
NULL. -999.2500:
UWI. FD11114:
~C
DEPT.M :
TVD. :
DX. :
DY. :
GR.API :
RML.OHMM :
RI. :
RXO.OHMM :
CALI.CM :
SP.MV :
DEN.GM/CC :
~A
# ...
   34.7500    34.7500     0.0060     0.0220    81.9890    11.7000     5.6610     5.6820    26.2610   -32.2260     2.1940 
   34.8750    34.8750     0.0060     0.0220    79.8030    13.3200     6.5470     6.7630    26.2570   -32.5950     2.1470 
   35.0000    35.0000     0.0060     0.0230    78.1050    14.4980     7.3830     7.1160    26.2520   -32.9140     2.1040 
   35.1250    35.1250     0.0060     0.0230    75.8710    15.0380     8.0300     7.4980    26.2510   -33.1300     2.0640 
   35.2500    35.2500     0.0060     0.0230    73.0580    15.0760     8.4450     7.4950    26.2480   -33.1450     2.0350 
   35.3750    35.3750     0.0060     0.0240    70.8230    15.0940     8.7670     7.3080    26.2160   -32.9750     2.0360 
   35.5000    35.5000     0.0060     0.0240    68.8600    15.2990     9.0740     7.5230    26.1360   -32.6230     2.0950 
   35.6250    35.6250     0.0060     0.0240    67.6720    15.6230     9.3540     9.5020    26.0200   -32.1190     2.2090 
   35.7500    35.7500     0.0060     0.0250    68.5300    15.6930     9.4460    11.9900    25.9160   -31.4930     2.3200 
   35.8750    35.8750     0.0070     0.0250    71.3570    15.2470     9.2350    11.2330    25.8580   -30.7860     2.3590 
   36.0000    36.0000     0.0070     0.0250    75.5510    14.2760     8.7000     8.1380    25.8440   -30.0300     2.3270 
   36.1250    36.1250     0.0070     0.0260    79.5190    12.9760     7.9270     5.8550    25.8660   -29.2690     2.2670 
   36.2500    36.2500     0.0070     0.0260    79.8790    11.5960     7.0480     5.1900    25.9700   -28.5650     2.2310 
   36.3750    36.3750     0.0070     0.0260    78.6020    10.2810     6.1880     4.5820    26.1520   -27.9370     2.2280 
   36.5000    36.5000     0.0070     0.0270    82.7200     9.0240     5.3800     3.9720    26.3810   -27.3850     2.2440 
   36.6250    36.6250     0.0070     0.0270    95.1910     7.8120     4.6320     3.3130    26.6110   -26.9210     2.2590 
   36.7500    36.7500     0.0070     0.0270   105.0970     6.7700     3.9930     2.9530    26.7600   -26.5850     2.2600 
   36.8750    36.8750     0.0070     0.0280   105.9580     6.0570     3.5210     2.6330    26.7670   -26.4070     2.2480 
   37.0000    37.0000     0.0070     0.0280   101.6550     5.8160     3.2860     2.4190    26.6420   -26.4130     2.2300 
   37.1250    37.1250     0.0080     0.0280    96.0310     6.1360     3.3440     2.5050    26.4490   -26.6050     2.2150 
   37.2500    37.2500     0.0080     0.0290    91.2910     7.1340     3.7810     3.1880    26.2720   -26.9650     2.2060 
   37.3750    37.3750     0.0080     0.0290    89.2990     8.6030     4.5210     4.7640    26.1600   -27.4020     2.1970 
   37.5000    37.5000     0.0080     0.0290    87.7250    10.3410     5.4930     6.4810    26.1230   -27.8370     2.1780 
   37.6250    37.6250     0.0080     0.0300    83.1780    12.0740     6.5810     7.0960    26.1290   -28.1800     2.1470 
   37.7500    37.7500     0.0080     0.0300    77.7520    13.3850     7.5750     7.5970    26.1300   -28.3150     2.1160 
   37.8750    37.8750     0.0080     0.0300    76.7410    14.0200     8.2510     7.5240    26.1270   -28.2450     2.1170 
   38.0000    38.0000     0.0080     0.0310    76.6370    13.8810     8.4640     7.4920    26.1250   -27.9860     2.1680 
   38.1250    38.1250     0.0080     0.0310    74.1600    13.0880     8.2090     8.8520    26.1270   -27.6010     2.2610 
   38.2500    38.2500     0.0080     0.0310    74.5760    11.9040     7.5870     9.7720    26.1480   -27.1640     2.3400 
   38.3750    38.3750     0.0090     0.0320    78.9750    10.7560     6.8730     7.2410    26.1820   -26.7500     2.3580 
   38.5000    38.5000     0.0090     0.0320    83.8810     9.8880     6.2360     4.6630    26.2080   -26.3780     2.3190 
   38.6250    38.6250     0.0090     0.0320    85.8300     9.3490     5.7530     4.4050    26.2260   -26.0510     2.2610 
   38.7500    38.7500     0.0090     0.0330    85.0410     9.0240     5.4180     5.1780    26.2850   -25.7690     2.2270 
   38.8750    38.8750     0.0090     0.0330    81.6530     8.7180     5.1440     4.5180    26.3910   -25.5160     2.2220 
   39.0000    39.0000     0.0090     0.0330    79.3630     8.3840     4.9020     3.5730    26.4890   -25.2820     2.2370 
   39.1250    39.1250     0.0090     0.0340    83.7710     8.0700     4.6930     3.1440    26.5360   -25.0700     2.2530 
   39.2500    39.2500     0.0090     0.0340    91.3520     7.9200     4.5630     3.0780    26.5370   -24.8830     2.2620 
   39.3750    39.3750     0.0090     0.0340    93.3600     7.9660     4.5300     3.1060    26.4910   -24.7250     2.2640 
   39.5000    39.5000     0.0090     0.0350    89.8460     8.1100     4.5690     3.2900    26.3740   -24.5870     2.2610 
   39.6250    39.6250     0.0100     0.0350    86.2240     8.1440     4.6000     3.6160    26.2250   -24.4580     2.2550 
   39.7500    39.7500     0.0100     0.0350    86.2830     7.9010     4.5370     4.0280    26.1430   -24.3120     2.2460 
   39.8750    39.8750     0.0100     0.0360    88.8260     7.6010     4.4450     4.1820    26.1310   -24.1390     2.2360 
   40.0000    40.0000     0.0100     0.0360    92.4450     7.6590     4.4930     4.0610    26.1380   -23.9450     2.2320 
   40.1250    40.1250     0.0100     0.0360    93.0360     8.6170     4.9240     3.6890    26.1370   -23.7430     2.2510 
   40.2500    40.2500     0.0100     0.0370    88.4360    11.3370     6.1800     4.6280    26.1340   -23.5640     2.3110 
   40.3750    40.3750     0.0100     0.0370    82.4920    15.8500     8.3900     8.5090    26.1320   -23.4390     2.4070 
   40.5000    40.5000     0.0100     0.0370    77.1610    21.6060    11.4240    18.2550    26.1320   -23.4020     2.5240 
   40.6250    40.6250     0.0100     0.0380    72.2360    26.5940    14.3790    29.2660    26.1320   -23.4800     2.6300 
   40.7500    40.7500     0.0100     0.0380    68.7460    26.6610    15.0400    33.5860    26.1320   -23.7110     2.6680 
   40.8750    40.8750     0.0110     0.0380    67.7350    22.0080    13.1090    26.3650    26.1460   -24.0630     2.6300 
   41.0000    41.0000     0.0110     0.0390    71.2370    15.9080    10.0510    13.4410    26.1850   -24.5140     2.5410 
   41.1250    41.1250     0.0110     0.0390    79.2950    11.2030     7.3590     6.1190    26.2270   -25.0310     2.4370 
   41.2500    41.2500     0.0110     0.0390    89.3520     8.8420     5.7050     4.2270    26.2070   -25.5910     2.3530 
   41.3750    41.3750     0.0110     0.0400    95.6090     7.8900     4.8070     4.0070    26.1140   -26.1780     2.3020 
   41.5000    41.5000     0.0110     0.0400    97.0050     7.7800     4.4520     4.1120    25.9870   -26.8100     2.2790 
   41.6250    41.6250     0.0110     0.0400    95.9670     8.0950     4.4590     4.3500    25.8830   -27.4990     2.2680 
   41.7500    41.7500     0.0110     0.0410    94.6100     8.5410     4.7030     4.7780    25.8360   -28.2630     2.2560 
   41.8750    41.8750     0.0110     0.0410    92.9060     8.9920     5.0510     5.1540    25.8250   -29.0900     2.2410 
   42.0000    42.0000     0.0120     0.0410    90.4040     9.5460     5.5000     5.3410    25.8270   -29.9630     2.2300 
   42.1250    42.1250     0.0120     0.0420    87.0310    10.3640     6.0910     5.5530    25.8340   -30.8480     2.2280 
   42.2500    42.2500     0.0120     0.0420    83.1950    11.5560     6.8750     6.2170    25.8440   -31.6870     2.2370 
   42.3750    42.3750     0.0120     0.0420    81.5590    12.8750     7.7400     7.2570    25.8540   -32.4190     2.2420 
   42.5000    42.5000     0.0120     0.0430    82.2070    13.9260     8.4700     8.3450    25.8610   -32.9780     2.2340 
   42.6250    42.6250     0.0120     0.0430    81.3980    14.2540     8.7860     9.0800    25.8740   -33.3360     2.2130 
   42.7500    42.7500     0.0120     0.0430    79.0760    13.4810     8.4070     8.7310    25.9300   -33.4480     2.1940 
   42.8750    42.8750     0.0120     0.0440    78.5020    12.0560     7.5560     7.3200    26.0210   -33.3800     2.1930 
