~V
VERS. 2.00: Ver 2.00
~W
STRT.M 25.0000:
STOP.M 287.0000:
STEP.M 0.1250:
NULL. -999.2500:
UWI. FD11174:
~C
DEPT.M :
TVD. :
DX. :
DY. :
SP.MV :
GR.API :
RI. :
RML.OHMM :
RXO.OHMM :
DEN.GM/CC :
~A
# ...
  216.6250   205.8030   -20.3000   -50.8670   -12.4620    77.1190    14.2380    14.8900    16.5900     2.4860 
  216.7500   205.9140   -20.3200   -50.9200   -12.6440    80.1430    12.9730    13.5500    19.3840     2.5210 
  216.8750   206.0260   -20.3410   -50.9730   -12.8050    83.6540    11.2720    11.7420    17.9940     2.5200 
  217.0000   206.1370   -20.3610   -51.0260   -12.7620    85.6360     9.3260     9.7090    14.4670     2.4910 
  217.1250   206.2480   -20.3820   -51.0800   -12.6180    87.0130     7.4650     7.8210    11.3900     2.4530 
  217.2500   206.3590   -20.4020   -51.1330   -12.5050    90.4650     5.8550     6.1820     9.6040     2.4350 
  217.3750   206.4710   -20.4230   -51.1860   -12.4010    93.8990     4.4650     4.7580     8.4200     2.4510 
  217.5000   206.5820   -20.4430   -51.2390   -12.2300    92.1920     3.5380     3.8140     6.8420     2.4790 
  217.6250   206.6930   -20.4640   -51.2930   -11.9660    86.0600     3.0470     3.3210     4.9240     2.4910 
  217.7500   206.8040   -20.4840   -51.3460   -11.5210    80.5350     2.7940     3.0870     3.5590     2.4850 
  217.8750   206.9150   -20.5050   -51.3990   -11.0670    80.4940     2.7610     3.0980     3.1770     2.4690 
  218.0000   207.0270   -20.5250   -51.4520   -10.8230    86.1590     2.8540     3.2280     3.2340     2.4460 
  218.1250   207.1380   -20.5460   -51.5060   -10.6690    94.1090     3.0380     3.4410     3.3200     2.4170 
  218.2500   207.2490   -20.5660   -51.5590   -10.3680   100.8500     3.2390     3.6520     3.3580     2.3920 
  218.3750   207.3600   -20.5860   -51.6130   -10.0380   106.8040     3.4760     3.9130     3.3460     2.3700 
  218.5000   207.4710   -20.6070   -51.6660    -9.6460   112.9820     3.7530     4.2440     3.3600     2.3460 
  218.6250   207.5820   -20.6270   -51.7190    -9.2720   116.7170     4.0650     4.6480     3.4880     2.3210 
  218.7500   207.6940   -20.6470   -51.7730    -9.0830   115.8420     4.3860     5.0760     3.7180     2.2920 
  218.8750   207.8050   -20.6680   -51.8260    -9.0340   111.7860     4.6380     5.4430     3.9670     2.2590 
  219.0000   207.9160   -20.6880   -51.8800    -9.0600   108.3400     4.7830     5.6650     4.1010     2.2310 
  219.1250   208.0270   -20.7090   -51.9330    -9.1050   107.7150     4.7480     5.6220     4.0470     2.2160 
  219.2500   208.1380   -20.7290   -51.9860    -8.9780   109.5560     4.6190     5.4400     3.9390     2.2080 
  219.3750   208.2490   -20.7500   -52.0400    -8.8990   110.1820     4.4210     5.1510     3.9610     2.2050 
  219.5000   208.3610   -20.7700   -52.0930    -8.9820   108.2280     4.2560     4.9560     4.1010     2.2060 
  219.6250   208.4720   -20.7900   -52.1470    -9.0870   105.0360     4.2090     4.9690     4.1430     2.2050 
  219.7500   208.5830   -20.8110   -52.2000    -9.2050   103.3640     4.3170     5.2230     3.9820     2.1960 
  219.8750   208.6940   -20.8310   -52.2540    -9.3380   102.2540     4.5620     5.6600     3.8220     2.1830 
  220.0000   208.8050   -20.8510   -52.3070    -9.4330    99.8710     4.8410     6.1220     4.0330     2.1670 
  220.1250   208.9160   -20.8720   -52.3600    -9.5560    95.4530     5.0270     6.4180     4.6830     2.1490 
  220.2500   209.0270   -20.8920   -52.4140    -9.8160    88.7960     5.0540     6.4540     5.0500     2.1400 
  220.3750   209.1390   -20.9130   -52.4670   -10.0820    82.0220     4.9300     6.2500     4.8030     2.1410 
  220.5000   209.2500   -20.9340   -52.5210   -10.3010    78.1190     4.7200     5.9000     4.8410     2.1320 
  220.6250   209.3610   -20.9540   -52.5740   -10.4090    76.5860     4.5590     5.5970     5.2550     2.0940 
  220.7500   209.4720   -20.9750   -52.6270   -10.3280    75.6420     4.5720     5.5210     5.0120     2.0470 
  220.8750   209.5830   -20.9960   -52.6800   -10.1480    75.2970     4.8800     5.8230     4.2440     2.0430 
  221.0000   209.6940   -21.0170   -52.7340   -10.0400    76.3990     5.4230     6.4530     4.7850     2.1050 
  221.1250   209.8060   -21.0380   -52.7870   -10.0450    79.1430     6.3450     7.5670     9.5630     2.2110 
  221.2500   209.9170   -21.0590   -52.8400   -10.1240    80.6020     7.6540     9.1890    19.3280     2.3070 
  221.3750   210.0280   -21.0800   -52.8930   -10.2140    79.1750     9.3040    11.2970    28.3640     2.3710 
  221.5000   210.1390   -21.1010   -52.9460   -10.2330    77.2220    10.8910    13.3550    28.4440     2.4190 
  221.6250   210.2500   -21.1220   -52.9990   -10.2480    77.8460    11.3440    13.9010    21.3930     2.4710 
  221.7500   210.3620   -21.1430   -53.0520   -10.2330    79.1510    10.6670    12.9830    17.8390     2.5200 
  221.8750   210.4730   -21.1650   -53.1050   -10.0650    76.0230     8.9950    10.7760    21.6120     2.5310 
  222.0000   210.5840   -21.1860   -53.1580    -9.7720    73.5790     7.0550     8.2990    24.7770     2.4830 
  222.1250   210.6950   -21.2060   -53.2110    -9.4500    79.0700     5.6400     6.6340    19.2100     2.4050 
  222.2500   210.8060   -21.2270   -53.2640    -9.2220    88.3740     4.7230     5.6390    10.2380     2.3530 
  222.3750   210.9180   -21.2480   -53.3170    -9.1440    93.6100     4.3640     5.3560     6.0460     2.3600 
  222.5000   211.0290   -21.2690   -53.3700    -9.1210    93.4540     4.4830     5.6290     5.4020     2.4080 
  222.6250   211.1400   -21.2890   -53.4230    -9.1360    91.6470     4.9570     6.2410     5.5760     2.4750 
  222.7500   211.2520   -21.3100   -53.4760    -9.1720    90.0250     5.4610     6.8620     6.3980     2.5440 
  222.8750   211.3630   -21.3310   -53.5290    -9.2090    87.2700     5.8830     7.3520     8.2230     2.5890 
  223.0000   211.4740   -21.3520   -53.5820    -9.3270    85.2350     6.0110     7.4710    10.4110     2.5760 
  223.1250   211.5850   -21.3730   -53.6350    -9.5000    84.5550     5.7860     7.1400    11.0720     2.4890 
  223.2500   211.6970   -21.3950   -53.6880    -9.6460    84.3310     5.3870     6.5790     9.6870     2.3640 
  223.3750   211.8080   -21.4160   -53.7410    -9.8160    84.6440     4.8920     5.9380     7.6790     2.2570 
  223.5000   211.9190   -21.4370   -53.7930   -10.0730    86.5850     4.4710     5.4370     6.4040     2.2060 
  223.6250   212.0310   -21.4590   -53.8460   -10.3260    91.3210     4.0460     4.9750     5.9560     2.2140 
  223.7500   212.1420   -21.4810   -53.8990   -10.4460    95.3930     3.6020     4.4830     5.6490     2.2480 
  223.8750   212.2530   -21.5030   -53.9510   -10.4480    96.3190     3.1250     3.9270     5.1190     2.2670 
  224.0000   212.3640   -21.5240   -54.0040   -10.4740    95.9830     2.6450     3.3340     4.3800     2.2640 
  224.1250   212.4760   -21.5460   -54.0570   -10.5530    93.9310     2.2450     2.8310     3.5410     2.2580 
  224.2500   212.5870   -21.5670   -54.1100   -10.6060    88.2300     1.9600     2.4830     2.9090     2.2600 
  224.3750   212.6980   -21.5890   -54.1620   -10.5520    75.7210     1.8050     2.3100     2.6370     2.2630 
  224.5000   212.8090   -21.6100   -54.2150   -10.4460    62.2990     1.7640     2.2820     2.5410     2.2610 
  224.6250   212.9200   -21.6320   -54.2680   -10.4480    55.8950     1.7910     2.3270     2.5200     2.2600 
  224.7500   213.0320   -21.6540   -54.3210   -10.5650    57.1070     1.8430     2.3820     2.5090     2.2660 
  224.8750   213.1430   -21.6760   -54.3740   -10.7190    62.5340     1.8970     2.4270     2.4880     2.2790 
  225.0000   213.2540   -21.6970   -54.4260   -10.8500    69.0830     1.9480     2.4610     2.5180     2.2940 
  225.1250   213.3650   -21.7190   -54.4790   -10.8770    75.9700     1.9820     2.4730     2.6150     2.3060 
  225.2500   213.4760   -21.7410   -54.5320   -10.8700    81.8950     1.9970     2.4550     2.7260     2.3110 
  225.3750   213.5870   -21.7630   -54.5850   -10.8430    86.3270     1.9890     2.4220     2.8040     2.3100 
  225.5000   213.6990   -21.7850   -54.6380   -10.8970    91.1810     1.9920     2.4090     2.8100     2.3100 
  225.6250   213.8100   -21.8070   -54.6910   -11.0110    94.8100     2.0110     2.4360     2.7590     2.3130 
