~V
VERS. 2.00: Ver 2.00
~W
STRT.M 11.0000:
STOP.M 273.0000:
STEP.M 0.1250:
NULL. -999.2500:
UWI. FD11023:
~C
DEPT.M :
TVD. :
DX. :
DY. :
GR.API :
RML.OHMM :
RI. :
RXO.OHMM :
CALI.CM :
DEN.GM/CC :
SP.MV :
~A
# ...
  200.7500   198.2080   -21.3720     7.1400    55.7910    18.3020    17.4710    11.4760    23.3390     2.5170   -22.3700 
  200.8750   198.3270   -21.4080     7.1530    55.5710    17.0230    16.3510    10.8850    23.3530     2.5190   -22.3950 
  201.0000   198.4460   -21.4440     7.1660    54.3680    15.2200    14.7280    10.1370    23.3530     2.5300   -22.4630 
  201.1250   198.5650   -21.4800     7.1790    51.9120    12.9570    12.6350     9.2560    23.3530     2.5350   -22.5140 
  201.2500   198.6840   -21.5170     7.1920    50.2400    10.6600    10.4660     8.2630    23.3530     2.5280   -22.5290 
  201.3750   198.8030   -21.5530     7.2050    50.7370     8.6810     8.5510     7.0300    23.3530     2.5160   -22.5470 
  201.5000   198.9220   -21.5890     7.2180    51.8030     7.2490     7.1060     5.7690    23.3530     2.5050   -22.5990 
  201.6250   199.0400   -21.6260     7.2310    50.7550     6.5060     6.2660     4.9260    23.3530     2.4850   -22.6930 
  201.7500   199.1590   -21.6620     7.2440    46.9480     6.2380     5.8650     4.6300    23.3530     2.4570   -22.8470 
  201.8750   199.2780   -21.6990     7.2570    42.2040     6.2830     5.7850     4.6270    23.3530     2.4330   -23.0560 
  202.0000   199.3970   -21.7360     7.2700    39.8070     6.4860     5.9030     4.6630    23.3530     2.4220   -23.2660 
  202.1250   199.5150   -21.7730     7.2830    40.1520     6.7050     6.1040     4.6670    23.3530     2.4170   -23.4570 
  202.2500   199.6340   -21.8100     7.2960    41.1930     6.8490     6.2730     4.6630    23.3530     2.4110   -23.6680 
  202.3750   199.7530   -21.8470     7.3090    43.7450     6.8970     6.3610     4.6850    23.3540     2.4000   -23.9070 
  202.5000   199.8720   -21.8830     7.3220    47.9940     6.8700     6.3590     4.7260    23.3630     2.3820   -24.1660 
  202.6250   199.9900   -21.9200     7.3350    51.9260     6.8200     6.2890     4.7540    23.4210     2.3610   -24.4660 
  202.7500   200.1090   -21.9570     7.3480    53.8760     6.8250     6.2210     4.7310    23.5410     2.3500   -24.8010 
  202.8750   200.2280   -21.9940     7.3610    56.3190     6.9520     6.2190     4.6660    23.6670     2.3480   -25.1350 
  203.0000   200.3460   -22.0310     7.3740    59.9870     7.2460     6.3330     4.6610    23.7400     2.3470   -25.4430 
  203.1250   200.4650   -22.0680     7.3870    62.0250     7.7250     6.5910     4.8880    23.7720     2.3460   -25.7380 
  203.2500   200.5840   -22.1050     7.4000    62.8110     8.2740     6.9240     5.3400    23.7800     2.3510   -26.0130 
  203.3750   200.7030   -22.1410     7.4130    64.7480     8.7700     7.2470     5.9190    23.7680     2.3610   -26.2430 
  203.5000   200.8210   -22.1780     7.4260    67.3710     9.0900     7.4670     6.4720    23.7320     2.3690   -26.4170 
  203.6250   200.9400   -22.2150     7.4390    67.6440     9.1300     7.4920     6.7630    23.6940     2.3730   -26.5380 
  203.7500   201.0590   -22.2520     7.4520    66.1380     8.9780     7.3680     6.8160    23.6790     2.3760   -26.6240 
  203.8750   201.1780   -22.2890     7.4660    66.2130     8.7600     7.1710     6.8070    23.6760     2.3790   -26.7000 
  204.0000   201.2960   -22.3260     7.4790    68.9140     8.6010     6.9930     6.8660    23.6760     2.3810   -26.8070 
  204.1250   201.4150   -22.3620     7.4920    72.3210     8.6000     6.9160     7.0540    23.6760     2.3840   -26.9490 
  204.2500   201.5340   -22.3990     7.5050    75.1660     8.7260     6.9390     7.3110    23.6760     2.3870   -27.0630 
  204.3750   201.6530   -22.4360     7.5180    78.6540     8.9150     7.0310     7.5680    23.6760     2.3860   -27.1230 
  204.5000   201.7710   -22.4730     7.5310    82.6980     9.0920     7.1480     7.7540    23.6760     2.3820   -27.1510 
  204.6250   201.8900   -22.5100     7.5440    85.0800     9.1900     7.2420     7.7390    23.6760     2.3810   -27.1740 
  204.7500   202.0090   -22.5470     7.5570    85.3600     9.2100     7.2950     7.6570    23.6670     2.3800   -27.1950 
  204.8750   202.1280   -22.5830     7.5700    84.6470     9.1800     7.3080     7.6220    23.6350     2.3720   -27.2240 
  205.0000   202.2460   -22.6200     7.5830    84.9220     9.1300     7.2940     7.5940    23.5660     2.3610   -27.2390 
  205.1250   202.3650   -22.6570     7.5960    84.9420     9.0830     7.2620     7.5390    23.5320     2.3550   -27.1670 
  205.2500   202.4840   -22.6940     7.6090    83.2840     9.0430     7.2230     7.5410    23.5200     2.3520   -27.0090 
  205.3750   202.6020   -22.7310     7.6220    81.4180     9.0140     7.1810     7.6080    23.5200     2.3470   -26.8220 
  205.5000   202.7210   -22.7680     7.6350    82.1130     9.0090     7.1450     7.6490    23.5200     2.3410   -26.6640 
  205.6250   202.8400   -22.8050     7.6480    84.4190     9.0550     7.1300     7.5770    23.5200     2.3330   -26.5380 
  205.7500   202.9590   -22.8410     7.6610    83.1910     9.1540     7.1400     7.4650    23.5200     2.3250   -26.4120 
  205.8750   203.0770   -22.8780     7.6740    79.9380     9.2920     7.1750     7.4320    23.5200     2.3190   -26.2750 
  206.0000   203.1960   -22.9150     7.6870    76.6160     9.4490     7.2340     7.6140    23.5200     2.3160   -26.1140 
  206.1250   203.3150   -22.9520     7.7000    73.7380     9.6220     7.3340     7.9170    23.5120     2.3170   -25.9040 
  206.2500   203.4340   -22.9890     7.7130    71.2730     9.8530     7.5010     8.2520    23.4840     2.3280   -25.6270 
  206.3750   203.5520   -23.0260     7.7260    69.9350    10.2470     7.7990     8.6760    23.4310     2.3510   -25.2650 
  206.5000   203.6710   -23.0620     7.7390    70.2080    10.9770     8.3280     9.2230    23.3400     2.3860   -24.8210 
  206.6250   203.7900   -23.0990     7.7520    68.9430    12.3640     9.3030     9.9900    23.2650     2.4240   -24.3130 
  206.7500   203.9090   -23.1360     7.7650    65.8920    14.4370    10.7770    10.8980    23.1920     2.4660   -23.7960 
  206.8750   204.0270   -23.1730     7.7780    61.9080    17.0150    12.6820    12.0260    23.1520     2.5110   -23.2730 
  207.0000   204.1460   -23.2100     7.7910    59.1530    19.5210    14.6690    13.4620    23.1340     2.5500   -22.7090 
  207.1250   204.2650   -23.2470     7.8040    58.8990    20.7650    15.9220    14.7500    23.1190     2.5710   -22.0970 
  207.2500   204.3840   -23.2830     7.8170    58.0490    20.0310    15.8090    15.3150    23.1030     2.5510   -21.5060 
  207.3750   204.5020   -23.3200     7.8300    55.9070    17.2460    14.1210    14.5980    23.1060     2.4810   -20.9820 
  207.5000   204.6210   -23.3570     7.8430    53.5660    13.3500    11.4030    12.2550    23.1250     2.3870   -20.5130 
  207.6250   204.7400   -23.3940     7.8560    51.0950     9.9350     8.7530     9.0420    23.1350     2.3230   -20.0790 
  207.7500   204.8580   -23.4310     7.8690    47.6040     7.7060     6.8240     6.7870    23.1400     2.2970   -19.6770 
  207.8750   204.9770   -23.4680     7.8820    45.5720     6.5920     5.6730     5.8350    23.1400     2.2930   -19.3000 
  208.0000   205.0960   -23.5050     7.8950    48.1560     6.2780     5.1530     5.4950    23.1400     2.3000   -18.9510 
  208.1250   205.2150   -23.5410     7.9080    52.8250     6.4660     5.1150     5.2770    23.1400     2.3140   -18.6660 
  208.2500   205.3330   -23.5780     7.9210    55.5500     6.7940     5.2950     5.0100    23.1400     2.3230   -18.4230 
  208.3750   205.4520   -23.6150     7.9340    59.5300     7.0920     5.5530     4.8310    23.1390     2.3250   -18.1730 
  208.5000   205.5710   -23.6520     7.9470    67.5740     7.2810     5.7920     4.8300    23.1160     2.3290   -17.9070 
  208.6250   205.6900   -23.6890     7.9600    75.1710     7.3590     5.9600     4.9450    23.0490     2.3470   -17.6560 
  208.7500   205.8080   -23.7260     7.9730    77.8700     7.3970     6.0700     5.1060    22.9670     2.3660   -17.4080 
  208.8750   205.9270   -23.7620     7.9860    76.1230     7.4260     6.1370     5.3100    22.9320     2.3750   -17.1490 
