~V
VERS. 2.00: Ver 2.00
~W
STRT.M 56.0000:
STOP.M 276.0000:
STEP.M 0.1250:
NULL. -999.2500:
UWI. FD11178:
~C
DEPT.M :
TVD. :
DX. :
DY. :
SP.MV :
GR.API :
RI. :
RML.OHMM :
DEN.GM/CC :
RXO.OHMM :
~A
# ...
   83.3750    83.2980     0.4400    -1.8070    -7.0320    70.6810     6.1020     6.9850     2.4100     9.2360 
   83.5000    83.4220     0.4410    -1.8220    -5.2020    78.0460     5.0730     5.7160     2.3730     6.6200 
   83.6250    83.5470     0.4410    -1.8370    -3.2380    88.2930     4.2030     4.6750     2.2840     4.1660 
   83.7500    83.6710     0.4420    -1.8520    -1.5450    98.7710     3.5300     3.9220     2.2260     3.4900 
   83.8750    83.7950     0.4430    -1.8670    -0.6230   104.1750     3.2670     3.6970     2.2130     3.4740 
   84.0000    83.9190     0.4430    -1.8820    -0.2890   106.8060     3.2920     3.7770     2.2110     3.5780 
   84.1250    84.0430     0.4440    -1.8970    -0.2720   111.0620     3.5130     4.0470     2.2120     3.7190 
   84.2500    84.1670     0.4440    -1.9120    -0.4660   116.1910     3.8270     4.3870     2.2230     4.0250 
   84.3750    84.2910     0.4450    -1.9270    -0.8640   116.2100     4.1290     4.7020     2.2470     4.5480 
   84.5000    84.4150     0.4450    -1.9420    -1.3600   107.9600     4.3490     4.8980     2.2760     5.0990 
   84.6250    84.5390     0.4450    -1.9580    -1.8680    99.2440     4.4490     4.9440     2.2900     5.0260 
   84.7500    84.6630     0.4450    -1.9730    -2.2600    97.6790     4.4530     4.8890     2.2870     4.4550 
   84.8750    84.7870     0.4460    -1.9880    -2.3180    99.8140     4.3790     4.7900     2.2770     4.1380 
   85.0000    84.9110     0.4460    -2.0040    -2.0820    99.2440     4.3610     4.8010     2.2720     4.1490 
   85.1250    85.0350     0.4460    -2.0190    -1.7280    97.2330     4.3780     4.8820     2.2630     4.4480 
   85.2500    85.1590     0.4460    -2.0350    -1.4730    99.2840     4.4220     4.9910     2.2380     4.5680 
   85.3750    85.2840     0.4460    -2.0500    -1.4820   102.0060     4.3680     4.9540     2.2030     4.3350 
   85.5000    85.4080     0.4450    -2.0660    -1.7090   100.5410     4.1800     4.7410     2.1830     4.2580 
   85.6250    85.5320     0.4450    -2.0810    -2.2210    97.8110     3.9650     4.4860     2.1920     4.2660 
   85.7500    85.6560     0.4450    -2.0970    -2.8460    96.5670     3.8590     4.3680     2.2110     4.0980 
   85.8750    85.7800     0.4450    -2.1120    -3.2220    95.9080     4.0140     4.5990     2.2230     3.9400 
   86.0000    85.9040     0.4450    -2.1280    -3.6820    93.0570     4.4050     5.1510     2.2290     4.3140 
   86.1250    86.0280     0.4450    -2.1440    -4.4660    89.3030     5.0140     5.9890     2.2410     5.5120 
   86.2500    86.1520     0.4440    -2.1590    -5.6470    85.3560     5.7490     6.9580     2.2560     6.6530 
   86.3750    86.2760     0.4440    -2.1750    -7.2840    82.0600     6.3170     7.6400     2.2410     6.7400 
   86.5000    86.4000     0.4440    -2.1910    -9.0660    79.5350     6.5830     7.8840     2.1880     6.2680 
   86.6250    86.5240     0.4440    -2.2070   -10.5320    75.9780     6.4870     7.6870     2.1300     5.9650 
   86.7500    86.6480     0.4440    -2.2230   -11.6450    71.1530     6.1800     7.2600     2.0970     5.8480 
   86.8750    86.7720     0.4430    -2.2390   -12.5600    67.5350     5.9050     6.9570     2.0880     5.7530 
   87.0000    86.8960     0.4430    -2.2550   -13.3520    67.7310     5.7700     6.8450     2.0850     5.6550 
   87.1250    87.0200     0.4430    -2.2710   -13.9460    69.0620     5.7530     6.8710     2.0820     5.6980 
   87.2500    87.1440     0.4430    -2.2870   -14.3130    68.4840     5.7810     6.9380     2.0830     5.8670 
   87.3750    87.2670     0.4420    -2.3030   -14.6860    65.9050     5.8190     6.9900     2.0870     5.8920 
   87.5000    87.3910     0.4420    -2.3190   -14.9190    63.7320     5.8220     6.9700     2.0880     5.6560 
   87.6250    87.5150     0.4410    -2.3350   -14.9690    64.7360     5.7920     6.8910     2.0830     5.4280 
   87.7500    87.6390     0.4410    -2.3520   -14.8120    69.2470     5.7530     6.7790     2.0730     5.4640 
   87.8750    87.7630     0.4400    -2.3680   -14.3530    72.1310     5.7290     6.6980     2.0650     5.5850 
   88.0000    87.8870     0.4400    -2.3840   -13.7890    70.2290     5.7560     6.6870     2.0640     5.6420 
   88.1250    88.0110     0.4390    -2.4010   -13.1880    67.3320     5.8220     6.7700     2.0720     5.7560 
   88.2500    88.1350     0.4390    -2.4170   -12.5260    68.3850     5.8850     6.8950     2.0770     6.0250 
   88.3750    88.2590     0.4380    -2.4330   -11.7420    71.4020     5.8090     6.8550     2.0770     6.2220 
   88.5000    88.3830     0.4370    -2.4500   -10.8250    71.6540     5.5150     6.5460     2.0870     6.0890 
   88.6250    88.5070     0.4370    -2.4660    -9.8060    70.6200     4.9620     5.8900     2.1230     5.7530 
   88.7500    88.6310     0.4360    -2.4830    -8.6840    73.9420     4.2850     5.0720     2.1750     5.1040 
   88.8750    88.7550     0.4350    -2.4990    -7.3400    81.9830     3.6740     4.3450     2.2220     4.1440 
   89.0000    88.8790     0.4350    -2.5150    -5.7830    91.3020     3.2390     3.8280     2.2430     3.4450 
   89.1250    89.0020     0.4340    -2.5320    -4.3040    97.7170     3.0640     3.6420     2.2220     3.4310 
   89.2500    89.1260     0.4330    -2.5480    -3.3910   100.4640     3.1260     3.7460     2.1790     3.9150 
   89.3750    89.2500     0.4330    -2.5650    -3.4780   100.3470     3.4100     4.1240     2.1560     4.0630 
   89.5000    89.3740     0.4320    -2.5810    -4.1490    98.7720     3.8920     4.7530     2.1570     4.0250 
   89.6250    89.4980     0.4310    -2.5980    -5.1140    94.1990     4.5150     5.5560     2.1520     4.8220 
   89.7500    89.6220     0.4300    -2.6140    -6.2120    86.5210     5.1090     6.2860     2.1270     5.9040 
   89.8750    89.7460     0.4290    -2.6310    -7.5720    79.0920     5.4210     6.5860     2.1050     6.3320 
   90.0000    89.8700     0.4290    -2.6470    -9.1740    75.5880     5.4350     6.4860     2.1110     6.3210 
   90.1250    89.9940     0.4280    -2.6640   -10.4430    75.1180     5.2560     6.1350     2.1450     5.8450 
   90.2500    90.1180     0.4270    -2.6800   -11.0400    75.6850     5.0530     5.8220     2.1730     5.0450 
   90.3750    90.2420     0.4260    -2.6970   -11.2600    76.5400     5.0970     5.8980     2.1650     4.9620 
   90.5000    90.3650     0.4250    -2.7130   -11.4350    75.7480     5.3350     6.2560     2.1270     5.7420 
   90.6250    90.4890     0.4240    -2.7300   -11.7820    71.2330     5.6590     6.7170     2.0930     6.4370 
   90.7500    90.6130     0.4240    -2.7460   -12.4440    65.4690     5.9680     7.1170     2.0820     6.5890 
   90.8750    90.7370     0.4230    -2.7630   -13.3690    60.8570     6.0730     7.2260     2.0860     6.4700 
   91.0000    90.8610     0.4220    -2.7800   -14.1030    57.4470     6.0280     7.1290     2.0890     6.3430 
   91.1250    90.9850     0.4210    -2.7970   -14.4040    56.5800     5.8480     6.8950     2.0880     6.2340 
   91.2500    91.1090     0.4200    -2.8130   -14.3390    57.9850     5.6520     6.6660     2.0870     6.1420 
   91.3750    91.2320     0.4180    -2.8300   -13.9180    59.9230     5.4830     6.4900     2.0940     5.9840 
   91.5000    91.3560     0.4170    -2.8470   -13.3910    61.8890     5.3470     6.3610     2.1070     5.8110 
   91.6250    91.4800     0.4160    -2.8640   -12.8900    65.3880     5.2660     6.2940     2.1180     5.7780 
   91.7500    91.6040     0.4150    -2.8810   -12.4980    69.9890     5.1960     6.2250     2.1190     5.8270 
   91.8750    91.7280     0.4140    -2.8980   -12.1120    71.9410     5.1330     6.1410     2.1160     5.7980 
   92.0000    91.8520     0.4120    -2.9150   -11.8960    72.3290     5.0920     6.0610     2.1220     5.6300 
   92.1250    91.9760     0.4110    -2.9320   -11.8680    73.3180     5.0930     6.0250     2.1320     5.3880 
   92.2500    92.0990     0.4100    -2.9490   -11.7010    74.2730     5.1540     6.0790     2.1240     5.3280 
   92.3750    92.2230     0.4090    -2.9660   -11.4130    71.9290     5.3350     6.3100     2.0960     5.5160 
