~V
VERS. 2.00: Ver 2.00
~W
STRT.M 20.0000:
STOP.M 286.0000:
STEP.M 0.1250:
NULL. -999.2500:
UWI. FD11156:
~C
DEPT.M :
TVD. :
DX. :
DY. :
DEN.GM/CC :
GR.API :
RML.OHMM :
RI. :
RXO.OHMM :
CALI.CM :
SP.MV :
~A
# ...
  259.2500   253.3040    16.4690   -36.8770     2.2710    48.5010     8.7330     7.3510     7.3150    22.2040   -17.4150 
  259.3750   253.4200    16.4880   -36.9190     2.2750    50.9030     8.9170     7.5060     7.3400    23.0610   -17.5070 
  259.5000   253.5360    16.5070   -36.9620     2.2920    53.6500     9.0900     7.6510     7.2420    23.4980   -17.6030 
  259.6250   253.6520    16.5260   -37.0040     2.3140    55.2770     9.2450     7.7820     7.1620    22.9570   -17.7660 
  259.7500   253.7680    16.5450   -37.0460     2.3330    55.4410     9.4040     7.9160     7.7780    22.2610   -17.9360 
  259.8750   253.8840    16.5640   -37.0880     2.3460    54.4650     9.5920     8.0740     8.7150    21.9100   -18.1090 
  260.0000   254.0000    16.5830   -37.1300     2.3540    53.2210     9.8170     8.2640     9.3830    21.7040   -18.2430 
  260.1250   254.1170    16.6020   -37.1720     2.3600    53.2150    10.0630     8.4710     9.7320    21.5020   -18.2860 
  260.2500   254.2330    16.6210   -37.2140     2.3680    54.9000    10.2930     8.6640    10.1390    21.5690   -18.2610 
  260.3750   254.3490    16.6400   -37.2560     2.3810    55.7940    10.4860     8.8270    10.5750    21.6560   -18.2050 
  260.5000   254.4650    16.6590   -37.2980     2.4000    53.3520    10.6310     8.9490    10.7300    21.4760   -18.1330 
  260.6250   254.5810    16.6780   -37.3400     2.4230    49.2860    10.7280     9.0300    10.4080    21.0050   -18.0150 
  260.7500   254.6970    16.6970   -37.3830     2.4420    47.8800    10.8220     9.1090    10.2660    20.7150   -17.8240 
  260.8750   254.8140    16.7160   -37.4250     2.4490    48.0020    10.9660     9.2310    10.9950    20.8200   -17.5870 
  261.0000   254.9300    16.7350   -37.4670     2.4430    46.2130    11.2010     9.4290    11.9200    20.9970   -17.3750 
  261.1250   255.0460    16.7540   -37.5090     2.4290    43.8300    11.5600     9.7310    12.4290    21.3810   -17.2080 
  261.2500   255.1620    16.7730   -37.5510     2.4230    43.7550    12.0050    10.1050    12.7230    21.8750   -17.0450 
  261.3750   255.2780    16.7920   -37.5930     2.4340    44.6740    12.4690    10.4960    13.6280    22.1170   -16.9040 
  261.5000   255.3940    16.8110   -37.6350     2.4590    45.2870    12.8440    10.8110    15.1000    21.5310   -16.7760 
  261.6250   255.5100    16.8300   -37.6770     2.4890    46.5100    12.9320    10.8850    14.7510    20.2720   -16.6350 
  261.7500   255.6270    16.8490   -37.7190     2.5110    48.4180    12.6690    10.6640    12.1310    19.3350   -16.5500 
  261.8750   255.7430    16.8680   -37.7610     2.5200    49.5140    12.0870    10.1740     9.9190    18.9680   -16.4730 
  262.0000   255.8590    16.8870   -37.8040     2.5190    49.3810    11.3260     9.5330     8.5820    18.8990   -16.4150 
  262.1250   255.9750    16.9060   -37.8460     2.5110    47.2800    10.5890     8.9130     7.7920    18.8960   -16.4020 
  262.2500   256.0910    16.9250   -37.8880     2.4980    44.4970    10.0060     8.4230     7.2470    18.8960   -16.3810 
  262.3750   256.2070    16.9440   -37.9300     2.4780    42.6510     9.5980     8.0790     6.9710    18.9000   -16.2910 
  262.5000   256.3240    16.9630   -37.9720     2.4570    43.1400     9.3410     7.8630     6.9720    18.9160   -16.1330 
  262.6250   256.4400    16.9820   -38.0140     2.4410    45.8440     9.2130     7.7550     7.3060    18.9670   -15.9670 
  262.7500   256.5560    17.0010   -38.0560     2.4310    47.1670     9.1770     7.7250     7.5880    19.0050   -15.8060 
  262.8750   256.6720    17.0200   -38.0980     2.4250    47.4800     9.2480     7.7840     7.5840    19.1850   -15.6550 
  263.0000   256.7880    17.0390   -38.1400     2.4180    48.2280     9.4620     7.9650     7.6860    19.5970   -15.4670 
  263.1250   256.9040    17.0580   -38.1820     2.4070    49.0220     9.9120     8.3430     8.3500    20.3670   -15.2440 
  263.2500   257.0200    17.0770   -38.2250     2.3980    48.7030    10.5770     8.9040     9.1660    21.3040   -15.0580 
  263.3750   257.1370    17.0950   -38.2670     2.3940    47.1840    11.3970     9.5940    10.0530    22.7440   -14.9400 
  263.5000   257.2530    17.1140   -38.3090     2.3980    47.0070    12.2380    10.3010    10.8560    23.7020   -14.9050 
  263.6250   257.3690    17.1330   -38.3510     2.4060    49.2740    12.9090    10.8660    11.1860    23.7590   -14.9350 
  263.7500   257.4850    17.1520   -38.3930     2.4160    51.9800    13.3670    11.2510    10.6070    23.3660   -14.9870 
  263.8750   257.6010    17.1710   -38.4350     2.4340    52.5580    13.6750    11.5110    10.3190    22.3420   -15.0340 
  264.0000   257.7170    17.1900   -38.4770     2.4620    50.8260    13.9580    11.7490    11.1780    21.1100   -15.0870 
  264.1250   257.8340    17.2090   -38.5190     2.4960    50.1220    14.3390    12.0690    12.7070    19.9670   -15.1510 
  264.2500   257.9500    17.2280   -38.5610     2.5180    51.1620    14.8130    12.4690    14.0310    19.6690   -15.2240 
  264.3750   258.0660    17.2470   -38.6040     2.5220    53.5680    15.2850    12.8660    15.6570    19.7030   -15.3060 
  264.5000   258.1820    17.2660   -38.6460     2.5100    54.8450    15.5980    13.1290    16.9020    19.9910   -15.3670 
  264.6250   258.2980    17.2850   -38.6880     2.4950    53.0150    15.5310    13.0730    15.2250    20.1710   -15.3830 
  264.7500   258.4140    17.3040   -38.7300     2.4880    48.3770    15.0970    12.7080    13.6930    20.2730   -15.3660 
  264.8750   258.5300    17.3230   -38.7720     2.4900    44.9760    14.4030    12.1240    12.2330    20.0860   -15.3590 
  265.0000   258.6470    17.3420   -38.8140     2.4980    45.0650    13.6580    11.4960    10.8170    19.8840   -15.3660 
  265.1250   258.7630    17.3610   -38.8560     2.5050    47.0630    13.1230    11.0460     9.4850    19.3190   -15.3700 
  265.2500   258.8790    17.3800   -38.8980     2.5080    49.6330    12.9090    10.8660     9.3830    19.1720   -15.3440 
  265.3750   258.9950    17.4000   -38.9410     2.5060    52.0110    13.0270    10.9660    11.3120    19.5180   -15.2810 
  265.5000   259.1110    17.4190   -38.9840     2.4970    52.6680    13.3950    11.2750    15.2630    20.3610   -15.2060 
  265.6250   259.2260    17.4380   -39.0270     2.4840    51.2680    13.8830    11.6860    17.6530    21.1840   -15.1340 
  265.7500   259.3420    17.4580   -39.0690     2.4720    50.3810    14.3320    12.0640    16.9500    21.5400   -15.0870 
  265.8750   259.4580    17.4770   -39.1120     2.4690    51.3140    14.6500    12.3320    15.6270    21.4080   -15.0580 
  266.0000   259.5740    17.4970   -39.1550     2.4780    52.0510    14.7770    12.4380    14.3150    21.0820   -15.0350 
  266.1250   259.6900    17.5160   -39.1980     2.4940    49.5780    14.6490    12.3310    12.8910    21.0250   -15.0210 
  266.2500   259.8050    17.5360   -39.2410     2.5060    46.8360    14.3200    12.0540    11.3730    21.0370   -15.0040 
  266.3750   259.9210    17.5550   -39.2840     2.5130    47.0580    13.8540    11.6620    10.3690    21.1690   -14.9730 
  266.5000   260.0370    17.5740   -39.3270     2.5160    51.2610    13.3330    11.2230    10.5270    21.4920   -14.9180 
  266.6250   260.1530    17.5940   -39.3700     2.5230    54.5110    12.8470    10.8140    11.3560    21.4180   -14.8550 
  266.7500   260.2690    17.6130   -39.4130     2.5320    53.4710    12.4180    10.4530    11.4080    21.1290   -14.7650 
  266.8750   260.3840    17.6330   -39.4550     2.5360    50.6110    12.0210    10.1190    10.4290    21.0360   -14.6520 
  267.0000   260.5000    17.6520   -39.4980     2.5290    50.5600    11.6150     9.7770     9.4910    21.0660   -14.5380 
  267.1250   260.6160    17.6720   -39.5410     2.5130    53.9490    11.1880     9.4180     8.8060    21.0800   -14.4020 
  267.2500   260.7320    17.6910   -39.5840     2.5010    55.0070    10.7700     9.0660     8.3840    21.1250   -14.2850 
  267.3750   260.8480    17.7100   -39.6270     2.4980    51.7160    10.3990     8.7540     8.6790    21.2070   -14.2170 
