~V
VERS. 2.00: Ver 2.00
~W
STRT.M 20.0000:
STOP.M 277.0000:
STEP.M 0.1250:
NULL. -999.2500:
UWI. FD11024:
~C
DEPT.M :
TVD. :
DX. :
DY. :
DEN.GM/CC :
GR.API :
RML.OHMM :
RI. :
RXO.OHMM :
CALI.CM :
SP.MV :
~A
# ...
  234.5000   229.4100    23.7900    33.2240     2.2700    75.8250    23.8840    20.6570    17.5630    20.2430   -16.9870 
  234.6250   229.5290    23.8140    33.2550     2.2830    78.9670    22.2720    19.5210    17.4090    20.2750   -16.4320 
  234.7500   229.6480    23.8380    33.2850     2.3020    82.2930    19.3940    17.2620    15.5360    20.4320   -15.9200 
  234.8750   229.7660    23.8620    33.3150     2.3240    86.6130    16.0210    14.4800    13.7000    21.0050   -15.4400 
  235.0000   229.8850    23.8850    33.3460     2.3400    95.0340    13.1470    11.9910    11.4290    21.4210   -15.0300 
  235.1250   230.0040    23.9090    33.3760     2.3420   102.5920    11.7440    10.5280     9.1770    21.5210   -14.7430 
  235.2500   230.1230    23.9330    33.4060     2.3280   101.2950    11.8780    10.1590     7.5660    21.7130   -14.5550 
  235.3750   230.2420    23.9560    33.4370     2.3030    92.3370    13.5120    10.9470     7.9890    22.0320   -14.4530 
  235.5000   230.3610    23.9800    33.4670     2.2740    82.5780    16.3450    12.8660    10.2670    22.1920   -14.3910 
  235.6250   230.4800    24.0040    33.4970     2.2540    75.9040    19.5110    15.6090    13.4960    22.0700   -14.3200 
  235.7500   230.5990    24.0280    33.5280     2.2490    71.6590    21.4260    17.8820    16.2630    21.9720   -14.1750 
  235.8750   230.7180    24.0510    33.5580     2.2640    69.7460    20.9860    18.4120    17.8440    21.6560   -13.9490 
  236.0000   230.8370    24.0750    33.5880     2.2980    69.9240    18.4540    16.9560    17.8210    21.2470   -13.5690 
  236.1250   230.9560    24.0990    33.6190     2.3450    73.6780    15.4320    14.6030    13.9910    20.9780   -13.0600 
  236.2500   231.0750    24.1230    33.6490     2.3940    80.3920    13.3190    12.6930     9.8880    20.6950   -12.5140 
  236.3750   231.1930    24.1460    33.6790     2.4320    84.7660    12.3980    11.6050     8.2100    20.2860   -11.9780 
  236.5000   231.3120    24.1700    33.7100     2.4520    81.8900    12.5050    11.3330     8.8990    20.0370   -11.5020 
  236.6250   231.4310    24.1940    33.7400     2.4500    74.6470    13.3700    11.7910    10.7220    19.9860   -11.1370 
  236.7500   231.5500    24.2180    33.7700     2.4300    70.0830    14.3810    12.5510    11.3190    19.9460   -10.9020 
  236.8750   231.6690    24.2410    33.8010     2.4000    68.1540    15.0680    13.2340    10.8400    19.9140   -10.7960 
  237.0000   231.7880    24.2650    33.8310     2.3650    67.5700    15.1530    13.5350    10.6830    19.9090   -10.8090 
  237.1250   231.9070    24.2890    33.8610     2.3310    69.1060    14.6920    13.3800    10.6340    19.9250   -10.8870 
  237.2500   232.0260    24.3130    33.8920     2.3020    72.2080    14.1630    13.0820    10.4000    19.9800   -10.9720 
  237.3750   232.1450    24.3360    33.9220     2.2800    74.9070    13.8370    12.8400     9.9590    20.1150   -11.0560 
  237.5000   232.2640    24.3600    33.9520     2.2660    75.8620    13.8090    12.7510     9.6780    20.5260   -11.1280 
  237.6250   232.3830    24.3840    33.9830     2.2590    75.0970    14.0600    12.8530    10.3050    20.9310   -11.1790 
  237.7500   232.5020    24.4080    34.0130     2.2580    73.4480    14.3890    13.0460    11.0520    21.2150   -11.2090 
  237.8750   232.6200    24.4310    34.0430     2.2620    72.7620    14.5990    13.2070    11.2340    21.2190   -11.2250 
  238.0000   232.7390    24.4550    34.0740     2.2700    74.7740    14.5180    13.1870    11.0320    21.0480   -11.2220 
  238.1250   232.8580    24.4790    34.1040     2.2800    78.1020    14.0480    12.8410    10.8190    21.0040   -11.2180 
  238.2500   232.9770    24.5030    34.1340     2.2890    80.0170    13.3710    12.2510    10.6460    20.9280   -11.2170 
  238.3750   233.0960    24.5260    34.1650     2.2930    77.9200    12.6530    11.5470    10.1670    20.8610   -11.2110 
  238.5000   233.2150    24.5500    34.1950     2.2930    74.3480    12.0230    10.8690     9.1940    20.8110   -11.2120 
  238.6250   233.3340    24.5740    34.2260     2.2890    73.8820    11.5740    10.3330     8.4440    20.8040   -11.2480 
  238.7500   233.4520    24.5980    34.2570     2.2860    76.7850    11.3040     9.9600     8.4510    20.8020   -11.2960 
  238.8750   233.5710    24.6220    34.2880     2.2890    80.0720    11.2710     9.7950     8.7710    20.8020   -11.3570 
  239.0000   233.6900    24.6460    34.3190     2.3010    80.9140    11.5800     9.9060     8.9300    20.8010   -11.4460 
  239.1250   233.8090    24.6700    34.3500     2.3260    80.1760    12.4360    10.4370     8.8340    20.7970   -11.5500 
  239.2500   233.9270    24.6940    34.3800     2.3540    81.1360    13.8130    11.3730     8.9970    20.7910   -11.6700 
  239.3750   234.0460    24.7170    34.4110     2.3760    85.9890    15.6110    12.6880    10.0020    20.7810   -11.7990 
  239.5000   234.1650    24.7410    34.4420     2.3850    92.8410    17.5640    14.2470    12.7880    20.6820   -11.9180 
  239.6250   234.2840    24.7650    34.4730     2.3790    96.2350    19.1300    15.7090    14.9730    20.5830   -11.9750 
  239.7500   234.4020    24.7890    34.5040     2.3660    96.9630    19.9190    16.6870    15.0240    20.5690   -11.9930 
  239.8750   234.5210    24.8130    34.5350     2.3520    96.1490    19.8380    16.9760    13.6960    20.5920   -11.9730 
  240.0000   234.6400    24.8370    34.5660     2.3400    93.6230    19.1080    16.6310    13.6120    20.7420   -11.9270 
  240.1250   234.7590    24.8610    34.5970     2.3330    88.6520    18.1690    15.9410    14.6570    21.0960   -11.8330 
  240.2500   234.8770    24.8850    34.6270     2.3350    85.6840    17.5010    15.3590    14.4540    21.3720   -11.7050 
  240.3750   234.9960    24.9090    34.6580     2.3500    84.3130    17.3570    15.1430    12.9310    21.4680   -11.5320 
  240.5000   235.1150    24.9330    34.6890     2.3800    79.8660    17.8100    15.3980    12.0790    21.4920   -11.3250 
  240.6250   235.2340    24.9570    34.7200     2.4120    75.3360    18.6260    16.0250    12.9280    21.4300   -11.1040 
  240.7500   235.3520    24.9800    34.7510     2.4310    78.5870    19.0780    16.4930    16.4600    21.1880   -10.8740 
  240.8750   235.4710    25.0040    34.7820     2.4280    86.4540    18.4930    16.2400    21.6950    21.0100   -10.6300 
  241.0000   235.5900    25.0280    34.8130     2.4090    90.3950    16.6210    14.9660    22.9250    21.0720   -10.3620 
  241.1250   235.7090    25.0520    34.8440     2.3890    87.6150    13.9160    12.9110    17.5260    21.1620   -10.1130 
  241.2500   235.8270    25.0760    34.8740     2.3800    82.6750    11.4380    10.8870    11.5180    21.2010    -9.8690 
  241.3750   235.9460    25.1000    34.9050     2.3810    75.6100     9.6920     9.3130     7.7490    21.1510    -9.6480 
  241.5000   236.0650    25.1240    34.9360     2.3870    66.8160     8.7520     8.3160     6.4180    20.9840    -9.4430 
  241.6250   236.1840    25.1480    34.9670     2.3930    62.2100     8.4990     7.9140     6.2130    20.9610    -9.2740 
  241.7500   236.3020    25.1720    34.9980     2.3950    63.8120     8.5540     7.8730     6.3290    20.9560    -9.1360 
  241.8750   236.4210    25.1960    35.0290     2.3940    67.2970     8.7220     8.0430     6.4300    20.9710    -9.0300 
  242.0000   236.5400    25.2190    35.0600     2.3900    68.3690     8.8890     8.2830     6.6020    21.0330    -8.9510 
  242.1250   236.6590    25.2430    35.0900     2.3850    67.4840     9.0240     8.4790     6.8610    21.2250    -8.8860 
  242.2500   236.7770    25.2670    35.1210     2.3820    66.7490     9.1430     8.6070     7.1340    21.2540    -8.8330 
  242.3750   236.8960    25.2910    35.1520     2.3810    65.0140     9.2340     8.6780     7.3410    21.2610    -8.7940 
  242.5000   237.0150    25.3150    35.1830     2.3820    62.6460     9.2710     8.7070     7.3390    21.2860    -8.7640 
  242.6250   237.1340    25.3390    35.2140     2.3830    63.3170     9.2510     8.7090     7.4040    21.4700    -8.7450 
