~V
VERS. 2.00: Ver 2.00
~W
STRT.M 50.0000:
STOP.M 286.0000:
STEP.M 0.1250:
NULL. -999.2500:
UWI. FD11181:
~C
DEPT.M :
TVD. :
DX. :
DY. :
SP.MV :
GR.API :
RI. :
RML.OHMM :
RXO.OHMM :
DEN.GM/CC :
~A
# ...
  141.2500   140.4160    -9.6780     1.9320   -14.4810    68.1240     3.5020     3.9200     3.8350     2.2250 
  141.3750   140.5360    -9.7110     1.9350   -14.1950    62.2630     3.5720     3.9730     4.1310     2.2270 
  141.5000   140.6570    -9.7450     1.9380   -14.3340    60.6300     3.6010     3.9760     4.0850     2.2350 
  141.6250   140.7770    -9.7780     1.9400   -14.6600    64.2940     3.6070     3.9530     3.8890     2.2330 
  141.7500   140.8970    -9.8120     1.9430   -15.0720    67.8410     3.6430     3.9770     3.7670     2.2250 
  141.8750   141.0180    -9.8450     1.9460   -15.3630    68.3400     3.7560     4.1120     3.6290     2.2230 
  142.0000   141.1380    -9.8790     1.9490   -15.6510    66.9280     3.9430     4.3380     3.6470     2.2260 
  142.1250   141.2580    -9.9130     1.9510   -16.0450    65.1330     4.1200     4.5660     3.9790     2.2340 
  142.2500   141.3790    -9.9460     1.9540   -16.4770    64.6720     4.2030     4.6730     4.1450     2.2490 
  142.3750   141.4990    -9.9800     1.9560   -17.0700    68.3480     4.0990     4.5660     3.8030     2.2650 
  142.5000   141.6190   -10.0140     1.9590   -17.6530    74.1080     3.8560     4.2920     3.4790     2.2700 
  142.6250   141.7400   -10.0480     1.9620   -18.0710    75.4830     3.5780     3.9980     3.4130     2.2630 
  142.7500   141.8600   -10.0820     1.9640   -18.2720    73.8680     3.4210     3.8500     3.2040     2.2550 
  142.8750   141.9800   -10.1160     1.9670   -18.4570    74.7150     3.4990     3.9650     2.9580     2.2450 
  143.0000   142.1000   -10.1500     1.9690   -18.9660    77.3830     3.8030     4.3580     3.4040     2.2260 
  143.1250   142.2210   -10.1840     1.9720   -19.7270    76.1440     4.3540     5.0070     4.5890     2.2050 
  143.2500   142.3410   -10.2180     1.9750   -20.6300    70.9580     5.0610     5.8110     5.6590     2.1990 
  143.3750   142.4610   -10.2520     1.9770   -21.7130    65.3090     5.8040     6.6160     6.8380     2.2080 
  143.5000   142.5810   -10.2860     1.9800   -22.8370    61.4580     6.3680     7.2370     8.1270     2.2200 
  143.6250   142.7020   -10.3210     1.9820   -23.9940    59.4030     6.7480     7.6270     8.3770     2.2230 
  143.7500   142.8220   -10.3550     1.9850   -25.0980    57.5120     6.9640     7.8720     7.7230     2.2140 
  143.8750   142.9420   -10.3890     1.9870   -26.0720    54.5020     7.1160     8.0430     7.3720     2.1970 
  144.0000   143.0620   -10.4240     1.9890   -26.9210    52.7520     7.2370     8.1760     7.8710     2.1810 
  144.1250   143.1820   -10.4580     1.9920   -27.6560    53.4940     7.2840     8.2460     8.7280     2.1710 
  144.2500   143.3020   -10.4930     1.9940   -28.1910    54.3800     7.2790     8.2490     9.2890     2.1670 
  144.3750   143.4220   -10.5270     1.9970   -28.5670    53.2170     7.2180     8.1880     9.0440     2.1620 
  144.5000   143.5420   -10.5620     1.9990   -28.9090    51.6270     7.1050     8.0870     8.1810     2.1550 
  144.6250   143.6620   -10.5970     2.0020   -29.2720    51.9180     6.9760     7.9840     7.4580     2.1490 
  144.7500   143.7830   -10.6310     2.0040   -29.5970    55.7790     6.8820     7.9170     7.1970     2.1440 
  144.8750   143.9030   -10.6660     2.0070   -29.8880    60.0730     6.8310     7.8920     7.3280     2.1440 
  145.0000   144.0230   -10.7010     2.0090   -30.1750    61.3630     6.8230     7.8920     7.6690     2.1450 
  145.1250   144.1430   -10.7360     2.0110   -30.4630    59.2860     6.8310     7.9030     8.2080     2.1480 
  145.2500   144.2630   -10.7710     2.0140   -30.6760    56.5410     6.8660     7.9330     8.6980     2.1550 
  145.3750   144.3830   -10.8060     2.0160   -30.7950    54.9720     6.9590     8.0250     8.6240     2.1660 
  145.5000   144.5030   -10.8410     2.0190   -30.9500    55.1140     7.1230     8.1960     8.1590     2.1710 
  145.6250   144.6230   -10.8760     2.0210   -31.1500    55.9070     7.3300     8.4270     7.7460     2.1650 
  145.7500   144.7430   -10.9110     2.0240   -31.3420    56.0870     7.5310     8.6430     7.7600     2.1630 
  145.8750   144.8620   -10.9460     2.0270   -31.5130    54.7860     7.6280     8.7440     8.2130     2.1750 
  146.0000   144.9820   -10.9810     2.0290   -31.6700    55.1600     7.5780     8.6740     8.6740     2.1950 
  146.1250   145.1020   -11.0160     2.0320   -31.8550    57.3900     7.3700     8.4060     8.9010     2.2040 
  146.2500   145.2220   -11.0510     2.0340   -32.0970    59.2530     7.0110     7.9870     8.6190     2.1960 
  146.3750   145.3420   -11.0870     2.0370   -32.3010    59.2800     6.6010     7.5140     8.2120     2.1780 
  146.5000   145.4620   -11.1220     2.0390   -32.3970    58.5150     6.2410     7.1060     7.9820     2.1600 
  146.6250   145.5820   -11.1570     2.0420   -32.4660    57.9860     6.0200     6.8790     7.5650     2.1500 
  146.7500   145.7020   -11.1930     2.0440   -32.6030    58.2510     6.0060     6.8560     7.0770     2.1430 
  146.8750   145.8220   -11.2280     2.0470   -32.7180    58.6540     6.1270     6.9930     6.9830     2.1340 
  147.0000   145.9410   -11.2640     2.0490   -32.7620    56.9860     6.3430     7.2240     7.5130     2.1260 
  147.1250   146.0610   -11.2990     2.0520   -32.6850    53.4440     6.5970     7.4810     8.1160     2.1240 
  147.2500   146.1810   -11.3350     2.0540   -32.5100    51.7790     6.8040     7.6770     8.3520     2.1260 
  147.3750   146.3010   -11.3700     2.0570   -32.1820    52.6050     6.9140     7.7490     8.5250     2.1300 
  147.5000   146.4210   -11.4060     2.0590   -31.8270    53.7610     6.9010     7.7100     8.5560     2.1330 
  147.6250   146.5400   -11.4420     2.0620   -31.5200    54.1880     6.8460     7.6370     8.2030     2.1330 
  147.7500   146.6600   -11.4770     2.0640   -31.1680    54.1280     6.8310     7.6120     7.7430     2.1290 
  147.8750   146.7800   -11.5130     2.0660   -30.7900    53.7620     6.8630     7.6410     7.5130     2.1260 
  148.0000   146.9000   -11.5490     2.0690   -30.4380    54.6940     6.8940     7.6760     7.8050     2.1370 
  148.1250   147.0190   -11.5850     2.0710   -30.1160    56.5310     6.8850     7.6570     8.8900     2.1590 
  148.2500   147.1390   -11.6210     2.0740   -29.8470    56.6590     6.7980     7.5400     9.7010     2.1760 
  148.3750   147.2590   -11.6570     2.0760   -29.4980    55.0590     6.6410     7.3910     9.2030     2.1760 
  148.5000   147.3780   -11.6920     2.0780   -29.0050    53.9740     6.6210     7.4560     8.1350     2.1720 
  148.6250   147.4980   -11.7280     2.0810   -28.3570    52.6850     7.0130     7.9550     7.2610     2.1830 
  148.7500   147.6180   -11.7650     2.0830   -27.6820    52.3620     7.5410     8.5890     6.7930     2.2330 
  148.8750   147.7370   -11.8010     2.0850   -26.9290    53.7960     7.7420     8.8600     9.5720     2.3270 
  149.0000   147.8570   -11.8370     2.0880   -26.0130    55.3310     7.4700     8.4800    22.9840     2.4190 
  149.1250   147.9770   -11.8730     2.0900   -25.0020    57.3240     6.5300     7.3910    31.9340     2.4380 
  149.2500   148.0960   -11.9090     2.0920   -23.9940    62.6120     5.4670     6.1270    19.3300     2.3750 
  149.3750   148.2160   -11.9460     2.0940   -23.0240    69.5500     4.6480     5.1690     6.2470     2.2850 
  149.5000   148.3360   -11.9820     2.0970   -22.1250    73.4250     4.1010     4.6310     4.1900     2.2280 
  149.6250   148.4550   -12.0180     2.0990   -21.5680    74.5330     3.9850     4.5590     4.3840     2.2160 
  149.7500   148.5750   -12.0550     2.1010   -21.3340    76.6700     4.1250     4.7080     4.9100     2.2280 
  149.8750   148.6940   -12.0910     2.1030   -21.2990    77.7580     4.2410     4.8000     5.0500     2.2440 
  150.0000   148.8140   -12.1280     2.1060   -21.3970    77.0790     4.2400     4.7510     4.6740     2.2510 
  150.1250   148.9330   -12.1640     2.1090   -21.3980    76.6330     4.1220     4.5820     4.5200     2.2470 
  150.2500   149.0530   -12.2010     2.1110   -20.9050    79.4990     3.9450     4.3710     4.3460     2.2450 
