~V
VERS. 2.00: Ver 2.00
~W
STRT.M 40.0000:
STOP.M 279.0000:
STEP.M 0.1250:
NULL. -999.2500:
UWI. FD11188:
~C
DEPT.M :
TVD. :
DX. :
DY. :
SP.MV :
GR.API :
RI. :
RML.OHMM :
RXO.OHMM :
DEN.GM/CC :
~A
# ...
  240.7500   229.5780    13.9350    55.8890   -16.1800    75.5970    40.9860    41.1630    49.0790     2.1550 
  240.8750   229.6920    13.9470    55.9390   -16.3450    71.5450    41.1360    41.4860    81.9660     2.1650 
  241.0000   229.8060    13.9590    55.9890   -16.5010    66.8360    41.7330    42.1770    97.8350     2.1660 
  241.1250   229.9200    13.9710    56.0390   -16.6260    64.7930    42.2630    42.6750    67.3280     2.1630 
  241.2500   230.0340    13.9820    56.0890   -16.7160    66.1950    42.2820    42.6330    44.4880     2.1580 
  241.3750   230.1480    13.9940    56.1390   -16.7720    71.0400    41.9510    42.2780    46.2630     2.1460 
  241.5000   230.2620    14.0060    56.1890   -16.7900    75.6010    41.1890    41.5450    49.5880     2.1320 
  241.6250   230.3760    14.0180    56.2380   -16.7460    75.4650    39.9630    40.3120    49.5520     2.1290 
  241.7500   230.4910    14.0290    56.2880   -16.6210    71.9670    38.0390    38.3140    45.7790     2.1380 
  241.8750   230.6050    14.0410    56.3380   -16.3950    71.2860    35.4040    35.5970    41.4160     2.1460 
  242.0000   230.7190    14.0530    56.3880   -16.0810    74.5320    32.7220    32.8740    38.7940     2.1470 
  242.1250   230.8330    14.0650    56.4370   -15.6890    75.4070    30.4770    30.6780    38.5630     2.1400 
  242.2500   230.9470    14.0770    56.4870   -15.2430    72.0390    28.9310    29.2210    39.9230     2.1350 
  242.3750   231.0610    14.0890    56.5370   -14.7470    68.7330    28.0150    28.3690    41.4550     2.1410 
  242.5000   231.1750    14.1010    56.5870   -14.1990    69.7880    27.4780    27.8530    44.4630     2.1530 
  242.6250   231.2890    14.1130    56.6360   -13.5830    72.0220    26.9580    27.2880    50.4220     2.1630 
  242.7500   231.4030    14.1260    56.6860   -12.8930    71.4560    26.3280    26.6100    51.7500     2.1630 
  242.8750   231.5170    14.1380    56.7360   -12.1120    69.4170    25.8940    26.1130    29.9750     2.1640 
  243.0000   231.6310    14.1500    56.7860   -11.2410    68.6570    25.4470    25.5830    26.0110     2.1920 
  243.1250   231.7450    14.1620    56.8360   -10.2660    69.5450    25.1770    25.3690    24.3270     2.2720 
  243.2500   231.8590    14.1740    56.8860    -9.1830    70.2280    25.5420    26.0000    38.1930     2.3650 
  243.3750   231.9730    14.1860    56.9360    -7.9710    71.4700    27.6150    28.9590   116.8480     2.3980 
  243.5000   232.0870    14.1980    56.9850    -6.6320    73.2100    32.1610    35.3140   173.8490     2.3840 
  243.6250   232.2010    14.2100    57.0350    -5.1680    72.3990    34.9400    39.0060   136.7070     2.4130 
  243.7500   232.3150    14.2230    57.0850    -3.6310    68.5910    30.8640    34.7750   137.0320     2.5350 
  243.8750   232.4280    14.2350    57.1350    -2.0990    66.7800    22.3650    25.1120   173.2310     2.6700 
  244.0000   232.5420    14.2470    57.1850    -0.6810    68.6050    11.4510    12.3980   139.1230     2.6880 
  244.1250   232.6560    14.2590    57.2360     0.4860    72.3130     5.1180     5.4220    53.9460     2.5480 
  244.2500   232.7700    14.2710    57.2860     1.3400    75.6280     3.0880     3.2570     5.9280     2.3700 
  244.3750   232.8840    14.2830    57.3360     1.8440    79.8720     2.5390     2.7530     3.8760     2.2860 
  244.5000   232.9980    14.2950    57.3860     2.0900    85.6180     2.4850     2.8490     5.1400     2.2960 
  244.6250   233.1120    14.3080    57.4360     2.1750    90.0110     2.8130     3.3550     5.7520     2.3250 
  244.7500   233.2250    14.3200    57.4870     2.2090    92.8930     3.2540     3.9120     5.8650     2.3350 
  244.8750   233.3390    14.3320    57.5370     2.2480    95.9800     3.5940     4.2500     5.7380     2.3420 
  245.0000   233.4530    14.3440    57.5880     2.3060   100.2970     3.7660     4.3370     5.5120     2.3520 
  245.1250   233.5660    14.3560    57.6380     2.3760   104.4370     3.7870     4.2700     5.6780     2.3500 
  245.2500   233.6800    14.3690    57.6890     2.4440   107.0190     3.7600     4.1840     5.9900     2.3360 
  245.3750   233.7940    14.3810    57.7400     2.5010   109.3950     3.7250     4.1160     6.3680     2.3230 
  245.5000   233.9070    14.3940    57.7900     2.5360   111.0800     3.6960     4.0770     6.8440     2.3250 
  245.6250   234.0210    14.4060    57.8410     2.5400   111.0240     3.7220     4.1100     6.6470     2.3360 
  245.7500   234.1340    14.4180    57.8920     2.5130   111.7410     3.7790     4.2130     6.0030     2.3390 
  245.8750   234.2480    14.4310    57.9430     2.4540   115.4680     3.8450     4.3640     6.0520     2.3260 
  246.0000   234.3610    14.4430    57.9940     2.3760   118.6580     3.8870     4.5010     6.7780     2.3060 
  246.1250   234.4740    14.4560    58.0450     2.2910   119.2210     3.8880     4.5860     7.1200     2.2890 
  246.2500   234.5880    14.4680    58.0960     2.2140   118.5750     3.8510     4.5890     6.7890     2.2820 
  246.3750   234.7010    14.4810    58.1470     2.1540   118.8830     3.8070     4.5540     6.5400     2.2860 
  246.5000   234.8150    14.4930    58.1990     2.1150   117.0720     3.7680     4.5160     6.4590     2.2980 
  246.6250   234.9280    14.5050    58.2500     2.0960   112.4240     3.7730     4.5200     6.4680     2.3090 
  246.7500   235.0410    14.5180    58.3010     2.0910   108.5180     3.8310     4.5910     6.7540     2.3100 
  246.8750   235.1550    14.5300    58.3520     2.0990   108.9560     3.9340     4.7140     6.8590     2.2930 
  247.0000   235.2680    14.5420    58.4040     2.1220   111.5220     4.0520     4.8540     6.9170     2.2670 
  247.1250   235.3810    14.5540    58.4550     2.1710   112.5220     4.1600     4.9670     7.3510     2.2520 
  247.2500   235.4950    14.5670    58.5060     2.2530   113.2960     4.2380     5.0290     7.8590     2.2570 
  247.3750   235.6080    14.5790    58.5580     2.3660   115.1040     4.2640     5.0280     8.0780     2.2740 
  247.5000   235.7210    14.5910    58.6090     2.4920   116.6760     4.2730     5.0100     7.8480     2.2850 
  247.6250   235.8350    14.6040    58.6600     2.6080   115.7050     4.2820     5.0140     7.5770     2.2880 
  247.7500   235.9480    14.6170    58.7110     2.7000   114.3800     4.3130     5.0590     7.6300     2.2880 
  247.8750   236.0610    14.6290    58.7630     2.7600   114.7130     4.3460     5.1130     7.6270     2.2910 
  248.0000   236.1740    14.6420    58.8140     2.7920   114.2550     4.3620     5.1430     7.5220     2.3010 
  248.1250   236.2880    14.6540    58.8650     2.7880   112.8520     4.3500     5.1350     7.4970     2.3140 
  248.2500   236.4010    14.6670    58.9160     2.7460   111.3310     4.3340     5.1150     7.1800     2.3200 
  248.3750   236.5140    14.6790    58.9680     2.6480   110.6470     4.3290     5.1120     7.0440     2.3100 
  248.5000   236.6280    14.6920    59.0190     2.4900   109.7520     4.3740     5.1660     8.0110     2.3000 
  248.6250   236.7410    14.7040    59.0700     2.2630   109.0910     4.4810     5.2750     9.0460     2.3040 
  248.7500   236.8550    14.7160    59.1210     1.9730   108.2030     4.7320     5.5470     8.9510     2.3070 
  248.8750   236.9680    14.7290    59.1720     1.6080   105.7080     5.2520     6.1220     8.9870     2.2980 
  249.0000   237.0810    14.7410    59.2230     1.1620   102.7690     6.2150     7.2440     9.9230     2.2870 
  249.1250   237.1950    14.7530    59.2740     0.6160    99.2830     7.7330     9.0560    12.3000     2.2840 
  249.2500   237.3080    14.7650    59.3250    -0.0230    93.4560     9.9350    11.7140    18.7250     2.2810 
  249.3750   237.4220    14.7780    59.3760    -0.7330    84.6020    12.6610    14.8700    27.4440     2.2710 
  249.5000   237.5350    14.7900    59.4270    -1.4550    76.4490    14.9500    17.3560    31.5450     2.2640 
  249.6250   237.6490    14.8030    59.4780    -2.1240    71.6910    16.4570    18.7950    29.7310     2.2540 
  249.7500   237.7630    14.8150    59.5280    -2.6920    70.6560    16.9310    19.0180    26.2000     2.2340 
