~V
VERS. 2.00: Ver 2.00
~W
STRT.M 35.0000:
STOP.M 279.0000:
STEP.M 0.1250:
NULL. -999.2500:
UWI. FD11183:
~C
DEPT.M :
TVD. :
DX. :
DY. :
SP.MV :
GR.API :
RI. :
RML.OHMM :
RXO.OHMM :
DEN.GM/CC :
~A
# ...
  272.2500   257.3660   -72.7770    11.9810  -103.1450    61.2740     3.0620     3.6670     3.3660     2.2760 
  272.3750   257.4780   -72.8310    11.9890  -103.1450    61.2740     3.0570     3.6850     3.4660     2.2550 
  272.5000   257.5900   -72.8860    11.9980  -103.1450    61.2740     3.0540     3.6940     3.4530     2.2590 
  272.6250   257.7020   -72.9410    12.0060  -103.1450    61.2740     3.0540     3.6990     3.3070     2.2770 
  272.7500   257.8140   -72.9960    12.0140  -103.1450    61.2740     3.0550     3.6990     3.2470     2.2890 
  272.8750   257.9260   -73.0510    12.0230  -103.1450    61.2740     3.0550     3.6970     3.2650     2.2920 
  273.0000   258.0380   -73.1050    12.0310  -103.1450    61.2740     3.0550     3.6960     3.1810     2.2930 
  273.1250   258.1500   -73.1600    12.0400  -103.1450    61.2740     3.0550     3.6910     3.0520     2.2940 
  273.2500   258.2620   -73.2150    12.0480  -103.1450    61.2740     3.0550     3.6900     3.0410     2.2930 
  273.3750   258.3740   -73.2700    12.0570  -103.1450    61.2740     3.0550     3.6900     3.1540     2.2910 
  273.5000   258.4860   -73.3240    12.0650  -103.1450    61.2740     3.0550     3.6910     3.2650     2.2890 
  273.6250   258.5980   -73.3790    12.0740  -103.1450    61.2740     3.0550     3.6900     3.3970     2.2920 
  273.7500   258.7100   -73.4340    12.0820  -103.1450    61.2740     3.0550     3.6760     3.4500     2.2960 
  273.8750   258.8220   -73.4890    12.0910  -103.1450    61.2740     3.0550     3.6630     3.3030     2.3000 
  274.0000   258.9340   -73.5440    12.0990  -103.1450    61.2740     3.0550     3.6520     3.2200     2.3070 
  274.1250   259.0460   -73.5980    12.1080  -103.1450    61.2740     3.0550     3.6480     3.4110     2.3200 
  274.2500   259.1580   -73.6530    12.1160  -103.1450    61.2740     3.0550     3.6480     3.7500     2.3330 
  274.3750   259.2700   -73.7080    12.1240  -103.1450    61.2740     3.0550     3.6480     4.0860     2.3390 
  274.5000   259.3820   -73.7630    12.1330  -103.1450    61.2740     3.0550     3.6480     4.2520     2.3340 
  274.6250   259.4940   -73.8180    12.1410  -103.1450    61.2740     3.0550     3.6480     4.0420     2.3250 
  274.7500   259.6060   -73.8720    12.1500  -103.1450    61.2740     3.0550     3.6480     3.6330     2.3150 
  274.8750   259.7180   -73.9270    12.1580  -103.1450    61.2740     3.0550     3.6480     3.3010     2.3180 
  275.0000   259.8300   -73.9820    12.1670  -103.1450    61.2740     3.0550     3.6480     3.0620     2.3510 
  275.1250   259.9430   -74.0370    12.1750  -103.1450    61.2740     3.0550     3.6480     2.9300     2.3940 
  275.2500   260.0550   -74.0920    12.1840  -103.1450    61.2740     3.0550     3.6480     2.9270     2.3890 
  275.3750   260.1670   -74.1460    12.1920  -103.1450    61.2740     3.0550     3.6480     2.9230     2.3340 
  275.5000   260.2790   -74.2010    12.2010  -103.1450    61.2740     3.0550     3.6480     2.7830     2.2990 
  275.6250   260.3910   -74.2560    12.2090  -103.1450    61.2740     3.0550     3.6480     2.6660     2.2790 
  275.7500   260.5030   -74.3110    12.2180  -103.1450    61.2740     3.0550     3.6480     2.7860     2.2090 
  275.8750   260.6150   -74.3650    12.2260  -103.1450    61.2740     3.0550     3.6480     3.2340     2.1010 
  276.0000   260.7270   -74.4200    12.2340  -103.1450    61.2740     3.0550     3.6480     3.9280     2.0340 
  276.1250   260.8390   -74.4750    12.2430  -103.1450    61.2740     3.0550     3.6480     4.4950     2.0190 
  276.2500   260.9510   -74.5300    12.2510  -103.1450    61.2740     3.0550     3.6480     4.6560     2.0150 
  276.3750   261.0630   -74.5850    12.2600  -103.1450    61.2740     3.0550     3.6480     4.6050     2.0090 
  276.5000   261.1750   -74.6390    12.2680  -103.1450    61.2740     3.0550     3.6480     4.5790     2.0040 
  276.6250   261.2870   -74.6940    12.2770  -103.1450    61.2740     3.0550     3.6480     4.5770     2.0090 
  276.7500   261.3990   -74.7490    12.2850  -103.1450    61.2740     3.0550     3.6480     4.5750     2.0180 
  276.8750   261.5110   -74.8040    12.2940  -103.1450    61.2740     3.0550     3.6480     4.5730     2.0210 
  277.0000   261.6230   -74.8590    12.3020  -103.1450    61.2740     3.0550     3.6480     4.5710     2.0150 
  277.1250   261.7350   -74.9130    12.3110  -103.1450    61.2740     3.0550     3.6480     4.5680     2.0040 
  277.2500   261.8470   -74.9680    12.3190  -103.1450    61.2740     3.0550     3.6480     4.5660     1.9970 
  277.3750   261.9590   -75.0230    12.3270  -103.1450    61.2740     3.0550     3.6480     4.5630     1.9950 
  277.5000   262.0710   -75.0780    12.3360  -103.1450    61.2740     3.0550     3.6480     4.5610     1.9950 
  277.6250   262.1830   -75.1320    12.3440  -103.1450    61.2740     3.0550     3.6480     4.5580     1.9960 
  277.7500   262.2950   -75.1870    12.3530  -103.1450    61.2740     3.0550     3.6480     4.5550     1.9970 
  277.8750   262.4070   -75.2420    12.3610  -103.1450    61.2740     3.0550     3.6480     4.5530     2.0020 
  278.0000   262.5190   -75.2970    12.3700  -103.1450    61.2740     3.0550     3.6480     4.5500     2.0060 
  278.1250   262.6310   -75.3520    12.3780  -103.1450    61.2740     3.0550     3.6480     4.5470     2.0050 
  278.2500   262.7430   -75.4060    12.3870  -103.1450    61.2740     3.0550     3.6480     4.5440     1.9990 
  278.3750   262.8550   -75.4610    12.3950  -103.1450    61.2740     3.0550     3.6480     4.5400     1.9930 
  278.5000   262.9670   -75.5160    12.4040  -103.1450    61.2740     3.0550     3.6480     4.5360     1.9920 
  278.6250   263.0790   -75.5710    12.4120  -103.1450    61.2740     3.0550     3.6480     4.5330     1.9970 
  278.7500   263.1920   -75.6260    12.4210  -103.1450    61.2740     3.0550     3.6480     4.5290     1.9990 
  278.8750   263.3040   -75.6800    12.4290  -103.1450    61.2740     3.0550     3.6480     4.5250     1.9940 
  279.0000   263.4160   -75.7350    12.4370  -103.1450    61.2740     3.0550     3.6480     4.5200     1.9880 
