~V
VERS. 2.00: Ver 2.00
~W
STRT.M 20.0000:
STOP.M 277.0000:
STEP.M 0.1250:
NULL. -999.2500:
UWI. FD11024:
~C
DEPT.M :
TVD. :
DX. :
DY. :
DEN.GM/CC :
GR.API :
RML.OHMM :
RI. :
RXO.OHMM :
CALI.CM :
SP.MV :
~A
# ...
  251.0000   245.0860    26.9450    37.2910     2.4590    68.3240    12.9620    10.9280    10.9820    20.2460   -10.4130 
  251.1250   245.2050    26.9690    37.3230     2.4570    65.2970    12.9730    10.9810    11.2390    20.2460   -10.3890 
  251.2500   245.3230    26.9940    37.3540     2.4570    64.6880    13.0810    11.1080    11.0630    20.2460   -10.3590 
  251.3750   245.4420    27.0180    37.3850     2.4570    66.8610    13.2710    11.3050    11.2360    20.2450   -10.3290 
  251.5000   245.5610    27.0420    37.4160     2.4590    68.4840    13.5030    11.5460    12.2010    20.2400   -10.3050 
  251.6250   245.6790    27.0660    37.4480     2.4620    66.6680    13.7200    11.7750    13.5600    20.1990   -10.3150 
  251.7500   245.7980    27.0900    37.4790     2.4630    65.4550    13.8490    11.9160    13.3070    20.0830   -10.3210 
  251.8750   245.9160    27.1140    37.5100     2.4590    66.5760    13.7920    11.8830    12.2110    19.9220   -10.3230 
  252.0000   246.0350    27.1380    37.5410     2.4470    68.8590    13.4480    11.5960    11.2160    19.8640   -10.3310 
  252.1250   246.1540    27.1620    37.5730     2.4290    71.1650    12.7260    10.9820    10.9520    19.8760   -10.3500 
  252.2500   246.2720    27.1860    37.6040     2.4100    72.5300    11.7800    10.1650    10.5720    19.9400   -10.3630 
  252.3750   246.3910    27.2100    37.6350     2.3960    72.1850    10.7960     9.2870    10.0560    20.0410   -10.3530 
  252.5000   246.5090    27.2350    37.6660     2.3900    69.2120     9.9620     8.4990     9.1370    20.2110   -10.3280 
  252.6250   246.6280    27.2590    37.6980     2.3880    65.7800     9.4250     7.9480     7.6170    20.5250   -10.2840 
  252.7500   246.7470    27.2830    37.7290     2.3860    64.5220     9.1280     7.6200     6.2960    20.6060   -10.2710 
  252.8750   246.8650    27.3070    37.7600     2.3780    63.6370     8.9920     7.4780     5.9610    20.6980   -10.2570 
  253.0000   246.9840    27.3310    37.7910     2.3690    61.6720     8.9350     7.4560     5.8200    21.0200   -10.2570 
  253.1250   247.1030    27.3550    37.8220     2.3660    59.6460     8.9080     7.4930     5.6480    21.9280   -10.2660 
  253.2500   247.2210    27.3790    37.8540     2.3730    59.7310     8.9060     7.5380     5.5270    22.3560   -10.2820 
  253.3750   247.3400    27.4030    37.8850     2.3870    61.7760     8.9490     7.5840     5.6140    22.0470   -10.3160 
  253.5000   247.4580    27.4270    37.9160     2.4030    63.8960     9.0450     7.6310     5.8020    21.2720   -10.3500 
  253.6250   247.5770    27.4510    37.9470     2.4120    66.7780     9.1660     7.6800     6.4530    20.9610   -10.3710 
  253.7500   247.6960    27.4760    37.9790     2.4140    68.8770     9.2660     7.7230     7.0610    21.2170   -10.3760 
  253.8750   247.8140    27.5000    38.0100     2.4130    66.5960     9.3220     7.7540     7.5490    21.5370   -10.3850 
  254.0000   247.9330    27.5240    38.0410     2.4150    61.3930     9.3260     7.7620     7.7130    21.6840   -10.3770 
  254.1250   248.0510    27.5480    38.0720     2.4200    59.4450     9.2810     7.7310     7.6870    21.7070   -10.3560 
  254.2500   248.1700    27.5720    38.1040     2.4280    62.4230     9.2100     7.6680     7.6100    21.7080   -10.3380 
  254.3750   248.2890    27.5960    38.1350     2.4340    65.3390     9.1290     7.5820     7.7490    21.7190   -10.3210 
  254.5000   248.4070    27.6200    38.1660     2.4380    63.3270     9.0510     7.4830     8.3260    21.7630   -10.3000 
  254.6250   248.5260    27.6440    38.1970     2.4340    60.2570     8.9870     7.3860     9.1700    21.9400   -10.2870 
  254.7500   248.6440    27.6680    38.2290     2.4230    61.2900     8.9290     7.3040     8.9450    22.0300   -10.2730 
  254.8750   248.7630    27.6920    38.2600     2.4060    64.0930     8.8630     7.2370     7.7210    22.1320   -10.2650 
  255.0000   248.8820    27.7170    38.2910     2.3880    63.2820     8.7780     7.1790     6.4500    22.1980   -10.2840 
  255.1250   249.0000    27.7410    38.3220     2.3730    60.5950     8.6890     7.1270     5.7760    22.3400   -10.3060 
  255.2500   249.1190    27.7650    38.3540     2.3650    59.4120     8.6360     7.0900     5.3750    22.5020   -10.3120 
  255.3750   249.2380    27.7890    38.3850     2.3620    58.3470     8.6510     7.0880     5.2610    22.4330   -10.3010 
  255.5000   249.3560    27.8130    38.4160     2.3650    57.2290     8.7440     7.1460     5.3590    22.2420   -10.2800 
  255.6250   249.4750    27.8370    38.4470     2.3690    58.5030     8.8960     7.2800     5.4950    21.9360   -10.2570 
  255.7500   249.5930    27.8610    38.4790     2.3730    59.7700     9.0570     7.4570     5.5870    21.3070   -10.2320 
  255.8750   249.7120    27.8850    38.5100     2.3730    58.3390     9.1980     7.6370     5.6250    20.9800   -10.2020 
  256.0000   249.8310    27.9090    38.5410     2.3720    55.6450     9.3220     7.7900     5.5940    20.8220   -10.1480 
  256.1250   249.9490    27.9330    38.5720     2.3700    54.4530     9.4680     7.8970     5.6740    20.5520   -10.0920 
  256.2500   250.0680    27.9580    38.6030     2.3720    54.3300     9.6620     7.9820     5.6930    20.5200   -10.0480 
  256.3750   250.1860    27.9820    38.6350     2.3770    55.1440     9.8910     8.0680     5.5630    20.5120   -10.0090 
  256.5000   250.3050    28.0060    38.6660     2.3850    56.5250    10.1180     8.1700     5.4280    20.5810    -9.9790 
  256.6250   250.4240    28.0300    38.6970     2.3960    57.1520    10.2900     8.2780     5.5820    20.7190    -9.9430 
  256.7500   250.5420    28.0540    38.7280     2.4070    55.6720    10.4050     8.3680     6.3130    20.7720    -9.9130 
  256.8750   250.6610    28.0780    38.7600     2.4200    53.8390    10.4980     8.4320     7.3950    20.7940    -9.8970 
  257.0000   250.7790    28.1020    38.7910     2.4340    53.3820    10.6320     8.4980     7.7320    20.8510    -9.8900 
  257.1250   250.8980    28.1260    38.8220     2.4500    52.5860    10.9040     8.6530     7.3260    20.9650    -9.9040 
  257.2500   251.0170    28.1500    38.8530     2.4650    51.6550    11.3700     8.9690     7.0830    20.9500    -9.9400 
  257.3750   251.1350    28.1740    38.8850     2.4800    53.8240    12.0940     9.5040     7.5820    20.9650    -9.9930 
  257.5000   251.2540    28.1990    38.9160     2.4940    58.7450    13.1160    10.2860     9.2310    21.0700   -10.0690 
  257.6250   251.3720    28.2230    38.9470     2.5110    60.9780    14.4560    11.3400    13.1570    21.0450   -10.1350 
  257.7500   251.4910    28.2480    38.9790     2.5310    60.0890    15.9280    12.5470    16.9860    20.8080   -10.2010 
  257.8750   251.6090    28.2720    39.0100     2.5500    59.3460    17.2970    13.7610    20.0480    20.6170   -10.2350 
  258.0000   251.7280    28.2970    39.0410     2.5610    60.2000    18.2520    14.7580    20.2330    20.4630   -10.2660 
  258.1250   251.8460    28.3210    39.0730     2.5540    60.7390    18.3580    15.1670    19.0040    20.2920   -10.2910 
  258.2500   251.9650    28.3460    39.1040     2.5300    60.5670    17.6650    14.9230    17.8480    20.2510   -10.3220 
  258.3750   252.0830    28.3700    39.1350     2.4960    60.3890    16.4170    14.1370    16.3730    20.3330   -10.3440 
  258.5000   252.2020    28.3950    39.1670     2.4650    61.1070    15.0320    13.0910    16.3200    20.6280   -10.3360 
  258.6250   252.3200    28.4190    39.1980     2.4490    63.0750    13.9710    12.1360    15.4550    21.0790   -10.3530 
  258.7500   252.4390    28.4430    39.2300     2.4480    64.9450    13.3490    11.4590    13.1100    21.5020   -10.3760 
  258.8750   252.5570    28.4680    39.2610     2.4540    65.0060    13.1050    11.0900     9.8880    21.5300   -10.4270 
  259.0000   252.6760    28.4920    39.2920     2.4590    63.1700    13.0840    10.9800     8.4510    20.9780   -10.4900 
  259.1250   252.7940    28.5170    39.3240     2.4580    60.9000    13.1090    11.0430     8.0850    20.8030   -10.5400 
