~V
VERS. 2.00: Ver 2.00
~W
STRT.M 40.0000:
STOP.M 279.0000:
STEP.M 0.1250:
NULL. -999.2500:
UWI. FD11188:
~C
DEPT.M :
TVD. :
DX. :
DY. :
SP.MV :
GR.API :
RI. :
RML.OHMM :
RXO.OHMM :
DEN.GM/CC :
~A
# ...
  268.1250   254.4360    16.8430    66.9780     1.6460    82.4230     3.5210     4.1970     5.1290     2.4460 
  268.2500   254.5500    16.8580    67.0290     1.6460    80.0870     3.5130     4.1930     5.5490     2.3090 
  268.3750   254.6630    16.8730    67.0790     1.6460    79.4110     3.5130     4.2080     5.4940     2.1970 
  268.5000   254.7760    16.8880    67.1300     1.6460    80.1050     3.5200     4.2100     5.2940     2.1610 
  268.6250   254.8890    16.9030    67.1810     1.6460    80.7140     3.5170     4.2080     5.2610     2.1920 
  268.7500   255.0020    16.9170    67.2320     1.6460    80.7290     3.5150     4.2150     5.2030     2.2580 
  268.8750   255.1150    16.9320    67.2830     1.6460    80.2970     3.5080     4.2100     5.2080     2.3540 
  269.0000   255.2290    16.9470    67.3340     1.6460    80.3820     3.4970     4.2100     5.5740     2.4350 
  269.1250   255.3420    16.9620    67.3850     1.6460    80.6070     3.4940     4.2010     6.1400     2.4570 
  269.2500   255.4550    16.9770    67.4360     1.6460    80.6750     3.5060     4.2070     6.3740     2.4550 
  269.3750   255.5680    16.9920    67.4870     1.6460    80.5330     3.5180     4.1950     6.3050     2.4820 
  269.5000   255.6810    17.0070    67.5380     1.6460    80.4870     3.5300     4.1980     6.2210     2.5150 
  269.6250   255.7940    17.0220    67.5890     1.6460    80.4980     3.5230     4.1970     6.0580     2.5240 
  269.7500   255.9080    17.0370    67.6400     1.6460    80.4970     3.5140     4.2170     5.8880     2.5300 
  269.8750   256.0210    17.0510    67.6910     1.6460    80.4970     3.5100     4.2310     6.5530     2.5350 
  270.0000   256.1340    17.0660    67.7420     1.6460    80.4970     3.5080     4.2300     6.6220     2.5110 
  270.1250   256.2470    17.0810    67.7930     1.6460    80.4970     3.5150     4.2240     5.0700     2.4840 
  270.2500   256.3600    17.0960    67.8440     1.6460    80.4970     3.5190     4.2100     4.6710     2.4880 
  270.3750   256.4740    17.1110    67.8940     1.6460    80.4970     3.5090     4.2040     5.4240     2.4950 
  270.5000   256.5870    17.1260    67.9450     1.6460    80.4970     3.5110     4.2010     5.6960     2.4570 
  270.6250   256.7000    17.1410    67.9960     1.6460    80.4970     3.5110     4.2180     5.4560     2.3750 
  270.7500   256.8130    17.1560    68.0470     1.6460    80.4970     3.5200     4.2050     5.0320     2.3010 
  270.8750   256.9260    17.1710    68.0980     1.6460    80.4970     3.5200     4.2190     4.8490     2.2580 
  271.0000   257.0390    17.1850    68.1490     1.6460    80.4970     3.5190     4.2170     4.9520     2.2510 
  271.1250   257.1530    17.2000    68.2000     1.6460    80.4970     3.5130     4.2080     5.0990     2.3070 
  271.2500   257.2660    17.2150    68.2510     1.6460    80.4970     3.5190     4.2050     5.2710     2.4160 
  271.3750   257.3790    17.2300    68.3020     1.6460    80.4970     3.5240     4.2210     5.6380     2.5020 
  271.5000   257.4920    17.2450    68.3530     1.6460    80.4970     3.5180     4.2260     5.6750     2.4890 
  271.6250   257.6050    17.2600    68.4040     1.6460    80.4970     3.5260     4.2440     5.3910     2.3880 
  271.7500   257.7180    17.2750    68.4550     1.6460    80.4970     3.5220     4.2420     5.3310     2.2960 
  271.8750   257.8320    17.2900    68.5060     1.6460    80.4970     3.5290     4.2270     5.4400     2.2640 
  272.0000   257.9450    17.3050    68.5570     1.6460    80.4970     3.5290     4.2270     5.4810     2.2590 
  272.1250   258.0580    17.3190    68.6080     1.6460    80.4970     3.5290     4.2270     5.4010     2.2600 
  272.2500   258.1710    17.3340    68.6590     1.6460    80.4970     3.5290     4.2270     5.2820     2.2610 
  272.3750   258.2840    17.3490    68.7090     1.6460    80.4970     3.5290     4.2270     5.1250     2.2520 
  272.5000   258.3980    17.3640    68.7600     1.6460    80.4970     3.5290     4.2270     5.1020     2.2370 
  272.6250   258.5110    17.3790    68.8110     1.6460    80.4970     3.5290     4.2270     5.2540     2.2320 
  272.7500   258.6240    17.3940    68.8620     1.6460    80.4970     3.5290     4.2270     5.2250     2.2380 
  272.8750   258.7370    17.4090    68.9130     1.6460    80.4970     3.5290     4.2270     4.9800     2.2360 
  273.0000   258.8500    17.4240    68.9640     1.6460    80.4970     3.5290     4.2270     4.6820     2.2280 
  273.1250   258.9630    17.4390    69.0150     1.6460    80.4970     3.5290     4.2270     4.3270     2.2220 
  273.2500   259.0770    17.4530    69.0660     1.6460    80.4970     3.5290     4.2270     4.1080     2.2160 
  273.3750   259.1900    17.4680    69.1170     1.6460    80.4970     3.5290     4.2270     4.2490     2.2160 
  273.5000   259.3030    17.4830    69.1680     1.6460    80.4970     3.5290     4.2270     4.5440     2.2280 
  273.6250   259.4160    17.4980    69.2190     1.6460    80.4970     3.5290     4.2270     4.7510     2.2380 
  273.7500   259.5290    17.5130    69.2700     1.6460    80.4970     3.5290     4.2270     4.9090     2.2330 
  273.8750   259.6420    17.5280    69.3210     1.6460    80.4970     3.5290     4.2270     5.0190     2.2220 
  274.0000   259.7560    17.5430    69.3720     1.6460    80.4970     3.5290     4.2270     5.1220     2.2140 
  274.1250   259.8690    17.5580    69.4230     1.6460    80.4970     3.5290     4.2270     5.1190     2.2030 
  274.2500   259.9820    17.5730    69.4740     1.6460    80.4970     3.5290     4.2270     4.9880     2.1730 
  274.3750   260.0950    17.5870    69.5240     1.6460    80.4970     3.5290     4.2270     5.0010     2.1240 
  274.5000   260.2080    17.6020    69.5750     1.6460    80.4970     3.5290     4.2270     5.1400     2.0770 
  274.6250   260.3210    17.6170    69.6260     1.6460    80.4970     3.5290     4.2270     5.2440     2.0530 
  274.7500   260.4350    17.6320    69.6770     1.6460    80.4970     3.5290     4.2270     5.2600     2.0510 
  274.8750   260.5480    17.6470    69.7280     1.6460    80.4970     3.5290     4.2270     5.2880     2.0540 
  275.0000   260.6610    17.6620    69.7790     1.6460    80.4970     3.5290     4.2270     5.3330     2.0550 
  275.1250   260.7740    17.6770    69.8300     1.6460    80.4970     3.5290     4.2270     5.3290     2.0550 
  275.2500   260.8870    17.6920    69.8810     1.6460    80.4970     3.5290     4.2270     5.3210     2.0540 
  275.3750   261.0010    17.7070    69.9320     1.6460    80.4970     3.5290     4.2270     5.3120     2.0490 
  275.5000   261.1140    17.7210    69.9830     1.6460    80.4970     3.5290     4.2270     5.3530     2.0450 
  275.6250   261.2270    17.7360    70.0340     1.6460    80.4970     3.5290     4.2270     5.4060     2.0510 
  275.7500   261.3400    17.7510    70.0850     1.6460    80.4970     3.5290     4.2270     5.4800     2.0590 
  275.8750   261.4530    17.7660    70.1360     1.6460    80.4970     3.5290     4.2270     5.4230     2.0590 
  276.0000   261.5660    17.7810    70.1870     1.6460    80.4970     3.5290     4.2270     4.9870     2.0520 
  276.1250   261.6800    17.7960    70.2380     1.6460    80.4970     3.5290     4.2270     4.7570     2.0470 
  276.2500   261.7930    17.8110    70.2890     1.6460    80.4970     3.5290     4.2270     4.9520     2.0450 
  276.3750   261.9060    17.8260    70.3390     1.6460    80.4970     3.5290     4.2270     4.9430     2.0430 
  276.5000   262.0190    17.8410    70.3900     1.6460    80.4970     3.5290     4.2270     4.5440     2.0420 
  276.6250   262.1320    17.8550    70.4410     1.6460    80.4970     3.5290     4.2270     4.1380     2.0460 
  276.7500   262.2450    17.8700    70.4920     1.6460    80.4970     3.5290     4.2270     4.0100     2.0540 
  276.8750   262.3590    17.8850    70.5430     1.6460    80.4970     3.5290     4.2270     3.8910     2.0600 
  277.0000   262.4720    17.9000    70.5940     1.6460    80.4970     3.5290     4.2270     3.8040     2.0550 
  277.1250   262.5850    17.9150    70.6450     1.6460    80.4970     3.5290     4.2270     4.1130     2.0440 
