~V
VERS. 2.00: Ver 2.00
~W
STRT.M 20.0000:
STOP.M 285.0000:
STEP.M 0.1250:
NULL. -999.2500:
UWI. FD11157:
~C
DEPT.M :
TVD. :
DX. :
DY. :
GR.API :
RML.OHMM :
RI. :
RXO.OHMM :
CALI.CM :
SP.MV :
DEN.GM/CC :
~A
# ...
   36.5000    36.5000     0.0000     0.0000    59.2330    15.8000    13.1660    14.4150    25.2090   -56.1320     2.0300 
   36.6250    36.6250     0.0000     0.0000    57.9490    16.6940    13.9120    14.7110    25.2710   -56.1550     1.9870 
   36.7500    36.7500     0.0000     0.0000    54.7140    17.3530    14.4610    14.5700    25.3800   -56.1410     1.9350 
   36.8750    36.8750     0.0000     0.0000    53.0540    17.7040    14.7540    14.2150    25.5230   -56.1050     1.8870 
   37.0000    37.0000     0.0000     0.0000    55.4090    17.7790    14.8160    13.8590    25.6550   -56.0840     1.8550 
   37.1250    37.1250     0.0000     0.0000    57.0260    17.6560    14.7140    13.6190    25.8700   -56.0490     1.8540 
   37.2500    37.2500     0.0000     0.0000    53.2960    17.4000    14.5000    13.4280    26.1140   -55.9470     1.8840 
   37.3750    37.3750     0.0000     0.0000    48.8400    16.9010    14.0840    13.1540    26.2540   -55.7810     1.9340 
   37.5000    37.5000     0.0000     0.0000    47.6720    16.0160    13.3470    12.7900    26.2590   -55.5840     1.9900 
   37.6250    37.6250     0.0000     0.0000    46.4020    14.6810    12.2340    12.5450    26.1150   -55.3720     2.0310 
   37.7500    37.7500     0.0000     0.0000    43.8010    13.2090    11.0070    12.2760    25.9400   -55.1240     2.0480 
   37.8750    37.8750     0.0000     0.0000    43.0100    11.8920     9.9100    11.5600    25.9980   -54.8290     2.0430 
   38.0000    38.0000     0.0000     0.0000    44.6700    10.9180     9.0980    10.3420    26.2600   -54.5230     2.0340 
   38.1250    38.1250     0.0000     0.0000    47.3910    10.4070     8.6720     9.6140    26.4620   -54.2700     2.0420 
   38.2500    38.2500     0.0000     0.0000    50.6530    10.2660     8.5550     9.8240    26.8910   -54.0470     2.0680 
   38.3750    38.3750     0.0000     0.0000    53.1330    10.4620     8.7190    10.2600    27.2030   -53.8340     2.1040 
   38.5000    38.5000     0.0000     0.0000    51.9410    10.9480     9.1230    10.9160    27.2760   -53.6260     2.1480 
   38.6250    38.6250     0.0000     0.0000    48.9220    11.5610     9.6340    11.2580    27.6260   -53.3660     2.2180 
   38.7500    38.7500     0.0000     0.0000    48.8140    12.0030    10.0020    11.1570    28.1510   -53.0840     2.3030 
   38.8750    38.8750     0.0000     0.0000    52.2630    12.0530    10.0440    10.9540    28.3460   -52.8200     2.3690 
   39.0000    39.0000     0.0000     0.0000    56.8180    11.6380     9.6980    11.1830    28.0510   -52.5220     2.3760 
   39.1250    39.1250     0.0000     0.0000    58.7770    10.7970     8.9970    11.6890    27.3410   -52.1500     2.3070 
   39.2500    39.2500     0.0000     0.0000    58.0020     9.7660     8.1390    12.1920    27.2960   -51.7630     2.2040 
   39.3750    39.3750     0.0000     0.0000    56.2760     8.7260     7.2710    12.3050    27.7940   -51.3800     2.1020 
   39.5000    39.5000     0.0000     0.0000    55.7390     7.8330     6.5270    11.7220    28.8790   -51.0030     2.0270 
   39.6250    39.6250     0.0000     0.0000    53.6040     7.2260     6.0210    10.8370    30.5100   -50.6720     1.9990 
   39.7500    39.7500     0.0000     0.0000    49.6910     6.8790     5.7330    10.4480    31.7510   -50.3420     2.0140 
   39.8750    39.8750     0.0000     0.0000    45.9660     6.7670     5.6390    10.4570    32.1670   -49.9190     2.0680 
   40.0000    40.0000     0.0000     0.0000    45.3160     6.8770     5.7310    10.6960    31.8630   -49.4360     2.1470 
   40.1250    40.1250     0.0000     0.0000    48.6440     7.1860     5.9880    10.8900    31.2480   -48.9020     2.2130 
   40.2500    40.2500     0.0000     0.0000    54.3980     7.4970     6.2470    11.0770    30.0920   -48.2880     2.2390 
   40.3750    40.3750     0.0000     0.0000    60.7440     7.5800     6.3170    11.3200    28.0660   -47.6110     2.2250 
   40.5000    40.5000     0.0000     0.0000    67.0120     7.2610     6.0510    10.9840    26.2340   -46.9090     2.1890 
   40.6250    40.6250     0.0000     0.0000    74.9470     6.5490     5.4580     9.4820    24.9970   -46.2640     2.1600 
   40.7500    40.7500     0.0000     0.0000    82.1800     5.7710     4.8090     7.4630    24.9470   -45.7810     2.1550 
   40.8750    40.8750     0.0000     0.0000    83.9100     5.1560     4.2970     6.2220    25.1460   -45.5760     2.1740 
   41.0000    41.0000     0.0000     0.0000    79.1700     4.8360     4.0300     6.3130    25.2390   -45.6470     2.2020 
   41.1250    41.1250     0.0000     0.0000    72.6540     4.9180     4.0990     7.9140    25.3080   -45.9400     2.2150 
   41.2500    41.2500     0.0000     0.0000    67.4450     5.3590     4.4650     9.8770    25.4960   -46.3980     2.2070 
   41.3750    41.3750     0.0000     0.0000    62.2030     6.1070     5.0890    11.1850    25.6170   -47.0020     2.1900 
   41.5000    41.5000     0.0000     0.0000    58.6270     7.0300     5.8590    11.6910    25.5440   -47.6800     2.1730 
   41.6250    41.6250     0.0000     0.0000    59.5330     7.8430     6.5360    11.8030    25.2190   -48.3420     2.1570 
   41.7500    41.7500     0.0000     0.0000    59.9110     8.2890     6.9070    11.8800    24.7120   -48.8860     2.1370 
   41.8750    41.8750     0.0000     0.0000    57.0420     8.2760     6.8970    11.9610    24.0830   -49.2420     2.1110 
   42.0000    42.0000     0.0000     0.0000    53.9490     7.8780     6.5650    11.9560    23.5410   -49.4140     2.0820 
   42.1250    42.1250     0.0000     0.0000    56.0490     7.2640     6.0530    11.7330    23.4950   -49.4510     2.0600 
   42.2500    42.2500     0.0000     0.0000    59.9210     6.6780     5.5650    11.2160    23.7180   -49.3930     2.0480 
   42.3750    42.3750     0.0000     0.0000    60.3560     6.2680     5.2230    10.6310    24.0020   -49.2440     2.0430 
   42.5000    42.5000     0.0000     0.0000    57.7540     6.1460     5.1220    10.3490    24.5660   -49.0360     2.0380 
   42.6250    42.6250     0.0000     0.0000    54.2080     6.3510     5.2920    10.2570    25.4600   -48.7730     2.0320 
   42.7500    42.7500     0.0000     0.0000    51.1350     6.6710     5.5590    10.0450    26.7700   -48.4390     2.0330 
   42.8750    42.8750     0.0000     0.0000    48.4940     6.8870     5.7390     9.9870    27.8350   -48.0040     2.0480 
   43.0000    43.0000     0.0000     0.0000    48.7080     6.8390     5.6990    10.1820    27.8630   -47.4320     2.0790 
   43.1250    43.1250     0.0000     0.0000    54.6040     6.4940     5.4110     9.6040    26.9780   -46.7500     2.1170 
   43.2500    43.2500     0.0000     0.0000    61.8880     6.0260     5.0220     8.4780    26.0540   -46.0650     2.1470 
   43.3750    43.3750     0.0000     0.0000    66.9050     5.5700     4.6410     7.5720    25.7530   -45.3760     2.1630 
   43.5000    43.5000     0.0000     0.0000    68.4970     5.2210     4.3510     7.3120    25.5190   -44.6860     2.1720 
   43.6250    43.6250     0.0000     0.0000    67.2110     5.0700     4.2250     8.0120    25.1260   -44.0550     2.1930 
   43.7500    43.7500     0.0000     0.0000    65.1430     5.1490     4.2910     8.5480    24.5920   -43.4750     2.2270 
   43.8750    43.8750     0.0000     0.0000    64.0090     5.4650     4.5540     8.7900    23.9800   -42.9270     2.2590 
   44.0000    44.0000     0.0000     0.0000    64.2580     5.9460     4.9550     9.1370    23.6580   -42.4290     2.2660 
   44.1250    44.1250     0.0000     0.0000    64.3750     6.3920     5.3270     9.8460    23.6160   -41.9080     2.2370 
   44.2500    44.2500     0.0000     0.0000    64.5800     6.5910     5.4930    10.3430    23.7180   -41.2360     2.2030 
   44.3750    44.3750     0.0000     0.0000    68.5630     6.4690     5.3910    10.0070    24.0040   -40.4070     2.1930 
   44.5000    44.5000     0.0000     0.0000    76.6000     6.1110     5.0930     8.1240    24.4410   -39.4810     2.2160 
   44.6250    44.6250     0.0000     0.0000    85.3380     5.7180     4.7650     5.9110    24.5990   -38.5050     2.2520 
