~V
VERS. 2.00: Ver 2.00
~W
STRT.M 40.0000:
STOP.M 279.0000:
STEP.M 0.1250:
NULL. -999.2500:
UWI. FD11188:
~C
DEPT.M :
TVD. :
DX. :
DY. :
SP.MV :
GR.API :
RI. :
RML.OHMM :
RXO.OHMM :
DEN.GM/CC :
~A
# ...
  222.5000   212.9650    12.2870    48.5180   -10.0690    74.4740     8.8910     9.4240    16.2310     2.2920 
  222.6250   213.0780    12.2980    48.5690   -11.0990    69.4020    10.6420    11.2200    26.4290     2.2590 
  222.7500   213.1920    12.3080    48.6210   -12.0630    66.6660    11.9960    12.4890    29.4760     2.1880 
  222.8750   213.3050    12.3190    48.6730   -12.9070    68.2520    12.7970    13.1640    24.2790     2.1370 
  223.0000   213.4190    12.3290    48.7240   -13.6120    71.1150    13.3130    13.5660    19.8140     2.1360 
  223.1250   213.5320    12.3400    48.7760   -14.1580    72.2000    13.6830    13.9090    18.6160     2.1740 
  223.2500   213.6450    12.3500    48.8270   -14.5690    69.6530    14.3010    14.5850    22.0880     2.2220 
  223.3750   213.7590    12.3610    48.8780   -14.8580    65.6880    15.1120    15.4630    33.5400     2.2510 
  223.5000   213.8720    12.3710    48.9300   -15.0620    63.9220    15.8070    16.1560    39.8090     2.2320 
  223.6250   213.9860    12.3820    48.9810   -15.2010    66.0850    16.2210    16.5170    30.0560     2.1790 
  223.7500   214.0990    12.3930    49.0320   -15.3030    69.7370    16.4220    16.6890    20.2890     2.1400 
  223.8750   214.2130    12.4030    49.0830   -15.3820    71.3610    16.8060    17.0920    18.3870     2.1300 
  224.0000   214.3270    12.4140    49.1350   -15.4470    69.9210    17.6470    18.0290    19.0630     2.1290 
  224.1250   214.4400    12.4250    49.1860   -15.4990    66.4270    19.1300    19.6140    20.3700     2.1220 
  224.2500   214.5540    12.4350    49.2370   -15.5390    62.2700    20.8110    21.3330    21.1540     2.1140 
  224.3750   214.6670    12.4460    49.2880   -15.5710    59.9460    22.3410    22.8370    21.8000     2.1100 
  224.5000   214.7810    12.4570    49.3390   -15.6040    61.0710    23.4820    23.8980    22.5040     2.1090 
  224.6250   214.8940    12.4680    49.3900   -15.6530    64.7990    24.2090    24.5110    22.8400     2.1080 
  224.7500   215.0080    12.4780    49.4410   -15.7260    67.2940    24.5460    24.7220    22.4210     2.1030 
  224.8750   215.1220    12.4890    49.4920   -15.8240    66.9630    24.5650    24.6140    21.7580     2.0980 
  225.0000   215.2350    12.5000    49.5430   -15.9300    64.6180    24.3900    24.3110    21.5040     2.1000 
  225.1250   215.3490    12.5100    49.5930   -16.0160    64.4720    24.0190    23.8330    21.2970     2.1090 
  225.2500   215.4630    12.5210    49.6440   -16.0580    67.3290    23.4900    23.2070    21.0270     2.1170 
  225.3750   215.5770    12.5320    49.6950   -16.0420    69.2360    22.8420    22.4830    20.8880     2.1190 
  225.5000   215.6900    12.5430    49.7460   -15.9870    67.8410    21.9650    21.5370    20.6960     2.1160 
  225.6250   215.8040    12.5540    49.7960   -15.9220    66.2540    20.8820    20.3910    20.5120     2.1180 
  225.7500   215.9180    12.5650    49.8470   -15.8780    66.0340    19.6280    19.0780    20.2320     2.1270 
  225.8750   216.0320    12.5750    49.8970   -15.8770    66.5620    18.3250    17.7240    19.0220     2.1350 
  226.0000   216.1460    12.5860    49.9480   -15.9180    68.6430    17.1990    16.5370    17.2020     2.1360 
  226.1250   216.2590    12.5970    49.9980   -15.9900    70.7690    16.3580    15.6530    16.2610     2.1330 
  226.2500   216.3730    12.6080    50.0490   -16.0700    69.9860    15.9630    15.2050    15.3300     2.1330 
  226.3750   216.4870    12.6190    50.0990   -16.1330    67.5750    16.0330    15.2240    14.5920     2.1380 
  226.5000   216.6010    12.6300    50.1490   -16.1690    67.1110    16.5050    15.6500    16.0060     2.1390 
  226.6250   216.7150    12.6410    50.2000   -16.1720    67.6490    17.2600    16.3560    17.6270     2.1370 
  226.7500   216.8290    12.6510    50.2500   -16.1540    66.4500    18.1240    17.1870    17.4630     2.1330 
  226.8750   216.9430    12.6620    50.3000   -16.1280    64.8970    18.9680    18.0130    17.1180     2.1270 
  227.0000   217.0570    12.6730    50.3510   -16.1000    64.6900    19.7550    18.7850    18.1350     2.1230 
  227.1250   217.1710    12.6840    50.4010   -16.0680    66.1450    20.5550    19.6060    19.6470     2.1220 
  227.2500   217.2850    12.6940    50.4510   -16.0200    67.5280    21.2330    20.3100    19.2880     2.1240 
  227.3750   217.3990    12.7050    50.5010   -15.9410    66.8390    21.2890    20.4260    17.9670     2.1230 
  227.5000   217.5130    12.7160    50.5520   -15.8270    65.0970    20.6970    19.9200    18.6420     2.1120 
  227.6250   217.6260    12.7270    50.6020   -15.6850    64.1780    19.3600    18.6500    19.5750     2.1020 
  227.7500   217.7400    12.7380    50.6520   -15.5400    65.5170    17.9780    17.3590    18.2780     2.1020 
  227.8750   217.8540    12.7490    50.7020   -15.4240    66.7350    17.0570    16.5320    16.1810     2.1080 
  228.0000   217.9680    12.7600    50.7520   -15.3630    66.6660    16.8750    16.4830    15.9350     2.1130 
  228.1250   218.0820    12.7710    50.8030   -15.3780    65.7170    17.7250    17.4810    17.9270     2.1200 
  228.2500   218.1960    12.7820    50.8530   -15.4640    64.8680    19.3590    19.2480    20.2350     2.1280 
  228.3750   218.3100    12.7930    50.9030   -15.6140    64.3240    21.4940    21.4450    22.3690     2.1290 
  228.5000   218.4240    12.8040    50.9530   -15.8040    64.2750    23.3360    23.3010    24.9850     2.1220 
  228.6250   218.5380    12.8160    51.0030   -16.0130    64.9150    24.5770    24.5440    27.0880     2.1120 
  228.7500   218.6520    12.8270    51.0540   -16.2190    64.6950    25.3840    25.3700    25.9280     2.1020 
  228.8750   218.7660    12.8380    51.1040   -16.3990    63.8650    25.8500    25.8800    22.6260     2.0900 
  229.0000   218.8800    12.8490    51.1540   -16.5420    63.5180    26.1180    26.2220    21.9480     2.0770 
  229.1250   218.9940    12.8610    51.2040   -16.6410    64.3970    26.5080    26.6940    24.0940     2.0730 
  229.2500   219.1070    12.8720    51.2550   -16.7030    65.8270    26.9880    27.1610    25.3910     2.0780 
  229.3750   219.2210    12.8840    51.3050   -16.7370    66.5960    27.4030    27.4740    24.0280     2.0880 
  229.5000   219.3350    12.8950    51.3550   -16.7550    65.8550    27.4900    27.3690    23.7660     2.0960 
  229.6250   219.4490    12.9060    51.4060   -16.7680    64.8520    26.9170    26.5960    26.4020     2.0960 
  229.7500   219.5630    12.9180    51.4560   -16.7900    65.7500    25.8960    25.4000    27.5740     2.0920 
  229.8750   219.6770    12.9290    51.5060   -16.8380    66.9660    24.6940    24.0820    26.8650     2.0900 
  230.0000   219.7910    12.9400    51.5570   -16.9150    66.0320    23.4820    22.7660    25.5390     2.0940 
  230.1250   219.9040    12.9520    51.6070   -17.0070    65.5460    22.2660    21.5030    23.3870     2.1010 
  230.2500   220.0180    12.9630    51.6570   -17.0800    67.7090    21.5120    20.7720    22.5160     2.1060 
  230.3750   220.1320    12.9740    51.7080   -17.0940    69.1760    21.3350    20.6360    22.9980     2.1040 
  230.5000   220.2460    12.9860    51.7580   -17.0340    67.7310    21.6280    20.9890    22.6830     2.0990 
  230.6250   220.3600    12.9970    51.8080   -16.8990    66.4630    22.2710    21.6780    21.2050     2.0980 
  230.7500   220.4740    13.0090    51.8590   -16.7220    68.8460    23.0910    22.5450    19.4450     2.0990 
  230.8750   220.5880    13.0200    51.9090   -16.5360    72.2130    24.1440    23.6500    19.1800     2.0960 
  231.0000   220.7010    13.0310    51.9590   -16.3750    73.2260    25.5030    25.0770    20.5070     2.0910 
  231.1250   220.8150    13.0430    52.0100   -16.2600    72.8600    27.5180    27.2260    21.3190     2.0970 
  231.2500   220.9290    13.0540    52.0600   -16.1900    71.3800    30.1360    30.0570    22.5300     2.1160 
  231.3750   221.0430    13.0650    52.1100   -16.1520    67.9960    33.6000    33.7940    39.4700     2.1420 
  231.5000   221.1570    13.0770    52.1600   -16.1170    65.2730    37.3590    37.7480    43.6200     2.1750 
