~V
VERS. 2.00: Ver 2.00
~W
STRT.M 35.0000:
STOP.M 279.0000:
STEP.M 0.1250:
NULL. -999.2500:
UWI. FD11183:
~C
DEPT.M :
TVD. :
DX. :
DY. :
SP.MV :
GR.API :
RI. :
RML.OHMM :
RXO.OHMM :
DEN.GM/CC :
~A
# ...
  117.1250   115.8270    -9.9680     3.7060  -108.5630    71.7850     6.2320     6.9530     6.3590     2.1590 
  117.2500   115.9440   -10.0120     3.7150  -108.3970    69.2770     6.2190     6.9290     6.2710     2.1510 
  117.3750   116.0610   -10.0550     3.7230  -108.2400    64.3030     6.2250     6.9280     6.1870     2.1480 
  117.5000   116.1780   -10.0990     3.7320  -108.1370    62.5300     6.2390     6.9420     6.1650     2.1500 
  117.6250   116.2940   -10.1430     3.7410  -108.0830    65.6080     6.2260     6.9170     6.1520     2.1550 
  117.7500   116.4110   -10.1870     3.7500  -108.0320    67.3780     6.1720     6.8380     6.0960     2.1590 
  117.8750   116.5280   -10.2310     3.7590  -107.9440    66.5100     6.0410     6.6710     6.0550     2.1570 
  118.0000   116.6450   -10.2750     3.7690  -107.7980    65.5230     5.8510     6.4450     6.0350     2.1550 
  118.1250   116.7610   -10.3190     3.7780  -107.6870    66.1470     5.6700     6.2400     6.0310     2.1600 
  118.2500   116.8780   -10.3630     3.7870  -107.6020    66.7620     5.5150     6.0740     6.0090     2.1640 
  118.3750   116.9940   -10.4070     3.7960  -107.4790    67.7480     5.4220     5.9890     5.9080     2.1570 
  118.5000   117.1110   -10.4510     3.8060  -107.3750    68.8180     5.3660     5.9550     5.8650     2.1470 
  118.6250   117.2270   -10.4960     3.8150  -107.3470    69.3480     5.3010     5.8980     5.8800     2.1410 
  118.7500   117.3440   -10.5400     3.8240  -107.3860    68.9280     5.1900     5.7690     5.7270     2.1430 
  118.8750   117.4600   -10.5840     3.8330  -107.5000    69.6120     5.0460     5.6050     5.5390     2.1540 
  119.0000   117.5770   -10.6290     3.8420  -107.6340    73.7230     4.9250     5.4760     5.5630     2.1760 
  119.1250   117.6930   -10.6730     3.8510  -107.6950    78.7470     4.8840     5.4580     5.6130     2.1970 
  119.2500   117.8100   -10.7180     3.8600  -107.6980    79.8960     4.9460     5.5810     5.6710     2.1990 
  119.3750   117.9260   -10.7620     3.8690  -107.7070    77.3640     5.0800     5.7800     5.8840     2.1700 
  119.5000   118.0430   -10.8070     3.8780  -107.7430    72.1890     5.2240     5.9680     5.9930     2.1300 
  119.6250   118.1590   -10.8510     3.8870  -107.7890    67.2500     5.2910     6.0310     5.9370     2.1050 
  119.7500   118.2760   -10.8960     3.8960  -107.8380    65.5880     5.2680     5.9520     5.9040     2.1060 
  119.8750   118.3920   -10.9410     3.9050  -107.8880    67.9030     5.1770     5.7780     5.7970     2.1190 
  120.0000   118.5080   -10.9850     3.9140  -107.9610    68.4270     5.1080     5.6360     5.5930     2.1270 
  120.1250   118.6250   -11.0300     3.9230  -108.0140    65.3030     5.2400     5.7600     5.6500     2.1210 
  120.2500   118.7410   -11.0750     3.9320  -107.9680    62.7260     5.7230     6.3550     6.1800     2.1250 
  120.3750   118.8570   -11.1200     3.9410  -107.8630    63.1510     6.5430     7.3530     8.3570     2.1820 
  120.5000   118.9740   -11.1650     3.9500  -107.6290    63.5230     7.2150     8.1460    16.0600     2.3050 
  120.6250   119.0900   -11.2100     3.9580  -107.2780    64.3860     7.4220     8.3420    27.6520     2.4390 
  120.7500   119.2060   -11.2550     3.9670  -106.8330    68.5590     6.9110     7.6170    30.4090     2.4950 
  120.8750   119.3230   -11.2990     3.9760  -106.2820    76.6100     5.8850     6.3170    20.2380     2.4320 
  121.0000   119.4390   -11.3440     3.9850  -105.6390    83.5070     4.8840     5.1190     9.3150     2.3250 
  121.1250   119.5550   -11.3890     3.9940  -105.0260    86.5100     4.1250     4.3160     4.7830     2.2500 
  121.2500   119.6710   -11.4350     4.0030  -104.5380    90.5560     3.7320     3.9970     3.9940     2.2140 
  121.3750   119.7880   -11.4800     4.0120  -104.2790    97.4900     3.6410     4.0060     4.3520     2.1990 
  121.5000   119.9040   -11.5250     4.0210  -104.2360   101.0060     3.6690     4.0850     4.6110     2.2030 
  121.6250   120.0200   -11.5700     4.0300  -104.2090    99.8110     3.6770     4.0850     4.1360     2.2330 
  121.7500   120.1360   -11.6150     4.0390  -104.1180    98.7130     3.6310     4.0120     3.5750     2.2620 
  121.8750   120.2530   -11.6600     4.0470  -104.0220    98.4860     3.5710     3.9310     3.6650     2.2610 
  122.0000   120.3690   -11.7060     4.0560  -103.9250    97.0900     3.4940     3.8260     3.9620     2.2480 
  122.1250   120.4850   -11.7510     4.0650  -103.7740    97.2300     3.4130     3.7080     3.9400     2.2430 
  122.2500   120.6010   -11.7960     4.0740  -103.5590   100.8030     3.3460     3.6000     3.8280     2.2450 
  122.3750   120.7170   -11.8420     4.0820  -103.3750   101.6560     3.4090     3.6510     3.7890     2.2480 
  122.5000   120.8330   -11.8870     4.0910  -103.2920   100.0670     3.6680     3.9410     3.7180     2.2610 
  122.6250   120.9490   -11.9330     4.1000  -103.3310   100.4490     4.1070     4.4650     3.7140     2.3010 
  122.7500   121.0650   -11.9780     4.1090  -103.4580   103.4060     4.5710     5.0710     5.0780     2.3730 
  122.8750   121.1820   -12.0240     4.1180  -103.5060   102.2980     4.9510     5.5800    10.3940     2.4480 
  123.0000   121.2980   -12.0690     4.1270  -103.4790    95.8890     5.0660     5.7170    15.2300     2.4550 
  123.1250   121.4140   -12.1150     4.1350  -103.4780    89.5960     4.8500     5.4180    12.4280     2.3640 
  123.2500   121.5300   -12.1600     4.1440  -103.5610    87.1630     4.4330     4.8620     6.8140     2.2550 
  123.3750   121.6460   -12.2060     4.1530  -103.7520    89.3720     4.0270     4.3900     4.5730     2.2040 
  123.5000   121.7620   -12.2510     4.1610  -103.9340    91.7600     3.8370     4.2370     4.1980     2.2030 
  123.6250   121.8780   -12.2970     4.1700  -104.1510    93.7020     3.9240     4.4010     4.1460     2.2090 
  123.7500   121.9940   -12.3420     4.1790  -104.3850    95.4350     4.1010     4.6350     4.3770     2.2030 
  123.8750   122.1100   -12.3880     4.1880  -104.5650    95.6480     4.2420     4.7990     4.8610     2.1840 
  124.0000   122.2260   -12.4340     4.1960  -104.8230    93.9460     4.3480     4.9140     5.2090     2.1700 
  124.1250   122.3420   -12.4790     4.2050  -105.0570    91.4320     4.3710     4.9380     4.8800     2.1770 
  124.2500   122.4580   -12.5250     4.2140  -105.1620    90.7880     4.3170     4.8740     4.2540     2.1870 
  124.3750   122.5740   -12.5710     4.2220  -105.1020    90.3940     4.1770     4.7150     4.1030     2.1830 
  124.5000   122.6900   -12.6160     4.2310  -104.9190    89.3040     3.9710     4.4770     4.4060     2.1770 
  124.6250   122.8060   -12.6620     4.2390  -104.6750    88.8150     3.7770     4.2490     4.5520     2.1870 
  124.7500   122.9230   -12.7080     4.2470  -104.4380    88.8210     3.5920     4.0340     4.2820     2.2130 
  124.8750   123.0390   -12.7530     4.2560  -104.1460    89.1110     3.4640     3.9070     3.8930     2.2330 
  125.0000   123.1550   -12.7990     4.2640  -103.8450    91.9230     3.4270     3.8990     3.6620     2.2320 
  125.1250   123.2710   -12.8450     4.2730  -103.5140    98.5760     3.4930     4.0130     3.7420     2.2170 
  125.2500   123.3870   -12.8910     4.2810  -103.2450   103.5500     3.6430     4.2220     4.1040     2.2030 
  125.3750   123.5030   -12.9360     4.2900  -103.1430   100.9910     3.7900     4.4020     4.4830     2.1940 
  125.5000   123.6190   -12.9820     4.2980  -103.1540    94.5860     3.8420     4.4480     4.5760     2.1860 
  125.6250   123.7340   -13.0280     4.3060  -103.2540    91.7140     3.7710     4.3320     4.4640     2.1870 
  125.7500   123.8500   -13.0740     4.3150  -103.4590    93.5920     3.6310     4.1250     4.3540     2.2070 
  125.8750   123.9660   -13.1200     4.3230  -103.7100    95.4410     3.4900     3.9220     4.1320     2.2420 
  126.0000   124.0820   -13.1660     4.3310  -103.7950    96.2700     3.4310     3.8390     3.7910     2.2620 
  126.1250   124.1980   -13.2130     4.3390  -103.6340    97.6730     3.5060     3.9410     3.6000     2.2450 
