~V
VERS. 2.00: Ver 2.00
~W
STRT.M 40.0000:
STOP.M 259.0000:
STEP.M 0.1250:
NULL. -999.2500:
UWI. FD11192:
~C
DEPT.M :
TVD. :
DX. :
DY. :
SP.MV :
GR.API :
RI. :
RML.OHMM :
RXO.OHMM :
DEN.GM/CC :
~A
# ...
  140.3750   137.4800    13.0180    13.4960  -217.2060    78.7260    11.1510    13.5200    24.1200     2.2180 
  140.5000   137.5960    13.0460    13.5340  -217.0690    80.7060    10.9360    13.2110    26.0220     2.2220 
  140.6250   137.7120    13.0740    13.5730  -216.9220    82.8290    10.5350    12.7170    19.5900     2.2360 
  140.7500   137.8270    13.1020    13.6110  -216.8940    85.1560    10.0940    12.1880    14.2730     2.2510 
  140.8750   137.9430    13.1310    13.6490  -216.9420    86.4260     9.7180    11.7480    12.8510     2.2610 
  141.0000   138.0590    13.1590    13.6870  -217.0230    84.8530     9.4200    11.3920    12.0240     2.2670 
  141.1250   138.1740    13.1870    13.7260  -217.0700    79.7410     9.2170    11.1100    11.6710     2.2680 
  141.2500   138.2900    13.2150    13.7640  -217.1030    74.8650     9.1350    10.9840    11.8050     2.2600 
  141.3750   138.4050    13.2440    13.8020  -217.0780    74.1160     9.0620    10.9450    11.7930     2.2470 
  141.5000   138.5210    13.2720    13.8410  -217.0530    75.0410     9.0030    10.9830    11.7220     2.2400 
  141.6250   138.6360    13.3000    13.8790  -216.9210    76.1150     8.9250    11.0150    12.1890     2.2370 
  141.7500   138.7520    13.3280    13.9170  -216.6470    76.8840     8.7290    10.8370    12.8670     2.2250 
  141.8750   138.8680    13.3560    13.9560  -216.2560    76.7470     8.3080    10.2980    12.9020     2.1980 
  142.0000   138.9830    13.3840    13.9940  -215.9530    75.4040     7.7200     9.5460    12.4080     2.1760 
  142.1250   139.0990    13.4130    14.0330  -215.8140    74.5020     6.9670     8.5530    11.4680     2.1820 
  142.2500   139.2140    13.4410    14.0720  -215.7610    77.7120     6.2640     7.5820     9.8370     2.2110 
  142.3750   139.3300    13.4690    14.1100  -215.7330    82.2820     5.6740     6.7560     8.0050     2.2270 
  142.5000   139.4450    13.4970    14.1480  -215.6630    83.9270     5.2520     6.1480     6.8640     2.2160 
  142.6250   139.5610    13.5250    14.1870  -215.6570    84.0590     5.0030     5.8280     6.4390     2.1970 
  142.7500   139.6760    13.5530    14.2250  -215.8000    86.2780     4.8730     5.6930     6.1820     2.1960 
  142.8750   139.7920    13.5810    14.2640  -216.0010    88.8850     4.8110     5.6150     6.1200     2.2100 
  143.0000   139.9080    13.6100    14.3020  -216.2420    88.9500     4.7630     5.5330     6.2450     2.2300 
  143.1250   140.0230    13.6380    14.3400  -216.5120    89.1570     4.7430     5.4830     6.1920     2.2510 
  143.2500   140.1390    13.6660    14.3790  -216.8640    91.0860     4.7650     5.4840     5.9990     2.2590 
  143.3750   140.2540    13.6940    14.4170  -217.3940    91.6560     4.8500     5.5650     6.0850     2.2420 
  143.5000   140.3700    13.7220    14.4560  -218.0140    90.3910     4.9940     5.7170     6.3720     2.2200 
  143.6250   140.4860    13.7490    14.4940  -218.6180    90.3550     5.1660     5.9320     6.4640     2.2060 
  143.7500   140.6010    13.7770    14.5330  -219.1340    91.1210     5.3460     6.2040     6.4540     2.1980 
  143.8750   140.7170    13.8060    14.5710  -219.5790    88.9760     5.4900     6.4480     6.5880     2.1840 
  144.0000   140.8320    13.8340    14.6090  -220.0070    84.7810     5.6080     6.6540     6.7170     2.1720 
  144.1250   140.9480    13.8610    14.6480  -220.2360    81.9880     5.6820     6.7690     6.6250     2.1760 
  144.2500   141.0640    13.8890    14.6860  -220.2420    80.5190     5.6740     6.7390     6.4530     2.1870 
  144.3750   141.1790    13.9170    14.7250  -220.1920    79.8950     5.5940     6.6100     6.4610     2.1910 
  144.5000   141.2950    13.9450    14.7630  -220.1450    80.2730     5.4840     6.4430     6.5310     2.1930 
  144.6250   141.4110    13.9730    14.8020  -220.0200    81.9050     5.3840     6.2830     6.4210     2.2040 
  144.7500   141.5260    14.0010    14.8400  -219.8100    82.4710     5.3220     6.1710     6.3730     2.2150 
  144.8750   141.6420    14.0290    14.8780  -219.6210    82.2170     5.3320     6.1420     6.6900     2.2110 
  145.0000   141.7570    14.0570    14.9170  -219.4660    81.7180     5.4730     6.2990     7.0000     2.2000 
  145.1250   141.8730    14.0850    14.9550  -219.3350    81.8350     5.9340     6.9110     7.0530     2.1900 
  145.2500   141.9890    14.1130    14.9930  -219.1820    81.8110     6.7830     8.0300     7.2030     2.1790 
  145.3750   142.1040    14.1410    15.0320  -218.8740    80.8740     7.6380     9.0980     8.0190     2.1920 
  145.5000   142.2200    14.1690    15.0700  -218.4060    76.4860     8.0690     9.5240    13.1590     2.2670 
  145.6250   142.3360    14.1970    15.1080  -217.8050    71.3250     7.6850     8.7710    25.2420     2.3930 
  145.7500   142.4510    14.2250    15.1470  -217.1900    68.9280     6.6510     7.2260    31.0040     2.4760 
  145.8750   142.5670    14.2530    15.1850  -216.7570    72.7840     5.5160     5.7120    20.4530     2.4400 
  146.0000   142.6830    14.2800    15.2230  -216.5330    80.1940     4.6050     4.6330     8.3160     2.3450 
  146.1250   142.7980    14.3080    15.2620  -216.3730    87.6870     4.1950     4.2730     4.5450     2.2820 
  146.2500   142.9140    14.3360    15.3000  -216.2330    91.6610     4.1030     4.2750     4.2410     2.2670 
  146.3750   143.0300    14.3640    15.3380  -216.1260    92.3940     4.2440     4.4880     4.5120     2.2650 
  146.5000   143.1450    14.3920    15.3760  -216.1250    92.9430     4.3900     4.6550     4.8970     2.2590 
  146.6250   143.2610    14.4200    15.4140  -216.1290    94.4890     4.4100     4.6620     5.1100     2.2600 
  146.7500   143.3770    14.4480    15.4530  -216.0760    94.9000     4.3770     4.6120     5.2500     2.2740 
  146.8750   143.4930    14.4760    15.4910  -215.9560    93.5190     4.3200     4.5330     5.2070     2.2930 
  147.0000   143.6080    14.5040    15.5290  -215.8020    91.7320     4.3170     4.5340     4.9090     2.2960 
  147.1250   143.7240    14.5320    15.5680  -215.6480    90.4490     4.4940     4.7390     4.3100     2.2780 
  147.2500   143.8390    14.5600    15.6060  -215.5220    88.7920     4.8280     5.0610     4.2040     2.2540 
  147.3750   143.9550    14.5880    15.6440  -215.4070    87.8600     5.2660     5.4460     4.8860     2.2420 
  147.5000   144.0710    14.6160    15.6830  -215.3670    87.8180     5.9330     6.0700     6.2920     2.2480 
  147.6250   144.1860    14.6440    15.7210  -215.3760    86.8770     6.9620     7.0820     9.6080     2.2820 
  147.7500   144.3020    14.6720    15.7590  -215.3920    81.8820     8.4470     8.6400    12.1160     2.3430 
  147.8750   144.4170    14.7010    15.7980  -215.4230    74.9310    10.4040    10.7780    11.3290     2.4270 
  148.0000   144.5330    14.7290    15.8360  -215.3960    69.6080    13.1610    13.8000    11.6480     2.4850 
  148.1250   144.6480    14.7570    15.8750  -215.2920    66.9310    16.9490    17.8860    15.0880     2.4350 
  148.2500   144.7640    14.7860    15.9130  -215.1560    65.0990    20.6310    21.7640    16.3120     2.2860 
  148.3750   144.8790    14.8140    15.9520  -215.0540    64.4270    23.4440    24.7400    17.4410     2.1420 
  148.5000   144.9950    14.8430    15.9900  -215.0290    65.6940    24.7400    26.0960    22.4210     2.0790 
  148.6250   145.1100    14.8710    16.0290  -215.0450    66.1900    24.7310    26.1660    26.5190     2.0750 
  148.7500   145.2260    14.8990    16.0680  -215.0840    65.1300    24.6190    26.1420    27.6810     2.0770 
  148.8750   145.3410    14.9280    16.1070  -215.1190    63.1040    24.1760    25.6150    28.2210     2.0830 
  149.0000   145.4560    14.9560    16.1460  -215.1660    63.7520    23.1150    24.4370    28.4700     2.0950 
  149.1250   145.5720    14.9850    16.1840  -215.2620    66.1950    21.7570    22.9870    26.7040     2.1060 
  149.2500   145.6870    15.0140    16.2230  -215.3510    66.9210    20.3220    21.4790    22.9220     2.1140 
  149.3750   145.8020    15.0420    16.2620  -215.3440    64.7640    19.2800    20.4180    18.3470     2.1200 
