~V
VERS. 2.00: Ver 2.00
~W
STRT.M 25.0000:
STOP.M 287.0000:
STEP.M 0.1250:
NULL. -999.2500:
UWI. FD11174:
~C
DEPT.M :
TVD. :
DX. :
DY. :
SP.MV :
GR.API :
RI. :
RML.OHMM :
RXO.OHMM :
DEN.GM/CC :
~A
# ...
  107.1250   106.2060    -3.9550    -8.6820   -25.1780    62.5890     4.9180     5.5210     6.9710     2.0900 
  107.2500   106.3250    -3.9710    -8.7150   -25.1350    64.3780     4.8630     5.4440     6.8580     2.0970 
  107.3750   106.4450    -3.9860    -8.7490   -25.0880    67.1330     4.8220     5.3880     6.7900     2.0970 
  107.5000   106.5640    -4.0010    -8.7820   -25.0680    69.0190     4.8110     5.3760     6.8430     2.0940 
  107.6250   106.6840    -4.0160    -8.8160   -25.0790    68.8720     4.8430     5.4210     7.0550     2.0940 
  107.7500   106.8030    -4.0320    -8.8500   -25.1480    68.7550     4.8990     5.5000     7.2520     2.0980 
  107.8750   106.9220    -4.0470    -8.8830   -25.2220    70.4040     4.9500     5.5760     7.2180     2.1040 
  108.0000   107.0420    -4.0620    -8.9170   -25.1870    73.2450     4.9830     5.6240     7.0790     2.1110 
  108.1250   107.1610    -4.0770    -8.9510   -25.0450    73.6560     4.9620     5.5940     7.0190     2.1160 
  108.2500   107.2800    -4.0930    -8.9850   -24.9410    71.0500     4.8850     5.4930     6.9850     2.1140 
  108.3750   107.4000    -4.1080    -9.0200   -24.9500    67.6220     4.7840     5.3530     6.8970     2.1130 
  108.5000   107.5190    -4.1230    -9.0540   -24.9450    65.4790     4.6940     5.2290     6.7490     2.1230 
  108.6250   107.6380    -4.1380    -9.0880   -24.9730    63.4170     4.6590     5.1770     6.6920     2.1380 
  108.7500   107.7570    -4.1540    -9.1230   -25.0690    62.4950     4.6780     5.1960     7.0120     2.1410 
  108.8750   107.8760    -4.1690    -9.1570   -25.1990    64.0390     4.7330     5.2680     7.5820     2.1280 
  109.0000   107.9950    -4.1840    -9.1920   -25.3520    66.1150     4.7910     5.3560     7.8660     2.1140 
  109.1250   108.1140    -4.2000    -9.2270   -25.4510    65.0120     4.8250     5.3990     7.7040     2.1110 
  109.2500   108.2340    -4.2150    -9.2610   -25.4620    62.6050     4.8220     5.3960     7.3840     2.1160 
  109.3750   108.3530    -4.2310    -9.2960   -25.4190    61.4770     4.7840     5.3380     7.0900     2.1210 
  109.5000   108.4720    -4.2460    -9.3310   -25.3760    61.2900     4.7390     5.2670     6.8200     2.1260 
  109.6250   108.5910    -4.2620    -9.3670   -25.3170    60.0370     4.6770     5.1960     6.6050     2.1290 
  109.7500   108.7090    -4.2770    -9.4020   -25.2350    60.0800     4.5930     5.1020     6.5910     2.1270 
  109.8750   108.8280    -4.2930    -9.4370   -25.1030    61.6350     4.4800     4.9810     6.8600     2.1170 
  110.0000   108.9470    -4.3080    -9.4730   -24.9380    62.8800     4.3180     4.8080     7.1750     2.1100 
  110.1250   109.0660    -4.3230    -9.5080   -24.7520    63.5710     4.1420     4.6180     7.1700     2.1160 
  110.2500   109.1850    -4.3390    -9.5440   -24.5630    65.9240     3.9820     4.4420     6.7220     2.1300 
  110.3750   109.3040    -4.3540    -9.5800   -24.3320    70.4660     3.8740     4.3330     6.1360     2.1360 
  110.5000   109.4220    -4.3700    -9.6150   -24.0320    75.0930     3.8410     4.3080     5.8620     2.1310 
  110.6250   109.5410    -4.3850    -9.6510   -23.7870    78.6950     3.8730     4.3600     5.9010     2.1250 
  110.7500   109.6600    -4.4000    -9.6870   -23.7590    81.3690     3.9300     4.4370     6.0270     2.1270 
  110.8750   109.7790    -4.4160    -9.7230   -23.8790    83.4450     3.9820     4.4930     6.2610     2.1310 
  111.0000   109.8970    -4.4320    -9.7590   -24.0050    84.2840     4.0170     4.5150     6.5360     2.1300 
  111.1250   110.0160    -4.4470    -9.7960   -24.0730    83.6460     4.0370     4.5090     6.7000     2.1230 
  111.2500   110.1340    -4.4630    -9.8320   -24.1050    82.9970     4.0590     4.5090     6.7690     2.1190 
  111.3750   110.2530    -4.4780    -9.8680   -24.1090    80.9980     4.1170     4.5490     6.8210     2.1210 
  111.5000   110.3720    -4.4940    -9.9050   -24.1430    74.9840     4.1900     4.6090     6.9630     2.1280 
  111.6250   110.4900    -4.5090    -9.9410   -24.2480    68.4740     4.2500     4.6470     7.3020     2.1370 
  111.7500   110.6090    -4.5250    -9.9780   -24.3350    66.2510     4.2730     4.6460     7.5150     2.1430 
  111.8750   110.7270    -4.5400   -10.0140   -24.4060    69.3270     4.2660     4.6190     7.0490     2.1410 
  112.0000   110.8460    -4.5560   -10.0510   -24.5130    72.4390     4.2450     4.5860     6.3270     2.1280 
  112.1250   110.9640    -4.5720   -10.0880   -24.6050    75.5420     4.2280     4.5790     6.1760     2.1140 
  112.2500   111.0820    -4.5870   -10.1250   -24.5930    79.1150     4.2260     4.5940     6.4910     2.1080 
  112.3750   111.2010    -4.6030   -10.1620   -24.4510    79.0090     4.2070     4.6000     6.7030     2.1100 
  112.5000   111.3190    -4.6190   -10.1990   -24.3060    75.1150     4.1500     4.5670     6.5790     2.1150 
  112.6250   111.4370    -4.6350   -10.2360   -24.2100    70.8340     4.0410     4.4660     6.2150     2.1250 
  112.7500   111.5560    -4.6500   -10.2730   -24.1310    70.8160     3.8490     4.2530     5.7560     2.1390 
  112.8750   111.6740    -4.6660   -10.3110   -24.0620    73.3500     3.6290     3.9900     5.3740     2.1510 
  113.0000   111.7920    -4.6820   -10.3480   -23.9090    74.5580     3.4670     3.7840     5.3110     2.1680 
  113.1250   111.9100    -4.6980   -10.3860   -23.6700    74.3500     3.4710     3.7770     5.3900     2.2090 
  113.2500   112.0280    -4.7140   -10.4230   -23.3510    74.8370     3.6800     4.0240     5.3220     2.2780 
  113.3750   112.1460    -4.7300   -10.4610   -23.1010    75.7950     4.1470     4.5870     5.8000     2.3290 
  113.5000   112.2650    -4.7460   -10.4990   -22.8680    73.8120     4.8350     5.3950     8.5000     2.3150 
  113.6250   112.3830    -4.7620   -10.5370   -22.8650    69.1580     5.5250     6.1750    15.6020     2.2430 
  113.7500   112.5010    -4.7780   -10.5750   -23.1060    64.6790     6.0110     6.6750    24.7560     2.1720 
  113.8750   112.6190    -4.7940   -10.6130   -23.4060    62.1560     6.0340     6.6040    29.0320     2.1380 
  114.0000   112.7360    -4.8100   -10.6510   -23.6840    62.3870     5.6560     6.0920    26.4730     2.1280 
  114.1250   112.8540    -4.8270   -10.6890   -23.9310    65.7230     5.1610     5.4900    20.4130     2.1250 
  114.2500   112.9720    -4.8430   -10.7280   -24.1610    69.3800     4.7380     5.0180    13.8590     2.1240 
  114.3750   113.0900    -4.8590   -10.7660   -24.3550    70.9310     4.5140     4.8100     9.1450     2.1250 
  114.5000   113.2080    -4.8750   -10.8050   -24.5380    69.7500     4.4290     4.7690     7.4260     2.1280 
  114.6250   113.3260    -4.8920   -10.8430   -24.7310    67.2940     4.4360     4.8240     7.2360     2.1300 
  114.7500   113.4430    -4.9080   -10.8820   -24.9500    66.4690     4.4640     4.8860     7.1710     2.1300 
  114.8750   113.5610    -4.9250   -10.9200   -25.2000    68.8830     4.4590     4.8930     7.3380     2.1330 
  115.0000   113.6790    -4.9410   -10.9590   -25.4200    71.3430     4.4110     4.8440     7.6030     2.1400 
  115.1250   113.7960    -4.9580   -10.9980   -25.5220    70.7560     4.3240     4.7500     7.6480     2.1460 
  115.2500   113.9140    -4.9750   -11.0370   -25.5640    69.1410     4.2260     4.6480     7.6160     2.1470 
  115.3750   114.0320    -4.9910   -11.0760   -25.5440    68.4830     4.1260     4.5460     7.7900     2.1480 
  115.5000   114.1490    -5.0080   -11.1150   -25.4810    70.2570     4.0380     4.4590     7.7120     2.1510 
  115.6250   114.2670    -5.0250   -11.1540   -25.3590    73.4860     3.9800     4.4070     6.7640     2.1510 
  115.7500   114.3840    -5.0420   -11.1930   -25.2550    75.1120     3.9800     4.4130     5.5910     2.1460 
  115.8750   114.5020    -5.0590   -11.2320   -25.2520    72.3290     4.0310     4.4840     5.1550     2.1370 
  116.0000   114.6190    -5.0770   -11.2710   -25.3210    68.3160     4.1090     4.5720     5.4650     2.1270 
  116.1250   114.7370    -5.0940   -11.3110   -25.4740    67.9050     4.2110     4.6760     6.1140     2.1220 
