~V
VERS. 2.00: Ver 2.00
~W
STRT.M 20.0000:
STOP.M 277.0000:
STEP.M 0.1250:
NULL. -999.2500:
UWI. FD11024:
~C
DEPT.M :
TVD. :
DX. :
DY. :
DEN.GM/CC :
GR.API :
RML.OHMM :
RI. :
RXO.OHMM :
CALI.CM :
SP.MV :
~A
# ...
  119.0000   118.1870     5.5700     8.2520     2.2200    89.5860     5.4740     4.7350     4.9920    21.3060    -3.0820 
  119.1250   118.3090     5.5860     8.2740     2.2190    84.1210     5.7810     4.9470     5.0590    21.3290    -4.0370 
  119.2500   118.4310     5.6010     8.2950     2.2150    76.9000     6.1480     5.2280     5.2450    21.4050    -5.0050 
  119.3750   118.5530     5.6170     8.3170     2.2080    72.1980     6.5330     5.5660     5.7080    21.6160    -5.8950 
  119.5000   118.6750     5.6320     8.3380     2.2000    69.4220     6.8700     5.9210     6.4620    21.9270    -6.6420 
  119.6250   118.7970     5.6480     8.3600     2.1900    66.7660     7.1170     6.2380     7.1100    22.0680    -7.1860 
  119.7500   118.9200     5.6630     8.3810     2.1800    67.0680     7.3680     6.5230     7.1430    22.1270    -7.5340 
  119.8750   119.0420     5.6790     8.4030     2.1680    70.1070     7.7630     6.8380     6.9030    22.1750    -7.6630 
  120.0000   119.1640     5.6950     8.4240     2.1540    70.3590     8.4170     7.2830     6.7910    22.2210    -7.5540 
  120.1250   119.2860     5.7100     8.4460     2.1440    64.9930     9.3070     7.9390     7.1020    22.2730    -7.1240 
  120.2500   119.4080     5.7260     8.4670     2.1420    59.2630    10.0900     8.6470     7.9060    22.3500    -6.4710 
  120.3750   119.5300     5.7410     8.4890     2.1550    56.3960    10.3540     9.1010     8.7940    22.3920    -5.6720 
  120.5000   119.6530     5.7570     8.5100     2.1810    58.1910     9.7970     8.9660     9.2450    22.4050    -4.7670 
  120.6250   119.7750     5.7720     8.5320     2.2170    65.6980     8.4740     8.0980     8.7990    22.4060    -3.8850 
  120.7500   119.8970     5.7880     8.5530     2.2550    75.4930     7.5980     7.0000     7.2660    22.4120    -3.0620 
  120.8750   120.0190     5.8040     8.5750     2.2930    82.9470     7.0740     6.0820     5.5010    22.4410    -2.3340 
  121.0000   120.1410     5.8190     8.5960     2.3350    84.3100     6.6540     5.5630     4.6310    22.5540    -1.7600 
  121.1250   120.2630     5.8350     8.6170     2.3830    80.1360     6.8810     5.5260     4.7630    22.6200    -1.3510 
  121.2500   120.3850     5.8500     8.6390     2.4230    74.8690     7.3750     5.7760     5.8720    22.5170    -1.0890 
  121.3750   120.5080     5.8660     8.6600     2.4360    71.1930     7.8130     6.1260     7.6590    22.1760    -0.9650 
  121.5000   120.6300     5.8810     8.6820     2.4140    70.8310     7.9260     6.3720     8.1000    22.1400    -0.9690 
  121.6250   120.7520     5.8970     8.7030     2.3670    71.3260     7.6480     6.3820     6.2560    22.3910    -1.0470 
  121.7500   120.8740     5.9130     8.7250     2.3260    69.8200     7.2960     6.2780     5.3020    22.5860    -1.1250 
  121.8750   120.9960     5.9280     8.7460     2.3070    66.9560     7.1090     6.2010     5.0010    22.7070    -1.2040 
  122.0000   121.1180     5.9440     8.7680     2.3120    65.1030     7.2260     6.2680     5.1720    22.7520    -1.2510 
  122.1250   121.2410     5.9590     8.7890     2.3330    65.1080     7.6930     6.5780     5.5100    22.6440    -1.2670 
  122.2500   121.3630     5.9750     8.8110     2.3610    65.6840     8.3090     7.0470     5.7550    22.5790    -1.2650 
  122.3750   121.4850     5.9900     8.8320     2.3940    67.3010     8.8670     7.5420     5.8830    22.5540    -1.2390 
  122.5000   121.6070     6.0060     8.8540     2.4290    69.1940     9.1790     7.8970     6.3390    22.4780    -1.2170 
  122.6250   121.7290     6.0220     8.8750     2.4490    69.9470     9.0530     7.9190     7.7000    22.3080    -1.1830 
  122.7500   121.8510     6.0370     8.8970     2.4440    71.4920     8.5600     7.6240     8.7030    21.9540    -1.1660 
  122.8750   121.9730     6.0530     8.9180     2.4140    73.8490     7.8720     7.1270     6.8320    21.8080    -1.1780 
  123.0000   122.0960     6.0680     8.9400     2.3740    74.2660     7.2440     6.6180     5.0750    21.7950    -1.2190 
  123.1250   122.2180     6.0840     8.9610     2.3510    70.7400     6.9600     6.3200     4.8620    21.8340    -1.2730 
  123.2500   122.3400     6.0990     8.9820     2.3560    66.7530     7.1400     6.3410     5.2560    21.7220    -1.3330 
  123.3750   122.4620     6.1150     9.0040     2.3880    63.6370     7.8980     6.7710     5.8640    21.7010    -1.4160 
  123.5000   122.5840     6.1310     9.0250     2.4360    60.7080     9.3200     7.6760     6.6970    21.6970    -1.4780 
  123.6250   122.7060     6.1460     9.0470     2.4860    56.7000    11.6080     9.2130     7.4850    21.6870    -1.5590 
  123.7500   122.8290     6.1620     9.0680     2.5280    52.1470    14.6570    11.3570     9.0550    21.6310    -1.6250 
  123.8750   122.9510     6.1770     9.0900     2.5580    49.2960    18.3690    14.1340    11.6640    21.5230    -1.6270 
  124.0000   123.0730     6.1930     9.1110     2.5770    48.7460    22.4550    17.4320    13.5550    21.4840    -1.6260 
  124.1250   123.1950     6.2080     9.1330     2.5850    47.5650    26.2100    20.8090    14.4970    21.4790    -1.6360 
  124.2500   123.3170     6.2240     9.1540     2.5850    45.0980    28.8900    23.5400    16.9040    21.4790    -1.6430 
  124.3750   123.4390     6.2390     9.1760     2.5750    43.6140    30.1000    25.1210    17.7560    21.4790    -1.6310 
  124.5000   123.5610     6.2550     9.1970     2.5590    44.6940    30.0840    25.5590    16.0040    21.4790    -1.6160 
  124.6250   123.6840     6.2710     9.2190     2.5410    45.7610    29.6460    25.3730    14.7940    21.4790    -1.5820 
  124.7500   123.8060     6.2860     9.2400     2.5300    45.5070    29.5960    25.3010    14.6990    21.4790    -1.5350 
  124.8750   123.9280     6.3020     9.2620     2.5330    45.1440    30.1400    25.6050    14.9260    21.4790    -1.5160 
  125.0000   124.0500     6.3170     9.2830     2.5490    44.5210    31.0970    26.2460    15.2220    21.4790    -1.4780 
  125.1250   124.1720     6.3330     9.3050     2.5650    42.1590    31.8820    26.8570    16.2610    21.4790    -1.4130 
  125.2500   124.2940     6.3480     9.3260     2.5650    39.9020    31.9210    26.9710    17.3080    21.4780    -1.3540 
  125.3750   124.4170     6.3640     9.3470     2.5450    39.0900    31.0560    26.4150    17.0350    21.4780    -1.2820 
  125.5000   124.5390     6.3800     9.3690     2.5120    39.6430    29.6310    25.4030    14.6000    21.4710    -1.1810 
  125.6250   124.6610     6.3950     9.3900     2.4830    40.5400    28.3340    24.4280    12.5910    21.4770    -1.0950 
  125.7500   124.7830     6.4110     9.4120     2.4730    42.4230    27.6160    23.8460    11.9820    21.4730    -1.0120 
  125.8750   124.9050     6.4260     9.4330     2.4810    44.5220    27.5040    23.7130    12.6460    21.4700    -0.9010 
  126.0000   125.0270     6.4420     9.4550     2.5000    45.5220    27.7200    23.8710    13.7170    21.4770    -0.7990 
  126.1250   125.1490     6.4570     9.4760     2.5160    45.7340    27.7820    23.9860    14.2930    21.4780    -0.7340 
  126.2500   125.2720     6.4730     9.4980     2.5220    46.5070    27.4550    23.8390    14.2690    21.4790    -0.6380 
  126.3750   125.3940     6.4890     9.5190     2.5200    48.2330    26.8660    23.4840    13.4970    21.4790    -0.5520 
  126.5000   125.5160     6.5040     9.5410     2.5180    50.5160    26.3040    23.1280    12.3200    21.4780    -0.4660 
  126.6250   125.6380     6.5200     9.5630     2.5230    50.5460    25.9970    22.9560    11.7840    21.4760    -0.3460 
  126.7500   125.7600     6.5360     9.5850     2.5360    47.6000    25.8720    22.9290    12.4100    21.4740    -0.2260 
  126.8750   125.8820     6.5510     9.6070     2.5500    44.6790    25.7720    22.9300    13.7370    21.4780    -0.1100 
  127.0000   126.0040     6.5670     9.6290     2.5600    44.2480    25.5520    22.8350    15.1540    21.4790    -0.0040 
  127.1250   126.1260     6.5830     9.6510     2.5660    44.4800    25.1540    22.5600    14.1900    21.4790     0.1190 
