~V
VERS. 2.00: Ver 2.00
~W
STRT.M 20.0000:
STOP.M 286.0000:
STEP.M 0.1250:
NULL. -999.2500:
UWI. FD11156:
~C
DEPT.M :
TVD. :
DX. :
DY. :
DEN.GM/CC :
GR.API :
RML.OHMM :
RI. :
RXO.OHMM :
CALI.CM :
SP.MV :
~A
   20.0000    20.0000     0.0000     0.0000  -999.2500    32.5640    42.5690     2.4500     2.2110    25.3380    83.7230 
   20.1250    20.1250     0.0000     0.0000  -999.2500    32.2290    42.6640     2.4820     2.1240    25.3380    84.1880 
   20.2500    20.2500     0.0000     0.0000  -999.2500    32.0290    42.6390     2.5070     2.1880    25.3380    84.2690 
   20.3750    20.3750     0.0000     0.0000  -999.2500    32.0290    42.6390     2.5070     2.1880    25.3380    83.9520 
   20.5000    20.5000     0.0000     0.0000  -999.2500    32.5030    42.5780     2.5340     2.1680    25.3380    83.4000 
   20.6250    20.6250     0.0000     0.0000  -999.2500    35.4350    42.5760     2.5430     2.2230    25.3370    82.7880 
   20.7500    20.7500     0.0000     0.0000  -999.2500    38.9500    42.6940     2.5270     2.3430    25.3330    82.2530 
   20.8750    20.8750     0.0000     0.0000  -999.2500    41.1710    42.9890     2.4970     2.4490    25.3280    81.8370 
   21.0000    21.0000     0.0000     0.0000  -999.2500    41.4830    43.5480     2.4610     2.0790    25.3270    81.4720 
   21.1250    21.1250     0.0000     0.0000  -999.2500    40.9760    44.3160     2.4290     1.8530    25.3280    81.0850 
   21.2500    21.2500     0.0000     0.0000  -999.2500    41.4340    44.8960     2.4010     1.8860    25.3320    80.6240 
   21.3750    21.3750     0.0000     0.0000  -999.2500    42.6160    44.8930     2.3800     2.0110    25.3310    80.0810 
   21.5000    21.5000     0.0000     0.0000  -999.2500    43.9140    44.1260     2.3720     1.9250    25.3370    79.4400 
   21.6250    21.6250     0.0000     0.0000  -999.2500    43.0900    42.7600     2.3870     1.6420    25.3370    78.7620 
   21.7500    21.7500     0.0000     0.0000  -999.2500    42.5420    41.3610     2.4120     1.6470    25.3370    78.0190 
   21.8750    21.8750     0.0000     0.0000  -999.2500    44.6750    40.2810     2.4310     1.9270    25.3310    77.1890 
   22.0000    22.0000     0.0000     0.0000  -999.2500    48.5880    39.6320     2.4390     2.5520    25.3280    76.3530 
   22.1250    22.1250     0.0000     0.0000  -999.2500    49.4690    39.3260     2.4460     2.5460    25.3270    75.5170 
   22.2500    22.2500     0.0000     0.0000  -999.2500    46.5290    39.1150     2.4640     2.1420    25.3270    74.7330 
   22.3750    22.3750     0.0000     0.0000  -999.2500    44.0440    38.8770     2.4890     1.9500    25.3270    74.0540 
   22.5000    22.5000     0.0000     0.0000     1.6660    45.2630    38.5110     2.4970     2.0610    25.3270    73.4670 
   22.6250    22.6250     0.0000     0.0000     1.6660    48.3520    37.8800     2.4600     2.2220    25.3270    72.9640 
   22.7500    22.7500     0.0000     0.0000     1.6600    49.6380    37.0450     2.3870     2.2410    25.3270    72.5730 
   22.8750    22.8750     0.0000     0.0000     1.6560    47.3260    36.1350     2.3210     2.1940    25.3270    72.3250 
   23.0000    23.0000     0.0000     0.0000     1.6600    42.8900    35.3070     2.3060     2.1500    25.3270    72.2230 
   23.1250    23.1250     0.0000     0.0000     1.6750    41.0370    34.9200     2.3800     2.1220    25.3270    72.3600 
   23.2500    23.2500     0.0000     0.0000     1.6960    43.1390    35.2080     2.5060     2.0880    25.3270    72.7050 
   23.3750    23.3750     0.0000     0.0000     1.7180    46.2460    36.1790     2.6280     2.0480    25.3270    73.1650 
   23.5000    23.5000     0.0000     0.0000     1.7370    46.6110    37.4850     2.6900     2.0390    25.3270    73.6940 
   23.6250    23.6250     0.0000     0.0000     1.7500    44.9120    38.4650     2.6620     2.0030    25.3270    74.2200 
   23.7500    23.7500     0.0000     0.0000     1.7590    44.5660    38.7090     2.5990     1.9000    25.3280    74.6930 
   23.8750    23.8750     0.0000     0.0000     1.7670    46.3310    38.1990     2.5500     1.6760    25.3330    75.0470 
   24.0000    24.0000     0.0000     0.0000     1.7730    48.4500    37.2800     2.5480     1.3980    25.3250    75.1790 
   24.1250    24.1250     0.0000     0.0000     1.7780    47.9750    36.4840     2.6240     1.4180    25.3060    75.0030 
   24.2500    24.2500     0.0000     0.0000     1.7800    46.2880    36.1140     2.7600     1.5710    25.2690    74.5810 
   24.3750    24.3750     0.0000     0.0000     1.7800    47.4210    36.2760     2.9230     1.6910    25.2640    73.9890 
   24.5000    24.5000     0.0000     0.0000     1.7790    52.5250    36.9400     3.0640     1.7250    25.2650    73.2750 
   24.6250    24.6250     0.0000     0.0000     1.7730    58.7140    37.8960     3.1230     1.7240    25.2690    72.4150 
   24.7500    24.7500     0.0000     0.0000     1.7670    61.3530    38.5920     3.0940     1.6730    25.2010    71.3680 
   24.8750    24.8750     0.0000     0.0000     1.7660    57.4430    38.5120     2.9990     1.6600    25.0350    70.1160 
   25.0000    25.0000     0.0000     0.0000     1.7770    48.9890    37.3360     2.8860     1.7600    24.7270    68.7350 
   25.1250    25.1250     0.0000     0.0000     1.8050    44.0430    35.1190     2.7940     1.7910    24.4640    67.2800 
   25.2500    25.2500     0.0000     0.0000     1.8410    47.0340    32.7760     2.7180     1.7610    24.3450    65.7200 
   25.3750    25.3750     0.0000     0.0000     1.8710    54.1670    31.0750     2.6320     1.7310    24.3260    63.9500 
   25.5000    25.5000     0.0000     0.0000     1.8800    59.8760    30.4790     2.5190     1.6810    24.3240    61.8880 
   25.6250    25.6250     0.0000     0.0000     1.8600    61.2950    30.7780     2.3440     1.6090    24.3250    59.4330 
   25.7500    25.7500     0.0000     0.0000     1.8330    59.5110    30.1930     2.0700     1.4700    24.3320    56.6420 
   25.8750    25.8750     0.0000     0.0000     1.8280    56.9250    26.6360     1.6730     1.3040    24.3760    53.5450 
   26.0000    26.0000     0.0000     0.0000     1.8720    55.1970    19.7860     1.1940     1.0600    24.5350    50.0540 
   26.1250    26.1250     0.0000     0.0000     1.9830    54.4050    12.7060     0.7490     1.0050    24.6650    45.8610 
   26.2500    26.2500     0.0000     0.0000     2.1270    53.1980     8.1880     0.4250     0.9010    24.6960    40.9480 
   26.3750    26.3750     0.0000     0.0000     2.2500    52.0290     6.6220     0.2560     0.8880    24.6760    35.2110 
   26.5000    26.5000     0.0000     0.0000     2.3050    52.7910     7.8650     0.2580     1.1450    24.5970    28.5280 
   26.6250    26.6250     0.0000     0.0000     2.2720    55.3890    12.6750     0.5240     2.4100    24.4220    20.8180 
   26.7500    26.7500     0.0000     0.0000     2.1970    57.6060    21.1800     1.1050     4.2840    24.5180    12.5520 
   26.8750    26.8750     0.0000     0.0000     2.1180    60.2160    33.2740     2.0880     5.7310    25.1260     4.3050 
   27.0000    27.0000     0.0000     0.0000     2.0590    63.9370    45.9790     3.4360     6.4560    25.6560    -3.4110 
   27.1250    27.1250     0.0000     0.0000     2.0340    67.8130    50.3490     4.6800     6.5080    25.1440   -10.1860 
   27.2500    27.2500     0.0000     0.0000     2.0300    70.8740    45.0110     5.2840     6.2720    24.9050   -15.9900 
   27.3750    27.3750     0.0000     0.0000     2.0340    73.7710    36.6700     5.3260     6.0910    24.8070   -20.6310 
   27.5000    27.5000     0.0000     0.0000     2.0340    75.1950    30.8710     5.1970     5.9770    24.7960   -23.9480 
   27.6250    27.6250     0.0000     0.0000     2.0280    74.4080    28.6030     5.1330     5.7170    24.8130   -25.7980 
   27.7500    27.7500     0.0000     0.0000     2.0250    73.3940    27.5680     5.0800     5.6500    24.8410   -26.6330 
   27.8750    27.8750     0.0000     0.0000     2.0320    72.7970    26.4310     4.9450     5.4440    24.7920   -26.9660 
   28.0000    28.0000     0.0000     0.0000     2.0500    72.9110    24.6240     4.6890     5.1090    24.7300   -27.2370 
   28.1250    28.1250     0.0000     0.0000     2.0690    76.7470    22.5880     4.3820     5.0340    24.6990   -27.5590 
