~V
VERS. 2.00: Ver 2.00
~W
STRT.M 44.0000:
STOP.M 275.0000:
STEP.M 0.1250:
NULL. -999.2500:
UWI. FD11190:
~C
DEPT.M :
TVD. :
DX. :
DY. :
SP.MV :
GR.API :
RI. :
RML.OHMM :
RXO.OHMM :
DEN.GM/CC :
~A
# ...
   98.7500    98.3040    -5.2460    -2.1580   -15.1050    60.8190     5.8830     6.2170     7.3720     2.1010 
   98.8750    98.4250    -5.2740    -2.1710   -14.5960    61.7350     5.9900     6.3480     7.5750     2.1050 
   99.0000    98.5460    -5.3020    -2.1830   -13.9810    64.7110     6.1100     6.4240     7.7230     2.1070 
   99.1250    98.6670    -5.3310    -2.1950   -13.1800    65.8100     6.0940     6.3280     7.6640     2.1150 
   99.2500    98.7880    -5.3600    -2.2080   -12.1920    64.2600     5.8700     6.0270     7.5170     2.1390 
   99.3750    98.9100    -5.3880    -2.2200   -10.9850    63.7680     5.4520     5.5680     6.8370     2.1740 
   99.5000    99.0310    -5.4170    -2.2330    -9.6430    67.4990     4.9430     5.0860     5.6330     2.2050 
   99.6250    99.1520    -5.4460    -2.2460    -8.1870    75.4450     4.5030     4.7070     4.7360     2.2190 
   99.7500    99.2730    -5.4740    -2.2580    -6.7320    81.8920     4.1900     4.4750     4.4210     2.2170 
   99.8750    99.3930    -5.5030    -2.2710    -5.4900    82.5330     4.0200     4.3880     4.5030     2.2060 
  100.0000    99.5140    -5.5320    -2.2840    -4.7830    80.5020     3.9660     4.3980     4.5970     2.1970 
  100.1250    99.6350    -5.5610    -2.2970    -4.6190    80.5040     3.9980     4.4890     4.5410     2.1970 
  100.2500    99.7560    -5.5900    -2.3100    -4.8420    80.8650     4.0920     4.6880     4.5220     2.2040 
  100.3750    99.8770    -5.6190    -2.3230    -5.3680    79.3300     4.3400     5.0240     4.6380     2.2240 
  100.5000    99.9980    -5.6480    -2.3360    -5.9930    76.9960     4.7260     5.4490     4.9590     2.2580 
  100.6250   100.1190    -5.6770    -2.3490    -6.7190    76.1570     5.1410     5.8690     6.1150     2.2810 
  100.7500   100.2400    -5.7070    -2.3630    -7.6830    75.6250     5.5280     6.2130     7.5810     2.2660 
  100.8750   100.3600    -5.7360    -2.3760    -8.8480    73.9190     5.8180     6.4820     7.5920     2.2160 
  101.0000   100.4810    -5.7650    -2.3890    -9.9490    71.2000     6.0620     6.7610     6.7920     2.1710 
  101.1250   100.6020    -5.7950    -2.4030   -10.7810    67.6280     6.3560     7.1970     7.0330     2.1490 
  101.2500   100.7230    -5.8240    -2.4170   -11.2930    65.3710     6.7910     7.8570    10.4310     2.1380 
  101.3750   100.8430    -5.8540    -2.4300   -11.5890    64.0980     7.4810     8.6730    19.3090     2.1260 
  101.5000   100.9640    -5.8830    -2.4440   -11.8340    64.5150     8.2250     9.3820    27.4920     2.1170 
  101.6250   101.0850    -5.9130    -2.4580   -11.9940    65.0010     8.7230     9.6540    26.6020     2.1180 
  101.7500   101.2050    -5.9430    -2.4720   -11.9880    66.7460     8.7160     9.4030    22.0760     2.1280 
  101.8750   101.3260    -5.9720    -2.4860   -11.9270    70.3080     8.1550     8.7350    19.4770     2.1370 
  102.0000   101.4460    -6.0020    -2.5000   -12.0230    72.7600     7.4200     7.9620    15.3170     2.1410 
  102.1250   101.5670    -6.0320    -2.5140   -12.3980    72.3580     6.7280     7.3230    10.2880     2.1420 
  102.2500   101.6870    -6.0620    -2.5280   -13.0040    69.7080     6.2380     6.9050     7.8840     2.1410 
  102.3750   101.8080    -6.0920    -2.5420   -13.6880    67.8460     5.9890     6.7180     7.4110     2.1340 
  102.5000   101.9280    -6.1220    -2.5560   -14.2800    66.2400     5.8900     6.6740     7.4090     2.1280 
  102.6250   102.0490    -6.1520    -2.5710   -14.7420    64.9280     5.8970     6.7070     7.6280     2.1270 
  102.7500   102.1690    -6.1830    -2.5850   -15.1090    63.6140     5.9440     6.7450     7.7990     2.1280 
  102.8750   102.2900    -6.2130    -2.5990   -15.3960    61.9450     5.9740     6.7520     7.7770     2.1220 
  103.0000   102.4100    -6.2430    -2.6140   -15.5780    62.1580     5.9710     6.7240     7.5900     2.1140 
  103.1250   102.5300    -6.2740    -2.6280   -15.6080    64.1220     5.9450     6.6820     7.3610     2.1120 
  103.2500   102.6510    -6.3040    -2.6430   -15.6200    66.4570     5.9120     6.6440     7.3210     2.1170 
  103.3750   102.7710    -6.3350    -2.6580   -15.6580    66.7100     5.8900     6.6290     7.5130     2.1250 
  103.5000   102.8910    -6.3650    -2.6720   -15.7300    66.7210     5.8810     6.6320     7.6910     2.1300 
  103.6250   103.0120    -6.3960    -2.6870   -15.7660    67.2050     5.8850     6.6440     7.7340     2.1300 
  103.7500   103.1320    -6.4270    -2.7020   -15.7890    66.5590     5.8840     6.6510     7.6670     2.1270 
  103.8750   103.2520    -6.4580    -2.7160   -15.7810    65.1210     5.8760     6.6510     7.4800     2.1270 
  104.0000   103.3720    -6.4890    -2.7310   -15.7870    64.5370     5.8680     6.6540     7.3210     2.1310 
  104.1250   103.4930    -6.5200    -2.7460   -15.7930    65.6820     5.8670     6.6760     7.3360     2.1350 
  104.2500   103.6130    -6.5510    -2.7610   -15.6930    67.2300     5.8880     6.7220     7.4270     2.1350 
  104.3750   103.7330    -6.5820    -2.7760   -15.5020    68.1310     5.9320     6.7790     7.3940     2.1370 
  104.5000   103.8530    -6.6130    -2.7920   -15.3420    68.9690     5.9780     6.8220     7.3610     2.1410 
  104.6250   103.9730    -6.6440    -2.8070   -15.2140    69.1950     6.0070     6.8290     7.5760     2.1440 
  104.7500   104.0930    -6.6750    -2.8230   -15.1230    69.0910     6.0080     6.7990     7.8040     2.1440 
  104.8750   104.2130    -6.7070    -2.8380   -15.0640    67.2660     5.9820     6.7440     7.7350     2.1400 
  105.0000   104.3330    -6.7380    -2.8540   -15.0700    64.3990     5.9430     6.6940     7.5310     2.1380 
  105.1250   104.4530    -6.7690    -2.8700   -15.1470    62.9200     5.9250     6.6710     7.4780     2.1380 
  105.2500   104.5730    -6.8010    -2.8860   -15.2580    62.4900     5.9290     6.6780     7.5690     2.1370 
  105.3750   104.6930    -6.8320    -2.9020   -15.3500    61.6310     5.9580     6.6980     7.6690     2.1380 
  105.5000   104.8130    -6.8640    -2.9180   -15.3440    59.7780     5.9810     6.6970     7.8020     2.1390 
  105.6250   104.9320    -6.8960    -2.9340   -15.1970    60.4190     5.9600     6.6470     7.9060     2.1420 
  105.7500   105.0520    -6.9270    -2.9510   -14.9380    64.2540     5.8810     6.5570     7.6780     2.1450 
  105.8750   105.1720    -6.9590    -2.9670   -14.6240    67.8850     5.7680     6.4530     7.1860     2.1500 
  106.0000   105.2920    -6.9910    -2.9830   -14.2780    68.5430     5.6620     6.3540     6.7610     2.1550 
  106.1250   105.4110    -7.0230    -2.9990   -13.8450    68.0190     5.5640     6.2590     6.6040     2.1600 
  106.2500   105.5310    -7.0550    -3.0160   -13.4490    69.6090     5.4660     6.1670     6.8720     2.1620 
  106.3750   105.6510    -7.0880    -3.0320   -13.2380    71.7740     5.3830     6.0920     7.0990     2.1590 
  106.5000   105.7700    -7.1200    -3.0480   -13.1690    73.4520     5.3220     6.0580     6.8070     2.1530 
  106.6250   105.8900    -7.1520    -3.0650   -13.3220    72.5050     5.3330     6.0920     6.4330     2.1470 
  106.7500   106.0100    -7.1850    -3.0820   -13.5770    68.1100     5.4120     6.1870     6.5600     2.1450 
  106.8750   106.1290    -7.2170    -3.0980   -13.8640    62.6520     5.5310     6.3250     7.0510     2.1470 
  107.0000   106.2490    -7.2500    -3.1150   -14.2500    60.3130     5.6770     6.4600     7.2730     2.1480 
  107.1250   106.3680    -7.2820    -3.1320   -14.7280    61.3260     5.8080     6.5560     7.3870     2.1430 
  107.2500   106.4880    -7.3150    -3.1490   -15.2270    61.2590     5.8810     6.5940     7.6160     2.1350 
  107.3750   106.6070    -7.3470    -3.1660   -15.5600    60.3210     5.9120     6.5900     7.5580     2.1290 
  107.5000   106.7260    -7.3800    -3.1840   -15.7000    60.2570     5.9100     6.5790     7.4140     2.1260 
  107.6250   106.8460    -7.4130    -3.2010   -15.6820    59.5880     5.9180     6.5900     7.4110     2.1280 
  107.7500   106.9650    -7.4460    -3.2180   -15.6130    58.2460     5.9420     6.6210     7.4830     2.1350 
