~V
VERS. 2.00: Ver 2.00
~W
STRT.M 40.0000:
STOP.M 279.0000:
STEP.M 0.1250:
NULL. -999.2500:
UWI. FD11188:
~C
DEPT.M :
TVD. :
DX. :
DY. :
SP.MV :
GR.API :
RI. :
RML.OHMM :
RXO.OHMM :
DEN.GM/CC :
~A
# ...
  113.0000   112.2980     3.1380     6.5930   -22.8720    72.1560     8.3550     9.1390    27.6920     2.3560 
  113.1250   112.4180     3.1490     6.6260   -23.1820    70.2770     7.9830     8.6520    16.9820     2.2510 
  113.2500   112.5380     3.1590     6.6600   -23.4700    67.8730     7.1710     7.6760     9.9000     2.1300 
  113.3750   112.6570     3.1690     6.6940   -23.7150    65.8470     6.2560     6.6500     8.2020     2.0710 
  113.5000   112.7770     3.1790     6.7290   -23.8970    65.6100     5.6410     6.0170     8.2410     2.0610 
  113.6250   112.8970     3.1900     6.7630   -23.9950    67.1570     5.4130     5.8450     8.4530     2.0690 
  113.7500   113.0170     3.2000     6.7970   -24.0160    68.9140     5.4520     5.9590     8.6800     2.0860 
  113.8750   113.1360     3.2100     6.8320   -23.9680    68.6110     5.5770     6.1270     8.7690     2.1050 
  114.0000   113.2560     3.2200     6.8660   -23.8780    68.1170     5.6940     6.2560     8.2110     2.1130 
  114.1250   113.3760     3.2300     6.9010   -23.7730    68.2020     5.7670     6.3190     7.7740     2.1100 
  114.2500   113.4960     3.2410     6.9350   -23.6790    69.5650     5.8260     6.3690     8.1560     2.1010 
  114.3750   113.6150     3.2510     6.9700   -23.6140    71.6620     5.8460     6.3820     8.7090     2.0930 
  114.5000   113.7350     3.2610     7.0050   -23.5820    73.2300     5.8360     6.3630     8.8960     2.0870 
  114.6250   113.8540     3.2710     7.0400   -23.5790    73.9950     5.8290     6.3540     8.7230     2.0860 
  114.7500   113.9740     3.2810     7.0750   -23.6020    72.7440     5.8070     6.3250     8.3970     2.0900 
  114.8750   114.0930     3.2920     7.1100   -23.6570    70.1730     5.7710     6.2890     8.6610     2.0970 
  115.0000   114.2130     3.3020     7.1460   -23.7510    67.9240     5.7410     6.2640     9.2990     2.0970 
  115.1250   114.3320     3.3120     7.1810   -23.8970    67.6340     5.7410     6.2770     9.2530     2.0910 
  115.2500   114.4520     3.3230     7.2170   -24.0930    68.9590     5.7920     6.3410     8.9360     2.0840 
  115.3750   114.5710     3.3330     7.2530   -24.3290    70.0490     5.8820     6.4570    10.6570     2.0780 
  115.5000   114.6900     3.3430     7.2890   -24.5820    69.8360     5.9970     6.5950    13.7770     2.0720 
  115.6250   114.8090     3.3530     7.3250   -24.8270    67.0460     6.0720     6.6830    13.2690     2.0640 
  115.7500   114.9290     3.3640     7.3610   -25.0440    64.3260     6.1030     6.7030    10.1110     2.0570 
  115.8750   115.0480     3.3740     7.3970   -25.2190    63.9130     6.0760     6.6520     9.0060     2.0580 
  116.0000   115.1670     3.3840     7.4330   -25.3510    66.0060     6.0300     6.5780     8.9110     2.0620 
  116.1250   115.2860     3.3950     7.4700   -25.4410    68.2850     5.9930     6.5400     8.6470     2.0560 
  116.2500   115.4050     3.4050     7.5060   -25.5020    68.7870     6.0210     6.5890     9.0460     2.0430 
  116.3750   115.5240     3.4160     7.5430   -25.5520    67.4160     6.0890     6.6790     9.6090     2.0370 
  116.5000   115.6430     3.4260     7.5800   -25.6100    66.5620     6.1440     6.7500     9.7430     2.0440 
  116.6250   115.7620     3.4360     7.6170   -25.6890    66.2570     6.1500     6.7480    10.5970     2.0520 
  116.7500   115.8810     3.4470     7.6540   -25.7900    66.1930     6.1140     6.7000    11.3980     2.0530 
  116.8750   116.0000     3.4570     7.6910   -25.9050    66.0250     6.0490     6.6240    10.6380     2.0500 
  117.0000   116.1190     3.4680     7.7280   -26.0230    66.5670     5.9940     6.5650    10.0150     2.0540 
  117.1250   116.2380     3.4790     7.7650   -26.1400    68.8280     5.9460     6.5200     9.7040     2.0780 
  117.2500   116.3570     3.4890     7.8020   -26.2540    71.5620     5.9040     6.4760     9.4380     2.1080 
  117.3750   116.4750     3.5000     7.8400   -26.3630    73.7690     5.8630     6.4380     9.3590     2.1170 
  117.5000   116.5940     3.5110     7.8770   -26.4640    74.0700     5.8420     6.4230     9.0610     2.0960 
  117.6250   116.7130     3.5210     7.9150   -26.5450    71.5440     5.8440     6.4380     9.2690     2.0660 
  117.7500   116.8320     3.5320     7.9520   -26.5980    67.2500     5.8550     6.4550     9.9930     2.0520 
  117.8750   116.9500     3.5430     7.9900   -26.6220    64.7470     5.8750     6.4880    10.4330     2.0570 
  118.0000   117.0690     3.5530     8.0280   -26.6270    65.9130     5.9030     6.5190    10.1290     2.0630 
  118.1250   117.1880     3.5640     8.0660   -26.6290    66.5700     5.9020     6.5150     9.2560     2.0590 
  118.2500   117.3060     3.5750     8.1040   -26.6470    66.4470     5.8660     6.4680     8.7820     2.0480 
  118.3750   117.4250     3.5860     8.1430   -26.6970    67.8610     5.7860     6.3690     9.1040     2.0410 
  118.5000   117.5430     3.5970     8.1810   -26.7820    69.7600     5.6610     6.2200     9.1910     2.0380 
  118.6250   117.6610     3.6080     8.2200   -26.8980    69.6720     5.5130     6.0460     8.2890     2.0400 
  118.7500   117.7800     3.6180     8.2580   -27.0250    68.2910     5.3900     5.9180     7.4420     2.0440 
  118.8750   117.8980     3.6290     8.2970   -27.1310    67.4140     5.3180     5.8640     7.6260     2.0470 
  119.0000   118.0160     3.6400     8.3360   -27.1880    66.2540     5.3100     5.8940     8.1760     2.0540 
  119.1250   118.1350     3.6500     8.3750   -27.1680    65.1140     5.3530     5.9720     8.5330     2.0650 
  119.2500   118.2530     3.6610     8.4140   -27.0700    64.3880     5.3610     5.9850     8.6680     2.0610 
  119.3750   118.3710     3.6720     8.4530   -26.8910    61.7500     5.2590     5.8480     8.6770     2.0400 
  119.5000   118.4890     3.6830     8.4920   -26.6500    61.0010     5.0950     5.6360     8.5430     2.0350 
  119.6250   118.6080     3.6930     8.5310   -26.3580    64.1750     4.9250     5.4260     8.0890     2.0650 
  119.7500   118.7260     3.7040     8.5710   -26.0280    68.3480     4.7990     5.2640     7.6750     2.0970 
  119.8750   118.8440     3.7150     8.6100   -25.6660    69.8200     4.7750     5.2270     7.6410     2.1050 
  120.0000   118.9620     3.7260     8.6500   -25.2710    70.3800     4.8350     5.2900     7.8940     2.0990 
  120.1250   119.0800     3.7370     8.6900   -24.8200    72.8410     4.9650     5.4470     8.3070     2.0940 
  120.2500   119.1980     3.7470     8.7290   -24.2870    73.9340     5.1400     5.6610     8.7650     2.0880 
  120.3750   119.3160     3.7580     8.7690   -23.6260    72.7350     5.2230     5.7650     9.1600     2.0840 
  120.5000   119.4340     3.7690     8.8090   -22.8300    72.6600     5.1180     5.6460    13.8870     2.0960 
  120.6250   119.5520     3.7800     8.8490   -21.9090    77.0060     4.7980     5.2810    23.9760     2.1320 
  120.7500   119.6700     3.7920     8.8900   -20.9370    84.1910     4.3720     4.7860    24.2240     2.1750 
  120.8750   119.7870     3.8030     8.9300   -20.0040    91.3690     3.9410     4.3060    12.3740     2.2020 
  121.0000   119.9050     3.8140     8.9700   -19.1930    97.2260     3.6000     3.9370     5.5670     2.2030 
  121.1250   120.0230     3.8250     9.0110   -18.5740   101.4370     3.3960     3.7310     5.3420     2.1840 
  121.2500   120.1410     3.8360     9.0520   -18.1440   102.9040     3.2850     3.6350     5.3360     2.1730 
  121.3750   120.2580     3.8480     9.0920   -17.8980   103.1760     3.2630     3.6130     5.3130     2.1820 
  121.5000   120.3760     3.8590     9.1330   -17.7900   104.2140     3.2740     3.6130     5.3390     2.1970 
  121.6250   120.4930     3.8700     9.1750   -17.8010   106.5040     3.3680     3.7190     5.2830     2.2070 
  121.7500   120.6110     3.8810     9.2160   -17.8950   108.3670     3.5830     3.9730     5.3970     2.2300 
  121.8750   120.7280     3.8930     9.2570   -18.0380   106.4890     3.8450     4.3000     5.7360     2.2870 
  122.0000   120.8450     3.9040     9.2990   -18.1820   101.3040     4.0290     4.5250     5.8330     2.3510 
