~V
VERS. 2.00: Ver 2.00
~W
STRT.M 50.0000:
STOP.M 286.0000:
STEP.M 0.1250:
NULL. -999.2500:
UWI. FD11181:
~C
DEPT.M :
TVD. :
DX. :
DY. :
SP.MV :
GR.API :
RI. :
RML.OHMM :
RXO.OHMM :
DEN.GM/CC :
~A
# ...
  168.6250   166.3580   -18.3530     2.4120   -11.2890    53.8960    10.4760    11.8720    12.1330     2.4620 
  168.7500   166.4740   -18.4000     2.4140   -11.3820    54.4130    10.1130    11.5260    10.8200     2.4560 
  168.8750   166.5900   -18.4470     2.4170   -11.4000    52.1010     9.9940    11.4430    10.5740     2.4640 
  169.0000   166.7060   -18.4930     2.4190   -11.4480    50.0280    10.0750    11.5700    10.5310     2.4760 
  169.1250   166.8220   -18.5400     2.4210   -11.5000    50.3980    10.2710    11.8110    10.0840     2.4840 
  169.2500   166.9370   -18.5870     2.4240   -11.5250    51.6400    10.4800    12.0620    10.0100     2.4910 
  169.3750   167.0530   -18.6340     2.4260   -11.5770    52.4930    10.6550    12.2790    10.9010     2.4870 
  169.5000   167.1690   -18.6810     2.4290   -11.6530    52.8380    10.8380    12.4700    12.7320     2.4650 
  169.6250   167.2850   -18.7270     2.4310   -11.8390    52.9750    11.0210    12.6560    14.0580     2.4300 
  169.7500   167.4010   -18.7740     2.4330   -12.1570    53.7220    11.2690    12.9320    14.2960     2.4030 
  169.8750   167.5170   -18.8210     2.4350   -12.4160    56.1360    11.7170    13.4190    14.2860     2.3960 
  170.0000   167.6330   -18.8680     2.4380   -12.6480    59.2730    12.3150    14.0830    13.5100     2.4000 
  170.1250   167.7480   -18.9150     2.4400   -12.9170    62.3710    13.0270    14.8460    12.5070     2.4020 
  170.2500   167.8640   -18.9620     2.4420   -13.2370    65.0680    13.7080    15.5620    13.4990     2.3950 
  170.3750   167.9800   -19.0090     2.4450   -13.5500    65.8050    14.2370    16.1220    15.4560     2.3800 
  170.5000   168.0960   -19.0570     2.4470   -13.8090    64.4720    14.6510    16.4720    15.6680     2.3660 
  170.6250   168.2110   -19.1040     2.4500   -14.1070    62.0440    14.6480    16.3850    15.5200     2.3560 
  170.7500   168.3270   -19.1510     2.4520   -14.4360    60.2880    14.2380    15.8110    16.0410     2.3470 
  170.8750   168.4430   -19.1980     2.4540   -14.8710    59.4350    13.4090    14.7520    16.6330     2.3360 
  171.0000   168.5590   -19.2450     2.4570   -15.3940    60.9450    12.2530    13.4110    16.2880     2.3310 
  171.1250   168.6740   -19.2930     2.4590   -15.9750    63.6200    11.2110    12.1250    13.3470     2.3330 
  171.2500   168.7900   -19.3400     2.4610   -16.5870    64.4680    10.3170    11.1010     9.7770     2.3370 
  171.3750   168.9060   -19.3870     2.4630   -17.2630    64.8290     9.7920    10.4960     8.4450     2.3340 
  171.5000   169.0210   -19.4350     2.4660   -17.9350    67.6530     9.6550    10.2740     8.9630     2.3260 
  171.6250   169.1370   -19.4820     2.4680   -18.5200    71.7720     9.6960    10.2360     9.8600     2.3200 
  171.7500   169.2530   -19.5290     2.4700   -19.0130    73.1100     9.6920    10.1370    10.0420     2.3220 
  171.8750   169.3680   -19.5770     2.4720   -19.4280    72.1500     9.5540     9.8970     8.9400     2.3320 
  172.0000   169.4840   -19.6240     2.4740   -19.8120    70.9560     9.3230     9.6070     7.7770     2.3430 
  172.1250   169.5990   -19.6720     2.4770   -20.1450    71.1870     9.1400     9.4100     7.4480     2.3510 
  172.2500   169.7150   -19.7190     2.4790   -20.3980    71.9750     9.1180     9.3870     7.3620     2.3560 
  172.3750   169.8310   -19.7670     2.4810   -20.5850    73.3570     9.2440     9.5680     7.4270     2.3590 
  172.5000   169.9460   -19.8140     2.4830   -20.6610    73.9390     9.5040     9.8860     8.0020     2.3580 
  172.6250   170.0620   -19.8620     2.4850   -20.8050    73.6220     9.7730    10.2340     8.6480     2.3490 
  172.7500   170.1770   -19.9100     2.4880   -21.1280    73.5820    10.0020    10.5430     8.6150     2.3390 
  172.8750   170.2930   -19.9570     2.4900   -21.5090    75.7360    10.2180    10.8660     8.4220     2.3380 
  173.0000   170.4080   -20.0050     2.4920   -21.8800    78.1030    10.6780    11.4640     8.6090     2.3470 
  173.1250   170.5240   -20.0530     2.4940   -22.2300    76.9340    11.8130    12.8740     9.1090     2.3510 
  173.2500   170.6390   -20.1010     2.4960   -22.6110    71.5750    14.3670    15.6280     9.4410     2.3350 
  173.3750   170.7550   -20.1480     2.4980   -22.9750    67.0660    18.5180    20.2970    10.5490     2.3010 
  173.5000   170.8700   -20.1960     2.5000   -23.3770    65.4950    24.4910    27.1760    17.1610     2.2650 
  173.6250   170.9860   -20.2440     2.5030   -23.7850    63.1450    32.6060    36.2000    30.0720     2.2400 
  173.7500   171.1010   -20.2920     2.5050   -24.1860    59.1190    41.3580    45.8670    41.9600     2.2240 
  173.8750   171.2170   -20.3390     2.5070   -24.5870    55.4300    49.8180    54.8210    48.4630     2.2110 
  174.0000   171.3320   -20.3870     2.5090   -25.0230    53.9410    57.0460    62.4400    50.8380     2.2030 
  174.1250   171.4480   -20.4350     2.5110   -25.4650    52.7420    63.2610    69.4870    52.8280     2.2010 
  174.2500   171.5630   -20.4830     2.5140   -25.8250    53.2320    70.3380    77.4940    59.9400     2.1980 
  174.3750   171.6780   -20.5310     2.5160   -26.0820    54.8340    77.5630    85.0110    77.8680     2.1920 
  174.5000   171.7940   -20.5790     2.5180   -26.3330    56.0880    80.7670    88.4210   101.8080     2.1900 
  174.6250   171.9090   -20.6270     2.5210   -26.5780    57.3660    78.5380    85.6640   112.0470     2.1950 
  174.7500   172.0250   -20.6750     2.5230   -26.8300    59.8850    71.7340    78.5110    97.3950     2.2080 
  174.8750   172.1400   -20.7230     2.5250   -26.9710    62.5420    64.3530    71.2520    70.5120     2.2210 
  175.0000   172.2560   -20.7710     2.5280   -26.9990    62.9890    61.1880    68.1780    51.0180     2.2210 
  175.1250   172.3710   -20.8190     2.5300   -26.9580    59.7770    62.7620    70.9580    43.0150     2.1990 
  175.2500   172.4860   -20.8670     2.5320   -26.8960    55.3220    69.5380    79.2490    56.9010     2.1760 
  175.3750   172.6020   -20.9150     2.5340   -26.8350    54.3190    80.4540    91.0420   106.6150     2.1730 
  175.5000   172.7170   -20.9630     2.5360   -26.8070    55.8010    89.4830   100.1050   141.2010     2.1910 
  175.6250   172.8320   -21.0110     2.5390   -26.7900    56.7100    91.6350   101.4960   118.9860     2.2110 
  175.7500   172.9480   -21.0590     2.5410   -26.7720    57.3500    86.9260    95.3060    87.2160     2.2200 
  175.8750   173.0630   -21.1070     2.5430   -26.8280    58.8450    76.8070    84.3930    73.5130     2.2160 
  176.0000   173.1780   -21.1550     2.5460   -26.8530    59.3220    67.9220    74.3180    61.3390     2.2110 
  176.1250   173.2940   -21.2030     2.5480   -26.7760    59.8520    61.4700    67.1540    48.8190     2.2090 
  176.2500   173.4090   -21.2520     2.5510   -26.5330    63.6740    56.9180    62.0790    46.6440     2.2100 
  176.3750   173.5240   -21.3000     2.5530   -26.0470    67.5190    53.6960    58.4130    50.6440     2.2140 
  176.5000   173.6400   -21.3480     2.5550   -25.4840    66.8380    50.6590    54.9380    49.3050     2.2210 
  176.6250   173.7550   -21.3960     2.5570   -25.1160    63.5360    47.1450    50.9950    47.1560     2.2310 
  176.7500   173.8700   -21.4440     2.5600   -24.9850    62.1510    43.3970    46.8640    44.6240     2.2410 
  176.8750   173.9860   -21.4920     2.5620   -24.8330    62.2930    39.8280    43.1060    39.1770     2.2460 
  177.0000   174.1010   -21.5410     2.5640   -24.5260    61.7140    37.1320    40.1700    34.6310     2.2460 
  177.1250   174.2160   -21.5890     2.5670   -24.1150    62.2790    35.5060    38.2480    29.7950     2.2410 
  177.2500   174.3320   -21.6370     2.5690   -23.7620    65.0300    34.4200    37.0370    26.4210     2.2360 
  177.3750   174.4470   -21.6850     2.5720   -23.4940    66.6280    34.0430    36.4170    26.2680     2.2350 
  177.5000   174.5620   -21.7340     2.5740   -23.2490    65.5050    33.9920    35.9710    26.2820     2.2400 
  177.6250   174.6780   -21.7820     2.5760   -23.1350    63.7100    33.7420    35.2050    27.0370     2.2470 
