~V
VERS. 2.00: Ver 2.00
~W
STRT.M 44.0000:
STOP.M 275.0000:
STEP.M 0.1250:
NULL. -999.2500:
UWI. FD11190:
~C
DEPT.M :
TVD. :
DX. :
DY. :
SP.MV :
GR.API :
RI. :
RML.OHMM :
RXO.OHMM :
DEN.GM/CC :
~A
   44.0000    44.0000     0.0000     0.0000    58.5050    40.1760     0.2140     0.2920     0.4900     2.3820 
   44.1250    44.1250    -0.0020    -0.0020    55.7120    43.1860     0.2140     0.2920     0.5300     2.3410 
   44.2500    44.2500    -0.0030    -0.0040    52.9300    45.7110     0.2130     0.2940     0.5640     2.3190 
   44.3750    44.3750    -0.0050    -0.0060    50.1460    47.4520     0.2110     0.2970     0.6330     2.3030 
   44.5000    44.5000    -0.0070    -0.0080    47.3330    47.2330     0.1960     0.2960     0.7480     2.2890 
   44.6250    44.6250    -0.0080    -0.0100    44.4620    44.7190     0.1780     0.2760     0.9210     2.2930 
   44.7500    44.7500    -0.0100    -0.0120    41.5220    41.8020     0.1430     0.2290     1.1150     2.3220 
   44.8750    44.8750    -0.0120    -0.0140    38.5230    39.0210     0.1000     0.1630     1.3110     2.3560 
   45.0000    45.0000    -0.0130    -0.0160    35.5220    36.9870     0.0700     0.1010     1.8210     2.3770 
   45.1250    45.1250    -0.0150    -0.0180    32.6190    35.9560     0.0540     0.0730     2.7010     2.3940 
   45.2500    45.2500    -0.0170    -0.0200    29.9480    36.5290     0.0760     0.1050     3.0750     2.4270 
   45.3750    45.3750    -0.0180    -0.0220    27.6960    38.6380     0.1730     0.2540     3.0790     2.4480 
   45.5000    45.5000    -0.0200    -0.0240    25.9420    41.5930     0.4270     0.6320     3.8640     2.3990 
   45.6250    45.6250    -0.0220    -0.0260    22.1470    43.9590     0.9490     1.4910     5.1270     2.2780 
   45.7500    45.7500    -0.0230    -0.0280    13.2160    46.8300     1.9860     2.6660     5.9090     2.1680 
   45.8750    45.8750    -0.0250    -0.0300     7.2660    53.1320     3.2030     3.8380     6.1910     2.1320 
   46.0000    46.0000    -0.0270    -0.0320     0.8000    60.2030     4.2210     4.5720     6.4310     2.1400 
   46.1250    46.1250    -0.0290    -0.0340    -4.1610    65.3380     4.9630     4.7990     6.7190     2.1600 
   46.2500    46.2500    -0.0300    -0.0360    -7.5520    68.7940     5.3240     4.8220     6.9270     2.1910 
   46.3750    46.3740    -0.0320    -0.0380    -9.8710    71.3840     5.7570     4.9730     7.0110     2.2280 
   46.5000    46.4990    -0.0340    -0.0400   -11.5240    72.6740     6.2690     5.3320     6.9930     2.2410 
   46.6250    46.6240    -0.0360    -0.0420   -12.5630    74.0090     6.7790     5.6740     7.2780     2.2220 
   46.7500    46.7490    -0.0380    -0.0450   -13.0580    77.3130     7.0640     5.8030     8.4440     2.2070 
   46.8750    46.8740    -0.0390    -0.0470   -13.0780    79.8070     6.9080     5.6060     9.1650     2.2280 
   47.0000    46.9990    -0.0410    -0.0490   -12.7550    80.4390     6.4500     5.1700     7.5590     2.2670 
   47.1250    47.1240    -0.0430    -0.0510   -12.0260    82.3630     5.7600     4.6700     7.7170     2.2900 
   47.2500    47.2490    -0.0450    -0.0530   -11.0640    87.7790     5.1390     4.2630     4.6880     2.2840 
   47.3750    47.3740    -0.0470    -0.0550    -9.8840    91.8720     4.7700     4.0640     4.4420     2.2620 
   47.5000    47.4990    -0.0490    -0.0580    -8.7700    91.6280     4.6030     4.0570     4.7800     2.2410 
   47.6250    47.6240    -0.0510    -0.0600    -8.0820    88.1540     4.6420     4.2290     5.1830     2.2320 
   47.7500    47.7490    -0.0520    -0.0620    -7.8150    85.5060     4.8240     4.4760     5.2190     2.2350 
   47.8750    47.8740    -0.0540    -0.0640    -7.8530    86.1140     5.0300     4.6730     4.7280     2.2370 
   48.0000    47.9990    -0.0560    -0.0660    -8.0060    87.3790     5.1210     4.7460     4.6110     2.2280 
   48.1250    48.1240    -0.0580    -0.0690    -8.2200    87.1280     5.0820     4.6750     5.2970     2.2190 
   48.2500    48.2490    -0.0600    -0.0710    -8.4850    85.6160     4.9220     4.5090     5.4100     2.2280 
   48.3750    48.3740    -0.0620    -0.0730    -8.8440    84.6320     4.6610     4.2800     4.5280     2.2540 
   48.5000    48.4990    -0.0640    -0.0750    -9.2830    85.3770     4.3480     4.0440     3.8670     2.2790 
   48.6250    48.6240    -0.0660    -0.0780    -9.4960    88.2870     4.0560     3.8590     3.6800     2.2890 
   48.7500    48.7490    -0.0680    -0.0800    -9.4640    93.0330     3.8190     3.8770     3.7310     2.2850 
   48.8750    48.8740    -0.0700    -0.0820    -9.5630    94.8920     3.9020     4.3320     4.3060     2.2740 
   49.0000    48.9990    -0.0720    -0.0850    -9.9810    92.6670     4.4690     5.3880     4.8620     2.2840 
   49.1250    49.1240    -0.0740    -0.0870   -10.7450    90.7340     5.7100     7.1470     6.6580     2.3420 
   49.2500    49.2490    -0.0760    -0.0890   -11.8030    91.2300     7.5150     9.3710    18.7420     2.4380 
   49.3750    49.3740    -0.0780    -0.0920   -13.0360    90.0290     9.4850    11.4380    34.5200     2.5070 
   49.5000    49.4990    -0.0800    -0.0940   -14.4320    82.3890    11.0220    12.5480    32.1860     2.4890 
   49.6250    49.6240    -0.0820    -0.0970   -16.0950    70.3860    11.1090    12.1370    18.3130     2.3810 
   49.7500    49.7490    -0.0850    -0.0990   -17.9910    60.7630    10.0180    10.5910    10.0900     2.2510 
   49.8750    49.8730    -0.0870    -0.1010   -19.9680    58.6880     8.2380     8.7750     7.6150     2.1620 
   50.0000    49.9980    -0.0890    -0.1040   -21.7730    59.5250     6.7020     7.4660     7.1750     2.1200 
   50.1250    50.1230    -0.0910    -0.1060   -23.1690    59.5030     6.0190     6.3820     7.1320     2.1070 
   50.2500    50.2480    -0.0930    -0.1090   -24.1710    59.1340     5.7530     6.2320     6.9380     2.1010 
   50.3750    50.3730    -0.0950    -0.1110   -24.7940    59.8570     5.6640     6.0750     6.6950     2.1000 
   50.5000    50.4980    -0.0970    -0.1140   -25.2310    62.7040     5.6040     5.9110     6.7420     2.1050 
   50.6250    50.6230    -0.1000    -0.1160   -25.6130    65.8040     5.5310     5.7530     6.9200     2.1140 
   50.7500    50.7480    -0.1020    -0.1190   -25.9950    67.2360     5.4460     5.6670     7.0610     2.1230 
   50.8750    50.8730    -0.1040    -0.1210   -26.3400    66.6140     5.3510     5.6430     7.1620     2.1250 
   51.0000    50.9980    -0.1060    -0.1240   -26.7050    65.5490     5.2470     5.6360     7.1440     2.1200 
   51.1250    51.1230    -0.1090    -0.1260   -26.9940    66.7720     5.1980     5.6380     7.0840     2.1120 
   51.2500    51.2480    -0.1110    -0.1290   -27.0830    67.5250     5.2780     5.8950     7.0610     2.1050 
   51.3750    51.3730    -0.1130    -0.1310   -26.9780    66.4540     5.5350     6.4040     8.4500     2.1060 
   51.5000    51.4980    -0.1160    -0.1340   -26.7720    63.7600     5.9300     7.0520    21.5250     2.1230 
   51.6250    51.6230    -0.1180    -0.1370   -26.5350    60.9510     6.3240     7.6000    37.4440     2.1700 
   51.7500    51.7480    -0.1210    -0.1390   -26.3530    60.4300     6.5310     7.8220    32.2250     2.2350 
   51.8750    51.8730    -0.1230    -0.1420   -26.2690    63.2490     6.4300     7.5920    17.3760     2.2780 
   52.0000    51.9980    -0.1250    -0.1440   -26.2760    67.9370     6.0550     7.0730     9.9040     2.2700 
   52.1250    52.1230    -0.1280    -0.1470   -26.4780    72.1790     5.5470     6.4900     7.5350     2.2190 
   52.2500    52.2480    -0.1300    -0.1500   -26.8230    77.3580     5.0920     6.0470     7.1380     2.1630 
   52.3750    52.3730    -0.1330    -0.1520   -27.3020    80.4770     4.7750     5.8370     7.1960     2.1230 
   52.5000    52.4970    -0.1350    -0.1550   -27.7600    78.6930     4.6090     5.7990     7.4440     2.0970 
   52.6250    52.6220    -0.1380    -0.1580   -28.1260    71.4610     4.5410     5.8540     7.3570     2.0820 
   52.7500    52.7470    -0.1400    -0.1600   -28.4200    65.2020     4.5390     5.9120     7.0750     2.0770 
   52.8750    52.8720    -0.1430    -0.1630   -28.6030    62.4390     4.5650     5.9350     6.9070     2.0780 
   53.0000    52.9970    -0.1450    -0.1660   -28.6210    62.4920     4.6130     5.9410     6.8430     2.0800 
