~V
VERS. 2.00: Ver 2.00
~W
STRT.M 15.0000:
STOP.M 224.0000:
STEP.M 0.1250:
NULL. -999.2500:
UWI. FD11007:
~C
DEPT.M :
TVD. :
DX. :
DY. :
DEN.GM/CC :
GR.API :
RML.OHMM :
RI. :
RXO.OHMM :
CALI.CM :
SP.MV :
~A
# ...
   56.2500    56.2500     0.0000     0.0000     2.1830    66.4280     9.6700     5.9050     8.5420    26.2690   -29.4570 
   56.3750    56.3750     0.0000     0.0000     2.2070    70.6720     9.4010     5.8080     9.0330    25.8930   -27.7370 
   56.5000    56.5000     0.0000     0.0000     2.2470    78.8320     8.8540     5.5980     9.1000    25.6370   -26.0560 
   56.6250    56.6250     0.0000     0.0000     2.2830    87.5870     8.1890     5.3180     7.0350    25.5750   -24.5160 
   56.7500    56.7500     0.0000     0.0000     2.3030    93.1790     7.7480     5.0990     5.9530    25.5840   -23.2420 
   56.8750    56.8750     0.0000     0.0000     2.3090    92.7210     7.7350     5.0380     6.0820    25.5850   -22.2500 
   57.0000    57.0000     0.0000     0.0000     2.3160    87.8750     8.1860     5.1730     6.1560    25.5810   -21.5570 
   57.1250    57.1250     0.0000     0.0000     2.3360    84.4100     8.9570     5.4850     7.1370    25.5800   -21.1540 
   57.2500    57.2500     0.0000     0.0000     2.3620    84.8860     9.6080     5.8140     9.1540    25.5810   -21.0140 
   57.3750    57.3750     0.0000     0.0000     2.3770    87.0640     9.7660     6.0020     9.4590    25.5810   -21.0090 
   57.5000    57.5000     0.0000     0.0000     2.3740    90.3350     9.2920     5.9480     7.7470    25.5790   -21.0870 
   57.6250    57.6250     0.0000     0.0000     2.3580    96.8040     8.3880     5.6670     6.0980    25.5800   -21.2210 
   57.7500    57.7500     0.0000     0.0000     2.3420   102.3670     7.5450     5.3470     5.4000    25.5820   -21.4270 
   57.8750    57.8750     0.0000     0.0000     2.3330   103.4680     7.0330     5.1170     5.3120    25.5850   -21.6850 
   58.0000    58.0000     0.0000     0.0000     2.3300   101.1810     6.9460     5.0510     5.5000    25.5880   -21.9850 
   58.1250    58.1250     0.0000     0.0000     2.3260    96.0870     7.2480     5.1750     5.6670    25.5880   -22.3630 
   58.2500    58.2500     0.0000     0.0000     2.3160    89.2280     7.6900     5.3910     6.4340    25.5860   -22.8190 
   58.3750    58.3750     0.0000     0.0000     2.2990    83.9610     8.0970     5.6150     7.1310    25.5840   -23.2610 
   58.5000    58.5000     0.0000     0.0000     2.2780    83.1910     8.3410     5.7790     7.1880    25.5860   -23.5860 
   58.6250    58.6250     0.0000     0.0000     2.2610    85.4190     8.2990     5.8130     6.8610    25.5890   -23.7460 
   58.7500    58.7500     0.0000     0.0000     2.2520    86.6060     8.0190     5.7220     6.5910    25.5900   -23.7010 
   58.8750    58.8750     0.0000     0.0000     2.2510    88.2750     7.5810     5.5310     6.5730    25.6110   -23.4840 
   59.0000    59.0000     0.0000     0.0000     2.2560    91.3630     7.1100     5.2930     6.4300    25.6710   -23.1660 
   59.1250    59.1250     0.0000     0.0000     2.2680    92.8490     6.7690     5.0820     5.8490    25.7450   -22.8260 
   59.2500    59.2500     0.0000     0.0000     2.2820    93.1380     6.6370     4.9490     5.2430    25.7810   -22.5870 
   59.3750    59.3750     0.0000     0.0000     2.2940    93.8360     6.7370     4.9150     5.1680    25.7980   -22.5340 
   59.5000    59.5000     0.0000     0.0000     2.2940    93.4390     7.0690     4.9920     5.7080    25.8610   -22.6670 
   59.6250    59.6250     0.0000     0.0000     2.2720    86.7080     7.6120     5.1960     6.9500    25.9730   -22.9490 
   59.7500    59.7500     0.0000     0.0000     2.2370    77.3570     8.1850     5.4550     7.5820    26.0450   -23.3310 
   59.8750    59.8750     0.0000     0.0000     2.2120    71.0890     8.5830     5.6780     7.6140    26.0220   -23.7280 
   60.0000    60.0000     0.0000     0.0000     2.2190    72.1450     8.6290     5.7650     8.0370    25.8990   -24.0980 
   60.1250    60.1250     0.0000     0.0000     2.2710    80.1310     8.2580     5.6530     8.4520    25.7300   -24.4660 
   60.2500    60.2500     0.0000     0.0000     2.3300    91.0740     7.7540     5.4450     7.7790    25.6010   -24.9300 
   60.3750    60.3750     0.0000     0.0000     2.3590    99.2560     7.4050     5.2640     6.0540    25.5300   -25.6180 
   60.5000    60.5000     0.0000     0.0000     2.3460   100.3230     7.4080     5.2150     5.7490    25.4800   -26.6330 
   60.6250    60.6250     0.0000     0.0000     2.3120    95.4420     7.8100     5.3620     7.6050    25.4290   -28.0130 
   60.7500    60.7500     0.0000     0.0000     2.2930    89.0620     8.3590     5.6290    10.2890    25.4010   -29.7350 
   60.8750    60.8750     0.0000     0.0000     2.2960    84.4720     8.8220     5.9200    12.1470    25.4000   -31.6530 
   61.0000    61.0000     0.0000     0.0000     2.3060    83.6390     9.0170     6.1270    12.5460    25.4030   -33.6730 
   61.1250    61.1250     0.0000     0.0000     2.3000    84.3770     8.8740     6.1580    10.5150    25.4000   -35.6510 
   61.2500    61.2500     0.0000     0.0000     2.2770    84.3040     8.5790     6.0540     9.5920    25.3970   -37.4040 
   61.3750    61.3750     0.0000     0.0000     2.2470    82.9540     8.2530     5.8750     9.5800    25.3980   -38.8740 
   61.5000    61.5000     0.0000     0.0000     2.2230    79.9430     7.9420     5.6750     9.6810    25.4020   -40.0110 
   61.6250    61.6250     0.0000     0.0000     2.2060    75.8190     7.6560     5.4890     9.4600    25.3850   -40.7940 
   61.7500    61.7500     0.0000     0.0000     2.1950    71.4200     7.4120     5.3340     9.2040    25.3420   -41.1360 
   61.8750    61.8750     0.0000     0.0000     2.1870    69.2450     7.2550     5.2240     9.1360    25.2900   -41.1090 
   62.0000    62.0000     0.0000     0.0000     2.1830    69.7110     7.2220     5.1740     9.4390    25.2600   -40.7230 
   62.1250    62.1250     0.0000     0.0000     2.1850    71.7900     7.3280     5.1970    10.1580    25.2580   -39.9950 
   62.2500    62.2500     0.0000     0.0000     2.1910    72.7800     7.5000     5.2670     9.8290    25.2600   -38.9120 
   62.3750    62.3750     0.0000     0.0000     2.1940    72.9130     7.6740     5.3560     9.4670    25.2560   -37.5410 
   62.5000    62.5000     0.0000     0.0000     2.1910    73.7730     7.7970     5.4330     9.1800    25.2510   -35.9050 
   62.6250    62.6250     0.0000     0.0000     2.1830    75.4880     7.8030     5.4560     8.9220    25.2510   -34.0200 
   62.7500    62.7500     0.0000     0.0000     2.1790    76.3790     7.6670     5.4050     8.6810    25.2540   -31.8720 
   62.8750    62.8750     0.0000     0.0000     2.1850    77.9550     7.3680     5.2690     8.2500    25.2550   -29.5620 
   63.0000    63.0000     0.0000     0.0000     2.2050    83.1220     6.9230     5.0570     7.5100    25.2510   -27.2220 
   63.1250    63.1250     0.0000     0.0000     2.2340    92.2390     6.4210     4.8070     6.4430    25.2490   -25.0240 
   63.2500    63.2500     0.0000     0.0000     2.2640   101.7070     5.9950     4.5860     5.6880    25.2480   -23.1870 
   63.3750    63.3750     0.0000     0.0000     2.2900   108.6760     5.7250     4.4420     5.0300    25.2330   -21.7550 
   63.5000    63.5000     0.0000     0.0000     2.3090   111.6860     5.6580     4.4090     4.6820    25.1990   -20.7880 
   63.6250    63.6250     0.0000     0.0000     2.3190   110.7760     5.8180     4.5210     5.2040    25.1690   -20.3260 
   63.7500    63.7500     0.0000     0.0000     2.3210   107.1880     6.1130     4.7400     5.9320    25.1620   -20.4100 
   63.8750    63.8750     0.0000     0.0000     2.3150   100.5770     6.4930     5.0370     6.2680    25.1650   -20.8590 
   64.0000    64.0000     0.0000     0.0000     2.3020    92.9620     6.9250     5.3800     6.1950    25.1680   -21.5470 
   64.1250    64.1250     0.0000     0.0000     2.2850    87.8350     7.3600     5.7210     6.5430    25.1850   -22.3380 
   64.2500    64.2500     0.0000     0.0000     2.2680    84.7690     7.7020     5.9880     6.9810    25.2350   -23.0590 
   64.3750    64.3750     0.0000     0.0000     2.2560    80.9980     7.8390     6.1070     7.4400    25.3090   -23.5470 
