~V
VERS. 2.00: Ver 2.00
~W
STRT.M 15.0000:
STOP.M 224.0000:
STEP.M 0.1250:
NULL. -999.2500:
UWI. FD11007:
~C
DEPT.M :
TVD. :
DX. :
DY. :
DEN.GM/CC :
GR.API :
RML.OHMM :
RI. :
RXO.OHMM :
CALI.CM :
SP.MV :
~A
# ...
  105.7500   105.6880     0.7450    -1.1130     2.1830    70.3500     8.6680     6.9260     9.9940    27.2320   -38.1980 
  105.8750   105.8120     0.7540    -1.1240     2.1810    73.7810     8.5600     6.8620     9.8910    27.6130   -37.9050 
  106.0000   105.9360     0.7620    -1.1340     2.2040    70.9660     8.4670     6.8040     9.7960    27.8510   -37.6740 
  106.1250   106.0600     0.7710    -1.1450     2.2520    65.4670     8.4170     6.7770     9.4930    27.9250   -37.4880 
  106.2500   106.1850     0.7790    -1.1560     2.2930    64.8520     8.4060     6.7780     9.0810    27.8930   -37.3420 
  106.3750   106.3090     0.7880    -1.1670     2.3030    67.4250     8.4170     6.7980     8.8300    27.7940   -37.2560 
  106.5000   106.4330     0.7960    -1.1780     2.2780    67.8190     8.4290     6.8200     9.0210    27.7210   -37.2330 
  106.6250   106.5570     0.8050    -1.1890     2.2310    66.8610     8.4230     6.8260     9.1230    27.8520   -37.2820 
  106.7500   106.6820     0.8140    -1.2000     2.1880    68.8410     8.4020     6.8130     9.0510    28.1880   -37.4340 
  106.8750   106.8060     0.8220    -1.2110     2.1610    72.6920     8.3820     6.7930     9.0310    28.5640   -37.6380 
  107.0000   106.9300     0.8310    -1.2220     2.1480    73.3660     8.3850     6.7830     9.2060    28.7980   -37.8680 
  107.1250   107.0540     0.8390    -1.2330     2.1470    68.7840     8.4310     6.8010     9.3890    28.8360   -38.1410 
  107.2500   107.1780     0.8480    -1.2430     2.1420    64.1810     8.5050     6.8410     9.4320    28.8110   -38.4640 
  107.3750   107.3030     0.8560    -1.2540     2.1220    62.8260     8.5830     6.8890     9.5720    28.7700   -38.8120 
  107.5000   107.4270     0.8650    -1.2650     2.0790    64.2720     8.6450     6.9320     9.8850    28.7270   -39.1740 
  107.6250   107.5510     0.8730    -1.2760     2.0180    64.5020     8.7040     6.9720    10.1680    28.7630   -39.5550 
  107.7500   107.6750     0.8820    -1.2870     1.9640    61.9100     8.7990     7.0310    10.0940    28.8550   -39.9300 
  107.8750   107.8000     0.8900    -1.2980     1.9380    60.6710     8.9620     7.1300     9.3310    28.6220   -40.2680 
  108.0000   107.9240     0.8990    -1.3090     1.9560    63.3080     9.1920     7.2680     8.4300    27.6420   -40.5550 
  108.1250   108.0480     0.9080    -1.3200     2.0200    66.1690     9.4410     7.4190     9.1500    26.1300   -40.7710 
  108.2500   108.1720     0.9170    -1.3320     2.1000    65.3030     9.6160     7.5260    11.0680    24.9940   -40.8730 
  108.3750   108.2960     0.9300    -1.3450     2.1670    60.5310     9.6420     7.5380    11.2660    24.5410   -40.8550 
  108.5000   108.4190     0.9420    -1.3590     2.2070    57.3250     9.4910     7.4330    10.4290    24.4790   -40.7260 
  108.6250   108.5430     0.9550    -1.3730     2.2200    62.2960     9.1940     7.2200     9.6030    24.4670   -40.5160 
  108.7500   108.6660     0.9670    -1.3870     2.2210    69.8890     8.8770     6.9810     8.9670    24.4590   -40.2600 
  108.8750   108.7900     0.9800    -1.4000     2.2150    73.6280     8.6510     6.7890     8.1760    24.4580   -40.0330 
  109.0000   108.9140     0.9920    -1.4140     2.2100    72.6160     8.6010     6.7080     7.6680    24.4480   -39.8660 
  109.1250   109.0370     1.0050    -1.4280     2.2230    71.5550     8.7860     6.7920     8.0690    24.4160   -39.7800 
  109.2500   109.1610     1.0170    -1.4420     2.2520    69.2860     9.1230     6.9970     8.7890    24.3780   -39.8410 
  109.3750   109.2840     1.0300    -1.4560     2.2830    66.1450     9.5100     7.2670     9.9210    24.3560   -40.0590 
  109.5000   109.4080     1.0420    -1.4690     2.2930    64.6740     9.8090     7.5190    11.9690    24.3540   -40.3960 
  109.6250   109.5320     1.0550    -1.4830     2.2690    64.9320     9.8540     7.6360    14.2470    24.3540   -40.8050 
  109.7500   109.6550     1.0670    -1.4970     2.2310    63.8920     9.6640     7.5970    13.4280    24.3310   -41.2460 
  109.8750   109.7790     1.0800    -1.5110     2.1990    62.1180     9.3240     7.4350    12.1780    24.2890   -41.6730 
  110.0000   109.9020     1.0920    -1.5240     2.1860    61.6430     8.9560     7.2170    10.8440    24.2500   -42.0670 
  110.1250   110.0260     1.1050    -1.5380     2.1900    61.2700     8.6790     7.0180    10.1820    24.2400   -42.4120 
  110.2500   110.1500     1.1170    -1.5520     2.1950    60.2320     8.5140     6.8760     9.8340    24.2440   -42.6790 
  110.3750   110.2730     1.1300    -1.5660     2.1950    59.4200     8.4440     6.7930     9.6080    24.2330   -42.8640 
  110.5000   110.3970     1.1420    -1.5800     2.1900    59.2240     8.4380     6.7620     9.5530    24.1930   -42.9810 
  110.6250   110.5200     1.1540    -1.5930     2.1840    58.6650     8.4840     6.7800     9.8810    24.1380   -43.0810 
  110.7500   110.6440     1.1670    -1.6070     2.1800    58.4430     8.5550     6.8280    10.2010    24.1020   -43.1850 
  110.8750   110.7680     1.1790    -1.6210     2.1780    59.7440     8.6300     6.8900    10.2750    24.1130   -43.3020 
  111.0000   110.8910     1.1920    -1.6350     2.1800    61.4850     8.6870     6.9440    10.1810    24.1650   -43.4170 
  111.1250   111.0150     1.2040    -1.6490     2.1860    62.0680     8.6960     6.9660    10.2300    24.2170   -43.5250 
  111.2500   111.1390     1.2170    -1.6620     2.1930    62.7750     8.6600     6.9540    10.0620    24.2380   -43.6350 
  111.3750   111.2620     1.2290    -1.6760     2.1990    65.3040     8.5960     6.9170     9.7700    24.2380   -43.7260 
  111.5000   111.3860     1.2420    -1.6900     2.2010    69.1060     8.5270     6.8690     9.6440    24.2380   -43.7650 
  111.6250   111.5090     1.2540    -1.7040     2.1940    69.2710     8.4640     6.8210     9.9360    24.2430   -43.7520 
  111.7500   111.6330     1.2670    -1.7170     2.1820    64.4400     8.4050     6.7790    10.2880    24.2450   -43.7080 
  111.8750   111.7570     1.2790    -1.7310     2.1710    59.1860     8.3440     6.7420    10.3320    24.2380   -43.6530 
  112.0000   111.8800     1.2920    -1.7450     2.1690    57.8100     8.2900     6.7160    10.2300    24.2230   -43.5940 
  112.1250   112.0040     1.3040    -1.7590     2.1800    60.8460     8.2930     6.7290    10.2010    24.2060   -43.5200 
  112.2500   112.1270     1.3170    -1.7730     2.2000    65.5400     8.3900     6.8040    10.2930    24.1970   -43.3900 
  112.3750   112.2510     1.3290    -1.7860     2.2210    69.1480     8.5880     6.9530    10.4960    24.1970   -43.1850 
  112.5000   112.3750     1.3420    -1.8000     2.2370    68.3250     8.8470     7.1550    11.1450    24.1860   -42.8610 
  112.6250   112.4980     1.3540    -1.8140     2.2380    65.7770     9.0700     7.3500    13.2220    24.1490   -42.3610 
  112.7500   112.6220     1.3670    -1.8280     2.2250    67.1640     9.1730     7.4690    16.5840    24.1100   -41.6570 
  112.8750   112.7450     1.3790    -1.8410     2.2060    70.8070     9.1250     7.4760    16.8720    24.0900   -40.8020 
  113.0000   112.8690     1.3920    -1.8550     2.1910    72.5260     8.9470     7.3730    12.7290    24.0890   -39.8060 
  113.1250   112.9930     1.4040    -1.8690     2.1980    73.4240     8.6650     7.1690    10.1340    24.0900   -38.7310 
  113.2500   113.1160     1.4170    -1.8830     2.2260    75.4870     8.3160     6.9000     9.0580    24.0890   -37.6670 
  113.3750   113.2400     1.4290    -1.8970     2.2690    78.6320     7.9150     6.5840     9.0120    24.0920   -36.6920 
  113.5000   113.3630     1.4420    -1.9100     2.3050    82.4060     7.4950     6.2500     8.3280    24.0950   -35.8840 
  113.6250   113.4870     1.4540    -1.9240     2.3130    85.7260     7.1330     5.9540     7.2010    24.0960   -35.3400 
  113.7500   113.6110     1.4670    -1.9380     2.2930    86.1330     6.9230     5.7590     5.8760    24.0920   -35.1560 
  113.8750   113.7340     1.4790    -1.9520     2.2590    81.8850     6.9420     5.7240     5.5740    24.0890   -35.2750 
