~V
VERS. 2.00: Ver 2.00
~W
STRT.M 50.0000:
STOP.M 268.0000:
STEP.M 0.1250:
NULL. -999.2500:
UWI. FD11187:
~C
DEPT.M :
TVD. :
DX. :
DY. :
SP.MV :
GR.API :
RI. :
RML.OHMM :
RXO.OHMM :
DEN.GM/CC :
~A
# ...
   68.2500    68.2490    -0.0330    -0.2020   -33.2320    76.3620     5.0740     8.0160     5.7610     2.1860 
   68.3750    68.3740    -0.0330    -0.2040   -33.3440    66.9440     5.2350     8.3500     5.2710     2.1090 
   68.5000    68.4990    -0.0320    -0.2060   -33.4290    64.4590     5.3130     8.5220     5.4420     2.0770 
   68.6250    68.6240    -0.0310    -0.2070   -33.5600    64.8190     5.3620     8.6330     5.4200     2.0660 
   68.7500    68.7490    -0.0300    -0.2090   -33.6380    65.0930     5.3770     8.6630     5.2020     2.0740 
   68.8750    68.8740    -0.0290    -0.2100   -33.7140    64.6030     5.4300     8.7050     4.9070     2.1020 
   69.0000    68.9990    -0.0280    -0.2120   -33.7290    64.1770     5.4480     8.6810     4.9880     2.1200 
   69.1250    69.1240    -0.0270    -0.2130   -33.6890    65.1260     5.4640     8.6610     5.5200     2.1240 
   69.2500    69.2490    -0.0260    -0.2150   -33.6210    67.2300     5.4750     8.6740     5.9220     2.1120 
   69.3750    69.3740    -0.0250    -0.2170   -33.4690    70.0330     5.4850     8.6540     5.9450     2.0910 
   69.5000    69.4990    -0.0240    -0.2180   -33.3440    70.9150     5.4930     8.6240     5.6750     2.0790 
   69.6250    69.6240    -0.0220    -0.2200   -33.1460    70.4670     5.5230     8.5310     5.4320     2.0630 
   69.7500    69.7490    -0.0210    -0.2210   -33.0210    68.7990     5.5620     8.5020     5.2880     2.0560 
   69.8750    69.8740    -0.0200    -0.2230   -32.8630    65.1140     5.6070     8.4760     5.2510     2.0610 
   70.0000    69.9980    -0.0190    -0.2240   -32.7780    64.3890     5.6410     8.4910     5.4600     2.0720 
   70.1250    70.1230    -0.0170    -0.2260   -32.6730    65.8560     5.6510     8.5030     5.5100     2.0740 
   70.2500    70.2480    -0.0160    -0.2280   -32.6120    66.8120     5.6000     8.4200     5.2690     2.0640 
   70.3750    70.3730    -0.0150    -0.2290   -32.5300    65.8360     5.3990     8.0760     4.8520     2.0560 
   70.5000    70.4980    -0.0130    -0.2310   -32.4900    66.4480     5.2520     7.8440     4.6120     2.0720 
   70.6250    70.6230    -0.0120    -0.2320   -32.4670    69.8240     5.0840     7.5150     4.5740     2.1090 
   70.7500    70.7480    -0.0100    -0.2340   -32.4770    71.3520     5.0440     7.4440     4.8780     2.1180 
   70.8750    70.8730    -0.0090    -0.2350   -32.5220    68.2780     5.0870     7.4720     5.4330     2.1040 
   71.0000    70.9980    -0.0070    -0.2370   -32.5610    64.6350     5.1350     7.4890     5.4590     2.0990 
   71.1250    71.1230    -0.0050    -0.2390   -32.6220    64.3410     5.2230     7.4730     5.1630     2.1210 
   71.2500    71.2480    -0.0040    -0.2400   -32.6570    67.3300     5.2220     7.3260     5.0910     2.1390 
   71.3750    71.3730    -0.0020    -0.2420   -32.6860    70.5470     5.1050     6.9090     5.4560     2.1400 
   71.5000    71.4980     0.0000    -0.2430   -32.6810    70.0860     4.9820     6.5940     5.7990     2.1310 
   71.6250    71.6230     0.0010    -0.2450   -32.6300    69.3660     5.0180     6.4780     5.3980     2.1430 
   71.7500    71.7480     0.0030    -0.2460   -32.5680    70.2430     5.2000     6.6660     5.8330     2.1620 
   71.8750    71.8730     0.0050    -0.2480   -32.4380    70.3670     5.6520     7.2470    13.7240     2.1610 
   72.0000    71.9980     0.0070    -0.2500   -32.3330    68.4760     6.0400     7.7550    19.2740     2.1350 
   72.1250    72.1230     0.0090    -0.2510   -32.1520    64.7240     6.5890     8.4070    15.1820     2.1050 
   72.2500    72.2480     0.0110    -0.2530   -32.0170    63.8380     6.8400     8.6410     9.7750     2.1020 
   72.3750    72.3730     0.0130    -0.2550   -31.7930    63.4630     6.9060     8.5360    25.0380     2.0970 
   72.5000    72.4980     0.0150    -0.2560   -31.6300    63.2800     6.7160     8.1640    54.9490     2.0820 
   72.6250    72.6230     0.0170    -0.2580   -31.3780    61.0090     6.3090     7.5240    65.7050     2.0590 
   72.7500    72.7480     0.0190    -0.2590   -31.2180    58.9240     6.1690     7.2860    36.0880     2.0610 
   72.8750    72.8730     0.0210    -0.2610   -31.0280    56.1410     6.0820     7.1330     6.3090     2.1430 
   73.0000    72.9980     0.0230    -0.2630   -30.9580    54.5040     6.1140     7.1630     5.1620     2.2460 
   73.1250    73.1230     0.0260    -0.2640   -30.9520    51.8980     6.2070     7.2930     5.0950     2.3230 
   73.2500    73.2480     0.0280    -0.2660   -31.0060    50.1780     6.2560     7.3530     5.0930     2.2710 
   73.3750    73.3730     0.0300    -0.2680   -31.1330    50.9130     6.1820     7.2340     5.7570     2.1340 
   73.5000    73.4980     0.0320    -0.2690   -31.2220    53.8760     6.0290     7.0330     6.0190     2.0870 
   73.6250    73.6230     0.0350    -0.2710   -31.3340    58.7590     5.6620     6.5730     5.6610     2.0840 
   73.7500    73.7480     0.0370    -0.2730   -31.3850    60.4940     5.4770     6.3720     5.5780     2.0850 
   73.8750    73.8730     0.0400    -0.2740   -31.4230    61.4210     5.4350     6.3610     5.7690     2.0660 
   74.0000    73.9980     0.0420    -0.2760   -31.4220    62.7660     5.5600     6.5370     5.6240     2.0510 
   74.1250    74.1230     0.0450    -0.2780   -31.3910    65.3120     5.8820     6.9440     5.7410     2.0390 
   74.2500    74.2480     0.0470    -0.2800   -31.3570    66.1790     6.1190     7.2230     6.2960     2.0480 
   74.3750    74.3730     0.0500    -0.2810   -31.2960    66.3030     6.4350     7.5440     6.5820     2.0750 
   74.5000    74.4980     0.0530    -0.2830   -31.2440    67.4040     6.5000     7.5620     6.3160     2.0900 
   74.6250    74.6220     0.0550    -0.2850   -31.1340    70.0180     6.4070     7.3870     5.9500     2.0980 
   74.7500    74.7470     0.0580    -0.2870   -31.0320    69.4490     6.2480     7.1670     5.7460     2.0940 
   74.8750    74.8720     0.0610    -0.2890   -30.8410    64.1720     5.9420     6.8030     5.4370     2.0790 
   75.0000    74.9970     0.0640    -0.2910   -30.7000    61.0790     5.7820     6.6240     5.4000     2.0680 
   75.1250    75.1220     0.0670    -0.2920   -30.4980    61.6590     5.6100     6.4420     5.7710     2.0590 
   75.2500    75.2470     0.0700    -0.2940   -30.3820    62.8430     5.5290     6.3640     6.1090     2.0570 
   75.3750    75.3720     0.0730    -0.2960   -30.2440    62.3300     5.4570     6.2850     6.3060     2.0520 
   75.5000    75.4970     0.0760    -0.2980   -30.1750    60.9640     5.4250     6.2500     6.2020     2.0460 
   75.6250    75.6220     0.0790    -0.3000   -30.1110    60.0880     5.4090     6.2310     5.8720     2.0360 
   75.7500    75.7470     0.0830    -0.3020   -30.1010    60.6040     5.4110     6.2340     5.7250     2.0300 
   75.8750    75.8720     0.0860    -0.3040   -30.1500    61.9250     5.4730     6.3010     5.8270     2.0400 
   76.0000    75.9970     0.0900    -0.3060   -30.2240    62.6550     5.5330     6.3740     6.0090     2.0590 
   76.1250    76.1220     0.0930    -0.3080   -30.3730    62.4850     5.6600     6.5270     6.2360     2.0930 
   76.2500    76.2470     0.0960    -0.3100   -30.4720    62.1580     5.7400     6.6250     6.3160     2.1060 
   76.3750    76.3720     0.1000    -0.3120   -30.5800    62.6060     5.8230     6.7360     6.2690     2.1030 
   76.5000    76.4970     0.1040    -0.3140   -30.6130    62.4810     5.8450     6.7520     6.1890     2.0960 
   76.6250    76.6220     0.1070    -0.3160   -30.6070    59.1150     5.8070     6.6970     6.1060     2.0860 
   76.7500    76.7460     0.1110    -0.3180   -30.5800    56.1930     5.7730     6.6500     6.0740     2.0780 
   76.8750    76.8710     0.1150    -0.3200   -30.5340    54.0050     5.7160     6.5700     6.1350     2.0620 
   77.0000    76.9960     0.1190    -0.3230   -30.5160    54.7170     5.7130     6.5680     6.1870     2.0590 
   77.1250    77.1210     0.1230    -0.3250   -30.5280    55.7600     5.7710     6.6320     6.2090     2.0680 
   77.2500    77.2460     0.1270    -0.3270   -30.5620    55.6890     5.8070     6.6650     6.4700     2.0720 
