~V
VERS. 2.00: Ver 2.00
~W
STRT.M 44.0000:
STOP.M 275.0000:
STEP.M 0.1250:
NULL. -999.2500:
UWI. FD11190:
~C
DEPT.M :
TVD. :
DX. :
DY. :
SP.MV :
GR.API :
RI. :
RML.OHMM :
RXO.OHMM :
DEN.GM/CC :
~A
# ...
  208.2500   199.2520   -41.8410   -23.0180   -16.8470    59.5260    61.6560    62.1600    91.0910     2.1910 
  208.3750   199.3660   -41.8860   -23.0430   -17.0510    58.8840    59.7470    61.5740   179.4450     2.1950 
  208.5000   199.4800   -41.9300   -23.0690   -17.1440    60.7670    59.4560    62.6870   193.1650     2.1920 
  208.6250   199.5940   -41.9750   -23.0940   -17.1220    63.4540    61.8260    65.9170   117.8310     2.1800 
  208.7500   199.7080   -42.0190   -23.1200   -16.9210    65.4490    65.0700    70.9550    71.9980     2.1730 
  208.8750   199.8220   -42.0630   -23.1450   -16.5590    63.9410    71.1760    77.3210    73.8520     2.1800 
  209.0000   199.9360   -42.1080   -23.1710   -16.2610    58.2430    77.4490    83.6150    76.7260     2.1920 
  209.1250   200.0500   -42.1520   -23.1960   -16.2260    53.3760    82.9430    88.1190    75.0150     2.1940 
  209.2500   200.1640   -42.1970   -23.2210   -16.3440    52.8060    85.7700    91.0840    78.6860     2.1850 
  209.3750   200.2780   -42.2410   -23.2470   -16.4440    54.5980    87.0350    93.1200    83.8810     2.1750 
  209.5000   200.3920   -42.2850   -23.2720   -16.3890    55.5820    88.8670    94.7540    79.4630     2.1730 
  209.6250   200.5060   -42.3290   -23.2970   -16.1200    57.8170    89.5140    94.5980    73.6290     2.1750 
  209.7500   200.6210   -42.3740   -23.3230   -15.8310    60.4280    87.8590    91.7110    70.7600     2.1760 
  209.8750   200.7350   -42.4180   -23.3480   -15.6590    59.6360    82.6180    86.5260    60.8970     2.1730 
  210.0000   200.8490   -42.4620   -23.3740   -15.4970    56.2380    76.0920    80.8520    50.7770     2.1690 
  210.1250   200.9630   -42.5060   -23.3990   -15.2400    54.9480    70.5760    76.2180    50.3450     2.1700 
  210.2500   201.0770   -42.5500   -23.4250   -14.9550    55.6950    66.4600    72.8980    54.4930     2.1730 
  210.3750   201.1910   -42.5950   -23.4500   -14.7530    54.8950    63.6780    71.1460    58.7950     2.1700 
  210.5000   201.3050   -42.6390   -23.4760   -14.5970    51.5640    62.7200    70.6430    61.4270     2.1600 
  210.6250   201.4190   -42.6830   -23.5010   -14.5710    48.5370    63.2350    70.8900    60.0920     2.1500 
  210.7500   201.5340   -42.7270   -23.5270   -14.6290    48.3420    64.3090    70.9690    57.6530     2.1420 
  210.8750   201.6480   -42.7710   -23.5520   -14.6840    49.6490    65.1670    69.8490    60.1680     2.1340 
  211.0000   201.7620   -42.8160   -23.5770   -14.6240    50.6800    64.7370    67.0650    61.0850     2.1290 
  211.1250   201.8760   -42.8600   -23.6030   -14.5040    50.6370    62.1120    62.9530    55.1010     2.1310 
  211.2500   201.9900   -42.9040   -23.6280   -14.3880    49.3690    58.3800    59.2800    53.9640     2.1470 
  211.3750   202.1040   -42.9480   -23.6540   -14.1760    47.6270    55.6130    58.2420    56.4520     2.1890 
  211.5000   202.2180   -42.9920   -23.6790   -13.8120    45.2360    56.1780    59.7090    49.6100     2.2660 
  211.6250   202.3330   -43.0370   -23.7040   -13.3130    44.3570    59.1880    60.2780    40.3790     2.3740 
  211.7500   202.4470   -43.0810   -23.7300   -12.6540    46.6430    59.4510    55.6190    45.4340     2.4750 
  211.8750   202.5610   -43.1250   -23.7550   -11.7580    51.0360    49.9870    44.1670    61.0770     2.5260 
  212.0000   202.6750   -43.1690   -23.7810   -10.4950    54.9080    35.3200    29.6420    63.5700     2.5150 
  212.1250   202.7890   -43.2130   -23.8060    -8.7820    56.8200    20.0030    17.3870    42.6920     2.4660 
  212.2500   202.9030   -43.2580   -23.8310    -6.8650    59.7630     9.9500     9.8620    18.1290     2.4180 
  212.3750   203.0170   -43.3020   -23.8570    -5.2210    64.3040     6.7250     6.8540     6.4410     2.3870 
  212.5000   203.1310   -43.3460   -23.8820    -4.2010    69.9990     5.4150     5.9720     4.1640     2.3640 
  212.6250   203.2460   -43.3900   -23.9070    -3.9250    75.9380     5.1710     6.3520     6.2640     2.3450 
  212.7500   203.3600   -43.4350   -23.9320    -4.0670    79.0720     5.9820     7.7950    10.2310     2.3390 
  212.8750   203.4740   -43.4790   -23.9580    -4.5760    76.8170     7.7350    10.3910    13.7470     2.3710 
  213.0000   203.5880   -43.5230   -23.9830    -5.2380    70.0290    10.5160    13.8200    20.4140     2.4510 
  213.1250   203.7020   -43.5670   -24.0090    -5.8830    63.5640    13.8890    17.6470    35.0280     2.5430 
  213.2500   203.8160   -43.6110   -24.0340    -6.4020    60.5270    17.3860    20.3400    46.2540     2.5830 
  213.3750   203.9300   -43.6560   -24.0590    -6.6880    60.2260    18.6230    20.5710    40.7610     2.5600 
  213.5000   204.0450   -43.7000   -24.0840    -6.8310    61.1570    16.9210    17.9890    27.7950     2.5290 
  213.6250   204.1590   -43.7440   -24.1100    -6.9300    62.5300    13.5540    13.6710    19.6830     2.5120 
  213.7500   204.2730   -43.7890   -24.1350    -6.9640    63.4150     9.2520     9.5700    14.0150     2.4820 
  213.8750   204.3870   -43.8330   -24.1600    -6.9070    63.0270     6.6840     6.9790     8.2050     2.4290 
  214.0000   204.5010   -43.8770   -24.1850    -6.8440    61.6160     5.2980     5.7720     5.0600     2.3920 
  214.1250   204.6150   -43.9210   -24.2100    -6.8560    62.3000     4.7030     5.4130     4.8130     2.3890 
  214.2500   204.7290   -43.9650   -24.2360    -7.0280    65.3420     4.6680     5.6380     5.8240     2.3830 
  214.3750   204.8440   -44.0100   -24.2610    -7.3980    69.5230     5.1170     6.2740     7.0010     2.3530 
  214.5000   204.9580   -44.0540   -24.2860    -7.9040    71.1420     5.8710     7.1090     7.3390     2.3270 
  214.6250   205.0720   -44.0980   -24.3120    -8.3930    69.0160     6.7540     7.9670     6.9740     2.3360 
  214.7500   205.1860   -44.1420   -24.3370    -8.7530    66.0570     7.6420     8.6410     6.8090     2.3790 
  214.8750   205.3000   -44.1860   -24.3630    -8.8880    64.6980     8.1440     8.9080     7.7990     2.4300 
  215.0000   205.4150   -44.2300   -24.3880    -8.7480    66.9910     8.1810     8.6510     9.7180     2.4570 
  215.1250   205.5290   -44.2740   -24.4140    -8.4110    73.7000     7.6470     7.8820    10.3820     2.4420 
  215.2500   205.6430   -44.3180   -24.4390    -7.9080    80.8820     6.6870     6.8330     8.4870     2.4030 
  215.3750   205.7570   -44.3620   -24.4650    -7.4850    86.6640     5.6550     5.7770     5.8040     2.3680 
  215.5000   205.8710   -44.4060   -24.4910    -7.1770    91.1690     4.6830     4.9310     4.3890     2.3510 
  215.6250   205.9860   -44.4500   -24.5160    -7.0490    96.2960     3.9810     4.4410     4.0430     2.3520 
  215.7500   206.1000   -44.4930   -24.5420    -6.9710   101.3270     3.6080     4.3220     3.8880     2.3590 
  215.8750   206.2140   -44.5370   -24.5680    -6.9040   103.6680     3.6090     4.5480     3.8650     2.3610 
  216.0000   206.3280   -44.5810   -24.5940    -6.8810   103.4420     3.8840     4.9900     4.2560     2.3570 
  216.1250   206.4420   -44.6240   -24.6200    -6.9900   101.2000     4.2900     5.5310     5.2940     2.3510 
  216.2500   206.5570   -44.6680   -24.6460    -7.2450    97.9980     4.7620     6.0300     6.4260     2.3460 
  216.3750   206.6710   -44.7120   -24.6720    -7.6320    93.3820     5.1810     6.3770     6.6130     2.3470 
  216.5000   206.7850   -44.7550   -24.6980    -8.0090    90.1650     5.4690     6.5870     6.2140     2.3590 
  216.6250   206.8990   -44.7990   -24.7240    -8.2190    90.3960     5.6710     6.8430     6.6240     2.3820 
  216.7500   207.0140   -44.8420   -24.7500    -8.2790    91.9550     5.9620     7.4100     8.0340     2.4070 
  216.8750   207.1280   -44.8860   -24.7760    -8.1810    92.2090     6.6050     8.6260     9.9000     2.4380 
  217.0000   207.2420   -44.9290   -24.8020    -7.9210    91.8310     7.7710    10.2820    12.3460     2.4830 
  217.1250   207.3560   -44.9730   -24.8280    -7.4280    91.8930     9.2780    11.4920    15.8830     2.5350 
  217.2500   207.4700   -45.0170   -24.8540    -6.8100    91.1190     9.7210    11.4370    19.6210     2.5740 
