~V
VERS. 2.00: Ver 2.00
~W
STRT.M 20.0000:
STOP.M 277.0000:
STEP.M 0.1250:
NULL. -999.2500:
UWI. FD11024:
~C
DEPT.M :
TVD. :
DX. :
DY. :
DEN.GM/CC :
GR.API :
RML.OHMM :
RI. :
RXO.OHMM :
CALI.CM :
SP.MV :
~A
# ...
  267.5000   260.7340    30.1560    41.4250     2.5420    62.1050    15.5030    14.1040    15.1620    21.7210   -11.7420 
  267.6250   260.8530    30.1800    41.4560     2.5430    62.1050    16.2220    14.5700    16.1360    21.7080   -11.7980 
  267.7500   260.9710    30.2050    41.4880     2.5290    62.1050    17.4000    15.4470    20.1910    21.8020   -11.8050 
  267.8750   261.0900    30.2290    41.5190     2.5090    62.1050    18.7620    16.5660    25.3980    22.0620   -11.7880 
  268.0000   261.2080    30.2540    41.5510     2.4910    62.1050    19.8790    17.6000    30.0790    22.4630   -11.8120 
  268.1250   261.3270    30.2780    41.5820     2.4880    62.1050    20.1950    18.0670    32.4380    22.4010   -11.8280 
  268.2500   261.4450    30.3030    41.6130     2.4970    62.1050    19.7480    17.9000    27.1210    22.0290   -11.8430 
  268.3750   261.5630    30.3280    41.6450     2.5120    62.1050    18.8750    17.3140    19.6970    21.7650   -11.8590 
  268.5000   261.6820    30.3520    41.6760     2.5220    62.1050    18.0520    16.6670    16.4210    21.6990   -11.8690 
  268.6250   261.8000    30.3770    41.7080     2.5160    62.1050    17.7090    16.2970    15.9360    21.7370   -11.8850 
  268.7500   261.9190    30.4010    41.7390     2.4980    62.1050    17.8410    16.2650    16.0130    21.8930   -11.9430 
  268.8750   262.0370    30.4260    41.7700     2.4800    62.1050    18.3020    16.5160    15.9880    22.3330   -12.0250 
  269.0000   262.1560    30.4500    41.8020     2.4720    62.1050    18.8550    16.9140    15.8520    22.6660   -12.0660 
  269.1250   262.2740    30.4750    41.8330     2.4810    62.1050    19.2250    17.2750    16.2500    22.5020   -12.1050 
  269.2500   262.3930    30.4990    41.8650     2.4990    62.1050    19.3570    17.5000    16.5840    22.0980   -12.1680 
  269.3750   262.5110    30.5240    41.8960     2.5130    62.1050    19.3430    17.6150    15.6690    21.6740   -12.2270 
  269.5000   262.6300    30.5480    41.9280     2.5110    62.1050    19.3440    17.7180    14.5110    21.4750   -12.2640 
  269.6250   262.7480    30.5730    41.9590     2.4900    62.1050    19.5420    17.9420    14.5350    21.5090   -12.2890 
  269.7500   262.8670    30.5980    41.9900     2.4660    62.1050    19.9710    18.3410    15.6850    21.7610   -12.2990 
  269.8750   262.9850    30.6220    42.0220     2.4500    62.1050    20.5980    18.9100    17.9200    22.2530   -12.2900 
  270.0000   263.1040    30.6470    42.0530     2.4540    62.1050    21.3120    19.5730    21.3020    22.4730   -12.3030 
  270.1250   263.2220    30.6710    42.0850     2.4780    62.1050    21.9660    20.1990    24.1760    22.2380   -12.3110 
  270.2500   263.3410    30.6960    42.1160     2.5050    62.1050    22.4680    20.6870    21.7440    21.7960   -12.3190 
  270.3750   263.4590    30.7200    42.1470     2.5220    62.1050    22.7870    20.9990    18.3350    21.6510   -12.3500 
  270.5000   263.5770    30.7450    42.1790     2.5210    62.1050    22.9360    21.1510    16.5640    21.7640   -12.4090 
  270.6250   263.6960    30.7690    42.2100     2.5020    62.1050    22.9390    21.1950    15.3260    21.9370   -12.4750 
  270.7500   263.8140    30.7940    42.2420     2.4800    62.1050    22.8780    21.2110    13.9990    22.1550   -12.5290 
  270.8750   263.9330    30.8180    42.2730     2.4660    62.1050    22.7940    21.2230    13.0610    22.4460   -12.5920 
  271.0000   264.0510    30.8430    42.3050     2.4630    62.1050    22.7270    21.2310    12.4470    22.6870   -12.6370 
  271.1250   264.1700    30.8680    42.3360     2.4710    62.1050    22.7090    21.2350    11.1430    22.2790   -12.6830 
  271.2500   264.2880    30.8920    42.3670     2.4780    62.1050    22.7160    21.2440    10.5210    21.7660   -12.7110 
  271.3750   264.4070    30.9170    42.3990     2.4750    62.1050    22.7250    21.2600    10.7740    21.7170   -12.7070 
  271.5000   264.5250    30.9410    42.4300     2.4590    62.1050    22.7260    21.2770    11.3100    21.7480   -12.6880 
  271.6250   264.6440    30.9660    42.4620     2.4340    62.1050    22.7370    21.2810    13.5320    21.8640   -12.6590 
  271.7500   264.7620    30.9900    42.4930     2.4140    62.1050    22.7810    21.2710    17.1670    22.2270   -12.6310 
  271.8750   264.8810    31.0150    42.5240     2.4070    62.1050    22.8570    21.2570    20.6520    22.6110   -12.5980 
  272.0000   264.9990    31.0390    42.5560     2.4160    62.1050    22.9430    21.2450    21.2480    22.6990   -12.5860 
  272.1250   265.1180    31.0640    42.5870     2.4370    62.1050    23.0020    21.2380    18.5250    22.3660   -12.6100 
  272.2500   265.2360    31.0880    42.6190     2.4530    62.1050    23.0310    21.2350    15.1900    21.6980   -12.6240 
  272.3750   265.3550    31.1130    42.6500     2.4520    62.1050    23.0450    21.2340    13.3520    21.3520   -12.6240 
  272.5000   265.4730    31.1380    42.6820     2.4280    62.1050    23.0470    21.2340    13.3860    21.3090   -12.6190 
  272.6250   265.5910    31.1620    42.7130     2.3830    62.1050    23.0470    21.2340    13.4480    21.3900   -12.6300 
  272.7500   265.7100    31.1870    42.7440     2.3350    62.1050    23.0470    21.2340    12.6540    21.6490   -12.6230 
  272.8750   265.8280    31.2110    42.7760     2.2970    62.1050    23.0470    21.2340    11.5210    21.9780   -12.6570 
  273.0000   265.9470    31.2360    42.8070     2.2790    62.1050    23.0470    21.2340    10.8220    21.8970   -12.7190 
  273.1250   266.0650    31.2600    42.8390     2.2860    62.1050    23.0470    21.2340    10.5560    21.3780   -12.7770 
  273.2500   266.1840    31.2850    42.8700     2.3070    62.1050    23.0470    21.2340    10.6600    20.7740   -12.8210 
  273.3750   266.3020    31.3090    42.9010     2.3300    62.1050    23.0470    21.2340    10.8860    20.1620   -12.8820 
  273.5000   266.4210    31.3340    42.9330     2.3430    62.1050    23.0470    21.2340    10.8770    19.9290   -12.9410 
  273.6250   266.5390    31.3580    42.9640     2.3330    62.1050    23.0470    21.2340    10.9660    19.9900   -13.0010 
  273.7500   266.6580    31.3830    42.9960     2.3020    62.1050    23.0470    21.2340    11.4470    19.8490   -13.0520 
  273.8750   266.7760    31.4080    43.0270     2.2620    62.1050    23.0470    21.2340    11.4050    19.4060   -13.0610 
  274.0000   266.8950    31.4320    43.0590     2.2300    62.1050    23.0470    21.2340    11.4240    19.3870   -13.0710 
  274.1250   267.0130    31.4570    43.0900     2.2210    62.1050    23.0470    21.2340    11.5650    19.7990  -999.2500 
  274.2500   267.1320    31.4810    43.1210     2.2290    62.1050    23.0470    21.2340    12.2230    20.3210  -999.2500 
  274.3750   267.2500    31.5060    43.1530     2.2410    62.1050    23.0470    21.2340    15.1320    20.4900  -999.2500 
  274.5000   267.3690    31.5300    43.1840     2.2440    62.1050    23.0470    21.2340    20.8610    20.5490  -999.2500 
  274.6250   267.4870    31.5550    43.2160     2.2280    62.1050    23.0470    21.2340    23.5190    20.4750  -999.2500 
  274.7500   267.6050    31.5790    43.2470     2.2000    62.1050    23.0470    21.2340    25.8200    20.3170  -999.2500 
  274.8750   267.7240    31.6040    43.2790     2.1710    62.1050    23.0470    21.2340    29.3030    20.3370  -999.2500 
  275.0000   267.8420    31.6280    43.3100     2.1490    62.1050    23.0470    21.2340    24.5470    20.3890  -999.2500 
  275.1250   267.9670    31.6280    43.3100     2.1360    62.1050    23.0470    21.2340    15.8940    18.8500  -999.2500 
  275.2500   268.0920    31.6280    43.3100     2.1280    62.1050    23.0470    21.2340    13.2140    18.4190  -999.2500 
  275.3750   268.2170    31.6280    43.3100     2.1240    62.1050    23.0470    21.2340    12.7270    18.3310  -999.2500 
  275.5000   268.3420    31.6280    43.3100     2.1230    62.1050    23.0470    21.2340    12.7330    18.3260  -999.2500 
  275.6250   268.4670    31.6280    43.3100     2.1240    62.1050    23.0470    21.2340    12.7330    18.3260  -999.2500 
