~V
VERS. 2.00: Ver 2.00
~W
STRT.M 20.0000:
STOP.M 286.0000:
STEP.M 0.1250:
NULL. -999.2500:
UWI. FD11156:
~C
DEPT.M :
TVD. :
DX. :
DY. :
DEN.GM/CC :
GR.API :
RML.OHMM :
RI. :
RXO.OHMM :
CALI.CM :
SP.MV :
~A
# ...
  275.7500   268.5970    19.0220   -42.5200     2.5020    54.3240    12.8850    10.8460    12.8240    21.6840   -14.7120 
  275.8750   268.7120    19.0420   -42.5640     2.5220    54.3240    12.5390    10.5540    12.9740    21.3630   -14.7500 
  276.0000   268.8280    19.0620   -42.6070     2.5310    54.3240    12.1290    10.2090    13.0250    21.2570   -14.8160 
  276.1250   268.9430    19.0810   -42.6500     2.5250    54.3240    11.7060     9.8530    12.6540    21.3000   -14.8630 
  276.2500   269.0590    19.1010   -42.6940     2.5110    54.3240    11.3440     9.5480    11.4430    21.3450   -14.8850 
  276.3750   269.1750    19.1210   -42.7370     2.4980    54.3240    11.0570     9.3070    10.1080    21.5220   -14.9260 
  276.5000   269.2900    19.1400   -42.7800     2.4920    54.3240    10.8110     9.1000     8.8060    21.6920   -14.9670 
  276.6250   269.4060    19.1600   -42.8240     2.4940    54.3240    10.5500     8.8800     7.8590    21.6790   -15.0180 
  276.7500   269.5210    19.1800   -42.8670     2.4960    54.3240    10.2690     8.6440     7.6080    21.2410   -15.1160 
  276.8750   269.6370    19.1990   -42.9100     2.4940    54.3240    10.0110     8.4260     7.8740    20.9070   -15.2060 
  277.0000   269.7530    19.2190   -42.9540     2.4820    54.3240     9.8280     8.2730     8.0860    20.8470   -15.2720 
  277.1250   269.8680    19.2390   -42.9970     2.4610    54.3240     9.7730     8.2270     8.3010    20.8560   -15.2910 
  277.2500   269.9840    19.2580   -43.0410     2.4370    54.3240     9.8230     8.2690     8.5800    20.9470   -15.2900 
  277.3750   270.0990    19.2780   -43.0840     2.4200    54.3240     9.9610     8.3840     9.3640    21.4860   -15.2650 
  277.5000   270.2150    19.2980   -43.1270     2.4160    54.3240    10.1660     8.5570    10.0430    22.4070   -15.2040 
  277.6250   270.3300    19.3170   -43.1710     2.4300    54.3240    10.4090     8.7620    10.3870    22.9520   -15.1130 
  277.7500   270.4460    19.3370   -43.2140     2.4550    54.3240    10.6430     8.9590    10.3900    22.9040   -14.9900 
  277.8750   270.5620    19.3570   -43.2570     2.4850    54.3240    10.8740     9.1530    10.6240    22.6180   -14.8890 
  278.0000   270.6770    19.3760   -43.3010     2.5110    54.3240    11.1670     9.4000    12.0260    22.0700   -14.8120 
  278.1250   270.7930    19.3960   -43.3440     2.5270    54.3240    11.6660     9.8190    15.0340    21.8840   -14.7660 
  278.2500   270.9080    19.4160   -43.3870     2.5340    54.3240    12.4310    10.4640    19.0450    21.8700   -14.7450 
  278.3750   271.0240    19.4350   -43.4310     2.5370    54.3240    13.4800    11.3460    20.5730    22.0080   -14.7370 
  278.5000   271.1390    19.4550   -43.4740     2.5390    54.3240    14.7220    12.3930    21.5400    22.3290   -14.7440 
  278.6250   271.2550    19.4750   -43.5170     2.5460    54.3240    15.9000    13.3840    23.5190    22.4240   -14.7230 
  278.7500   271.3710    19.4940   -43.5610     2.5550    54.3240    16.6670    14.0300    24.2780    22.3590   -14.7010 
  278.8750   271.4860    19.5140   -43.6040     2.5620    54.3240    16.7680    14.1150    20.6820    21.8600   -14.6570 
  279.0000   271.6020    19.5340   -43.6480     2.5610    54.3240    16.1520    13.5960    16.1980    21.6950   -14.6030 
  279.1250   271.7170    19.5530   -43.6910     2.5490    54.3240    15.0000    12.6260    12.0150    22.0120   -14.5710 
  279.2500   271.8330    19.5730   -43.7340     2.5340    54.3240    13.7830    11.6020    10.2070    22.1190   -14.5230 
  279.3750   271.9480    19.5930   -43.7780     2.5230    54.3240    12.7580    10.7390     9.6640    22.3410   -14.4760 
  279.5000   272.0640    19.6120   -43.8210     2.5200    54.3240    12.0470    10.1400     9.6030    22.5800   -14.4310 
  279.6250   272.1800    19.6320   -43.8640     2.5260    54.3240    11.7130     9.8590     9.6310    22.5810   -14.4130 
  279.7500   272.2950    19.6520   -43.9080     2.5360    54.3240    11.6170     9.7790     9.4050    22.2860   -14.3640 
  279.8750   272.4110    19.6710   -43.9510     2.5430    54.3240    11.6460     9.8030     8.9560    21.6880   -14.3050 
  280.0000   272.5260    19.6910   -43.9940     2.5460    54.3240    11.6910     9.8410     9.2760    21.4760   -14.2410 
  280.1250   272.6420    19.7110   -44.0380     2.5410    54.3240    11.6840     9.8350    11.7750    21.4470   -14.1770 
  280.2500   272.7570    19.7300   -44.0810     2.5270    54.3240    11.6370     9.7960    14.9480    21.4520   -14.1250 
  280.3750   272.8730    19.7500   -44.1250     2.5010    54.3240    11.5870     9.7530    14.3490    21.4910   -14.0130 
  280.5000   272.9890    19.7700   -44.1680     2.4640    54.3240    11.5560     9.7270    11.5480    21.6900   -13.7890 
  280.6250   273.1040    19.7890   -44.2110     2.4230    54.3240    11.5560     9.7270    10.6830    22.1570   -13.5440 
  280.7500   273.2200    19.8090   -44.2550     2.3920    54.3240    11.5560     9.7270    11.1820    22.6560   -13.3270 
  280.8750   273.3350    19.8290   -44.2980     2.3790    54.3240    11.5560     9.7270    11.0920    22.9770   -13.1200 
  281.0000   273.4510    19.8480   -44.3410     2.3820    54.3240    11.5560     9.7270     9.8250    23.0130   -12.9210 
  281.1250   273.5670    19.8680   -44.3850     2.3930    54.3240    11.5560     9.7270     8.1120    22.7100   -12.7130 
  281.2500   273.6820    19.8880   -44.4280     2.3970    54.3240    11.5560     9.7270     7.2140    22.3610   -12.5180 
  281.3750   273.7980    19.9070   -44.4710     2.3880    54.3240    11.5560     9.7270     7.0430    22.2430   -12.4460 
  281.5000   273.9130    19.9270   -44.5150     2.3650    54.3240    11.5560     9.7270     7.1840    22.5310   -12.4620 
  281.6250   274.0290    19.9470   -44.5580     2.3370    54.3240    11.5560     9.7270     7.3520    23.3050  -999.2500 
  281.7500   274.1440    19.9660   -44.6020     2.3070    54.3240    11.5560     9.7270     7.1230    23.7280  -999.2500 
  281.8750   274.2600    19.9860   -44.6450     2.2760    54.3240    11.5560     9.7270     7.2360    23.6490  -999.2500 
  282.0000   274.3760    20.0060   -44.6880     2.2420    54.3240    11.5560     9.7270     7.6320    22.9310  -999.2500 
  282.1250   274.4910    20.0250   -44.7320     2.2030    54.3240    11.5560     9.7270     9.7190    21.2620  -999.2500 
  282.2500   274.6070    20.0450   -44.7750     2.1630    54.3240    11.5560     9.7270    13.8780    20.8350  -999.2500 
  282.3750   274.7220    20.0650   -44.8180     2.1240    54.3240    11.5560     9.7270    17.9100    20.7710  -999.2500 
  282.5000   274.8380    20.0840   -44.8620     2.0950    54.3240    11.5560     9.7270    19.6380    20.8780  -999.2500 
  282.6250   274.9530    20.1040   -44.9050     2.0840    54.3240    11.5560     9.7270    19.2560    21.5350  -999.2500 
  282.7500   275.0690    20.1240   -44.9480     2.0840    54.3240    11.5560     9.7270    17.6390    22.2920  -999.2500 
  282.8750   275.1850    20.1430   -44.9920     2.0830    54.3240    11.5560     9.7270    15.5410    22.4170  -999.2500 
  283.0000   275.3000    20.1630   -45.0350     2.0690    54.3240    11.5560     9.7270    13.6450    22.0400  -999.2500 
  283.1250   275.4160    20.1830   -45.0780     2.0300    54.3240    11.5560     9.7270    13.0870    21.5510  -999.2500 
  283.2500   275.5310    20.2020   -45.1220     1.9770    54.3240    11.5560     9.7270    13.3990    21.2710  -999.2500 
  283.3750   275.6470    20.2220   -45.1650     1.9290    54.3240    11.5560     9.7270    14.0930    21.2460  -999.2500 
  283.5000   275.7620    20.2420   -45.2090     1.9020    54.3240    11.5560     9.7270    14.5330    21.3480  -999.2500 
  283.6250   275.8780    20.2610   -45.2520     1.9030    54.3240    11.5560     9.7270    14.7850    21.7400  -999.2500 
  283.7500   275.9940    20.2810   -45.2950     1.9190    54.3240    11.5560     9.7270    15.3200    22.0890  -999.2500 
  283.8750   276.1090    20.3010   -45.3390     1.9320    54.3240    11.5560     9.7270    15.1380    22.0640  -999.2500 
