~V
VERS. 2.00: Ver 2.00
~W
STRT.M 40.0000:
STOP.M 259.0000:
STEP.M 0.1250:
NULL. -999.2500:
UWI. FD11192:
~C
DEPT.M :
TVD. :
DX. :
DY. :
SP.MV :
GR.API :
RI. :
RML.OHMM :
RXO.OHMM :
DEN.GM/CC :
~A
# ...
  249.8750   235.1310    46.3580    49.6030  -207.9480    77.3100     4.7600     5.2290     3.4630     2.2490 
  250.0000   235.2380    46.4020    49.6490  -207.9480    80.0390     4.3140     4.7840     3.5420     2.2280 
  250.1250   235.3460    46.4450    49.6960  -207.9480    80.7910     4.2470     4.7290     3.9330     2.2400 
  250.2500   235.4530    46.4880    49.7430  -207.9480    77.9670     4.3520     4.8630     4.3720     2.2540 
  250.3750   235.5610    46.5320    49.7890  -207.9480    75.1470     4.4510     4.9790     4.4470     2.2800 
  250.5000   235.6680    46.5750    49.8360  -207.9480    74.9390     4.4650     4.9870     4.4990     2.3110 
  250.6250   235.7760    46.6180    49.8830  -207.9480    75.4070     4.4650     4.9790     4.6000     2.3240 
  250.7500   235.8830    46.6620    49.9300  -207.9480    73.8500     4.4650     4.9690     4.3200     2.3030 
  250.8750   235.9910    46.7050    49.9760  -207.9480    71.3070     4.4650     4.9570     4.3700     2.2680 
  251.0000   236.0980    46.7490    50.0230  -207.9480    70.2630     4.4650     4.9480     4.9430     2.2550 
  251.1250   236.2060    46.7920    50.0700  -207.9480    70.4100     4.4660     4.9410     5.1110     2.2770 
  251.2500   236.3130    46.8350    50.1160  -207.9480    70.5050     4.4660     4.9370     4.9130     2.3030 
  251.3750   236.4210    46.8790    50.1630  -207.9480    70.4850     4.4660     4.9360     4.9230     2.3100 
  251.5000   236.5280    46.9220    50.2100  -207.9480    70.4850     4.4660     4.9350     5.3380     2.3040 
  251.6250   236.6360    46.9660    50.2560  -207.9480    70.4850     4.4660     4.9370     5.9010     2.3030 
  251.7500   236.7430    47.0090    50.3030  -207.9480    70.4850     4.4660     4.9370     6.1490     2.3000 
  251.8750   236.8510    47.0520    50.3500  -207.9480    70.4850     4.4660     4.9390     6.2520     2.2880 
  252.0000   236.9580    47.0960    50.3970  -207.9480    70.4850     4.4660     4.9390     6.7700     2.2830 
  252.1250   237.0660    47.1390    50.4430  -207.9480    70.4850     4.4660     4.9390     7.5320     2.2950 
  252.2500   237.1740    47.1820    50.4900  -207.9480    70.4850     4.4660     4.9390     7.6360     2.3100 
  252.3750   237.2810    47.2260    50.5370  -207.9480    70.4850     4.4660     4.9390     7.2530     2.3390 
  252.5000   237.3890    47.2690    50.5830  -207.9480    70.4850     4.4660     4.9400     7.4800     2.3820 
  252.6250   237.4960    47.3130    50.6300  -207.9480    70.4850     4.4660     4.9400     7.9410     2.4270 
  252.7500   237.6040    47.3560    50.6770  -207.9480    70.4850     4.4660     4.9390     7.8810     2.4710 
  252.8750   237.7110    47.3990    50.7230  -207.9480    70.4850     4.4660     4.9380    10.1220     2.5350 
  253.0000   237.8190    47.4430    50.7700  -207.9480    70.4850     4.4660     4.9380    16.4260     2.6130 
  253.1250   237.9260    47.4860    50.8170  -207.9480    70.4850     4.4660     4.9390    19.6860     2.6410 
  253.2500   238.0340    47.5290    50.8640  -207.9480    70.4850     4.4660     4.9410    16.5320     2.5790 
  253.3750   238.1410    47.5730    50.9100  -207.9480    70.4850     4.4660     4.9410    16.6670     2.4510 
  253.5000   238.2490    47.6160    50.9570  -207.9480    70.4850     4.4660     4.9420    26.4760     2.3540 
  253.6250   238.3560    47.6600    51.0040  -207.9480    70.4850     4.4660     4.9420    32.3270     2.3350 
  253.7500   238.4640    47.7030    51.0500  -207.9480    70.4850     4.4660     4.9420    25.8340     2.3550 
  253.8750   238.5710    47.7460    51.0970  -207.9480    70.4850     4.4660     4.9420    21.3490     2.3790 
  254.0000   238.6790    47.7900    51.1440  -207.9480    70.4850     4.4660     4.9420    21.3510     2.4210 
  254.1250   238.7860    47.8330    51.1900  -207.9480    70.4850     4.4660     4.9420    20.8240     2.4810 
  254.2500   238.8940    47.8770    51.2370  -207.9480    70.4850     4.4660     4.9420    20.4150     2.5270 
  254.3750   239.0020    47.9200    51.2840  -207.9480    70.4850     4.4660     4.9420    16.2780     2.5410 
  254.5000   239.1090    47.9630    51.3310  -207.9480    70.4850     4.4660     4.9420    10.5680     2.5310 
  254.6250   239.2170    48.0070    51.3770  -207.9480    70.4850     4.4660     4.9420     8.3290     2.4950 
  254.7500   239.3240    48.0500    51.4240  -207.9480    70.4850     4.4660     4.9420     8.5190     2.4410 
  254.8750   239.4320    48.0930    51.4710  -207.9480    70.4850     4.4660     4.9420     9.2060     2.3870 
  255.0000   239.5390    48.1370    51.5170  -207.9480    70.4850     4.4660     4.9420    10.6020     2.3500 
  255.1250   239.6470    48.1800    51.5640  -207.9480    70.4850     4.4660     4.9420    13.5490     2.3130 
  255.2500   239.7540    48.2240    51.6110  -207.9480    70.4850     4.4660     4.9420    17.0510     2.2570 
  255.3750   239.8620    48.2670    51.6570  -207.9480    70.4850     4.4660     4.9420    18.5930     2.1990 
  255.5000   239.9690    48.3100    51.7040  -207.9480    70.4850     4.4660     4.9420    16.3110     2.1630 
  255.6250   240.0770    48.3540    51.7510  -207.9480    70.4850     4.4660     4.9420    11.9290     2.1510 
  255.7500   240.1840    48.3970    51.7980  -207.9480    70.4850     4.4660     4.9420     9.7630     2.1500 
  255.8750   240.2920    48.4410    51.8440  -207.9480    70.4850     4.4660     4.9420     9.8680     2.1520 
  256.0000   240.3990    48.4840    51.8910  -207.9480    70.4850     4.4660     4.9420    10.0310     2.1520 
  256.1250   240.5070    48.5270    51.9380  -207.9480    70.4850     4.4660     4.9420    10.0380     2.1530 
  256.2500   240.6140    48.5710    51.9840  -207.9480    70.4850     4.4660     4.9420    10.0380     2.1560 
  256.3750   240.7220    48.6140    52.0310  -207.9480    70.4850     4.4660     4.9420    10.0370     2.1600 
  256.5000   240.8290    48.6570    52.0780  -207.9480    70.4850     4.4660     4.9420    10.0370     2.1610 
  256.6250   240.9370    48.7010    52.1240  -207.9480    70.4850     4.4660     4.9420    10.0370     2.1600 
  256.7500   241.0450    48.7440    52.1710  -207.9480    70.4850     4.4660     4.9420    10.0370     2.1590 
  256.8750   241.1520    48.7880    52.2180  -207.9480    70.4850     4.4660     4.9420    10.0360     2.1590 
  257.0000   241.2600    48.8310    52.2650  -207.9480    70.4850     4.4660     4.9420    10.0360     2.1570 
  257.1250   241.3670    48.8740    52.3110  -207.9480    70.4850     4.4660     4.9420    10.0360     2.1530 
  257.2500   241.4750    48.9180    52.3580  -207.9480    70.4850     4.4660     4.9420    10.0350     2.1540 
  257.3750   241.5820    48.9610    52.4050  -207.9480    70.4850     4.4660     4.9420    10.0350     2.1620 
  257.5000   241.6900    49.0050    52.4510  -207.9480    70.4850     4.4660     4.9420    10.0340     2.1640 
  257.6250   241.7970    49.0480    52.4980  -207.9480    70.4850     4.4660     4.9420    10.0340     2.1550 
  257.7500   241.9050    49.0910    52.5450  -207.9480    70.4850     4.4660     4.9420    10.0340     2.1440 
  257.8750   242.0120    49.1350    52.5910  -207.9480    70.4850     4.4660     4.9420    10.0340     2.1420 
  258.0000   242.1200    49.1780    52.6380  -207.9480    70.4850     4.4660     4.9420    10.0340     2.1430 
  258.1250   242.2270    49.2210    52.6850  -207.9480    70.4850     4.4660     4.9420    10.0330     2.1420 
  258.2500   242.3350    49.2650    52.7320  -207.9480    70.4850     4.4660     4.9420    10.0320     2.1410 
  258.3750   242.4420    49.3080    52.7780  -207.9480    70.4850     4.4660     4.9420    10.0310     2.1400 
  258.5000   242.5500    49.3520    52.8250  -207.9480    70.4850     4.4660     4.9420    10.0310     2.1400 
  258.6250   242.6570    49.3950    52.8720  -207.9480    70.4850     4.4660     4.9420    10.0280     2.1400 
  258.7500   242.7650    49.4380    52.9180  -207.9480    70.4850     4.4660     4.9420    10.0210     2.1400 
  258.8750   242.8720    49.4820    52.9650  -207.9480    70.4850     4.4660     4.9420    10.0170     2.1400 
