~V
VERS. 2.00: Ver 2.00
~W
STRT.M 25.0000:
STOP.M 287.0000:
STEP.M 0.1250:
NULL. -999.2500:
UWI. FD11174:
~C
DEPT.M :
TVD. :
DX. :
DY. :
SP.MV :
GR.API :
RI. :
RML.OHMM :
RXO.OHMM :
DEN.GM/CC :
~A
# ...
  280.5000   262.2630   -31.9840   -78.3520   -14.0710    68.8750     5.3880     6.3970     4.2340     2.3630 
  280.6250   262.3740   -32.0080   -78.4050   -14.0710    68.8750     5.3950     6.3980     4.7970     2.3560 
  280.7500   262.4840   -32.0320   -78.4580   -14.0710    68.8750     5.3940     6.3980     4.9240     2.3270 
  280.8750   262.5950   -32.0560   -78.5120   -14.0710    68.8750     5.3940     6.3980     4.3920     2.2810 
  281.0000   262.7050   -32.0800   -78.5650   -14.0710    68.8750     5.3910     6.3980     3.7610     2.2320 
  281.1250   262.8160   -32.1040   -78.6180   -14.0710    68.8750     5.3910     6.3990     3.3810     2.2160 
  281.2500   262.9260   -32.1280   -78.6710   -14.0710    68.8750     5.3910     6.4000     3.5000     2.2570 
  281.3750   263.0370   -32.1520   -78.7240   -14.0710    68.8750     5.3900     6.4020     4.4130     2.3220 
  281.5000   263.1470   -32.1760   -78.7770   -14.0710    68.8750     5.3900     6.4040     6.1810     2.3480 
  281.6250   263.2580   -32.2000   -78.8300   -14.0710    68.8750     5.3860     6.4040     9.0420     2.3250 
  281.7500   263.3690   -32.2240   -78.8840   -14.0710    68.8750     5.3860     6.4040    12.0030     2.2880 
  281.8750   263.4790   -32.2480   -78.9370   -14.0710    68.8750     5.3860     6.4040    13.0390     2.2570 
  282.0000   263.5900   -32.2720   -78.9900   -14.0710    68.8750     5.3860     6.4040    12.2060     2.2360 
  282.1250   263.7000   -32.2960   -79.0430   -14.0710    68.8750     5.3860     6.4040    10.4930     2.2270 
  282.2500   263.8110   -32.3210   -79.0960   -14.0710    68.8750     5.3860     6.4040     8.0220     2.2300 
  282.3750   263.9210   -32.3450   -79.1490   -14.0710    68.8750     5.3860     6.4040     5.7510     2.2390 
  282.5000   264.0320   -32.3690   -79.2020   -14.0710    68.8750     5.3860     6.4040     5.0840     2.2330 
  282.6250   264.1420   -32.3930   -79.2560   -14.0710    68.8750     5.3860     6.4040     5.3720     2.1910 
  282.7500   264.2530   -32.4170   -79.3090   -14.0710    68.8750     5.3860     6.4040     5.1900     2.1300 
  282.8750   264.3630   -32.4410   -79.3620   -14.0710    68.8750     5.3860     6.4040     4.6360     2.0910 
  283.0000   264.4740   -32.4650   -79.4150   -14.0710    68.8750     5.3860     6.4040     4.3770     2.0720 
  283.1250   264.5850   -32.4890   -79.4680   -14.0710    68.8750     5.3860     6.4040     4.2930     2.0390 
  283.2500   264.6950   -32.5130   -79.5210   -14.0710    68.8750     5.3860     6.4040     4.1030     1.9860 
  283.3750   264.8060   -32.5370   -79.5740   -14.0710    68.8750     5.3860     6.4040     4.0430     1.9450 
  283.5000   264.9160   -32.5610   -79.6280   -14.0710    68.8750     5.3860     6.4040     4.3330     1.9300 
  283.6250   265.0270   -32.5850   -79.6810   -14.0710    68.8750     5.3860     6.4040     4.8270     1.9300 
  283.7500   265.1370   -32.6090   -79.7340   -14.0710    68.8750     5.3860     6.4040     5.1780     1.9310 
  283.8750   265.2480   -32.6330   -79.7870   -14.0710    68.8750     5.3860     6.4040     5.2820     1.9300 
  284.0000   265.3580   -32.6580   -79.8400   -14.0710    68.8750     5.3860     6.4040     5.2910     1.9280 
  284.1250   265.4690   -32.6820   -79.8930   -14.0710    68.8750     5.3860     6.4040     5.2910     1.9250 
  284.2500   265.5800   -32.7060   -79.9460   -14.0710    68.8750     5.3860     6.4040     5.2910     1.9240 
  284.3750   265.6900   -32.7300   -80.0000   -14.0710    68.8750     5.3860     6.4040     5.2910     1.9260 
  284.5000   265.8010   -32.7540   -80.0530   -14.0710    68.8750     5.3860     6.4040     5.2910     1.9290 
  284.6250   265.9110   -32.7780   -80.1060   -14.0710    68.8750     5.3860     6.4040     5.2910     1.9270 
  284.7500   266.0220   -32.8020   -80.1590   -14.0710    68.8750     5.3860     6.4040     5.2900     1.9240 
  284.8750   266.1320   -32.8260   -80.2120   -14.0710    68.8750     5.3860     6.4040     5.2900     1.9210 
  285.0000   266.2430   -32.8500   -80.2650   -14.0710    68.8750     5.3860     6.4040     5.2900     1.9180 
  285.1250   266.3530   -32.8740   -80.3180   -14.0710    68.8750     5.3860     6.4040     5.2890     1.9160 
  285.2500   266.4640   -32.8980   -80.3720   -14.0710    68.8750     5.3860     6.4040     5.2890     1.9150 
  285.3750   266.5750   -32.9220   -80.4250   -14.0710    68.8750     5.3860     6.4040     5.2890     1.9150 
  285.5000   266.6850   -32.9460   -80.4780   -14.0710    68.8750     5.3860     6.4040     5.2880     1.9140 
  285.6250   266.7960   -32.9700   -80.5310   -14.0710    68.8750     5.3860     6.4040     5.2880     1.9130 
  285.7500   266.9060   -32.9950   -80.5840   -14.0710    68.8750     5.3860     6.4040     5.2880     1.9120 
  285.8750   267.0170   -33.0190   -80.6370   -14.0710    68.8750     5.3860     6.4040     5.2880     1.9110 
  286.0000   267.1270   -33.0430   -80.6900   -14.0710    68.8750     5.3860     6.4040     5.2880     1.9080 
  286.1250   267.2380   -33.0670   -80.7430   -14.0710    68.8750     5.3860     6.4040     5.2880     1.9040 
  286.2500   267.3480   -33.0910   -80.7970   -14.0710    68.8750     5.3860     6.4040     5.2870     1.9030 
  286.3750   267.4590   -33.1150   -80.8500   -14.0710    68.8750     5.3860     6.4040     5.2870     1.9040 
  286.5000   267.5690   -33.1390   -80.9030   -14.0710    68.8750     5.3860     6.4040     5.2860     1.9030 
  286.6250   267.6800   -33.1630   -80.9560   -14.0710    68.8750     5.3860     6.4040     5.2850     1.8990 
  286.7500   267.7910   -33.1870   -81.0090   -14.0710    68.8750     5.3860     6.4040     5.2820     1.8950 
  286.8750   267.9010   -33.2110   -81.0620   -14.0710    68.8750     5.3860     6.4040     5.2780     1.8930 
  287.0000   268.0120   -33.2350   -81.1150   -14.0710    68.8750     5.3860     6.4040     5.2750     1.8890 
