~V
VERS. 2.00: Ver 2.00
~W
STRT.M 20.0000:
STOP.M 292.0000:
STEP.M 0.1250:
NULL. -999.2500:
UWI. FD11146:
~C
DEPT.M :
TVD. :
DX. :
DY. :
GR.API :
RML.OHMM :
RI. :
RXO.OHMM :
CALI.CM :
SP.MV :
DEN.GM/CC :
~A
# ...
   53.0000    52.9870     0.3980    -0.2650    54.2350    12.1690     6.1070    10.9520    25.6610   -35.2440     2.1340 
   53.1250    53.1120     0.4060    -0.2720    53.9370    12.2510     6.1190    10.3650    25.7130   -35.2390     2.1290 
   53.2500    53.2360     0.4150    -0.2780    53.5380    12.3300     6.1470    10.7070    25.7310   -35.2670     2.1250 
   53.3750    53.3610     0.4230    -0.2850    55.1850    12.3660     6.1740    11.9080    25.6970   -35.3320     2.1270 
   53.5000    53.4850     0.4310    -0.2920    58.1720    12.3440     6.1940    12.9630    25.6390   -35.4490     2.1380 
   53.6250    53.6100     0.4400    -0.2980    59.9290    12.3290     6.2250    13.4010    25.6190   -35.6190     2.1460 
   53.7500    53.7340     0.4480    -0.3050    61.2660    12.4260     6.2950    13.5700    25.6440   -35.8210     2.1460 
   53.8750    53.8590     0.4560    -0.3110    62.1260    12.6800     6.4130    13.4090    25.7050   -36.0460     2.1410 
   54.0000    53.9830     0.4640    -0.3180    60.1030    13.0400     6.5610    12.9910    25.7490   -36.2880     2.1400 
   54.1250    54.1080     0.4730    -0.3250    55.7340    13.3180     6.6900    13.2530    25.7640   -36.5270     2.1420 
   54.2500    54.2330     0.4810    -0.3310    52.5130    13.3390     6.7460    14.1170    25.7770   -36.7590     2.1410 
   54.3750    54.3570     0.4890    -0.3380    50.3970    13.0690     6.7090    14.0460    25.8250   -36.9710     2.1370 
   54.5000    54.4820     0.4980    -0.3440    50.7090    12.6390     6.6000    13.3630    25.9230   -37.1520     2.1300 
   54.6250    54.6060     0.5060    -0.3510    53.1450    12.2890     6.4720    12.8480    26.0970   -37.2920     2.1240 
   54.7500    54.7310     0.5140    -0.3580    54.3320    12.1300     6.3750    12.6700    26.3960   -37.4080     2.1180 
   54.8750    54.8550     0.5230    -0.3640    51.7370    12.1490     6.3250    12.6200    26.8830   -37.5030     2.1100 
   55.0000    54.9800     0.5310    -0.3710    48.1930    12.2690     6.3140    12.4830    27.4290   -37.5570     2.0970 
   55.1250    55.1040     0.5390    -0.3770    48.6330    12.4040     6.3170    12.1090    27.6200   -37.5430     2.0860 
   55.2500    55.2290     0.5470    -0.3840    51.1330    12.5030     6.3120    12.1300    27.3370   -37.4950     2.0860 
   55.3750    55.3530     0.5560    -0.3910    54.4880    12.5620     6.2960    12.4320    26.8500   -37.4330     2.0960 
   55.5000    55.4780     0.5640    -0.3970    57.1300    12.6020     6.2790    12.4310    26.5300   -37.3650     2.1060 
   55.6250    55.6020     0.5720    -0.4040    59.1520    12.6470     6.2740    12.3730    26.4790   -37.2960     2.1110 
   55.7500    55.7270     0.5810    -0.4100    61.3100    12.6930     6.2750    12.1760    26.5440   -37.2250     2.1160 
   55.8750    55.8510     0.5890    -0.4170    62.5500    12.7110     6.2690    11.7350    26.6250   -37.1440     2.1220 
   56.0000    55.9760     0.5970    -0.4240    60.1620    12.6720     6.2430    11.2580    26.6830   -37.0810     2.1280 
   56.1250    56.1010     0.6050    -0.4300    53.6270    12.5560     6.1930    11.1060    26.6620   -37.0740     2.1280 
   56.2500    56.2250     0.6140    -0.4370    49.4480    12.4110     6.1370    11.0850    26.5240   -37.0920     2.1250 
   56.3750    56.3500     0.6220    -0.4430    51.1360    12.3060     6.0980    11.1610    26.2610   -37.1260     2.1250 
   56.5000    56.4740     0.6300    -0.4500    57.1520    12.2930     6.0950    11.3970    25.9890   -37.1610     2.1310 
   56.6250    56.5990     0.6390    -0.4560    60.9900    12.3920     6.1430    11.7180    25.8530   -37.1840     2.1410 
   56.7500    56.7230     0.6470    -0.4630    59.8440    12.5450     6.2230    11.8200    25.7630   -37.1910     2.1470 
   56.8750    56.8480     0.6550    -0.4700    55.9280    12.6850     6.3060    11.7580    25.6330   -37.1820     2.1520 
   57.0000    56.9720     0.6630    -0.4760    53.5130    12.7410     6.3610    12.1890    25.5040   -37.1330     2.1600 
   57.1250    57.0970     0.6720    -0.4830    56.0010    12.6450     6.3550    12.6150    25.5050   -37.0160     2.1660 
   57.2500    57.2210     0.6800    -0.4890    59.5460    12.4500     6.3020    12.9340    25.5580   -36.8310     2.1630 
   57.3750    57.3460     0.6880    -0.4960    59.8550    12.2430     6.2290    12.5010    25.6040   -36.5820     2.1540 
   57.5000    57.4700     0.6970    -0.5030    56.4120    12.1120     6.1650    11.7200    25.6310   -36.2970     2.1500 
   57.6250    57.5950     0.7050    -0.5090    52.8730    12.1210     6.1410    11.0600    25.6390   -36.0010     2.1530 
   57.7500    57.7200     0.7130    -0.5160    52.7820    12.2240     6.1520    10.9200    25.6010   -35.7200     2.1590 
   57.8750    57.8440     0.7210    -0.5220    55.5340    12.3640     6.1900    10.7230    25.5570   -35.4740     2.1620 
   58.0000    57.9690     0.7300    -0.5290    58.4820    12.4980     6.2450    10.6270    25.5380   -35.2690     2.1610 
   58.1250    58.0930     0.7380    -0.5360    57.1670    12.6060     6.3150    10.7490    25.5380   -35.1140     2.1560 
   58.2500    58.2180     0.7460    -0.5420    51.8980    12.7040     6.3960    10.9020    25.5380   -35.0140     2.1480 
   58.3750    58.3420     0.7550    -0.5490    46.7220    12.8150     6.4890    10.9960    25.5380   -34.9600     2.1410 
   58.5000    58.4670     0.7630    -0.5550    44.9580    12.9490     6.5870    11.1270    25.5380   -34.9300     2.1350 
   58.6250    58.5910     0.7710    -0.5620    47.5040    13.0780     6.6740    11.1880    25.5330   -34.8940     2.1330 
   58.7500    58.7160     0.7790    -0.5690    50.8730    13.1150     6.7220    11.0140    25.5000   -34.8180     2.1340 
   58.8750    58.8400     0.7880    -0.5750    53.1270    12.9550     6.6970    10.7500    25.4160   -34.6880     2.1400 
   59.0000    58.9650     0.7960    -0.5820    53.8800    12.5610     6.5840    10.5520    25.3170   -34.5150     2.1480 
   59.1250    59.0890     0.8040    -0.5880    54.4770    12.0270     6.4170    10.9390    25.2260   -34.3150     2.1530 
   59.2500    59.2140     0.8130    -0.5950    55.6150    11.6020     6.2870    10.9650    25.1430   -34.1100     2.1570 
   59.3750    59.3380     0.8210    -0.6010    56.0540    11.5000     6.2740    10.1160    25.0570   -33.9040     2.1610 
   59.5000    59.4630     0.8290    -0.6080    54.9400    11.8510     6.4320     9.2970    24.9820   -33.6480     2.1640 
   59.6250    59.5880     0.8370    -0.6150    52.0960    12.6550     6.7840    10.4840    24.9410   -33.2240     2.1610 
   59.7500    59.7120     0.8460    -0.6210    48.8500    13.5380     7.1980    11.4930    24.9090   -32.5720     2.1570 
   59.8750    59.8370     0.8540    -0.6280    47.4150    14.0800     7.5100    12.0100    24.8920   -31.6550     2.1600 
   60.0000    59.9610     0.8620    -0.6340    48.9240    13.8960     7.5510    12.2420    24.9100   -30.4650     2.1720 
   60.1250    60.0860     0.8710    -0.6410    53.5080    12.7610     7.1930    11.7180    24.9650   -28.9740     2.1950 
   60.2500    60.2100     0.8790    -0.6480    60.4730    11.1770     6.6030     9.8500    25.0070   -27.3070     2.2270 
   60.3750    60.3350     0.8870    -0.6540    68.7640     9.6560     5.9690     7.2020    25.0180   -25.5500     2.2650 
   60.5000    60.4590     0.8950    -0.6610    76.3110     8.5700     5.4420     5.7180    24.9990   -23.8060     2.2990 
   60.6250    60.5830     0.9080    -0.6710    81.7500     8.1370     5.1350     5.3020    24.9470   -22.2370     2.3190 
   60.7500    60.7070     0.9210    -0.6820    86.6390     8.1790     5.0260     5.2090    24.8960   -20.9350     2.3230 
   60.8750    60.8310     0.9330    -0.6920    91.0250     8.5200     5.0830     5.1970    24.8580   -19.9570     2.3160 
   61.0000    60.9550     0.9460    -0.7030    92.2350     8.9440     5.2400     5.2980    24.8210   -19.3170     2.3040 
   61.1250    61.0790     0.9590    -0.7140    88.9380     9.2340     5.4160     5.5720    24.8050   -19.0520     2.2920 
