~V
VERS. 2.00: Ver 2.00
~W
STRT.M 44.0000:
STOP.M 275.0000:
STEP.M 0.1250:
NULL. -999.2500:
UWI. FD11190:
~C
DEPT.M :
TVD. :
DX. :
DY. :
SP.MV :
GR.API :
RI. :
RML.OHMM :
RXO.OHMM :
DEN.GM/CC :
~A
# ...
  190.0000   182.6470   -35.1780   -19.4240    -6.6550    59.9480    60.6040    63.2990    41.2660     2.1950 
  190.1250   182.7600   -35.2240   -19.4490    -6.6010    61.6080    61.1390    62.5510    42.7570     2.2000 
  190.2500   182.8740   -35.2700   -19.4740    -6.5510    60.3230    59.7020    60.3330    42.3490     2.2000 
  190.3750   182.9870   -35.3160   -19.4990    -6.4670    57.8710    57.3030    57.2280    40.3130     2.1980 
  190.5000   183.1010   -35.3620   -19.5230    -6.3150    57.4800    54.4290    53.6280    38.6570     2.1970 
  190.6250   183.2140   -35.4080   -19.5480    -6.1530    57.9810    50.7910    49.4890    37.8590     2.1970 
  190.7500   183.3280   -35.4550   -19.5720    -5.9500    58.1610    47.0620    44.6750    37.7280     2.1990 
  190.8750   183.4410   -35.5010   -19.5970    -5.7300    58.0570    42.0920    39.3060    38.4680     2.2030 
  191.0000   183.5550   -35.5470   -19.6210    -5.4830    59.7960    36.5250    33.9180    38.6110     2.2120 
  191.1250   183.6680   -35.5940   -19.6460    -5.1140    63.8570    31.4440    29.5720    35.1580     2.2260 
  191.2500   183.7820   -35.6400   -19.6710    -4.7820    68.7200    27.5210    26.7160    29.5140     2.2400 
  191.3750   183.8950   -35.6860   -19.6960    -4.5460    71.9470    25.8020    25.4580    26.3600     2.2430 
  191.5000   184.0080   -35.7330   -19.7200    -4.3260    71.5410    25.2060    25.2460    26.9710     2.2340 
  191.6250   184.1220   -35.7790   -19.7450    -4.1610    69.8540    25.4430    25.7860    28.7940     2.2270 
  191.7500   184.2350   -35.8250   -19.7700    -4.0730    69.1750    26.4470    26.9300    28.9280     2.2300 
  191.8750   184.3490   -35.8720   -19.7940    -4.1330    69.1810    28.0930    28.7380    29.5940     2.2380 
  192.0000   184.4620   -35.9180   -19.8190    -4.3520    69.2560    30.3100    31.1530    33.0110     2.2430 
  192.1250   184.5760   -35.9650   -19.8430    -4.7040    69.2610    33.0330    34.0500    38.0220     2.2440 
  192.2500   184.6890   -36.0110   -19.8680    -5.0790    68.9930    36.2270    36.6910    41.9840     2.2390 
  192.3750   184.8020   -36.0580   -19.8920    -5.3830    66.9490    38.6020    38.1720    38.2790     2.2300 
  192.5000   184.9160   -36.1040   -19.9170    -5.6330    64.9550    39.2890    38.1850    32.1180     2.2240 
  192.6250   185.0290   -36.1510   -19.9410    -5.9040    64.0060    38.2770    37.3200    28.4920     2.2300 
  192.7500   185.1430   -36.1970   -19.9660    -6.1160    63.4100    36.7260    36.7790    27.5410     2.2400 
  192.8750   185.2560   -36.2440   -19.9900    -6.2680    63.3750    36.3200    37.5550    30.2570     2.2420 
  193.0000   185.3690   -36.2900   -20.0150    -6.3680    64.3670    37.3750    39.6860    37.4730     2.2350 
  193.1250   185.4830   -36.3370   -20.0390    -6.4770    67.0410    39.7840    42.9550    44.6340     2.2280 
  193.2500   185.5960   -36.3830   -20.0640    -6.6370    69.1250    42.9340    48.2350    45.8040     2.2230 
  193.3750   185.7100   -36.4300   -20.0880    -6.8690    69.7920    46.8160    54.7450    42.9150     2.2200 
  193.5000   185.8230   -36.4760   -20.1130    -7.1030    68.2240    51.3740    62.6040    44.1890     2.2120 
  193.6250   185.9370   -36.5220   -20.1370    -7.3070    67.3450    56.8940    71.5080    55.7530     2.1990 
  193.7500   186.0500   -36.5690   -20.1620    -7.4980    67.2720    65.2970    83.0020    71.1030     2.1890 
  193.8750   186.1640   -36.6150   -20.1870    -7.7040    65.9980    76.3270    95.7130    80.4040     2.1860 
  194.0000   186.2770   -36.6610   -20.2120    -7.9540    63.2730    87.3640   106.2850    84.6090     2.1840 
  194.1250   186.3910   -36.7070   -20.2360    -8.1560    61.8030    94.8690   111.2970    84.3980     2.1790 
  194.2500   186.5040   -36.7540   -20.2610    -8.3180    62.2830    96.3260   110.2150    78.4130     2.1720 
  194.3750   186.6170   -36.8000   -20.2860    -8.4850    62.7410    92.3300   104.3370    69.5670     2.1670 
  194.5000   186.7310   -36.8460   -20.3100    -8.6170    61.9590    86.1130    96.7640    62.0860     2.1640 
  194.6250   186.8440   -36.8930   -20.3350    -8.6990    61.0540    79.8160    89.6410    58.2620     2.1660 
  194.7500   186.9580   -36.9390   -20.3590    -8.6320    59.8610    74.8520    84.0310    57.9030     2.1740 
  194.8750   187.0710   -36.9850   -20.3840    -8.4890    57.4280    71.7620    80.1940    58.7140     2.1820 
  195.0000   187.1850   -37.0320   -20.4080    -8.3320    56.2270    69.9570    77.4040    58.8290     2.1810 
  195.1250   187.2980   -37.0780   -20.4330    -8.2070    57.7990    68.6910    74.7540    57.1480     2.1740 
  195.2500   187.4120   -37.1240   -20.4580    -8.1470    60.3630    66.8650    71.5600    52.8590     2.1700 
  195.3750   187.5250   -37.1710   -20.4820    -8.0590    61.8920    64.2090    67.5900    48.0270     2.1740 
  195.5000   187.6390   -37.2170   -20.5070    -7.9750    64.0570    60.8140    63.2830    45.5600     2.1770 
  195.6250   187.7520   -37.2640   -20.5310    -7.8890    67.3250    57.2500    58.8840    44.5490     2.1780 
  195.7500   187.8660   -37.3100   -20.5550    -7.8370    67.1120    53.7930    54.4530    42.9000     2.1840 
  195.8750   187.9790   -37.3560   -20.5800    -7.8190    64.3210    49.7220    50.1120    41.0370     2.1990 
  196.0000   188.0920   -37.4030   -20.6040    -7.7170    62.7020    45.8830    46.2350    40.0000     2.2200 
  196.1250   188.2060   -37.4490   -20.6280    -7.4970    64.7120    42.6960    43.7080    37.9830     2.2390 
  196.2500   188.3190   -37.4960   -20.6530    -7.2670    66.9530    40.8720    43.2620    34.1330     2.2480 
  196.3750   188.4330   -37.5420   -20.6770    -7.0620    66.8820    41.7400    46.3200    33.3370     2.2410 
  196.5000   188.5460   -37.5880   -20.7020    -6.8750    65.3920    46.1980    53.4570    38.7900     2.2210 
  196.6250   188.6600   -37.6350   -20.7260    -6.7480    65.4250    55.2400    64.4040    62.4090     2.1960 
  196.7500   188.7730   -37.6810   -20.7500    -6.7510    65.1820    68.0220    74.6880   108.1350     2.1740 
  196.8750   188.8870   -37.7270   -20.7750    -6.8680    62.5140    77.4670    78.3500   134.8620     2.1610 
  197.0000   189.0010   -37.7730   -20.7990    -7.0600    59.0030    76.4030    73.1540   116.0980     2.1600 
  197.1250   189.1140   -37.8200   -20.8230    -7.2590    58.3010    66.5960    61.5710    81.2710     2.1790 
  197.2500   189.2280   -37.8660   -20.8470    -7.3840    59.4280    52.8590    50.0970    55.3260     2.2080 
  197.3750   189.3410   -37.9120   -20.8710    -7.4050    60.7880    43.0730    44.3110    42.3280     2.2240 
  197.5000   189.4550   -37.9590   -20.8950    -7.3380    61.8030    40.9060    46.1850    52.5800     2.2150 
  197.6250   189.5690   -38.0050   -20.9190    -7.2350    60.5120    47.1630    56.3790   102.9120     2.1890 
  197.7500   189.6820   -38.0510   -20.9430    -7.1460    56.5520    60.0010    71.9360   134.7850     2.1670 
  197.8750   189.7960   -38.0970   -20.9670    -7.0680    53.6990    77.6310    87.9700   137.0540     2.1610 
  198.0000   189.9100   -38.1430   -20.9900    -6.9370    53.8680    91.7490    98.8580   124.5850     2.1650 
  198.1250   190.0230   -38.1890   -21.0150    -6.8260    55.4110    98.2390   101.2000   108.2710     2.1720 
  198.2500   190.1370   -38.2350   -21.0390    -6.7010    56.2340    95.6400    97.6400    92.2900     2.1780 
  198.3750   190.2510   -38.2810   -21.0630    -6.5780    56.8310    89.3000    91.7190    81.8760     2.1800 
  198.5000   190.3650   -38.3270   -21.0870    -6.4440    58.1780    83.4640    87.0400    78.6570     2.1770 
  198.6250   190.4790   -38.3720   -21.1110    -6.3200    61.2010    79.7590    84.6890    81.2920     2.1720 
  198.7500   190.5920   -38.4180   -21.1350    -6.3030    64.6800    78.5940    84.3750    84.3600     2.1710 
  198.8750   190.7060   -38.4640   -21.1590    -6.4060    65.6910    79.0330    85.2540    84.6700     2.1760 
  199.0000   190.8200   -38.5100   -21.1840    -6.5450    64.3920    79.9570    86.1850    84.6730     2.1810 
