~V
VERS. 2.00: Ver 2.00
~W
STRT.M 15.0000:
STOP.M 224.0000:
STEP.M 0.1250:
NULL. -999.2500:
UWI. FD11007:
~C
DEPT.M :
TVD. :
DX. :
DY. :
DEN.GM/CC :
GR.API :
RML.OHMM :
RI. :
RXO.OHMM :
CALI.CM :
SP.MV :
~A
# ...
  171.7500   170.3490    10.5220    -9.6670     2.2140    65.3630   227.8960   190.6880    10.2370    24.0780   -34.6010 
  171.8750   170.4710    10.5440    -9.6860     2.2200    67.1250   227.7620   194.3370     8.2630    23.9380   -34.4920 
  172.0000   170.5920    10.5660    -9.7050     2.2210    68.3190   222.3700   192.8050     7.4580    23.8590   -34.3600 
  172.1250   170.7140    10.5890    -9.7240     2.2190    67.2680   213.6110   187.3500     7.9230    23.8660   -34.2160 
  172.2500   170.8350    10.6110    -9.7430     2.2160    66.1210   202.3300   179.0070     9.0190    23.9300   -34.0510 
  172.3750   170.9570    10.6330    -9.7620     2.2110    66.7960   188.9640   168.0950    10.2730    24.0050   -33.8680 
  172.5000   171.0780    10.6560    -9.7810     2.2040    67.5980   175.2960   155.9580    10.5890    23.9760   -33.6660 
  172.6250   171.2000    10.6780    -9.7990     2.2090    67.0320   165.2630   145.9250     9.2120    23.7430   -33.4030 
  172.7500   171.3210    10.7000    -9.8180     2.2450    66.6870   161.6790   141.1390     8.5140    23.4560   -33.0720 
  172.8750   171.4430    10.7230    -9.8370     2.3300    67.9690   166.6370   144.1040    10.2840    23.2580   -32.7030 
  173.0000   171.5640    10.7450    -9.8560     2.4660    68.2740   181.5200   156.6070    16.3280    23.2260   -32.3040 
  173.1250   171.6860    10.7680    -9.8750     2.6140    62.9130   208.4910   180.8580    34.4470    23.3960   -31.8730 
  173.2500   171.8070    10.7900    -9.8940     2.7200    54.8180   243.5750   212.7920    67.2270    23.6540   -31.4260 
  173.3750   171.9290    10.8120    -9.9130     2.7660    50.1640   279.8380   246.0880   105.8980    23.8590   -31.0190 
  173.5000   172.0500    10.8350    -9.9320     2.7730    51.9760   304.8480   270.5140   138.1080    23.9290   -30.6520 
  173.6250   172.1720    10.8570    -9.9510     2.7710    59.5230   300.3080   271.1630   159.0340    23.9190   -30.3140 
  173.7500   172.2930    10.8800    -9.9700     2.7800    65.0660   268.2110   248.0470   164.2910    23.9180   -30.0330 
  173.8750   172.4150    10.9020    -9.9900     2.7980    64.2730   218.5400   207.4080   145.7940    23.9220   -29.7880 
  174.0000   172.5360    10.9250   -10.0090     2.8140    58.7200   164.5940   159.5200   112.1600    23.9220   -29.5590 
  174.1250   172.6570    10.9480   -10.0290     2.8100    54.3730   118.9470   115.8040    76.9500    23.9190   -29.3680 
  174.2500   172.7790    10.9710   -10.0480     2.7820    53.0710    84.9630    81.8800    53.4620    23.9190   -29.2290 
  174.3750   172.9000    10.9930   -10.0680     2.7390    53.1920    61.9210    58.5360    38.2880    23.9190   -29.0880 
  174.5000   173.0210    11.0160   -10.0870     2.6920    53.2010    47.4430    43.9980    26.5970    23.9090   -28.9480 
  174.6250   173.1430    11.0390   -10.1070     2.6520    54.5810    39.6880    36.3650    19.9110    23.8890   -28.8270 
  174.7500   173.2640    11.0620   -10.1260     2.6320    58.3640    35.4520    32.2300    17.1140    23.8730   -28.6740 
  174.8750   173.3850    11.0840   -10.1460     2.6390    61.2880    33.2600    30.1070    17.0500    23.8680   -28.5140 
  175.0000   173.5070    11.1070   -10.1650     2.6700    59.6900    32.0200    28.9720    18.3280    23.8750   -28.3710 
  175.1250   173.6280    11.1300   -10.1850     2.7080    54.7600    30.8880    28.0680    19.4410    23.8970   -28.2490 
  175.2500   173.7500    11.1520   -10.2040     2.7280    53.8010    29.2040    26.7300    19.8910    23.9320   -28.1250 
  175.3750   173.8710    11.1750   -10.2240     2.7200    56.5210    26.5990    24.5490    19.0670    23.9530   -28.0400 
  175.5000   173.9920    11.1980   -10.2430     2.6900    58.6140    23.0450    21.4590    17.9710    23.9280   -27.9910 
  175.6250   174.1140    11.2210   -10.2630     2.6450    59.0550    18.9570    17.8430    16.2400    23.8600   -27.9270 
  175.7500   174.2350    11.2430   -10.2820     2.5970    59.4050    15.1370    14.4340    13.3520    23.7970   -27.8670 
  175.8750   174.3560    11.2660   -10.3020     2.5510    59.0620    12.0620    11.6370    10.0300    23.7660   -27.8080 
  176.0000   174.4780    11.2890   -10.3210     2.5120    58.1130     9.8940     9.5900     7.4000    23.7610   -27.7390 
  176.1250   174.5990    11.3120   -10.3410     2.4860    58.2340     8.6310     8.3120     6.8420    23.7610   -27.6660 
  176.2500   174.7200    11.3340   -10.3600     2.4680    59.9010     7.9030     7.5230     6.8590    23.7590   -27.6390 
  176.3750   174.8420    11.3570   -10.3790     2.4520    61.4730     7.5200     7.0770     6.5720    23.7690   -27.6630 
  176.5000   174.9630    11.3800   -10.3990     2.4320    61.3790     7.3320     6.8480     5.9680    23.7900   -27.7220 
  176.6250   175.0850    11.4030   -10.4180     2.4080    58.9710     7.2300     6.7370     5.7720    23.8130   -27.8660 
  176.7500   175.2060    11.4250   -10.4380     2.3860    55.8600     7.1450     6.6560     5.8140    23.8510   -28.0950 
  176.8750   175.3270    11.4480   -10.4570     2.3740    53.4160     7.0650     6.5840     5.6260    23.9050   -28.3360 
  177.0000   175.4480    11.4710   -10.4770     2.3720    52.9620     6.9850     6.5130     5.1900    23.9560   -28.5950 
  177.1250   175.5690    11.4960   -10.4980     2.3830    53.9440     6.9030     6.4330     4.9900    23.9800   -28.8770 
  177.2500   175.6900    11.5200   -10.5180     2.3970    53.0660     6.8310     6.3450     4.7250    24.0160   -29.1480 
  177.3750   175.8110    11.5440   -10.5390     2.4060    49.6520     6.7900     6.2660     4.5940    24.1140   -29.3660 
  177.5000   175.9320    11.5680   -10.5590     2.4060    47.6850     6.7940     6.2080     4.7210    24.2480   -29.5520 
  177.6250   176.0530    11.5920   -10.5800     2.3970    49.9680     6.8480     6.1850     4.9640    24.3100   -29.7090 
  177.7500   176.1740    11.6160   -10.6000     2.3850    53.2650     6.9410     6.1910     5.0710    24.3280   -29.8100 
  177.8750   176.2950    11.6400   -10.6210     2.3800    55.2180     7.0680     6.2230     5.1140    24.3790   -29.8870 
  178.0000   176.4160    11.6640   -10.6410     2.3860    54.4110     7.2160     6.2710     5.0660    24.4720   -29.9190 
  178.1250   176.5370    11.6890   -10.6610     2.4010    50.9090     7.3570     6.3120     5.1170    24.5230   -29.8650 
  178.2500   176.6580    11.7130   -10.6820     2.4140    49.4940     7.4520     6.3210     5.1680    24.5210   -29.7230 
  178.3750   176.7790    11.7370   -10.7020     2.4170    51.0320     7.4730     6.2760     5.1570    24.5170   -29.5300 
  178.5000   176.9000    11.7610   -10.7230     2.4090    52.3160     7.4130     6.1720     5.2780    24.5180   -29.2670 
  178.6250   177.0200    11.7850   -10.7430     2.3940    51.9180     7.2900     6.0180     5.4370    24.5190   -28.9280 
  178.7500   177.1410    11.8090   -10.7640     2.3810    52.3690     7.1550     5.8520     5.4890    24.5170   -28.5710 
  178.8750   177.2620    11.8330   -10.7840     2.3760    54.2180     7.0280     5.6950     5.3270    24.5190   -28.2490 
  179.0000   177.3830    11.8580   -10.8050     2.3800    54.6480     6.9160     5.5570     5.2060    24.5260   -27.9660 
  179.1250   177.5040    11.8820   -10.8250     2.3970    52.8950     6.8270     5.4500     5.2000    24.4490   -27.7170 
  179.2500   177.6250    11.9060   -10.8460     2.4210    50.0610     6.7750     5.3790     5.1990    24.2750   -27.4970 
  179.3750   177.7460    11.9300   -10.8660     2.4460    47.9420     6.7860     5.3540     5.2610    24.0900   -27.2920 
  179.5000   177.8670    11.9540   -10.8860     2.4610    47.8670     6.8790     5.3890     5.4820    24.0220   -27.0890 
  179.6250   177.9880    11.9780   -10.9070     2.4560    48.9330     7.0430     5.4830     5.8190    24.2630   -26.8790 
  179.7500   178.1090    12.0020   -10.9270     2.4360    49.9130     7.2090     5.5950     5.8890    24.8300   -26.6590 
  179.8750   178.2300    12.0260   -10.9480     2.4020    50.1990     7.3220     5.6890     5.6100    25.6180   -26.4280 
