~V
VERS. 2.00: Ver 2.00
~W
STRT.M 15.0000:
STOP.M 219.0000:
STEP.M 0.1250:
NULL. -999.2500:
UWI. FD11101:
~C
DEPT.M :
TVD. :
DX. :
DY. :
GR.API :
RML.OHMM :
RI. :
RXO.OHMM :
CALI.CM :
SP.MV :
DEN.GM/CC :
~A
# ...
  188.2500   177.2710     8.7870    49.3870   102.3490     8.3050     7.2290     7.1210    21.3170   -27.4490     2.3770 
  188.3750   177.3780     8.7960    49.4500    99.9650     8.4750     7.3430     7.2810    21.0710   -27.8530     2.3770 
  188.5000   177.4860     8.8050    49.5120    98.8820     8.7490     7.5150     7.5000    20.8620   -28.0560     2.3840 
  188.6250   177.5940     8.8150    49.5750    97.3320     9.2210     7.8260     7.7500    20.8210   -28.0620     2.3930 
  188.7500   177.7020     8.8240    49.6380    96.7030     9.8930     8.3160     7.7760    20.8570   -27.9070     2.4050 
  188.8750   177.8090     8.8330    49.7000    98.8950    10.7140     8.9810     8.0780    20.9250   -27.6460     2.4240 
  189.0000   177.9170     8.8430    49.7630   102.4430    11.5450     9.7410     8.4660    20.9610   -27.2630     2.4520 
  189.1250   178.0250     8.8520    49.8260   102.5860    12.1470    10.4100     9.5550    20.9800   -26.6450     2.4860 
  189.2500   178.1330     8.8610    49.8880   100.0530    12.4190    10.8360    10.6900    20.9910   -25.9330     2.5110 
  189.3750   178.2400     8.8710    49.9510    98.7130    12.3890    10.9800    10.8850    20.9660   -25.1430     2.5150 
  189.5000   178.3480     8.8800    50.0140    99.7560    12.1830    10.9110     9.5380    20.8510   -24.2610     2.4990 
  189.6250   178.4560     8.8890    50.0760   102.0070    11.9230    10.7260     8.6250    20.7040   -23.3730     2.4800 
  189.7500   178.5640     8.8990    50.1390   102.1340    11.6160    10.4790     8.6530    20.6040   -22.4820     2.4750 
  189.8750   178.6720     8.9080    50.2020    98.9510    11.1660    10.1170     9.2680    20.4970   -21.6370     2.4900 
  190.0000   178.7790     8.9170    50.2640    97.2510    10.4950     9.5760     9.8260    20.2740   -20.9530     2.5120 
  190.1250   178.8870     8.9270    50.3270   102.2410     9.6370     8.8650     9.3560    20.0180   -20.4360     2.5220 
  190.2500   178.9950     8.9360    50.3890   109.8460     8.8280     8.1600     8.5620    19.9120   -20.0140     2.5160 
  190.3750   179.1030     8.9450    50.4520   114.8590     8.2720     7.6320     7.6230    20.1130   -19.7470     2.4970 
  190.5000   179.2100     8.9550    50.5150   115.1460     8.0780     7.3950     6.9430    20.3540   -19.5810     2.4780 
  190.6250   179.3180     8.9640    50.5770   113.0810     8.2330     7.4920     6.5910    20.4430   -19.4830     2.4680 
  190.7500   179.4260     8.9730    50.6400   111.6040     8.4750     7.7320     6.5920    20.4280   -19.4070     2.4640 
  190.8750   179.5340     8.9830    50.7030   111.4180     8.5820     7.9280     7.1210    20.4100   -19.1980     2.4630 
  191.0000   179.6410     8.9920    50.7660   112.0040     8.4110     7.9230     7.9940    20.4390   -18.8180     2.4610 
  191.1250   179.7490     9.0020    50.8290   107.1060     7.9400     7.6290     8.2780    20.5270   -18.2800     2.4550 
  191.2500   179.8560     9.0120    50.8920    95.2440     7.3770     7.1830     7.8690    20.5700   -17.6960     2.4460 
  191.3750   179.9640     9.0220    50.9550    81.2040     6.8790     6.7160     7.3260    20.5380   -17.0750     2.4360 
  191.5000   180.0710     9.0310    51.0180    72.1750     6.5330     6.3250     6.9780    20.4220   -16.4450     2.4280 
  191.6250   180.1790     9.0410    51.0810    70.5630     6.3480     6.0650     6.8720    20.3190   -15.8390     2.4280 
  191.7500   180.2860     9.0510    51.1440    71.8780     6.2340     5.8930     6.7240    20.2620   -15.3130     2.4350 
  191.8750   180.3940     9.0610    51.2070    74.9800     6.1380     5.7710     6.5660    20.2360   -14.9600     2.4480 
  192.0000   180.5010     9.0700    51.2700    80.2890     6.0380     5.6680     6.4290    20.2060   -14.8220     2.4630 
  192.1250   180.6090     9.0800    51.3330    85.2280     5.9340     5.5620     6.3400    20.2050   -14.8540     2.4760 
  192.2500   180.7160     9.0900    51.3960    88.4080     5.8250     5.4490     6.4850    20.2180   -14.9140     2.4830 
  192.3750   180.8240     9.1000    51.4590    90.1250     5.7070     5.3330     6.7290    20.2280   -15.0190     2.4870 
  192.5000   180.9310     9.1090    51.5220    91.6270     5.5820     5.2200     6.9010    20.2180   -15.1210     2.4880 
  192.6250   181.0380     9.1190    51.5850    93.7250     5.4740     5.1260     6.8480    20.1960   -15.0710     2.4880 
  192.7500   181.1460     9.1290    51.6490    93.7790     5.4160     5.0590     6.6160    20.1940   -14.8620     2.4910 
  192.8750   181.2530     9.1390    51.7120    91.4760     5.4240     5.0270     6.3650    20.2080   -14.3790     2.4990 
  193.0000   181.3610     9.1480    51.7750    88.6970     5.4960     5.0310     6.1210    20.2320   -13.4860     2.5120 
  193.1250   181.4680     9.1580    51.8380    89.2830     5.6130     5.0700     6.1480    20.2430   -12.3510     2.5250 
  193.2500   181.5760     9.1680    51.9010    93.4950     5.7370     5.1350     6.4000    20.2460   -11.1490     2.5320 
  193.3750   181.6830     9.1780    51.9640    97.8230     5.8550     5.2190     6.7880    20.2470    -9.9240     2.5280 
  193.5000   181.7910     9.1880    52.0270   100.4670     5.9730     5.3260     7.1360    20.2500    -8.7690     2.5190 
  193.6250   181.8980     9.1970    52.0900   101.6040     6.1380     5.4800     7.8140    20.2530    -7.7240     2.5150 
  193.7500   182.0060     9.2070    52.1530   102.8790     6.4070     5.7160     8.1220    20.2550    -6.8590     2.5210 
  193.8750   182.1130     9.2170    52.2160   103.0240     6.8240     6.0750     8.0700    20.2520    -6.2870     2.5300 
  194.0000   182.2210     9.2270    52.2790   100.0870     7.3940     6.5830     8.2070    20.2620    -6.1140     2.5310 
  194.1250   182.3280     9.2360    52.3420    94.5630     8.0450     7.2140     8.2000    20.3050    -6.2040     2.5110 
  194.2500   182.4360     9.2460    52.4050    89.1810     8.6070     7.8220     8.5560    20.3640    -6.3950     2.4790 
  194.3750   182.5430     9.2560    52.4680    85.5630     8.9380     8.2630     9.1640    20.3970    -6.6370     2.4470 
  194.5000   182.6510     9.2660    52.5310    84.8170     8.9730     8.4340     9.8250    20.4160    -6.8530     2.4270 
  194.6250   182.7580     9.2750    52.5950    87.5020     8.7300     8.2950    10.5700    20.4330    -7.1070     2.4230 
  194.7500   182.8660     9.2850    52.6580    91.7640     8.3910     7.9970    10.7660    20.4480    -7.3180     2.4230 
  194.8750   182.9730     9.2950    52.7210    96.3180     8.0710     7.6540    10.1300    20.4530    -7.4460     2.4200 
  195.0000   183.0810     9.3050    52.7840    99.4710     7.8310     7.3520     9.4820    20.4600    -7.4830     2.4130 
  195.1250   183.1880     9.3140    52.8470   100.2880     7.7080     7.1610    10.1570    20.4900    -7.4290     2.4050 
  195.2500   183.2960     9.3240    52.9100    98.0250     7.7110     7.1010    10.5760    20.5620    -7.3300     2.3980 
  195.3750   183.4030     9.3340    52.9730    93.1410     7.8930     7.2130    10.1100    20.6590    -7.1170     2.3960 
  195.5000   183.5110     9.3440    53.0360    89.2000     8.2890     7.5300     8.8290    20.7250    -6.8420     2.4020 
  195.6250   183.6180     9.3530    53.0990    89.1880     8.8830     8.0720     8.8030    20.7550    -6.5820     2.4230 
  195.7500   183.7260     9.3630    53.1620    90.8440     9.4800     8.6940    10.8320    20.8210    -6.2870     2.4560 
  195.8750   183.8330     9.3730    53.2250    91.3080     9.8800     9.2160    14.0480    20.9750    -5.9930     2.4900 
  196.0000   183.9410     9.3830    53.2880    91.8380     9.9250     9.4470    18.1450    21.1060    -5.7080     2.5100 
  196.1250   184.0480     9.3920    53.3510    94.6630     9.5360     9.2370    14.6270    21.1530    -5.4510     2.5040 
  196.2500   184.1550     9.4020    53.4140    96.8850     8.9290     8.7450    10.6370    21.1580    -5.2170     2.4800 
  196.3750   184.2630     9.4120    53.4780    96.3530     8.3000     8.1570     7.5680    21.1620    -5.0090     2.4490 
