~V
VERS. 2.00: Ver 2.00
~W
STRT.M 40.0000:
STOP.M 279.0000:
STEP.M 0.1250:
NULL. -999.2500:
UWI. FD11188:
~C
DEPT.M :
TVD. :
DX. :
DY. :
SP.MV :
GR.API :
RI. :
RML.OHMM :
RXO.OHMM :
DEN.GM/CC :
~A
# ...
  149.5000   146.3240     6.4410    19.3250   -19.3710    71.7590     4.5100     4.9370     6.2850     2.0580 
  149.6250   146.4400     6.4520    19.3720   -19.4510    72.2020     4.8120     5.3280     6.9880     2.0480 
  149.7500   146.5550     6.4630    19.4190   -19.5140    73.1690     4.9960     5.5710     8.5810     2.0350 
  149.8750   146.6700     6.4750    19.4660   -19.5520    74.5200     4.9790     5.5380    10.8420     2.0350 
  150.0000   146.7860     6.4860    19.5120   -19.5580    76.8110     4.7580     5.2460    10.8870     2.0490 
  150.1250   146.9010     6.4970    19.5590   -19.5220    78.8510     4.4590     4.8660     8.0180     2.0650 
  150.2500   147.0170     6.5080    19.6060   -19.4420    78.4450     4.2000     4.5700     6.0760     2.0730 
  150.3750   147.1320     6.5190    19.6530   -19.3240    74.7850     4.0750     4.4570     6.0320     2.0790 
  150.5000   147.2470     6.5300    19.6990   -19.1890    70.5220     4.0820     4.5020     6.2620     2.0860 
  150.6250   147.3630     6.5420    19.7460   -19.0630    67.7360     4.1220     4.5630     6.4110     2.0950 
  150.7500   147.4780     6.5530    19.7930   -18.9340    70.2710     4.0960     4.5310     6.2680     2.1010 
  150.8750   147.5930     6.5640    19.8400   -18.8860    75.2930     3.9270     4.3110     6.3060     2.1020 
  151.0000   147.7090     6.5750    19.8870   -18.8660    79.8080     3.6690     3.9880     6.4260     2.1000 
  151.1250   147.8240     6.5860    19.9330   -18.8730    82.5330     3.3950     3.6520     6.0570     2.1040 
  151.2500   147.9400     6.5970    19.9800   -18.9120    84.7940     3.2080     3.4310     5.0900     2.1260 
  151.3750   148.0550     6.6080    20.0270   -18.9970    85.8800     3.1750     3.4170     4.4080     2.1530 
  151.5000   148.1700     6.6200    20.0740   -19.1290    83.2550     3.3170     3.6210     4.8510     2.1570 
  151.6250   148.2860     6.6310    20.1210   -19.2910    78.9930     3.5600     3.9390     5.8220     2.1340 
  151.7500   148.4010     6.6420    20.1670   -19.4450    76.3960     3.7740     4.1900     6.0940     2.1070 
  151.8750   148.5160     6.6530    20.2140   -19.5510    74.9470     3.8280     4.2230     5.9310     2.0940 
  152.0000   148.6320     6.6640    20.2610   -19.5950    73.5400     3.7460     4.0720     6.0660     2.0890 
  152.1250   148.7470     6.6750    20.3080   -19.5760    74.5470     3.5950     3.8420     6.2860     2.0850 
  152.2500   148.8630     6.6860    20.3550   -19.5150    77.5580     3.5180     3.7050     6.1900     2.0870 
  152.3750   148.9780     6.6970    20.4020   -19.4260    79.2550     3.5700     3.7290     6.0740     2.0920 
  152.5000   149.0930     6.7080    20.4480   -19.3160    78.4460     3.7840     3.9410     6.4490     2.1000 
  152.6250   149.2090     6.7190    20.4950   -19.1700    75.8620     4.2200     4.4210     6.8930     2.1190 
  152.7500   149.3240     6.7300    20.5420   -18.9710    73.1350     4.9960     5.3140     6.9690     2.1660 
  152.8750   149.4390     6.7410    20.5890   -18.6970    71.4470     5.7320     6.1170     7.7900     2.2610 
  153.0000   149.5550     6.7520    20.6360   -18.3510    70.5510     5.8620     6.2200    12.1250     2.3900 
  153.1250   149.6700     6.7630    20.6830   -17.9430    69.1930     5.3740     5.6160    19.8840     2.5000 
  153.2500   149.7850     6.7740    20.7300   -17.5130    69.4000     4.3260     4.3840    21.5580     2.5310 
  153.3750   149.9010     6.7850    20.7770   -17.1130    74.7230     3.2550     3.2070    12.9720     2.4570 
  153.5000   150.0160     6.7960    20.8240   -16.7890    83.3340     2.4980     2.4310     5.4470     2.3360 
  153.6250   150.1310     6.8070    20.8710   -16.5820    91.0210     2.0550     2.0110     3.8280     2.2420 
  153.7500   150.2460     6.8180    20.9180   -16.4840    95.0280     1.8390     1.8520     3.8030     2.2010 
  153.8750   150.3620     6.8290    20.9650   -16.4770    96.6470     1.8650     1.9250     3.8800     2.1950 
  154.0000   150.4770     6.8400    21.0120   -16.5210    99.6340     1.9600     2.0510     3.9090     2.2010 
  154.1250   150.5920     6.8500    21.0590   -16.5990   102.8510     2.0730     2.1800     3.9570     2.2100 
  154.2500   150.7080     6.8610    21.1060   -16.7010   102.0880     2.1320     2.2230     4.1830     2.2110 
  154.3750   150.8230     6.8720    21.1540   -16.8230    96.5510     2.1230     2.1840     4.5060     2.2080 
  154.5000   150.9380     6.8830    21.2010   -16.9540    91.0280     2.1330     2.1500     4.5620     2.2190 
  154.6250   151.0530     6.8940    21.2480   -17.0770    89.1160     2.2320     2.2120     4.1340     2.2540 
  154.7500   151.1690     6.9040    21.2950   -17.1820    88.2480     2.5060     2.4650     3.6600     2.2950 
  154.8750   151.2840     6.9150    21.3420   -17.2670    84.0520     3.0100     2.9800     5.4460     2.3480 
  155.0000   151.3990     6.9260    21.3890   -17.3380    76.4130     3.9060     3.9410     9.8790     2.4260 
  155.1250   151.5140     6.9370    21.4360   -17.3970    69.1540     4.9790     5.0720    12.4100     2.4830 
  155.2500   151.6300     6.9470    21.4840   -17.4430    65.7450     5.9080     6.0400    12.0770     2.4440 
  155.3750   151.7450     6.9580    21.5310   -17.4710    65.1540     6.5200     6.6510    13.9920     2.3100 
  155.5000   151.8600     6.9690    21.5780   -17.4830    65.1480     6.6710     6.7640    18.0890     2.1870 
  155.6250   151.9760     6.9800    21.6250   -17.4840    64.2470     6.5870     6.6490    18.0620     2.1690 
  155.7500   152.0910     6.9900    21.6720   -17.4830    62.9920     6.4670     6.5270    14.3430     2.2560 
  155.8750   152.2060     7.0010    21.7190   -17.4860    61.9770     6.3240     6.4100    12.1470     2.4060 
  156.0000   152.3220     7.0110    21.7660   -17.4970    60.4850     6.1500     6.2740    11.2850     2.5360 
  156.1250   152.4370     7.0220    21.8130   -17.5170    57.9860     6.0530     6.2310    10.7030     2.5840 
  156.2500   152.5520     7.0320    21.8600   -17.5450    55.1890     6.0540     6.2670    10.8580     2.5720 
  156.3750   152.6680     7.0420    21.9070   -17.5790    54.3250     6.1230     6.3680    10.7010     2.5490 
  156.5000   152.7830     7.0530    21.9530   -17.6130    54.5620     6.2600     6.5290    10.8320     2.5360 
  156.6250   152.8990     7.0630    22.0000   -17.6410    54.2820     6.4260     6.7080    12.1640     2.5300 
  156.7500   153.0140     7.0730    22.0470   -17.6550    53.3580     6.5170     6.7860    12.5000     2.5330 
  156.8750   153.1300     7.0840    22.0930   -17.6510    52.0770     6.4940     6.7330    11.5430     2.5510 
  157.0000   153.2450     7.0940    22.1400   -17.6290    51.3610     6.4080     6.6050    11.4650     2.5700 
  157.1250   153.3610     7.1050    22.1860   -17.5960    50.6630     6.2500     6.4100    11.7290     2.5690 
  157.2500   153.4760     7.1150    22.2330   -17.5660    50.1620     6.1590     6.3040    11.0510     2.5390 
  157.3750   153.5920     7.1260    22.2790   -17.5560    50.6550     6.1410     6.2800    10.5420     2.5030 
  157.5000   153.7080     7.1360    22.3260   -17.5710    51.3030     6.1900     6.3360    11.1890     2.4830 
  157.6250   153.8230     7.1470    22.3720   -17.6090    51.9300     6.2390     6.3760    11.9580     2.4850 
  157.7500   153.9390     7.1570    22.4180   -17.6530    51.9600     6.2740     6.4030    11.8350     2.4990 
  157.8750   154.0540     7.1680    22.4650   -17.6820    51.4500     6.2890     6.3980    11.3430     2.5140 
  158.0000   154.1700     7.1780    22.5110   -17.6800    50.6470     6.3020     6.4010    11.2430     2.5170 
  158.1250   154.2850     7.1880    22.5580   -17.6400    49.5920     6.3660     6.4700    11.1650     2.5000 
  158.2500   154.4010     7.1990    22.6050   -17.5740    49.9730     6.4790     6.6030    11.1810     2.4750 
  158.3750   154.5170     7.2090    22.6510   -17.5030    51.2250     6.5670     6.7020    12.0420     2.4580 
  158.5000   154.6320     7.2200    22.6980   -17.4430    52.1880     6.5610     6.6860    12.6210     2.4540 
