~V
VERS. 2.00: Ver 2.00
~W
STRT.M 20.0000:
STOP.M 285.0000:
STEP.M 0.1250:
NULL. -999.2500:
UWI. FD11157:
~C
DEPT.M :
TVD. :
DX. :
DY. :
GR.API :
RML.OHMM :
RI. :
RXO.OHMM :
CALI.CM :
SP.MV :
DEN.GM/CC :
~A
# ...
   86.0000    85.8800    -1.4040    -1.8700    68.2460     8.4460     7.2330     8.8070    22.5410   -15.2210     2.4180 
   86.1250    86.0040    -1.4140    -1.8830    66.3670     7.4910     6.5030     7.1470    22.5630   -14.6780     2.3390 
   86.2500    86.1280    -1.4230    -1.8960    65.2310     6.7220     5.9050     6.6780    22.5250   -14.3030     2.2810 
   86.3750    86.2520    -1.4330    -1.9090    65.8780     6.2810     5.5580     6.4740    22.4630   -14.0470     2.2620 
   86.5000    86.3760    -1.4430    -1.9220    69.4890     6.1560     5.4640     6.1400    22.2810   -13.8910     2.2750 
   86.6250    86.5000    -1.4530    -1.9350    73.1370     6.2430     5.5500     6.2650    22.1610   -13.8460     2.2960 
   86.7500    86.6240    -1.4620    -1.9480    74.0770     6.3340     5.6600     6.6350    22.1000   -13.8370     2.3070 
   86.8750    86.7480    -1.4720    -1.9610    73.1900     6.2980     5.6970     6.8230    22.3740   -13.8320     2.3060 
   87.0000    86.8720    -1.4820    -1.9740    73.6850     6.0830     5.6070     6.3720    22.6520   -13.8610     2.3010 
   87.1250    86.9950    -1.4920    -1.9870    78.3020     5.7130     5.3690     5.6860    23.0260   -13.9150     2.3000 
   87.2500    87.1190    -1.5020    -2.0000    83.1390     5.3170     5.0660     5.2660    23.1960   -14.0020     2.3060 
   87.3750    87.2430    -1.5110    -2.0130    84.2980     5.0020     4.7810     5.0830    23.1480   -14.1900     2.3170 
   87.5000    87.3670    -1.5210    -2.0260    81.6400     4.8380     4.5960     4.9450    22.9580   -14.4600     2.3290 
   87.6250    87.4910    -1.5310    -2.0390    81.1340     4.8840     4.5920     4.8720    22.8660   -14.7660     2.3380 
   87.7500    87.6150    -1.5410    -2.0520    83.6170     5.1020     4.7530     5.0240    22.8160   -15.1560     2.3390 
   87.8750    87.7390    -1.5500    -2.0650    84.7340     5.4570     5.0390     5.4080    22.7090   -15.6940     2.3300 
   88.0000    87.8630    -1.5600    -2.0780    83.7720     5.8640     5.3720     5.8710    22.5940   -16.3040     2.3170 
   88.1250    87.9870    -1.5700    -2.0910    83.3020     6.1580     5.6150     6.2830    22.7580   -16.9830     2.3050 
   88.2500    88.1110    -1.5800    -2.1060    82.4420     6.2120     5.6670     6.4890    22.9950   -17.7510     2.2970 
   88.3750    88.2340    -1.5900    -2.1200    79.4950     5.9880     5.4980     6.3410    23.0390   -18.5830     2.2940 
   88.5000    88.3580    -1.6010    -2.1350    77.3730     5.5940     5.1760     6.0020    23.0260   -19.4910     2.2970 
   88.6250    88.4820    -1.6110    -2.1500    77.7230     5.2900     4.8890     5.6300    22.9070   -20.5620     2.3030 
   88.7500    88.6050    -1.6210    -2.1650    77.3470     5.2930     4.8160     5.4480    22.7830   -21.8470     2.3070 
   88.8750    88.7290    -1.6310    -2.1800    74.3330     5.7000     5.0560     5.6530    22.6360   -23.3430     2.3110 
   89.0000    88.8530    -1.6420    -2.1950    70.7640     6.5150     5.6440     6.9830    22.4240   -25.0520     2.3290 
   89.1250    88.9760    -1.6520    -2.2100    67.3580     7.6230     6.5580    11.4110    22.2900   -26.9840     2.3640 
   89.2500    89.1000    -1.6620    -2.2250    64.8400     8.6200     7.5030    17.9200    22.2620   -28.9890     2.3810 
   89.3750    89.2240    -1.6720    -2.2400    62.8270     9.1220     8.1470    18.9990    22.2260   -30.9490     2.3460 
   89.5000    89.3470    -1.6830    -2.2550    58.6100     8.9660     8.2710    14.2490    22.2350   -32.7620     2.2590 
   89.6250    89.4710    -1.6930    -2.2700    52.8800     8.3450     7.9140    12.0420    22.2570   -34.2820     2.1490 
   89.7500    89.5950    -1.7030    -2.2850    49.5790     7.7340     7.4390    11.3240    22.2470   -35.4260     2.0620 
   89.8750    89.7190    -1.7130    -2.3000    49.2430     7.3420     7.0380    11.1490    22.2070   -36.1360     2.0240 
   90.0000    89.8420    -1.7230    -2.3150    49.4130     7.1930     6.7760    10.9760    22.1870   -36.4060     2.0390 
   90.1250    89.9660    -1.7340    -2.3300    49.5970     7.1910     6.6290    10.8020    22.2120   -36.1420     2.0820 
   90.2500    90.0900    -1.7440    -2.3450    49.6140     7.1920     6.5080    10.7500    22.2590   -35.4910     2.1120 
   90.3750    90.2130    -1.7540    -2.3590    47.8840     7.1660     6.3770    10.7050    22.2800   -34.5830     2.1190 
   90.5000    90.3370    -1.7640    -2.3740    46.6720     7.1800     6.2610    10.7060    22.3320   -33.4710     2.1180 
   90.6250    90.4610    -1.7750    -2.3890    49.1970     7.4190     6.2970    10.8060    22.3350   -32.0900     2.1400 
   90.7500    90.5840    -1.7850    -2.4040    52.8900     7.9900     6.6100    11.0510    22.2650   -30.5020     2.2000 
   90.8750    90.7080    -1.7950    -2.4190    53.9380     8.8950     7.2600    11.4550    22.1440   -28.7440     2.2940 
   91.0000    90.8320    -1.8050    -2.4340    53.0790     9.9690     8.1870    12.1700    22.1030   -26.8560     2.4010 
   91.1250    90.9550    -1.8160    -2.4490    57.0130    10.7360     9.0760    14.1570    22.1310   -24.9210     2.4830 
   91.2500    91.0790    -1.8260    -2.4640    65.8590    10.7360     9.4550    16.5500    22.2010   -23.0930     2.5100 
   91.3750    91.2030    -1.8360    -2.4790    74.4180     9.8700     9.0880    14.4770    22.3020   -21.4490     2.4740 
   91.5000    91.3260    -1.8460    -2.4940    78.6650     8.5430     8.1800     8.9440    22.3630   -20.0390     2.3960 
   91.6250    91.4500    -1.8560    -2.5090    78.2350     7.4120     7.2260     7.2470    22.3760   -18.9890     2.3240 
   91.7500    91.5740    -1.8670    -2.5240    74.7310     6.7590     6.5600     7.1620    22.3910   -18.2540     2.2970 
   91.8750    91.6970    -1.8770    -2.5390    70.0370     6.5550     6.2380     7.4150    22.3600   -17.8620     2.3220 
   92.0000    91.8210    -1.8870    -2.5540    67.4440     6.6380     6.1910     7.6400    22.3540   -17.8120     2.3690 
   92.1250    91.9450    -1.8970    -2.5690    67.6890     6.7950     6.2690     7.6180    22.3700   -18.0880     2.3820 
   92.2500    92.0680    -1.9080    -2.5840    67.4620     6.8820     6.3190     7.3310    22.4230   -18.5510     2.3410 
   92.3750    92.1920    -1.9180    -2.5990    67.4250     6.9310     6.3300     6.8550    22.4030   -19.1690     2.2560 
   92.5000    92.3160    -1.9280    -2.6130    67.5360     7.0680     6.3810     6.7810    22.2780   -19.9430     2.1580 
   92.6250    92.4390    -1.9380    -2.6280    64.3470     7.5310     6.6470     7.3590    22.1080   -20.8450     2.0980 
   92.7500    92.5630    -1.9490    -2.6430    58.2520     8.4590     7.2670     8.4540    22.0070   -21.7920     2.1120 
   92.8750    92.6870    -1.9590    -2.6580    53.7190     9.9210     8.3530     9.9620    21.8020   -22.7400     2.2050 
   93.0000    92.8110    -1.9690    -2.6730    53.3480    11.8290     9.9140    12.0370    21.7040   -23.6850     2.3410 
   93.1250    92.9340    -1.9790    -2.6880    56.0740    13.7680    11.7170    15.4580    21.7300   -24.6480     2.4500 
   93.2500    93.0580    -1.9890    -2.7030    57.6520    14.9780    13.0720    20.5630    21.7030   -25.6020     2.4870 
   93.3750    93.1820    -2.0000    -2.7180    56.1320    14.8800    13.3460    23.4260    21.6820   -26.4640     2.4450 
   93.5000    93.3050    -2.0100    -2.7330    52.6260    13.5160    12.4280    19.4640    21.6770   -27.2010     2.3500 
   93.6250    93.4290    -2.0200    -2.7480    50.9890    11.6230    10.8660    14.3040    21.6810   -27.7870     2.2470 
   93.7500    93.5530    -2.0300    -2.7630    52.8500    10.0690     9.4310    12.4910    21.6760   -28.2210     2.1830 
   93.8750    93.6760    -2.0410    -2.7780    55.2510     9.1000     8.3800    12.0760    21.6760   -28.4850     2.1750 
   94.0000    93.8000    -2.0510    -2.7930    54.9730     8.6870     7.7540    11.6580    21.6750   -28.6240     2.2030 
   94.1250    93.9240    -2.0610    -2.8080    51.4650     8.7270     7.5290    10.7960    21.6750   -28.6350     2.2210 
