~V
VERS. 2.00: Ver 2.00
~W
STRT.M 11.0000:
STOP.M 273.0000:
STEP.M 0.1250:
NULL. -999.2500:
UWI. FD11023:
~C
DEPT.M :
TVD. :
DX. :
DY. :
GR.API :
RML.OHMM :
RI. :
RXO.OHMM :
CALI.CM :
DEN.GM/CC :
SP.MV :
~A
# ...
  184.2500   182.4950   -16.6340     5.4370    55.6360   105.8930   108.9880    13.6830    22.8810     2.1710   -31.9860 
  184.3750   182.6140   -16.6700     5.4490    54.9440   106.2990   108.0870    13.6050    22.8810     2.1740   -31.8670 
  184.5000   182.7330   -16.7060     5.4620    54.3380   104.6190   104.8290    13.4840    22.8810     2.1740   -31.8680 
  184.6250   182.8520   -16.7410     5.4750    56.1490   100.2110    98.9170    13.2380    22.8810     2.1710   -31.9630 
  184.7500   182.9710   -16.7770     5.4880    57.8320    94.2730    91.9140    12.8310    22.8810     2.1660   -32.0520 
  184.8750   183.0910   -16.8120     5.5000    57.1490    88.2130    85.4080    12.3180    22.8790     2.1580   -32.0810 
  185.0000   183.2100   -16.8480     5.5130    56.0030    83.4770    80.7830    11.8190    22.8800     2.1450   -32.0270 
  185.1250   183.3290   -16.8840     5.5260    57.2770    81.3030    78.9900    11.5530    22.8810     2.1340   -31.9110 
  185.2500   183.4480   -16.9190     5.5380    59.0490    81.0190    78.9470    11.5810    22.8810     2.1320   -31.8010 
  185.3750   183.5670   -16.9550     5.5510    57.3830    81.5060    79.3340    11.7030    22.8810     2.1420   -31.7500 
  185.5000   183.6860   -16.9900     5.5640    51.7670    81.4060    78.7640    11.6420    22.8810     2.1600   -31.7890 
  185.6250   183.8050   -17.0260     5.5770    47.8950    79.4080    76.0760    11.2570    22.8810     2.1740   -31.9080 
  185.7500   183.9250   -17.0610     5.5890    48.1220    75.9150    72.0140    10.8150    22.8810     2.1780   -32.0400 
  185.8750   184.0440   -17.0970     5.6020    51.9360    72.1690    68.0360    10.5260    22.8810     2.1710   -32.1160 
  186.0000   184.1630   -17.1330     5.6150    56.2800    69.9390    65.9260    10.3840    22.8810     2.1550   -32.0750 
  186.1250   184.2820   -17.1680     5.6280    56.8140    71.6160    67.8210    10.3870    22.8810     2.1350   -31.9490 
  186.2500   184.4010   -17.2040     5.6400    55.3240    77.6150    73.7310    10.4740    22.8810     2.1210   -31.8670 
  186.3750   184.5200   -17.2390     5.6530    53.1580    87.5340    82.9440    10.6760    22.8810     2.1170   -31.8910 
  186.5000   184.6400   -17.2750     5.6660    51.7350    99.3690    93.3270    11.0860    22.8810     2.1260   -31.9910 
  186.6250   184.7590   -17.3110     5.6790    51.1290   108.5960   100.5260    11.6350    22.8810     2.1460   -32.0770 
  186.7500   184.8780   -17.3460     5.6910    51.5350   111.0760   101.1010    12.0860    22.8810     2.1680   -32.0790 
  186.8750   184.9970   -17.3820     5.7040    53.2180   104.8100    93.7000    12.2590    22.8810     2.1920   -31.9650 
  187.0000   185.1160   -17.4170     5.7170    54.6230    91.4630    80.5530    12.0690    22.8810     2.2150   -31.7850 
  187.1250   185.2350   -17.4530     5.7300    56.3880    76.5140    67.3490    11.5790    22.8810     2.2260   -31.6880 
  187.2500   185.3540   -17.4880     5.7420    58.1060    65.5440    58.6410    11.1350    22.8810     2.2220   -31.7450 
  187.3750   185.4740   -17.5240     5.7550    59.1420    60.6060    55.7980    10.9950    22.8810     2.2070   -31.9110 
  187.5000   185.5930   -17.5600     5.7680    60.0500    61.9840    58.8330    11.1920    22.8810     2.1920   -32.0640 
  187.6250   185.7120   -17.5950     5.7810    60.4150    70.1390    68.1510    11.6340    22.8810     2.1790   -32.0790 
  187.7500   185.8310   -17.6310     5.7930    59.1400    83.0770    82.0070    12.0670    22.8810     2.1680   -31.9680 
  187.8750   185.9500   -17.6660     5.8060    56.3600    99.2610    98.8890    12.4320    22.8810     2.1590   -31.7820 
  188.0000   186.0690   -17.7020     5.8190    53.7450   116.3130   116.5350    12.6570    22.8810     2.1530   -31.5900 
  188.1250   186.1880   -17.7380     5.8320    52.3720   130.5380   131.6120    12.6650    22.8810     2.1500   -31.4570 
  188.2500   186.3080   -17.7730     5.8440    52.3810   140.4740   141.5870    12.6060    22.8810     2.1500   -31.4050 
  188.3750   186.4270   -17.8090     5.8570    54.4220   145.2660   146.3170    12.6470    22.8810     2.1520   -31.4230 
  188.5000   186.5460   -17.8440     5.8700    56.9060   145.8890   146.5970    12.9030    22.8810     2.1550   -31.4680 
  188.6250   186.6650   -17.8800     5.8820    57.6790   143.7680   143.6250    13.4060    22.8810     2.1560   -31.4900 
  188.7500   186.7840   -17.9150     5.8950    57.4280   140.8430   139.4630    14.0370    22.8810     2.1570   -31.4350 
  188.8750   186.9030   -17.9510     5.9080    57.6970   138.0950   135.2440    14.6120    22.8810     2.1570   -31.3050 
  189.0000   187.0220   -17.9870     5.9210    58.6860   136.4050   131.9990    14.8640    22.8810     2.1550   -31.1910 
  189.1250   187.1420   -18.0220     5.9330    58.3110   136.8930   131.0380    14.8050    22.8810     2.1530   -31.1930 
  189.2500   187.2610   -18.0580     5.9460    56.3740   139.4810   132.4570    14.6950    22.8810     2.1510   -31.2480 
  189.3750   187.3800   -18.0930     5.9590    53.9250   143.7450   135.9880    14.5990    22.8810     2.1490   -31.2640 
  189.5000   187.4990   -18.1290     5.9720    51.7200   148.8520   140.9190    14.4240    22.8810     2.1470   -31.2150 
  189.6250   187.6180   -18.1650     5.9840    50.7190   153.6570   146.2570    14.1520    22.8810     2.1490   -31.1080 
  189.7500   187.7370   -18.2000     5.9970    50.5390   157.3310   151.0020    13.9440    22.8810     2.1560   -30.9920 
  189.8750   187.8570   -18.2360     6.0100    51.9620   159.4000   154.5520    13.9060    22.8810     2.1640   -30.9370 
  190.0000   187.9760   -18.2710     6.0230    53.8860   159.5100   155.9860    14.0000    22.8810     2.1710   -30.9680 
  190.1250   188.0950   -18.3070     6.0350    53.8290   155.8810   153.1450    14.0900    22.8810     2.1750   -31.0070 
  190.2500   188.2140   -18.3420     6.0480    51.8880   147.5960   144.7450    14.0520    22.8810     2.1800   -30.9740 
  190.3750   188.3330   -18.3780     6.0610    50.1360   134.3730   129.9420    13.8230    22.8810     2.1870   -30.8790 
  190.5000   188.4520   -18.4140     6.0740    49.7690   116.7850   110.7360    13.4080    22.8810     2.1940   -30.7620 
  190.6250   188.5710   -18.4490     6.0860    52.0930    97.6000    91.3820    12.8610    22.8810     2.1980   -30.6700 
  190.7500   188.6910   -18.4850     6.0990    55.4990    80.9580    75.5650    12.3760    22.8810     2.1940   -30.6570 
  190.8750   188.8100   -18.5200     6.1120    58.2210    68.9110    64.7310    12.1830    22.8810     2.1840   -30.7280 
  191.0000   188.9290   -18.5560     6.1250    58.9260    61.8440    58.8100    12.3810    22.8810     2.1730   -30.8220 
  191.1250   189.0480   -18.5920     6.1370    58.9410    59.6530    57.4410    12.8040    22.8810     2.1650   -30.8420 
  191.2500   189.1670   -18.6270     6.1500    59.5650    60.4720    58.7180    13.2150    22.8810     2.1630   -30.7680 
  191.3750   189.2860   -18.6630     6.1630    61.0480    63.2780    61.5830    13.5810    22.8810     2.1620   -30.6390 
  191.5000   189.4050   -18.6980     6.1760    62.3870    67.1650    65.1420    13.9040    22.8810     2.1630   -30.4980 
  191.6250   189.5250   -18.7340     6.1880    60.4420    71.4250    68.7370    14.2240    22.8810     2.1630   -30.3970 
  191.7500   189.6440   -18.7690     6.2010    56.3500    75.6450    72.1510    14.5950    22.8810     2.1630   -30.3630 
  191.8750   189.7630   -18.8050     6.2140    53.9120    79.8590    75.5200    14.9170    22.8810     2.1620   -30.3780 
  192.0000   189.8820   -18.8410     6.2260    55.2660    84.2100    79.0300    15.0280    22.8810     2.1610   -30.3870 
  192.1250   190.0010   -18.8760     6.2390    56.1350    88.5940    82.5450    15.0270    22.8810     2.1620   -30.3400 
  192.2500   190.1200   -18.9120     6.2520    55.0650    92.2950    85.3290    14.9810    22.8810     2.1620   -30.2570 
  192.3750   190.2400   -18.9470     6.2650    53.8490    94.1770    86.2950    14.8960    22.8810     2.1630   -30.1500 
