~V
VERS. 2.00: Ver 2.00
~W
STRT.M 50.0000:
STOP.M 286.0000:
STEP.M 0.1250:
NULL. -999.2500:
UWI. FD11181:
~C
DEPT.M :
TVD. :
DX. :
DY. :
SP.MV :
GR.API :
RI. :
RML.OHMM :
RXO.OHMM :
DEN.GM/CC :
~A
# ...
   95.6250    95.5760    -1.7050     0.5950   -18.9770    48.9630     6.2100     6.8150     6.8530     2.1080 
   95.7500    95.7000    -1.7160     0.5990   -18.8640    49.8980     6.0760     6.7170     7.0470     2.1080 
   95.8750    95.8250    -1.7280     0.6040   -18.6130    51.6470     5.9170     6.6240     7.2740     2.1010 
   96.0000    95.9490    -1.7400     0.6080   -18.1780    53.4090     5.7550     6.4970     7.2480     2.0940 
   96.1250    96.0730    -1.7520     0.6120   -17.5620    56.2010     5.5290     6.2600     6.8700     2.1100 
   96.2500    96.1980    -1.7640     0.6160   -16.7800    61.4220     5.2390     5.8850     6.8680     2.1650 
   96.3750    96.3220    -1.7760     0.6200   -15.8510    68.9520     4.8450     5.3800     7.3730     2.2400 
   96.5000    96.4470    -1.7880     0.6240   -14.7080    76.2890     4.4310     4.8520     6.7450     2.2900 
   96.6250    96.5710    -1.8000     0.6280   -13.3290    80.8060     4.1020     4.4590     5.1360     2.2850 
   96.7500    96.6950    -1.8130     0.6320   -11.9940    84.3810     3.9410     4.3200     4.4590     2.2530 
   96.8750    96.8200    -1.8250     0.6370   -11.0900    87.0550     4.0390     4.4840     4.6420     2.2320 
   97.0000    96.9440    -1.8370     0.6410   -10.7860    87.6980     4.3440     4.8690     5.0980     2.2320 
   97.1250    97.0680    -1.8500     0.6450   -10.9990    84.8050     4.7620     5.3120     5.7570     2.2320 
   97.2500    97.1920    -1.8620     0.6490   -11.3780    80.5930     5.0340     5.5690     5.9440     2.2180 
   97.3750    97.3170    -1.8750     0.6530   -11.6710    76.8930     5.0120     5.4720     5.8780     2.2000 
   97.5000    97.4410    -1.8870     0.6570   -11.8350    76.7960     4.6880     5.0760     5.6870     2.2050 
   97.6250    97.5650    -1.9000     0.6620   -11.6630    80.6420     4.2330     4.5340     4.7880     2.2360 
   97.7500    97.6900    -1.9130     0.6660   -10.9150    85.6250     3.7960     4.0420     4.0130     2.2710 
   97.8750    97.8140    -1.9260     0.6700    -9.5430    86.8140     3.5140     3.7310     3.8370     2.2910 
   98.0000    97.9380    -1.9380     0.6740    -7.9840    84.6490     3.3680     3.5780     3.8040     2.2980 
   98.1250    98.0620    -1.9510     0.6790    -6.9170    85.9780     3.3250     3.5270     3.8200     2.3020 
   98.2500    98.1870    -1.9640     0.6830    -6.5860    90.4140     3.3390     3.5340     3.8070     2.3050 
   98.3750    98.3110    -1.9770     0.6870    -6.7100    90.7680     3.4090     3.6130     3.7650     2.2970 
   98.5000    98.4350    -1.9910     0.6910    -7.0020    86.8250     3.5960     3.8450     3.7980     2.2770 
   98.6250    98.5590    -2.0040     0.6960    -7.4950    85.2510     3.9940     4.2910     4.1500     2.2460 
   98.7500    98.6840    -2.0170     0.7000    -8.2260    84.7240     4.4690     4.8160     5.0120     2.2090 
   98.8750    98.8080    -2.0300     0.7040    -9.2800    78.1910     4.7920     5.1840     6.0890     2.1690 
   99.0000    98.9320    -2.0440     0.7090   -10.5410    69.8540     4.8310     5.2250     6.5960     2.1440 
   99.1250    99.0560    -2.0570     0.7130   -11.7350    68.9410     4.5330     4.8870     5.8900     2.1590 
   99.2500    99.1800    -2.0710     0.7170   -12.5770    74.9110     4.0430     4.3740     4.6840     2.2040 
   99.3750    99.3050    -2.0850     0.7210   -12.6990    81.1830     3.6630     3.9670     4.2550     2.2470 
   99.5000    99.4290    -2.0980     0.7260   -12.3320    84.9260     3.5640     3.9170     4.3710     2.2720 
   99.6250    99.5530    -2.1120     0.7300   -11.8050    87.5410     3.9590     4.4160     4.6490     2.2980 
   99.7500    99.6770    -2.1260     0.7350   -11.5990    88.6500     4.8130     5.4570     7.2020     2.3550 
   99.8750    99.8010    -2.1400     0.7390   -12.0650    84.9020     6.2940     7.1890    11.7830     2.4460 
  100.0000    99.9250    -2.1530     0.7430   -13.0460    74.6730     8.5990     9.8120    13.4760     2.5370 
  100.1250   100.0490    -2.1670     0.7480   -14.3410    61.6470    12.0380    13.5550    12.0630     2.5980 
  100.2500   100.1740    -2.1810     0.7520   -15.6350    51.6740    16.2480    17.9920    22.4430     2.6340 
  100.3750   100.2980    -2.1960     0.7570   -16.6120    46.8000    19.7730    21.4060    55.8960     2.6660 
  100.5000   100.4220    -2.2100     0.7610   -17.2280    44.3840    20.5650    22.1590    91.6090     2.6900 
  100.6250   100.5460    -2.2240     0.7660   -17.6840    44.2650    18.5940    19.7530   103.4400     2.6610 
  100.7500   100.6700    -2.2380     0.7700   -18.1390    46.2870    14.4690    15.3700    78.7240     2.5450 
  100.8750   100.7940    -2.2520     0.7750   -18.6410    48.8630    10.4390    10.9700    34.2130     2.3670 
  101.0000   100.9180    -2.2670     0.7790   -19.2300    51.3230     7.4660     7.9040    10.3140     2.2060 
  101.1250   101.0420    -2.2810     0.7840   -19.8810    53.9710     5.9200     6.3830     7.7920     2.1200 
  101.2500   101.1660    -2.2960     0.7880   -20.5140    54.8020     5.3960     5.9960     7.5060     2.0970 
  101.3750   101.2900    -2.3100     0.7930   -21.0580    53.3000     5.5670     6.2920     7.2030     2.1010 
  101.5000   101.4150    -2.3250     0.7970   -21.4560    52.3270     5.9480     6.7490     7.0060     2.1090 
  101.6250   101.5390    -2.3390     0.8020   -21.6690    52.4630     6.2580     7.0710     6.7180     2.1170 
  101.7500   101.6630    -2.3540     0.8060   -21.7430    52.2590     6.4220     7.1880     6.4880     2.1280 
  101.8750   101.7870    -2.3690     0.8110   -21.7870    52.9000     6.4550     7.1390     6.6260     2.1350 
  102.0000   101.9110    -2.3830     0.8150   -21.8340    55.7130     6.4130     7.0000     7.1790     2.1300 
  102.1250   102.0350    -2.3980     0.8200   -21.9040    57.0870     6.3140     6.8290     7.9630     2.1170 
  102.2500   102.1590    -2.4130     0.8250   -22.0630    55.5770     6.2110     6.6820     8.4720     2.1080 
  102.3750   102.2830    -2.4280     0.8290   -22.2560    55.1860     6.1310     6.5850     8.3110     2.1070 
  102.5000   102.4070    -2.4430     0.8340   -22.4900    57.1480     6.0690     6.5350     7.8860     2.1060 
  102.6250   102.5310    -2.4580     0.8390   -22.7960    57.6060     6.0460     6.5540     7.4900     2.0970 
  102.7500   102.6550    -2.4730     0.8430   -23.0920    55.6740     6.0770     6.6540     6.9480     2.0850 
  102.8750   102.7790    -2.4880     0.8480   -23.2530    53.8860     6.1740     6.8240     6.3560     2.0840 
  103.0000   102.9030    -2.5030     0.8520   -23.3120    53.7550     6.2980     7.0120     6.3700     2.1010 
  103.1250   103.0270    -2.5180     0.8570   -23.3250    52.3660     6.4170     7.1640     7.1720     2.1220 
  103.2500   103.1510    -2.5330     0.8620   -23.4400    49.6860     6.4830     7.2410     7.7280     2.1310 
  103.3750   103.2750    -2.5480     0.8660   -23.6310    47.7490     6.4620     7.2180     7.5960     2.1260 
  103.5000   103.3990    -2.5640     0.8710   -23.7200    47.3700     6.3890     7.1280     7.4250     2.1200 
  103.6250   103.5230    -2.5790     0.8750   -23.8140    49.2190     6.2800     7.0070     7.3000     2.1170 
  103.7500   103.6470    -2.5940     0.8800   -23.9700    51.6730     6.1870     6.9020     6.8520     2.1160 
  103.8750   103.7710    -2.6100     0.8850   -24.2660    55.2610     6.1390     6.8420     6.3890     2.1180 
  104.0000   103.8950    -2.6250     0.8890   -24.6200    59.5290     6.1130     6.7990     6.4440     2.1240 
  104.1250   104.0190    -2.6410     0.8940   -24.8820    61.0850     6.0880     6.7560     6.8860     2.1290 
  104.2500   104.1430    -2.6560     0.8980   -25.0190    58.1750     6.0620     6.7200     7.3010     2.1320 
  104.3750   104.2670    -2.6720     0.9030   -24.9880    55.2990     6.0400     6.7010     7.3220     2.1290 
  104.5000   104.3900    -2.6870     0.9080   -24.9640    56.5490     6.0230     6.6940     6.9240     2.1210 
  104.6250   104.5140    -2.7030     0.9120   -25.0070    59.7330     6.0170     6.6960     6.7060     2.1120 
