~V
VERS. 2.00: Ver 2.00
~W
STRT.M 30.0000:
STOP.M 284.0000:
STEP.M 0.1250:
NULL. -999.2500:
UWI. FD11172:
~C
DEPT.M :
TVD. :
DX. :
DY. :
SP.MV :
GR.API :
RI. :
RML.OHMM :
RXO.OHMM :
DEN.GM/CC :
~A
# ...
  112.1250   110.5460    13.6110     3.7320   -13.6640    64.0810     4.8790     5.5670     7.1850     2.1760 
  112.2500   110.6650    13.6490     3.7410   -13.9630    62.7610     4.7790     5.4440     7.3280     2.1690 
  112.3750   110.7840    13.6860     3.7510   -14.1610    62.4150     4.6850     5.3460     7.3210     2.1510 
  112.5000   110.9030    13.7240     3.7610   -14.2980    63.4140     4.5960     5.2560     7.2290     2.1330 
  112.6250   111.0210    13.7620     3.7710   -14.4100    62.8820     4.5080     5.1650     7.1090     2.1250 
  112.7500   111.1400    13.8000     3.7810   -14.4720    60.2460     4.4150     5.0690     6.7990     2.1220 
  112.8750   111.2590    13.8370     3.7910   -14.3920    58.4970     4.3180     4.9610     6.4660     2.1180 
  113.0000   111.3780    13.8750     3.8010   -14.1460    60.6930     4.2110     4.8510     6.3830     2.1170 
  113.1250   111.4960    13.9130     3.8110   -13.7520    64.5600     4.0830     4.7130     6.4470     2.1230 
  113.2500   111.6150    13.9510     3.8210   -13.2600    66.4030     3.9400     4.5380     6.3450     2.1340 
  113.3750   111.7340    13.9900     3.8310   -12.6850    67.4760     3.7420     4.2690     5.9770     2.1420 
  113.5000   111.8520    14.0280     3.8410   -12.0190    70.7540     3.5390     3.9900     5.5660     2.1480 
  113.6250   111.9710    14.0660     3.8510   -11.2770    75.2160     3.4070     3.8100     5.2410     2.1590 
  113.7500   112.0890    14.1040     3.8610   -10.5710    77.8580     3.3850     3.7830     4.8870     2.1780 
  113.8750   112.2080    14.1430     3.8710   -10.0700    78.4580     3.5130     3.9540     4.7760     2.1880 
  114.0000   112.3260    14.1810     3.8810    -9.8430    77.2980     3.6980     4.1740     5.3360     2.1770 
  114.1250   112.4450    14.2190     3.8910    -9.8020    74.8330     3.7900     4.2410     6.0730     2.1590 
  114.2500   112.5630    14.2580     3.9010    -9.6520    72.4670     3.7600     4.1570     6.2190     2.1600 
  114.3750   112.6820    14.2970     3.9110    -9.1690    72.5470     3.6310     3.9690     5.8580     2.1870 
  114.5000   112.8000    14.3350     3.9200    -8.4590    75.6610     3.4750     3.8010     5.2750     2.2150 
  114.6250   112.9190    14.3740     3.9300    -7.7590    80.0660     3.3410     3.6940     4.6620     2.2200 
  114.7500   113.0370    14.4130     3.9400    -7.2420    81.9380     3.2060     3.5870     4.6350     2.2060 
  114.8750   113.1560    14.4520     3.9500    -6.9240    81.7340     3.0040     3.3690     5.1400     2.1950 
  115.0000   113.2740    14.4910     3.9600    -6.6530    83.6270     2.7490     3.0620     5.1090     2.2060 
  115.1250   113.3920    14.5300     3.9700    -6.3520    87.9460     2.5100     2.7640     4.2500     2.2370 
  115.2500   113.5100    14.5690     3.9800    -6.2160    92.7260     2.3710     2.5920     3.4230     2.2690 
  115.3750   113.6290    14.6080     3.9900    -6.5930    95.8570     2.4150     2.6640     3.2190     2.2740 
  115.5000   113.7470    14.6480     4.0000    -7.5450    95.2900     2.7100     3.0520     3.6680     2.2450 
  115.6250   113.8650    14.6870     4.0100    -8.9140    89.0240     3.2340     3.7040     4.5340     2.2020 
  115.7500   113.9830    14.7270     4.0210   -10.3510    80.3950     3.9110     4.4940     5.2590     2.1760 
  115.8750   114.1010    14.7660     4.0310   -11.5580    74.8700     4.5860     5.2480     5.6800     2.1740 
  116.0000   114.2190    14.8060     4.0410   -12.4410    73.7040     5.1330     5.8190     6.0040     2.1760 
  116.1250   114.3380    14.8460     4.0510   -13.0350    73.8670     5.4720     6.1560     6.3320     2.1800 
  116.2500   114.4560    14.8860     4.0610   -13.4770    73.4850     5.5990     6.2840     6.6250     2.1900 
  116.3750   114.5740    14.9260     4.0710   -13.8710    73.8060     5.5440     6.2230     6.7950     2.1950 
  116.5000   114.6920    14.9660     4.0820   -14.2660    76.3290     5.3430     6.0080     6.8260     2.1840 
  116.6250   114.8100    15.0060     4.0920   -14.5920    77.0950     5.0590     5.6690     6.7320     2.1600 
  116.7500   114.9270    15.0460     4.1020   -14.7880    72.7270     4.7790     5.3110     6.6590     2.1420 
  116.8750   115.0450    15.0860     4.1130   -14.8990    66.0960     4.6470     5.1220     6.7020     2.1360 
  117.0000   115.1630    15.1260     4.1230   -15.0220    63.4860     4.8270     5.3160     6.7570     2.1390 
  117.1250   115.2810    15.1670     4.1340   -15.1730    65.0980     5.5970     6.2690     6.8780     2.1730 
  117.2500   115.3990    15.2070     4.1440   -15.3060    64.1660     7.0560     8.0850     8.4380     2.2640 
  117.3750   115.5170    15.2480     4.1550   -15.4150    59.9030     9.0730    10.5340    15.3770     2.4140 
  117.5000   115.6340    15.2880     4.1650   -15.5550    57.0430    10.7450    12.4310    27.6290     2.5540 
  117.6250   115.7520    15.3290     4.1760   -15.8100    56.3290    10.9480    12.4280    36.8510     2.5800 
  117.7500   115.8700    15.3700     4.1860   -16.2210    55.0620     9.7600    10.7700    34.0140     2.4680 
  117.8750   115.9870    15.4110     4.1970   -16.7520    55.1290     7.5740     8.1330    21.0660     2.2920 
  118.0000   116.1050    15.4520     4.2080   -17.2810    57.6820     5.6890     6.0380    10.5290     2.1640 
  118.1250   116.2230    15.4930     4.2180   -17.7140    62.4640     4.7000     5.1150     7.1820     2.1230 
  118.2500   116.3400    15.5340     4.2290   -18.0540    65.5940     4.3960     4.9660     6.5880     2.1170 
  118.3750   116.4580    15.5750     4.2400   -18.2960    66.8180     4.4720     5.1660     6.3640     2.1130 
  118.5000   116.5750    15.6170     4.2500   -18.4020    66.2060     4.6170     5.3900     6.2800     2.1100 
  118.6250   116.6930    15.6580     4.2610   -18.3410    65.1600     4.7440     5.5380     6.3840     2.1120 
  118.7500   116.8100    15.6990     4.2720   -18.1600    64.2800     4.8440     5.6230     6.6700     2.1160 
  118.8750   116.9270    15.7410     4.2830   -17.9080    63.3090     4.9490     5.7180     7.0330     2.1230 
  119.0000   117.0450    15.7830     4.2940   -17.6340    62.7230     5.0880     5.8670     7.1890     2.1390 
  119.1250   117.1620    15.8240     4.3050   -17.3520    64.7440     5.2630     6.0610     7.0790     2.1640 
  119.2500   117.2790    15.8660     4.3160   -17.1030    68.3430     5.4260     6.2410     6.9560     2.1880 
  119.3750   117.3970    15.9080     4.3270   -17.0100    71.4320     5.5120     6.3210     6.8980     2.1920 
  119.5000   117.5140    15.9500     4.3380   -17.1370    72.3950     5.5100     6.2920     6.8090     2.1720 
  119.6250   117.6310    15.9920     4.3490   -17.4300    70.7730     5.3780     6.1160     6.6600     2.1430 
  119.7500   117.7480    16.0340     4.3610   -17.7320    67.1390     5.2010     5.9030     6.5480     2.1210 
  119.8750   117.8650    16.0760     4.3720   -17.9510    63.2520     5.0480     5.7430     6.4440     2.1090 
  120.0000   117.9820    16.1180     4.3830   -18.0690    61.8900     4.9470     5.6570     6.1910     2.1050 
  120.1250   118.1000    16.1610     4.3940   -18.0490    62.7210     4.9320     5.6780     5.9680     2.1060 
  120.2500   118.2170    16.2030     4.4060   -17.9050    63.4760     4.9460     5.7270     6.1230     2.1090 
  120.3750   118.3340    16.2450     4.4170   -17.6670    62.8860     4.9240     5.7140     6.5210     2.1110 
  120.5000   118.4510    16.2880     4.4280   -17.3900    61.2380     4.8070     5.5750     6.6940     2.1090 
  120.6250   118.5680    16.3300     4.4400   -17.1180    60.0710     4.6210     5.3510     6.5490     2.1050 
  120.7500   118.6850    16.3730     4.4510   -16.8780    63.4340     4.4110     5.0980     6.2810     2.1080 
  120.8750   118.8020    16.4160     4.4620   -16.6850    70.4370     4.2630     4.9390     5.9060     2.1220 
  121.0000   118.9180    16.4590     4.4740   -16.5770    75.3830     4.2650     4.9660     5.6810     2.1340 
  121.1250   119.0350    16.5010     4.4850   -16.6440    75.0310     4.3940     5.1440     5.9150     2.1310 
