~V
VERS. 2.00: Ver 2.00
~W
STRT.M 10.0000:
STOP.M 230.0000:
STEP.M 0.1250:
NULL. -999.2500:
UWI. FD11119:
~C
DEPT.M :
TVD. :
DX. :
DY. :
SP.MV :
DEN.GM/CC :
GR.API :
RML.OHMM :
RI. :
RXO.OHMM :
CALI.CM :
~A
# ...
   18.2500    18.2500     0.0000     0.0000  -999.2500  -999.2500  -999.2500  -999.2500  -999.2500  -999.2500  -999.2500 
   18.3750    18.3750     0.0000     0.0000  -999.2500  -999.2500  -999.2500  -999.2500  -999.2500  -999.2500  -999.2500 
   18.5000    18.5000     0.0000     0.0000  -999.2500  -999.2500  -999.2500  -999.2500  -999.2500  -999.2500  -999.2500 
   18.6250    18.6250     0.0000     0.0000  -999.2500  -999.2500  -999.2500  -999.2500  -999.2500  -999.2500  -999.2500 
   18.7500    18.7500     0.0000     0.0000  -999.2500  -999.2500  -999.2500  -999.2500  -999.2500  -999.2500  -999.2500 
   18.8750    18.8750     0.0000     0.0000  -999.2500  -999.2500  -999.2500  -999.2500  -999.2500  -999.2500  -999.2500 
   19.0000    19.0000     0.0000     0.0000  -999.2500  -999.2500  -999.2500  -999.2500  -999.2500  -999.2500  -999.2500 
   19.1250    19.1250     0.0000     0.0000  -999.2500  -999.2500  -999.2500  -999.2500  -999.2500  -999.2500  -999.2500 
   19.2500    19.2500     0.0000     0.0000  -999.2500     1.9710  -999.2500  -999.2500  -999.2500  -999.2500  -999.2500 
   19.3750    19.3750     0.0000     0.0000  -999.2500     1.9710  -999.2500  -999.2500  -999.2500  -999.2500  -999.2500 
   19.5000    19.5000     0.0000     0.0000  -999.2500     1.9510  -999.2500  -999.2500  -999.2500  -999.2500  -999.2500 
   19.6250    19.6250     0.0000     0.0000  -999.2500     1.9200  -999.2500  -999.2500  -999.2500  -999.2500  -999.2500 
   19.7500    19.7500     0.0000     0.0000  -999.2500     1.8900  -999.2500  -999.2500  -999.2500  -999.2500  -999.2500 
   19.8750    19.8750     0.0000     0.0000  -999.2500     1.8660    45.9480    64.7180     2.5410     1.3770    25.2110 
   20.0000    20.0000     0.0000     0.0000  -999.2500     1.8500    45.9480    64.7180     2.5410     1.3770    25.2110 
   20.1250    20.1250     0.0000     0.0000  -999.2500     1.8410    45.6190    64.7620     2.5320     1.4300    25.2100 
   20.2500    20.2500     0.0000     0.0000  -999.2500     1.8370    43.0910    65.1460     2.4980     1.7330    25.2090 
   20.3750    20.3750     0.0000     0.0000  -999.2500     1.8400    38.2900    65.1540     2.4680     2.0370    25.2140 
   20.5000    20.5000     0.0000     0.0000  -999.2500     1.8530    34.7030    63.2150     2.4210     2.0960    25.2160 
   20.6250    20.6250     0.0000     0.0000  -999.2500     1.8760    37.7780    59.7540     2.3720     1.8830    25.2240 
   20.7500    20.7500     0.0000     0.0000  -999.2500     1.9030    43.9470    58.3150     2.3750     1.8580    25.2310 
   20.8750    20.8750     0.0000     0.0000  -999.2500     1.9260    48.8340    61.8460     2.4720     2.0790    25.2410 
   21.0000    21.0000     0.0000     0.0000   125.7890     1.9400    50.6890    70.8130     2.6630     2.1830    25.2390 
   21.1250    21.1250     0.0000     0.0000   125.7890     1.9430    49.8220    82.1000     2.8960     2.1680    25.2480 
   21.2500    21.2500     0.0000     0.0000   125.3270     1.9420    48.8680    89.9150     3.0860     2.2270    25.2580 
   21.3750    21.3750     0.0000     0.0000   124.8650     1.9430    49.4920    91.5290     3.1740     2.3690    25.2690 
   21.5000    21.5000     0.0000     0.0000   124.4940     1.9480    51.5820    88.2490     3.1300     2.3660    25.2780 
   21.6250    21.6250     0.0000     0.0000   124.2580     1.9570    51.3260    83.6310     2.9580     2.4210    25.2800 
   21.7500    21.7500     0.0000     0.0000   124.1400     1.9680    47.3700    79.9130     2.7550     2.4240    25.2810 
   21.8750    21.8750     0.0000     0.0000   124.0270     1.9820    42.1210    76.5920     2.5950     2.4520    25.2870 
   22.0000    22.0000     0.0000     0.0000   123.8540     1.9990    37.9950    73.0140     2.5260     2.4930    25.2900 
   22.1250    22.1250     0.0000     0.0000   123.6110     2.0170    36.7660    70.3410     2.5670     2.4610    25.2920 
   22.2500    22.2500     0.0000     0.0000   123.3470     2.0340    37.1970    69.7620     2.6540     2.3590    25.2960 
   22.3750    22.3750     0.0000     0.0000   123.0420     2.0470    38.8820    71.4160     2.7370     2.2130    25.3010 
   22.5000    22.5000     0.0000     0.0000   122.6700     2.0550    40.5590    74.7930     2.8010     2.1190    25.3030 
   22.6250    22.6250     0.0000     0.0000   122.2550     2.0570    40.9500    79.1220     2.8740     2.1740    25.3090 
   22.7500    22.7500     0.0000     0.0000   121.8010     2.0570    41.4110    82.8150     2.9760     2.2820    25.3220 
   22.8750    22.8750     0.0000     0.0000   121.3920     2.0580    41.7690    84.2010     3.0820     2.2910    25.3240 
   23.0000    23.0000     0.0000     0.0000   121.0720     2.0610    42.2690    82.2060     3.1380     2.2290    25.3240 
   23.1250    23.1250     0.0000     0.0000   120.8320     2.0650    44.5460    77.0390     3.0860     2.1710    25.3240 
   23.2500    23.2500     0.0000     0.0000   120.6750     2.0670    46.8350    71.2410     2.9520     2.1900    25.3240 
   23.3750    23.3750     0.0000     0.0000   120.6330     2.0650    46.3370    66.4440     2.7790     2.2080    25.3240 
   23.5000    23.5000     0.0000     0.0000   120.7310     2.0580    43.0620    62.9310     2.6020     2.1300    25.3240 
   23.6250    23.6250     0.0000     0.0000   120.9960     2.0460    40.5330    59.4750     2.4290     2.0600    25.3250 
   23.7500    23.7500     0.0000     0.0000   121.4390     2.0330    39.2200    55.1700     2.2570     2.2380    25.3320 
   23.8750    23.8750     0.0000     0.0000   122.0100     2.0200    39.2470    50.9980     2.1110     2.5740    25.3490 
   24.0000    24.0000     0.0000     0.0000   122.6050     2.0090    41.3360    48.9480     2.0450     2.7760    25.3560 
   24.1250    24.1250     0.0000     0.0000   123.1000     2.0040    44.0800    51.0320     2.1220     2.9280    25.3550 
   24.2500    24.2500     0.0000     0.0000   123.4570     2.0050    44.8340    55.5850     2.2890     2.9270    25.3410 
   24.3750    24.3750     0.0000     0.0000   123.6680     2.0180    43.8170    59.0270     2.4430     2.8260    25.3050 
   24.5000    24.5000     0.0000     0.0000   123.7110     2.0480    43.1530    56.8640     2.4590     2.6940    25.2760 
   24.6250    24.6250     0.0000     0.0000   123.5730     2.1000    42.9090    46.3650     2.2340     2.9560    25.2800 
   24.7500    24.7500     0.0000     0.0000   123.2620     2.1580    41.5360    32.7660     1.8570     3.2040    25.2840 
   24.8750    24.8750     0.0000     0.0000   122.7860     2.1970    39.5070    21.1730     1.4500     3.2640    25.2830 
   25.0000    25.0000     0.0000     0.0000   122.2100     2.1890    39.3590    14.6590     1.1470     3.1500    25.2800 
   25.1250    25.1250     0.0000     0.0000   121.6250     2.1120    40.4880    14.5990     1.0930     3.0580    25.2820 
   25.2500    25.2500     0.0000     0.0000   121.0170     2.0010    40.1110    18.0260     1.2290     3.2770    25.2910 
   25.3750    25.3750     0.0000     0.0000   120.3440     1.8910    39.3880    21.6820     1.4160     3.6500    25.3000 
   25.5000    25.5000     0.0000     0.0000   119.5860     1.8110    39.6330    22.5540     1.4830     4.1450    25.2990 
   25.6250    25.6250     0.0000     0.0000   118.6200     1.7770    38.3950    18.9320     1.2920     4.3330    25.2790 
   25.7500    25.7500     0.0000     0.0000   117.4190     1.7740    36.3860    13.0060     0.9320     4.5180    25.2330 
   25.8750    25.8750     0.0000     0.0000   115.9530     1.7860    36.7270     7.1980     0.5530     4.4040    25.2260 
   26.0000    26.0000     0.0000     0.0000   114.1180     1.8020    40.2330     3.3270     0.3030     4.0290    25.2420 
   26.1250    26.1250     0.0000     0.0000   111.7510     1.8150    44.4450     2.0850     0.2470     3.8930    25.2400 
   26.2500    26.2500     0.0000     0.0000   108.8050     1.8270    47.1300     2.0020     0.2700     4.6750    25.2430 
   26.3750    26.3750     0.0000     0.0000   105.1580     1.8430    47.9900     2.0390     0.2840     6.7630    25.2290 
