~V
VERS. 2.00: Ver 2.00
~W
STRT.M 15.0000:
STOP.M 224.0000:
STEP.M 0.1250:
NULL. -999.2500:
UWI. FD11007:
~C
DEPT.M :
TVD. :
DX. :
DY. :
DEN.GM/CC :
GR.API :
RML.OHMM :
RI. :
RXO.OHMM :
CALI.CM :
SP.MV :
~A
# ...
  130.5000   130.1160     3.4790    -3.9370     2.2890    82.2780    14.7680    12.5270    14.8090    25.0190   -27.5940 
  130.6250   130.2390     3.4970    -3.9530     2.3650    76.3870    14.6690    12.7510    13.9100    25.0160   -27.5470 
  130.7500   130.3620     3.5150    -3.9690     2.4440    74.1720    13.1610    11.7620    12.9970    25.0160   -27.4500 
  130.8750   130.4840     3.5320    -3.9850     2.4900    77.3850    11.1390    10.2140    12.2840    25.0190   -27.3180 
  131.0000   130.6070     3.5500    -4.0000     2.4930    82.0460     9.5590     8.8530     9.3720    25.0190   -27.1730 
  131.1250   130.7300     3.5680    -4.0160     2.4750    83.7270     9.1760     8.2630     6.6770    25.0160   -27.0380 
  131.2500   130.8530     3.5860    -4.0320     2.4670    82.6120     9.9260     8.4650     6.8870    25.0140   -26.9110 
  131.3750   130.9750     3.6030    -4.0480     2.4800    78.3370    11.6530     9.4180     9.6060    25.0140   -26.7840 
  131.5000   131.0980     3.6210    -4.0640     2.5090    73.0880    14.0070    10.9690    13.4460    25.0180   -26.6430 
  131.6250   131.2210     3.6390    -4.0790     2.5430    70.6120    16.2820    12.7370    14.9250    25.0260   -26.4650 
  131.7500   131.3440     3.6560    -4.0950     2.5710    69.7620    17.7080    14.0830    15.0640    25.0520   -26.2300 
  131.8750   131.4660     3.6740    -4.1110     2.5870    67.4160    18.0280    14.6700    14.4950    25.1410   -25.9730 
  132.0000   131.5890     3.6920    -4.1270     2.5910    62.6760    17.6490    14.6460    12.9810    25.3150   -25.7410 
  132.1250   131.7120     3.7090    -4.1430     2.5870    59.2500    17.3610    14.5040    11.9260    25.5040   -25.5610 
  132.2500   131.8340     3.7270    -4.1580     2.5840    58.9490    17.6030    14.6410    12.1530    25.6140   -25.4330 
  132.3750   131.9570     3.7450    -4.1740     2.5830    60.1640    18.3790    15.1330    13.2830    25.6380   -25.3300 
  132.5000   132.0800     3.7620    -4.1900     2.5800    60.0750    19.4740    15.8800    15.0190    25.6330   -25.2460 
  132.6250   132.2030     3.7800    -4.2060     2.5680    57.5270    20.5020    16.6460    16.5110    25.6330   -25.1760 
  132.7500   132.3250     3.7980    -4.2220     2.5500    57.4670    21.1350    17.1650    17.0490    25.6520   -25.1030 
  132.8750   132.4480     3.8150    -4.2380     2.5330    61.0300    21.2690    17.3300    16.5420    25.6970   -25.0120 
  133.0000   132.5710     3.8330    -4.2530     2.5220    64.4430    21.0080    17.1940    15.4690    25.7490   -24.9060 
  133.1250   132.6940     3.8510    -4.2690     2.5170    65.3020    20.5250    16.8790    14.5680    25.7810   -24.8160 
  133.2500   132.8160     3.8690    -4.2850     2.5140    64.7920    19.9820    16.5160    13.8730    25.7940   -24.7840 
  133.3750   132.9390     3.8860    -4.3010     2.5120    63.8300    19.4090    16.1310    13.9800    25.7630   -24.8020 
  133.5000   133.0620     3.9040    -4.3170     2.5100    61.9520    18.8170    15.7320    13.8400    25.6280   -24.8330 
  133.6250   133.1840     3.9220    -4.3320     2.5090    60.7500    18.2670    15.3590    12.5960    25.3840   -24.8780 
  133.7500   133.3070     3.9390    -4.3480     2.5120    61.9430    17.8850    15.0910    11.5320    25.1560   -24.9300 
  133.8750   133.4300     3.9570    -4.3640     2.5190    63.4650    17.8120    15.0310    11.0590    25.0390   -24.9680 
  134.0000   133.5530     3.9750    -4.3800     2.5180    62.3490    18.1200    15.2410    11.5920    25.1080   -25.0120 
  134.1250   133.6750     3.9920    -4.3960     2.4890    58.5230    18.7830    15.7340    12.9500    25.3930   -25.0590 
  134.2500   133.7980     4.0100    -4.4110     2.4360    55.4650    19.5010    16.3200    14.1110    25.7130   -25.0930 
  134.3750   133.9210     4.0280    -4.4270     2.3790    54.8250    19.9520    16.7670    14.8000    25.8470   -25.0990 
  134.5000   134.0440     4.0450    -4.4430     2.3420    55.7060    19.8460    16.8290    14.6170    25.6380   -25.1010 
  134.6250   134.1660     4.0630    -4.4590     2.3560    57.9730    19.0070    16.3100    13.9140    25.1850   -25.0840 
  134.7500   134.2890     4.0810    -4.4750     2.4130    61.4920    17.7890    15.4370    13.6620    24.8200   -25.0030 
  134.8750   134.4120     4.0980    -4.4900     2.4810    63.8500    16.5410    14.4680    13.1910    24.6740   -24.9160 
  135.0000   134.5340     4.1160    -4.5060     2.5210    62.9410    15.5780    13.6500    11.2790    24.6740   -24.8250 
  135.1250   134.6570     4.1340    -4.5220     2.5130    59.3950    15.1930    13.2290    10.3310    24.7070   -24.7220 
  135.2500   134.7800     4.1520    -4.5380     2.4910    56.9600    15.3300    13.2050    10.4780    24.7690   -24.6110 
  135.3750   134.9030     4.1690    -4.5540     2.4820    56.6340    15.8870    13.5340    11.1120    24.8430   -24.5020 
  135.5000   135.0250     4.1870    -4.5690     2.4990    57.5190    16.7050    14.1170    12.1750    24.8870   -24.4000 
  135.6250   135.1480     4.2050    -4.5850     2.5290    58.8940    17.5700    14.8080    13.3190    24.8900   -24.2880 
  135.7500   135.2710     4.2220    -4.6010     2.5400    59.5280    18.2870    15.4310    14.2440    24.8880   -24.1590 
  135.8750   135.3930     4.2400    -4.6170     2.5180    59.2620    18.7780    15.8990    14.4030    24.8980   -24.0120 
  136.0000   135.5160     4.2580    -4.6330     2.4730    59.1460    19.0420    16.1860    14.0190    24.9200   -23.8720 
  136.1250   135.6390     4.2750    -4.6480     2.4240    58.3060    19.0820    16.2750    13.5120    24.9360   -23.7670 
  136.2500   135.7620     4.2930    -4.6640     2.3780    56.5230    19.0080    16.2430    13.3100    24.9320   -23.7050 
  136.3750   135.8840     4.3130    -4.6810     2.3370    54.1730    18.9240    16.1720    13.2390    24.9700   -23.6890 
  136.5000   136.0060     4.3330    -4.6970     2.3060    52.0340    18.9400    16.1540    13.6120    25.1330   -23.7310 
  136.6250   136.1280     4.3540    -4.7140     2.3020    52.2660    19.1700    16.2810    13.4470    25.3480   -23.8310 
  136.7500   136.2510     4.3740    -4.7300     2.3330    54.7410    19.6020    16.5620    13.5490    25.3260   -24.0070 
  136.8750   136.3730     4.3950    -4.7470     2.4000    57.1470    20.1850    16.9720    13.8990    24.9950   -24.2160 
  137.0000   136.4950     4.4150    -4.7640     2.4810    57.2700    20.8160    17.4470    14.3450    24.5840   -24.4230 
  137.1250   136.6170     4.4360    -4.7800     2.5330    58.5330    21.3580    17.8860    14.5670    24.3970   -24.6200 
  137.2500   136.7390     4.4560    -4.7970     2.5390    61.5840    21.7510    18.2250    14.6190    24.3770   -24.7980 
  137.3750   136.8610     4.4770    -4.8140     2.5140    62.0800    21.9860    18.4370    15.5210    24.3900   -24.9480 
  137.5000   136.9840     4.4980    -4.8300     2.4810    58.5410    22.0860    18.5270    16.1270    24.3880   -25.0740 
  137.6250   137.1060     4.5180    -4.8470     2.4690    55.0410    22.0820    18.5130    16.2040    24.3250   -25.1760 
  137.7500   137.2280     4.5390    -4.8640     2.4880    53.2020    22.0250    18.4450    15.6490    24.1640   -25.2460 
  137.8750   137.3500     4.5590    -4.8800     2.5360    50.3380    21.9410    18.3480    15.1470    23.9840   -25.2970 
  138.0000   137.4720     4.5800    -4.8970     2.5940    47.3210    21.8690    18.2590    14.7340    23.9300   -25.3210 
  138.1250   137.5940     4.6000    -4.9130     2.6350    47.9190    21.9120    18.2530    14.9950    24.0620   -25.2850 
  138.2500   137.7170     4.6210    -4.9300     2.6550    50.2870    22.1190    18.3760    15.6180    24.2210   -25.1760 
  138.3750   137.8390     4.6410    -4.9470     2.6590    51.2150    22.4960    18.6410    16.4190    24.3160   -25.0230 
  138.5000   137.9610     4.6620    -4.9630     2.6500    49.8390    22.9990    19.0190    16.2760    24.3660   -24.8420 
  138.6250   138.0830     4.6820    -4.9800     2.6230    48.4810    23.5390    19.4540    16.0520    24.4210   -24.6520 
