~V
VERS. 2.00: Ver 2.00
~W
STRT.M 50.0000:
STOP.M 286.0000:
STEP.M 0.1250:
NULL. -999.2500:
UWI. FD11181:
~C
DEPT.M :
TVD. :
DX. :
DY. :
SP.MV :
GR.API :
RI. :
RML.OHMM :
RXO.OHMM :
DEN.GM/CC :
~A
# ...
  232.5000   224.9510   -43.7540     3.5240   -34.1550    57.0120    25.5410    25.7780    19.3250     2.1700 
  232.6250   225.0650   -43.8060     3.5260   -33.7190    54.6010    27.1750    27.4940    19.6130     2.1670 
  232.7500   225.1780   -43.8580     3.5290   -33.3410    53.2450    28.9610    29.4030    19.9560     2.1630 
  232.8750   225.2920   -43.9090     3.5310   -33.0170    54.3610    30.7540    31.3900    20.5510     2.1600 
  233.0000   225.4060   -43.9610     3.5330   -32.7740    54.2400    32.2960    33.1750    21.6710     2.1640 
  233.1250   225.5200   -44.0130     3.5350   -32.4640    51.7620    33.5930    34.5940    22.9790     2.1750 
  233.2500   225.6340   -44.0640     3.5370   -32.1100    49.4040    34.3660    35.5510    22.8460     2.1840 
  233.3750   225.7470   -44.1160     3.5390   -31.9030    47.5780    34.6320    35.9840    21.5820     2.1880 
  233.5000   225.8610   -44.1680     3.5410   -31.7060    48.3240    34.5320    36.0500    22.3350     2.1870 
  233.6250   225.9750   -44.2190     3.5430   -31.4760    51.7670    34.0730    35.7970    25.1170     2.1800 
  233.7500   226.0890   -44.2710     3.5450   -31.3030    55.3890    33.4120    35.3040    25.2350     2.1710 
  233.8750   226.2020   -44.3230     3.5480   -31.1890    55.8410    32.5890    34.6430    22.8580     2.1670 
  234.0000   226.3160   -44.3750     3.5500   -31.0550    53.7210    31.7650    33.9280    22.4400     2.1670 
  234.1250   226.4300   -44.4270     3.5520   -30.9380    52.3370    31.1070    33.2840    23.5790     2.1660 
  234.2500   226.5440   -44.4790     3.5540   -30.8820    52.9420    30.6740    32.8070    24.0070     2.1660 
  234.3750   226.6570   -44.5310     3.5560   -30.7810    54.4560    30.4550    32.5390    22.9930     2.1670 
  234.5000   226.7710   -44.5830     3.5590   -30.6590    56.2350    30.3040    32.3910    21.2230     2.1690 
  234.6250   226.8850   -44.6340     3.5610   -30.6450    57.1890    30.1220    32.2560    20.2020     2.1700 
  234.7500   226.9980   -44.6860     3.5640   -30.7470    56.7780    29.8740    32.0170    20.0050     2.1700 
  234.8750   227.1120   -44.7380     3.5660   -30.9300    54.3790    29.3710    31.4650    19.8390     2.1650 
  235.0000   227.2260   -44.7900     3.5690   -31.1430    51.5900    28.5510    30.4960    19.7790     2.1540 
  235.1250   227.3390   -44.8420     3.5710   -31.3490    47.9850    27.3670    29.1130    20.3520     2.1490 
  235.2500   227.4530   -44.8940     3.5740   -31.5200    45.7560    25.8930    27.5170    20.8260     2.1620 
  235.3750   227.5670   -44.9460     3.5760   -31.7170    47.9250    24.4530    26.0160    20.5470     2.1910 
  235.5000   227.6800   -44.9980     3.5790   -31.9440    52.0150    23.3030    24.9020    19.4780     2.2210 
  235.6250   227.7940   -45.0500     3.5810   -32.0570    53.0470    22.6370    24.2430    17.8580     2.2500 
  235.7500   227.9080   -45.1020     3.5840   -32.1370    52.1930    22.0800    23.6680    16.8530     2.2790 
  235.8750   228.0210   -45.1540     3.5870   -32.3240    52.6630    21.2360    22.9520    17.0610     2.3020 
  236.0000   228.1350   -45.2060     3.5900   -32.6050    53.7250    19.8870    21.8070    19.1490     2.3020 
  236.1250   228.2480   -45.2580     3.5920   -32.8340    51.6760    18.1850    19.9730    20.3540     2.2750 
  236.2500   228.3620   -45.3100     3.5950   -33.0120    47.8070    16.4920    17.9720    17.9050     2.2370 
  236.3750   228.4760   -45.3620     3.5980   -33.3390    47.3540    15.1670    16.4450    15.3090     2.2120 
  236.5000   228.5890   -45.4140     3.6000   -33.7170    51.6730    14.4800    15.6420    14.6170     2.2010 
  236.6250   228.7030   -45.4660     3.6030   -34.0850    57.0910    14.4660    15.6640    14.8990     2.1950 
  236.7500   228.8170   -45.5180     3.6050   -34.3440    58.0660    15.0980    16.2890    15.4150     2.1870 
  236.8750   228.9300   -45.5700     3.6080   -34.5020    53.6350    15.8160    16.9620    16.3140     2.1740 
  237.0000   229.0440   -45.6220     3.6110   -34.5890    48.1320    15.9680    17.0590    17.2710     2.1590 
  237.1250   229.1580   -45.6740     3.6130   -34.5670    45.4720    15.2340    16.2550    17.5340     2.1550 
  237.2500   229.2710   -45.7260     3.6160   -34.4260    47.7840    13.8470    14.7760    17.1960     2.1690 
  237.3750   229.3850   -45.7780     3.6180   -34.3050    52.4910    12.2450    13.0950    15.3730     2.1930 
  237.5000   229.4990   -45.8290     3.6200   -34.2940    56.8570    10.9450    11.7150    12.8530     2.2140 
  237.6250   229.6120   -45.8810     3.6230   -34.3090    59.6630    10.1770    10.9330    11.5930     2.2240 
  237.7500   229.7260   -45.9330     3.6250   -34.3720    60.1310     9.9860    10.7650    11.5480     2.2260 
  237.8750   229.8400   -45.9850     3.6270   -34.5000    58.6900    10.3280    11.1590    12.0440     2.2170 
  238.0000   229.9530   -46.0370     3.6290   -34.5780    56.3410    10.9660    11.8650    12.5000     2.2010 
  238.1250   230.0670   -46.0890     3.6310   -34.5500    53.6890    11.7440    12.7460    12.5860     2.1810 
  238.2500   230.1810   -46.1410     3.6340   -34.4260    51.1160    12.6080    13.6500    12.6240     2.1730 
  238.3750   230.2940   -46.1930     3.6360   -34.2530    51.1620    13.1980    14.3240    13.9850     2.1830 
  238.5000   230.4080   -46.2450     3.6380   -34.0700    53.2740    13.4640    14.5340    15.9800     2.2020 
  238.6250   230.5220   -46.2970     3.6400   -33.7530    54.2810    12.9560    13.9790    16.5220     2.2120 
  238.7500   230.6350   -46.3490     3.6420   -33.3370    54.9830    11.8720    12.7720    15.7920     2.2060 
  238.8750   230.7490   -46.4010     3.6440   -33.0390    57.1530    10.4850    11.2070    13.9430     2.1930 
  239.0000   230.8630   -46.4530     3.6460   -32.8120    60.5760     9.0480     9.6430    12.4410     2.1920 
  239.1250   230.9760   -46.5050     3.6480   -32.5150    63.8000     8.0720     8.4710    12.0940     2.2090 
  239.2500   231.0900   -46.5570     3.6500   -32.1980    65.5890     7.6060     7.9750    10.7280     2.2270 
  239.3750   231.2040   -46.6090     3.6520   -31.9250    64.1160     7.7050     8.2040     9.2950     2.2240 
  239.5000   231.3170   -46.6610     3.6540   -31.7470    61.4970     8.2410     8.9250    10.5220     2.2060 
  239.6250   231.4310   -46.7140     3.6560   -31.4880    61.5670     9.2360    10.0230    12.4410     2.1900 
  239.7500   231.5440   -46.7660     3.6580   -31.2490    64.3000    10.2800    11.1310    12.5150     2.1820 
  239.8750   231.6580   -46.8180     3.6600   -31.1590    64.9890    11.0620    11.8880    12.3040     2.1780 
  240.0000   231.7720   -46.8700     3.6620   -31.2210    62.4520    11.4510    12.2120    12.6350     2.1720 
  240.1250   231.8850   -46.9220     3.6640   -31.4230    59.5340    11.6040    12.4270    12.5330     2.1660 
  240.2500   231.9990   -46.9740     3.6660   -31.6080    58.1900    12.2050    13.1140    12.3290     2.1640 
  240.3750   232.1120   -47.0260     3.6680   -31.7660    58.5400    13.2310    14.3430    12.8490     2.1720 
  240.5000   232.2260   -47.0780     3.6700   -31.8930    58.8070    14.2360    15.6210    19.7030     2.1850 
  240.6250   232.3400   -47.1300     3.6720   -32.0230    58.0100    14.8430    16.3830    42.1060     2.1970 
  240.7500   232.4530   -47.1830     3.6740   -32.2080    56.6750    14.6060    16.2100    53.6870     2.2020 
  240.8750   232.5670   -47.2350     3.6760   -32.5520    56.1130    13.6690    15.1670    32.4560     2.2020 
  241.0000   232.6800   -47.2870     3.6780   -32.9750    56.6840    12.5590    13.8730    13.4510     2.2010 
  241.1250   232.7940   -47.3390     3.6810   -33.5100    57.1090    11.6300    12.9060    11.3980     2.2000 
  241.2500   232.9080   -47.3910     3.6820   -34.1140    56.3130    11.3790    12.6200    11.9740     2.2080 
  241.3750   233.0210   -47.4430     3.6840   -34.6580    55.2670    11.6110    12.9240    12.6000     2.2340 
  241.5000   233.1350   -47.4960     3.6860   -34.9990    55.7160    12.0110    13.4320    12.7770     2.2690 
