~V
VERS. 2.00: Ver 2.00
~W
STRT.M 30.0000:
STOP.M 272.0000:
STEP.M 0.1250:
NULL. -999.2500:
UWI. FD11176:
~C
DEPT.M :
TVD. :
DX. :
DY. :
SP.MV :
GR.API :
RI. :
RML.OHMM :
RXO.OHMM :
DEN.GM/CC :
~A
# ...
   75.6250    75.3870     4.0120    -0.1370    -4.5860    93.9030     3.9930     4.4720     4.5560     2.1690 
   75.7500    75.5100     4.0330    -0.1440    -4.7830    94.8990     4.0330     4.5010     4.8450     2.1770 
   75.8750    75.6330     4.0530    -0.1510    -5.4200    94.8740     4.2050     4.6320     5.0270     2.1960 
   76.0000    75.7560     4.0730    -0.1580    -6.2030    92.6350     4.4820     4.8550     4.8240     2.2030 
   76.1250    75.8790     4.0940    -0.1660    -6.9920    88.5570     4.9070     5.2580     5.1330     2.1850 
   76.2500    76.0020     4.1140    -0.1730    -7.7650    86.3740     5.5050     5.8740     5.7810     2.1540 
   76.3750    76.1260     4.1350    -0.1800    -8.4760    83.3230     6.2250     6.6580     6.1750     2.1600 
   76.5000    76.2490     4.1550    -0.1870    -8.9970    78.2830     6.8740     7.3600     6.4450     2.2380 
   76.6250    76.3720     4.1760    -0.1950    -9.1470    74.3130     7.1290     7.5850     6.7540     2.3530 
   76.7500    76.4950     4.1960    -0.2020    -8.8580    74.4740     6.7540     7.1340     6.9570     2.3990 
   76.8750    76.6180     4.2170    -0.2100    -8.0610    76.8580     5.8790     6.1660     6.6900     2.3220 
   77.0000    76.7410     4.2380    -0.2170    -6.8150    80.7390     4.8000     5.0300     5.6260     2.2090 
   77.1250    76.8640     4.2580    -0.2250    -5.2220    89.8870     3.9180     4.1480     4.2590     2.1650 
   77.2500    76.9870     4.2790    -0.2320    -3.5990   103.3550     3.3580     3.5980     3.6780     2.1870 
   77.3750    77.1100     4.3000    -0.2400    -2.3490   113.4720     3.0640     3.3000     3.6470     2.2200 
   77.5000    77.2330     4.3210    -0.2480    -1.7050   115.7660     3.0570     3.3080     3.5960     2.2380 
   77.6250    77.3560     4.3410    -0.2560    -1.7390   112.5500     3.5470     3.9130     3.5650     2.2470 
   77.7500    77.4790     4.3620    -0.2640    -2.2760   107.9440     4.5790     5.1840     3.6150     2.2640 
   77.8750    77.6020     4.3830    -0.2720    -3.2060   101.4370     6.3230     7.3410    13.2450     2.3210 
   78.0000    77.7250     4.4040    -0.2800    -4.4130    92.6000     8.5320    10.0520    34.1460     2.4180 
   78.1250    77.8480     4.4250    -0.2880    -5.8720    80.5370    10.5660    12.3640    43.3630     2.5090 
   78.2500    77.9710     4.4470    -0.2970    -7.4810    67.9180    11.3010    12.9700    31.1540     2.5110 
   78.3750    78.0940     4.4680    -0.3050    -9.0670    58.2930    10.4900    11.7030    14.8870     2.3850 
   78.5000    78.2170     4.4890    -0.3140   -10.4400    53.7820     8.7640     9.4840     8.4750     2.2150 
   78.6250    78.3390     4.5100    -0.3220   -11.4590    53.4200     7.0700     7.4950     8.2690     2.1080 
   78.7500    78.4620     4.5310    -0.3310   -12.1380    55.1160     6.4090     6.8720     8.1500     2.0840 
   78.8750    78.5850     4.5530    -0.3400   -12.5260    57.8750     6.2350     6.7870     7.5770     2.0920 
   79.0000    78.7080     4.5740    -0.3490   -12.7400    60.2520     6.2610     6.8970     7.1580     2.0970 
   79.1250    78.8310     4.5960    -0.3580   -12.8620    61.3380     6.3630     7.0810     7.2990     2.0990 
   79.2500    78.9540     4.6170    -0.3670   -12.9700    62.2370     6.5040     7.2920     7.4340     2.0980 
   79.3750    79.0760     4.6390    -0.3760   -13.1130    64.2630     6.6420     7.4850     7.6140     2.0930 
   79.5000    79.1990     4.6600    -0.3850   -13.2950    66.2390     6.7560     7.6330     7.9220     2.0870 
   79.6250    79.3220     4.6820    -0.3940   -13.4760    64.7820     6.8000     7.6760     8.0810     2.0790 
   79.7500    79.4450     4.7030    -0.4040   -13.6120    61.5880     6.7980     7.6660     8.1400     2.0770 
   79.8750    79.5670     4.7250    -0.4130   -13.6840    59.2030     6.7820     7.6520     8.3070     2.0860 
   80.0000    79.6900     4.7470    -0.4230   -13.7090    58.2620     6.7660     7.6640     8.4450     2.0940 
   80.1250    79.8130     4.7690    -0.4320   -13.6970    58.2870     6.7710     7.7290     8.2570     2.0910 
   80.2500    79.9360     4.7900    -0.4420   -13.6570    59.2100     6.8010     7.8260     7.9030     2.0820 
   80.3750    80.0580     4.8120    -0.4510   -13.5740    59.9080     6.8110     7.8890     7.7090     2.0780 
   80.5000    80.1810     4.8340    -0.4610   -13.4360    60.3780     6.7870     7.8740     7.9320     2.0800 
   80.6250    80.3040     4.8560    -0.4710   -13.2410    59.7720     6.7630     7.8460     8.4090     2.0830 
   80.7500    80.4260     4.8780    -0.4810   -13.0130    58.0860     6.7950     7.8870     8.6000     2.0860 
   80.8750    80.5490     4.9000    -0.4910   -12.7560    56.0420     6.8620     7.9720     8.4300     2.0980 
   81.0000    80.6720     4.9220    -0.5020   -12.4820    55.7400     6.9580     8.1170    17.4640     2.1350 
   81.1250    80.7940     4.9440    -0.5120   -12.2500    57.5560     7.0240     8.2120    33.6740     2.1940 
   81.2500    80.9170     4.9660    -0.5230   -12.1330    57.9980     7.0220     8.2160    31.2260     2.2240 
   81.3750    81.0390     4.9880    -0.5330   -12.1570    57.5740     6.8790     8.0490    14.4000     2.1920 
   81.5000    81.1620     5.0100    -0.5440   -12.2310    58.6690     6.6480     7.7870     7.1640     2.1340 
   81.6250    81.2840     5.0330    -0.5550   -12.2180    59.7450     6.3460     7.4490     7.5370     2.0950 
   81.7500    81.4070     5.0550    -0.5660   -12.0540    59.3610     6.0380     7.1020     7.8390     2.0880 
   81.8750    81.5290     5.0770    -0.5770   -11.7490    59.9910     5.8170     6.8450     7.6590     2.1010 
   82.0000    81.6520     5.1000    -0.5880   -11.3980    64.0080     5.6310     6.6130     7.3020     2.1170 
   82.1250    81.7740     5.1220    -0.5990   -11.1090    67.8070     5.5180     6.4720     7.0890     2.1240 
   82.2500    81.8970     5.1450    -0.6100   -10.9450    70.0440     5.5360     6.4850     6.9460     2.1210 
   82.3750    82.0190     5.1670    -0.6220   -10.9160    71.5600     5.6520     6.6140     6.7890     2.1160 
   82.5000    82.1420     5.1900    -0.6330   -10.9730    71.3880     5.8400     6.8250     6.6870     2.1160 
   82.6250    82.2640     5.2130    -0.6450   -11.0680    68.0490     6.0720     7.0970     6.8210     2.1200 
   82.7500    82.3860     5.2360    -0.6560   -11.1380    66.0980     6.3350     7.4190     7.3270     2.1190 
   82.8750    82.5090     5.2580    -0.6680   -11.1100    69.3720     6.4920     7.5890     7.9850     2.1050 
   83.0000    82.6310     5.2810    -0.6800   -10.9240    72.4030     6.3990     7.4070     8.4980     2.0910 
   83.1250    82.7530     5.3040    -0.6920   -10.4990    70.7790     5.9880     6.8460     8.7090     2.0900 
   83.2500    82.8760     5.3270    -0.7030    -9.8290    68.7050     5.3970     6.0710     8.3840     2.1020 
   83.3750    82.9980     5.3500    -0.7150    -8.9560    71.4330     4.8850     5.4570     7.0680     2.1320 
   83.5000    83.1200     5.3740    -0.7270    -8.0280    76.6480     4.5790     5.1470     5.2290     2.1720 
   83.6250    83.2420     5.3970    -0.7390    -7.2420    81.2550     4.5180     5.1540     4.9020     2.1910 
   83.7500    83.3640     5.4200    -0.7510    -6.7250    82.1900     4.6130     5.3510     6.3140     2.1770 
   83.8750    83.4870     5.4440    -0.7630    -6.4530    80.1270     4.7750     5.5790     7.1590     2.1560 
   84.0000    83.6090     5.4670    -0.7750    -6.2070    78.2140     4.8300     5.6270     6.9880     2.1530 
   84.1250    83.7310     5.4910    -0.7870    -5.8480    80.5690     4.7320     5.4630     6.5040     2.1560 
   84.2500    83.8530     5.5150    -0.7990    -5.4860    85.9430     4.5410     5.1820     5.7180     2.1450 
   84.3750    83.9750     5.5390    -0.8120    -5.3240    89.7330     4.3620     4.9510     5.1950     2.1310 
   84.5000    84.0970     5.5630    -0.8240    -5.3650    88.8550     4.3020     4.8720     5.0130     2.1340 
   84.6250    84.2190     5.5870    -0.8360    -5.4920    83.4720     4.3440     4.9200     4.8360     2.1520 
