~V
VERS. 2.00: Ver 2.00
~W
STRT.M 30.0000:
STOP.M 272.0000:
STEP.M 0.1250:
NULL. -999.2500:
UWI. FD11176:
~C
DEPT.M :
TVD. :
DX. :
DY. :
SP.MV :
GR.API :
RI. :
RML.OHMM :
RXO.OHMM :
DEN.GM/CC :
~A
# ...
  239.8750   227.8940    57.6390   -27.1040    -5.9450    92.6300     4.3020     4.9890     6.9020     2.2740 
  240.0000   228.0070    57.6860   -27.1260    -7.2820    87.9630     5.3140     6.1850     9.6020     2.2960 
  240.1250   228.1210    57.7330   -27.1490    -8.6680    80.0870     6.5180     7.6100    15.8300     2.3050 
  240.2500   228.2340    57.7810   -27.1710    -9.9920    72.6330     7.5960     8.8430    17.8230     2.2940 
  240.3750   228.3480    57.8280   -27.1940   -11.1420    67.8590     8.3700     9.6420    15.7400     2.2770 
  240.5000   228.4620    57.8750   -27.2160   -12.0670    66.0020     8.7810     9.9320    13.4740     2.2630 
  240.6250   228.5750    57.9220   -27.2390   -12.7380    66.5510     8.9630     9.9690    12.2750     2.2500 
  240.7500   228.6890    57.9690   -27.2610   -13.2270    66.5630     9.2420    10.1950    12.6780     2.2370 
  240.8750   228.8020    58.0160   -27.2830   -13.5790    64.8320     9.6770    10.6810    13.1490     2.2250 
  241.0000   228.9160    58.0630   -27.3060   -13.8220    63.7790    10.2690    11.3940    13.0620     2.2140 
  241.1250   229.0300    58.1100   -27.3280   -13.9510    65.3160    10.9010    12.1650    13.0060     2.2070 
  241.2500   229.1430    58.1580   -27.3500   -13.9970    66.0020    11.5080    12.9270    13.2730     2.2080 
  241.3750   229.2570    58.2050   -27.3720   -13.9810    65.1790    12.0410    13.6270    13.6600     2.2110 
  241.5000   229.3710    58.2520   -27.3940   -13.9140    63.1010    12.4250    14.1310    13.8180     2.2110 
  241.6250   229.4840    58.2990   -27.4170   -13.7810    61.5360    12.5290    14.2330    13.7860     2.2020 
  241.7500   229.5980    58.3460   -27.4390   -13.6110    60.2290    12.3630    13.9490    13.6910     2.1850 
  241.8750   229.7110    58.3930   -27.4610   -13.4720    60.8950    12.0200    13.4430    13.4310     2.1710 
  242.0000   229.8250    58.4400   -27.4840   -13.4180    63.8090    11.6730    12.9500    13.1100     2.1710 
  242.1250   229.9380    58.4880   -27.5060   -13.4300    65.4100    11.4870    12.6780    12.8460     2.1820 
  242.2500   230.0520    58.5350   -27.5290   -13.4340    63.5820    11.5150    12.6790    12.4740     2.1910 
  242.3750   230.1660    58.5820   -27.5510   -13.3850    58.8320    11.7690    12.9430    12.3970     2.1940 
  242.5000   230.2790    58.6290   -27.5740   -13.3110    54.4590    12.1550    13.3440    12.9330     2.1960 
  242.6250   230.3930    58.6760   -27.5970   -13.2600    53.7470    12.4990    13.6810    13.6190     2.1920 
  242.7500   230.5060    58.7230   -27.6190   -13.2550    58.1600    12.6790    13.8140    14.0050     2.1860 
  242.8750   230.6200    58.7710   -27.6420   -13.2830    64.8580    12.5190    13.5670    13.8820     2.1870 
  243.0000   230.7330    58.8180   -27.6640   -13.3180    68.4630    12.1680    13.1480    13.3240     2.1970 
  243.1250   230.8470    58.8650   -27.6860   -13.3640    66.9990    11.7340    12.6780    12.4750     2.2110 
  243.2500   230.9600    58.9120   -27.7090   -13.4360    64.2590    11.3160    12.2540    11.7960     2.2260 
  243.3750   231.0740    58.9600   -27.7310   -13.5270    62.2900    11.0080    11.9680    11.8600     2.2360 
  243.5000   231.1870    59.0070   -27.7530   -13.5950    61.5480    10.7200    11.6540    12.2220     2.2340 
  243.6250   231.3010    59.0550   -27.7760   -13.6050    62.8210    10.3900    11.2230    12.2400     2.2180 
  243.7500   231.4140    59.1020   -27.7980   -13.5780    65.1190    10.0800    10.8010    11.9470     2.2040 
  243.8750   231.5280    59.1490   -27.8200   -13.5670    66.5520    10.0370    10.6930    11.5440     2.1990 
  244.0000   231.6410    59.1970   -27.8430   -13.6150    66.7620    10.3620    11.0380    11.2210     2.1930 
  244.1250   231.7550    59.2440   -27.8650   -13.7350    65.3360    11.0830    11.8690    10.7990     2.1830 
  244.2500   231.8680    59.2920   -27.8870   -13.9020    63.7700    12.0630    12.9980    33.7150     2.1920 
  244.3750   231.9820    59.3390   -27.9100   -14.0780    62.8190    12.8730    13.9370    72.0030     2.2500 
  244.5000   232.0950    59.3870   -27.9320   -14.2040    62.4520    13.2060    14.3180    64.6680     2.3300 
  244.6250   232.2090    59.4340   -27.9550   -14.2010    61.0030    12.8490    13.8870    28.2770     2.3560 
  244.7500   232.3220    59.4810   -27.9770   -14.0260    59.3400    11.9980    12.8750    14.2360     2.2980 
  244.8750   232.4350    59.5290   -28.0000   -13.6770    58.4050    11.0070    11.7320    13.8480     2.2100 
  245.0000   232.5490    59.5760   -28.0220   -13.2240    58.9560    10.1670    10.7850    13.1950     2.1610 
  245.1250   232.6620    59.6230   -28.0450   -12.7240    60.4630     9.5850    10.1320    12.6970     2.1600 
  245.2500   232.7760    59.6710   -28.0670   -12.2360    62.9700     9.2000     9.7000    12.0260     2.1720 
  245.3750   232.8890    59.7180   -28.0890   -11.8130    64.4140     9.0730     9.5490    11.2690     2.1840 
  245.5000   233.0030    59.7660   -28.1120   -11.4640    62.7470     9.1770     9.6670    11.2020     2.1930 
  245.6250   233.1160    59.8130   -28.1340   -11.1740    61.6830     9.4210     9.9460    11.9020     2.2010 
  245.7500   233.2300    59.8600   -28.1570   -10.9010    66.2790     9.6460    10.1890    13.2330     2.2140 
  245.8750   233.3430    59.9070   -28.1790   -10.6060    75.3310     9.7440    10.2600    14.7460     2.2370 
  246.0000   233.4570    59.9550   -28.2020   -10.2700    81.8440     9.6530    10.1080    15.0680     2.2640 
  246.1250   233.5700    60.0020   -28.2240    -9.9480    82.7110     9.3660     9.7690    13.8520     2.2750 
  246.2500   233.6840    60.0490   -28.2460    -9.7590    80.3200     9.0620     9.4580    12.4150     2.2660 
  246.3750   233.7970    60.0970   -28.2680    -9.8070    77.7740     8.9230     9.3730    12.1520     2.2490 
  246.5000   233.9110    60.1440   -28.2910   -10.0410    76.9120     8.9910     9.5290    12.4970     2.2410 
  246.6250   234.0240    60.1920   -28.3130   -10.3560    77.6600     9.2140     9.8410    11.8960     2.2460 
  246.7500   234.1380    60.2390   -28.3350   -10.6480    78.2320     9.4950    10.2220    11.8540     2.2560 
  246.8750   234.2510    60.2870   -28.3570   -10.8850    75.5520     9.7980    10.6160    13.0810     2.2630 
  247.0000   234.3650    60.3340   -28.3800   -11.0890    70.3380    10.1810    11.0980    13.5480     2.2600 
  247.1250   234.4780    60.3820   -28.4020   -11.2390    63.5810    10.5840    11.5680    13.5720     2.2440 
  247.2500   234.5920    60.4290   -28.4240   -11.2810    58.7030    11.0820    12.1470    13.9130     2.2210 
  247.3750   234.7050    60.4760   -28.4470   -11.1530    60.2540    11.8800    13.0810    14.4540     2.2120 
  247.5000   234.8190    60.5240   -28.4690   -10.8780    66.5330    12.8050    14.1420    17.0470     2.2260 
  247.6250   234.9320    60.5710   -28.4910   -10.5050    72.2350    13.9040    15.3790    21.8630     2.2560 
  247.7500   235.0460    60.6190   -28.5130   -10.0890    74.1970    14.8310    16.3730    23.8480     2.2830 
  247.8750   235.1590    60.6660   -28.5360    -9.6390    74.4780    15.4800    17.0300    22.1010     2.2990 
  248.0000   235.2730    60.7140   -28.5580    -9.1680    75.0030    15.8010    17.3060    22.1160     2.3130 
  248.1250   235.3860    60.7610   -28.5800    -8.7500    75.0360    15.6870    17.0850    23.7300     2.3310 
  248.2500   235.5000    60.8090   -28.6030    -8.4520    74.6760    15.3060    16.6000    22.8200     2.3460 
  248.3750   235.6130    60.8560   -28.6250    -8.2860    73.9670    14.7990    15.9910    19.7060     2.3460 
  248.5000   235.7270    60.9040   -28.6470    -8.1930    75.3650    14.3300    15.4640    18.1460     2.3330 
  248.6250   235.8400    60.9510   -28.6690    -8.1420    78.4340    13.9970    15.0770    18.7320     2.3200 
  248.7500   235.9540    60.9980   -28.6910    -8.1340    80.1270    13.6650    14.6830    19.9910     2.3200 
  248.8750   236.0670    61.0460   -28.7140    -8.1710    78.8690    13.2650    14.1930    20.1180     2.3310 
