~V
VERS. 2.00: Ver 2.00
~W
STRT.M 20.0000:
STOP.M 286.0000:
STEP.M 0.1250:
NULL. -999.2500:
UWI. FD11156:
~C
DEPT.M :
TVD. :
DX. :
DY. :
DEN.GM/CC :
GR.API :
RML.OHMM :
RI. :
RXO.OHMM :
CALI.CM :
SP.MV :
~A
# ...
   69.5000    69.5000     0.0000     0.0000     2.2380    63.0520     9.8390     6.7750    11.2480    24.2100   -28.3120 
   69.6250    69.6250     0.0000     0.0000     2.2280    56.7100    10.3330     7.0260    11.4190    24.3220   -28.0720 
   69.7500    69.7500     0.0000     0.0000     2.2310    52.8200    11.8000     7.6980    12.1140    24.3100   -27.8330 
   69.8750    69.8750     0.0000     0.0000     2.2600    53.6630    14.3700     8.9680    14.1840    24.0490   -27.5610 
   70.0000    70.0000     0.0000     0.0000     2.3210    55.4280    17.8890    10.9810    18.5280    23.9400   -27.3650 
   70.1250    70.1250     0.0000     0.0000     2.4100    55.8440    21.7470    13.7570    24.3840    24.1330   -27.3850 
   70.2500    70.2500     0.0000     0.0000     2.4970    57.1920    24.5910    16.5020    28.7830    24.2620   -27.5880 
   70.3750    70.3750     0.0000     0.0000     2.5490    60.2170    25.0600    18.0450    34.6550    24.2440   -28.0830 
   70.5000    70.5000     0.0000     0.0000     2.5390    60.7570    22.6430    17.4580    37.5510    24.2710   -28.9020 
   70.6250    70.6250     0.0000     0.0000     2.4570    58.9270    18.3780    14.9470    27.9600    24.5990   -29.9900 
   70.7500    70.7500     0.0000     0.0000     2.3450    57.4110    14.4810    12.1500    17.7730    25.8080   -31.2700 
   70.8750    70.8750     0.0000     0.0000     2.2400    54.4370    11.7980     9.8490    13.7630    27.8500   -32.6650 
   71.0000    71.0000     0.0000     0.0000     2.1660    49.4570    10.3750     8.2800    12.9340    30.2280   -34.0040 
   71.1250    71.1250     0.0000     0.0000     2.1390    47.2450     9.9870     7.4990    12.9190    30.6790   -35.1420 
   71.2500    71.2500     0.0000     0.0000     2.1410    49.5160     9.9980     7.2220    12.9780    30.2020   -36.0640 
   71.3750    71.3750     0.0000     0.0000     2.1570    52.1930    10.0650     7.2540    12.8200    28.4950   -36.6640 
   71.5000    71.5000     0.0000     0.0000     2.1740    53.0770    10.0320     7.3900    12.8670    26.6120   -36.9570 
   71.6250    71.6250     0.0000     0.0000     2.1860    53.3940     9.9230     7.4700    13.1230    25.3310   -37.0060 
   71.7500    71.7500     0.0000     0.0000     2.1960    53.6850     9.8570     7.4520    13.5120    24.6950   -36.8290 
   71.8750    71.8750     0.0000     0.0000     2.2040    53.8980     9.8870     7.3660    13.6470    24.2980   -36.4820 
   72.0000    72.0000     0.0000     0.0000     2.2100    54.3140    10.0360     7.2810    13.4030    24.1580   -36.1200 
   72.1250    72.1250     0.0000     0.0000     2.2140    55.4060    10.3690     7.2900    12.9960    24.1170   -35.7830 
   72.2500    72.2500     0.0000     0.0000     2.2180    56.9930    10.8900     7.4130    12.6550    24.2200   -35.4390 
   72.3750    72.3750     0.0000     0.0000     2.2250    59.3620    11.5440     7.6170    12.5570    25.0020   -35.1600 
   72.5000    72.5000     0.0000     0.0000     2.2350    60.9790    12.1370     7.8330    12.4760    26.3520   -34.9600 
   72.6250    72.6250     0.0000     0.0000     2.2430    57.2750    12.3340     7.9670    12.2490    27.2990   -34.7870 
   72.7500    72.7500     0.0000     0.0000     2.2430    51.0230    12.0870     7.9780    12.4740    27.6530   -34.7390 
   72.8750    72.8750     0.0000     0.0000     2.2350    48.5920    11.5260     7.8820    12.5060    27.4610   -34.8200 
   73.0000    73.0000     0.0000     0.0000     2.2220    51.5440    10.8970     7.7220    12.5310    27.2900   -34.9470 
   73.1250    73.1250     0.0000     0.0000     2.2070    54.0940    10.4610     7.5460    12.7280    27.8180   -35.1320 
   73.2500    73.2500     0.0000     0.0000     2.1930    52.7970    10.2970     7.3880    12.9240    28.4500   -35.3520 
   73.3750    73.3750     0.0000     0.0000     2.1800    50.7690    10.3830     7.2630    12.9150    29.0790   -35.5300 
   73.5000    73.5000     0.0000     0.0000     2.1710    49.6610    10.5890     7.1810    12.7100    29.8590   -35.6660 
   73.6250    73.6250     0.0000     0.0000     2.1690    48.4730    10.6830     7.1450    12.4790    30.5300   -35.7790 
   73.7500    73.7500     0.0000     0.0000     2.1700    47.6360    10.5970     7.1340    12.2060    31.0470   -35.7690 
   73.8750    73.8750     0.0000     0.0000     2.1700    48.3180    10.4600     7.1320    11.9860    31.0540   -35.6590 
   74.0000    74.0000     0.0000     0.0000     2.1650    52.6710    10.4390     7.1190    11.7750    30.2790   -35.5060 
   74.1250    74.1250     0.0000     0.0000     2.1590    58.4150    10.5880     7.0900    11.3980    28.2960   -35.2680 
   74.2500    74.2500     0.0000     0.0000     2.1590    60.5550    10.7110     7.0470    11.4850    26.0650   -34.9930 
   74.3750    74.3750     0.0000     0.0000     2.1690    59.1200    10.6360     6.9820    11.8800    24.8020   -34.7500 
   74.5000    74.5000     0.0000     0.0000     2.1870    56.0700    10.3520     6.8900    12.0130    24.6360   -34.5470 
   74.6250    74.6250     0.0000     0.0000     2.2010    56.0500    10.0790     6.7830    12.1490    24.4310   -34.3650 
   74.7500    74.7500     0.0000     0.0000     2.2020    58.9280    10.0280     6.7010    12.5370    24.0600   -34.2510 
   74.8750    74.8750     0.0000     0.0000     2.1880    63.4730    10.2090     6.6650    12.9050    24.0970   -34.2180 
   75.0000    75.0000     0.0000     0.0000     2.1660    66.0520    10.5080     6.6710    13.0420    24.6100   -34.1920 
   75.1250    75.1250     0.0000     0.0000     2.1480    63.6360    10.7790     6.6830    12.9610    25.3990   -34.1780 
   75.2500    75.2500     0.0000     0.0000     2.1400    59.1210    10.9130     6.6660    12.8950    26.2280   -34.1400 
   75.3750    75.3750     0.0000     0.0000     2.1430    56.4080    10.8520     6.6260    13.0670    26.4780   -34.0280 
   75.5000    75.5000     0.0000     0.0000     2.1520    56.4700    10.5450     6.5870    13.2900    25.9040   -33.8440 
   75.6250    75.6250     0.0000     0.0000     2.1630    55.5940     9.9650     6.5850    13.4860    25.8350   -33.5700 
   75.7500    75.7500     0.0000     0.0000     2.1700    52.6500     9.2990     6.6310    13.5230    26.6120   -33.1870 
   75.8750    75.8750     0.0000     0.0000     2.1750    51.4340     8.7560     6.7190    13.1870    26.5820   -32.6760 
   76.0000    76.0000     0.0000     0.0000     2.1810    53.1890     8.5060     6.8310    12.7460    26.5370   -32.0790 
   76.1250    76.1250     0.0000     0.0000     2.1900    54.4530     8.6340     6.9230    12.5700    26.6390   -31.2870 
   76.2500    76.2500     0.0000     0.0000     2.2000    54.7030     8.9550     6.9440    13.0110    26.7360   -30.3480 
   76.3750    76.3750     0.0000     0.0000     2.2100    55.3280     9.2170     6.8580    13.2370    26.8500   -29.3180 
   76.5000    76.5000     0.0000     0.0000     2.2200    56.3270     9.1740     6.6590    12.7880    26.8830   -28.1290 
   76.6250    76.6250     0.0000     0.0000     2.2330    58.4570     8.7240     6.3940    11.4850    26.7720   -26.8070 
   76.7500    76.7500     0.0000     0.0000     2.2480    63.3530     8.1080     6.1560     9.9060    26.2610   -25.4860 
   76.8750    76.8750     0.0000     0.0000     2.2640    69.8260     7.5970     5.9990     8.6990    25.2630   -24.2010 
   77.0000    77.0000     0.0000     0.0000     2.2760    73.4220     7.4360     5.9400     8.2660    24.2110   -22.9710 
   77.1250    77.1250     0.0000     0.0000     2.2780    71.7730     7.7940     5.9880     8.3720    23.4320   -21.9500 
   77.2500    77.2500     0.0000     0.0000     2.2710    69.0350     8.4410     6.1060     8.6930    23.1290   -21.1270 
   77.3750    77.3750     0.0000     0.0000     2.2580    68.1120     9.0930     6.2810     8.9880    23.0420   -20.4370 
   77.5000    77.5000     0.0000     0.0000     2.2410    69.3500     9.5220     6.5070     9.1460    23.1660   -19.9180 
   77.6250    77.6250     0.0000     0.0000     2.2250    71.0450     9.6350     6.7810     9.7900    23.1710   -19.5440 
