~V
VERS. 2.00: Ver 2.00
~W
STRT.M 40.0000:
STOP.M 259.0000:
STEP.M 0.1250:
NULL. -999.2500:
UWI. FD11192:
~C
DEPT.M :
TVD. :
DX. :
DY. :
SP.MV :
GR.API :
RI. :
RML.OHMM :
RXO.OHMM :
DEN.GM/CC :
~A
# ...
  204.2500   195.5310    30.6650    33.2680  -208.7720    66.0720    31.7640    35.2190    42.3000     2.2170 
  204.3750   195.6410    30.7080    33.3090  -208.8080    66.3050    27.1740    30.1990    39.8740     2.2310 
  204.5000   195.7520    30.7500    33.3500  -208.8370    69.5080    23.8820    25.8860    32.8110     2.2400 
  204.6250   195.8620    30.7930    33.3910  -208.8950    73.3020    22.6920    24.5000    24.4980     2.2400 
  204.7500   195.9720    30.8360    33.4320  -208.9450    76.8630    23.7290    25.6660    19.5540     2.2350 
  204.8750   196.0820    30.8780    33.4730  -208.9730    79.1210    27.1480    29.5580    21.2220     2.2260 
  205.0000   196.1920    30.9210    33.5140  -208.9420    77.2290    32.2680    35.2470    42.6750     2.2090 
  205.1250   196.3020    30.9640    33.5550  -208.9300    70.1580    38.6030    41.8840    91.3230     2.1900 
  205.2500   196.4120    31.0070    33.5960  -208.9830    63.5170    43.4650    46.3110   123.1370     2.1800 
  205.3750   196.5220    31.0500    33.6370  -209.1130    61.6110    44.6950    46.4320   113.4710     2.1870 
  205.5000   196.6320    31.0930    33.6780  -209.2980    61.7360    42.6610    43.2610    88.6600     2.2010 
  205.6250   196.7420    31.1360    33.7200  -209.4340    61.8660    38.6600    38.6880    57.4180     2.2100 
  205.7500   196.8520    31.1790    33.7610  -209.5390    63.2100    35.3970    35.3910    35.0640     2.2110 
  205.8750   196.9610    31.2220    33.8030  -209.7000    66.1100    32.8630    32.8990    29.3840     2.2090 
  206.0000   197.0710    31.2640    33.8440  -209.8780    67.8030    30.3970    30.4390    28.4050     2.2110 
  206.1250   197.1810    31.3070    33.8860  -209.9780    69.1200    28.6670    28.7410    29.0240     2.2200 
  206.2500   197.2910    31.3500    33.9280  -210.0850    71.7480    28.3970    28.7730    29.0100     2.2290 
  206.3750   197.4010    31.3920    33.9700  -210.2510    73.3380    30.8280    31.7240    27.0620     2.2240 
  206.5000   197.5100    31.4350    34.0110  -210.5220    72.2620    37.3530    38.6330    28.8070     2.1980 
  206.6250   197.6200    31.4780    34.0530  -210.8490    68.5150    53.8250    57.9630    51.5310     2.1590 
  206.7500   197.7300    31.5210    34.0950  -211.1090    63.5730    84.0730   100.9360    94.1380     2.1290 
  206.8750   197.8390    31.5640    34.1370  -211.3220    58.9900   120.3500   130.2610   132.4020     2.1190 
  207.0000   197.9490    31.6080    34.1780  -211.4510    57.5130   148.8690   159.4320   156.2570     2.1200 
  207.1250   198.0590    31.6510    34.2200  -211.4950    59.6730   162.7400   171.7300   169.6230     2.1240 
  207.2500   198.1680    31.6940    34.2620  -211.4850    60.8620   160.7140   168.6490   172.1520     2.1280 
  207.3750   198.2780    31.7370    34.3040  -211.3580    60.4890   150.9930   158.9800   156.0430     2.1340 
  207.5000   198.3870    31.7810    34.3460  -211.1700    59.9400   139.7130   147.2380   132.5770     2.1400 
  207.6250   198.4970    31.8240    34.3880  -210.9900    59.4130   126.5030   134.1700   124.3190     2.1430 
  207.7500   198.6060    31.8680    34.4300  -210.8140    58.1200   114.9750   124.3820   122.6880     2.1420 
  207.8750   198.7150    31.9110    34.4730  -210.7120    58.2960   108.0410   115.0240   118.0810     2.1370 
  208.0000   198.8250    31.9540    34.5150  -210.5490    61.0040   105.8410   112.8710   106.1390     2.1350 
  208.1250   198.9340    31.9980    34.5570  -210.4310    64.1200   110.3600   117.4020    97.7120     2.1360 
  208.2500   199.0430    32.0410    34.6000  -210.4580    64.3340   120.0350   127.2920   113.1690     2.1380 
  208.3750   199.1520    32.0840    34.6430  -210.6490    61.6140   132.2710   139.9230   153.6310     2.1320 
  208.5000   199.2620    32.1270    34.6860  -210.9870    59.0470   143.0430   150.5330   171.3470     2.1210 
  208.6250   199.3710    32.1700    34.7290  -211.3310    58.7290   149.5060   156.6830   150.3240     2.1250 
  208.7500   199.4800    32.2130    34.7720  -211.6610    60.3130   154.9970   161.8480   130.8070     2.1460 
  208.8750   199.5890    32.2560    34.8140  -211.9380    61.2450   164.2360   172.1000   127.7610     2.1660 
  209.0000   199.6990    32.2990    34.8570  -212.2580    59.9120   177.5990   187.0990   135.3870     2.1680 
  209.1250   199.8080    32.3420    34.9000  -212.5740    57.2980   191.1880   201.5760   160.2680     2.1520 
  209.2500   199.9170    32.3860    34.9420  -212.8750    55.7210   195.8110   205.1830   204.2870     2.1380 
  209.3750   200.0260    32.4290    34.9850  -213.1570    56.2570   187.9200   194.9320   238.6040     2.1410 
  209.5000   200.1360    32.4720    35.0270  -213.4010    57.0380   172.0920   176.4880   227.9870     2.1490 
  209.6250   200.2450    32.5160    35.0700  -213.5940    56.7550   153.4560   156.2740   180.7910     2.1530 
  209.7500   200.3540    32.5590    35.1130  -213.8720    55.8230   141.2430   143.7700   135.5020     2.1460 
  209.8750   200.4630    32.6020    35.1550  -214.3000    55.8960   136.6890   139.6450   110.4330     2.1370 
  210.0000   200.5730    32.6460    35.1980  -214.8280    58.5270   141.4660   145.6150   102.2600     2.1370 
  210.1250   200.6820    32.6890    35.2400  -215.4250    61.4420   154.1350   159.7230   119.4110     2.1440 
  210.2500   200.7910    32.7320    35.2830  -215.8460    62.6020   167.4900   173.1410   170.0320     2.1510 
  210.3750   200.9010    32.7760    35.3250  -216.1240    61.0310   174.5410   179.2330   218.6460     2.1510 
  210.5000   201.0100    32.8190    35.3680  -216.3880    57.4450   172.8410   175.6650   225.5920     2.1460 
  210.6250   201.1190    32.8620    35.4100  -216.6170    54.6830   163.4000   164.5790   201.2530     2.1450 
  210.7500   201.2290    32.9050    35.4530  -216.8460    55.6250   153.1930   154.0790   168.7850     2.1490 
  210.8750   201.3380    32.9480    35.4950  -217.0560    59.8350   147.8350   149.2040   143.1100     2.1580 
  211.0000   201.4470    32.9910    35.5380  -217.2220    62.3620   147.2410   149.4220   137.5780     2.1610 
  211.1250   201.5570    33.0340    35.5810  -217.3380    60.5810   151.2680   154.4090   151.9540     2.1550 
  211.2500   201.6660    33.0770    35.6240  -217.5000    58.7660   156.6090   160.4550   167.8370     2.1450 
  211.3750   201.7750    33.1200    35.6660  -217.6160    59.6410   160.7020   164.9470   165.3790     2.1360 
  211.5000   201.8850    33.1630    35.7090  -217.6090    59.6700   163.4340   168.0490   153.8760     2.1270 
  211.6250   201.9940    33.2060    35.7520  -217.4950    58.0200   165.2790   170.1890   157.5950     2.1230 
  211.7500   202.1030    33.2490    35.7940  -217.3070    56.8210   166.9290   171.9760   173.0970     2.1210 
  211.8750   202.2130    33.2920    35.8370  -217.1330    57.7390   168.1920   173.0290   180.7300     2.1210 
  212.0000   202.3220    33.3340    35.8800  -217.0090    56.7240   168.8350   173.3170   178.8330     2.1210 
  212.1250   202.4320    33.3770    35.9220  -216.8700    54.7120   169.2320   173.4650   187.8670     2.1200 
  212.2500   202.5410    33.4200    35.9650  -216.6730    55.9430   170.5170   174.7580   147.8510     2.1200 
  212.3750   202.6500    33.4630    36.0080  -216.5020    59.5480   172.5250   176.7450   106.4010     2.1180 
  212.5000   202.7600    33.5060    36.0500  -216.3850    60.8630   173.9390   177.8710    96.1760     2.1160 
  212.6250   202.8690    33.5490    36.0930  -216.3070    60.4480   173.6740   176.9590   108.8440     2.1160 
  212.7500   202.9790    33.5910    36.1360  -216.2150    60.6380   170.3410   172.8980   127.4020     2.1190 
  212.8750   203.0880    33.6340    36.1780  -216.1240    61.6420   164.2840   166.3180   143.2360     2.1270 
  213.0000   203.1970    33.6770    36.2210  -215.9920    61.0410   156.5990   158.3830   143.3990     2.1340 
  213.1250   203.3070    33.7200    36.2630  -215.9660    60.6520   148.1620   150.1770   122.0730     2.1380 
  213.2500   203.4160    33.7630    36.3060  -216.1370    62.2660   141.6860   144.2870    92.5700     2.1400 
