~V
VERS. 2.00: Ver 2.00
~W
STRT.M 56.0000:
STOP.M 276.0000:
STEP.M 0.1250:
NULL. -999.2500:
UWI. FD11178:
~C
DEPT.M :
TVD. :
DX. :
DY. :
SP.MV :
GR.API :
RI. :
RML.OHMM :
DEN.GM/CC :
RXO.OHMM :
~A
# ...
  165.5000   162.4610    -3.1140   -22.2420    -5.1560    49.8880     9.9810    12.3700     2.4570    12.7920 
  165.6250   162.5790    -3.1220   -22.2840    -5.1800    48.7060    10.1020    12.5030     2.4670    11.2620 
  165.7500   162.6960    -3.1300   -22.3260    -5.2320    53.3500    10.3590    12.8180     2.4680    10.1230 
  165.8750   162.8140    -3.1380   -22.3670    -5.2900    61.0370    10.8370    13.4820     2.4440     9.8020 
  166.0000   162.9310    -3.1460   -22.4090    -5.3660    62.8250    11.3690    14.2340     2.4110    10.5450 
  166.1250   163.0490    -3.1540   -22.4510    -5.4380    58.7260    11.7810    14.8050     2.4000    12.3960 
  166.2500   163.1660    -3.1620   -22.4930    -5.5610    57.9080    11.9310    14.9880     2.4100    14.1030 
  166.3750   163.2840    -3.1700   -22.5350    -5.7360    62.1560    11.7230    14.6600     2.4170    14.1360 
  166.5000   163.4010    -3.1780   -22.5770    -5.9520    65.7700    11.2580    13.9900     2.4210    12.6490 
  166.6250   163.5190    -3.1850   -22.6190    -6.1260    65.3870    10.7680    13.3360     2.4350    12.3630 
  166.7500   163.6360    -3.1930   -22.6600    -6.2010    65.2150    10.4360    12.9100     2.4520    16.2800 
  166.8750   163.7540    -3.2000   -22.7020    -6.2830    64.5670    10.3800    12.8870     2.4450    21.3810 
  167.0000   163.8710    -3.2080   -22.7440    -6.3620    61.7140    10.5560    13.1800     2.4210    20.6250 
  167.1250   163.9890    -3.2150   -22.7860    -6.2770    59.1380    10.7390    13.4560     2.4120    14.8910 
  167.2500   164.1070    -3.2230   -22.8280    -6.1130    59.8920    10.6670    13.3570     2.4260    11.0090 
  167.3750   164.2240    -3.2300   -22.8700    -5.9870    61.5070    10.2920    12.8480     2.4380    11.1800 
  167.5000   164.3420    -3.2370   -22.9120    -5.9690    61.3190     9.7060    12.0490     2.4300    12.8670 
  167.6250   164.4590    -3.2450   -22.9530    -6.0530    60.6180     9.0830    11.2350     2.4290    12.9300 
  167.7500   164.5770    -3.2520   -22.9950    -6.1770    61.7510     8.6590    10.7120     2.4460    12.1910 
  167.8750   164.6940    -3.2600   -23.0370    -6.2460    62.7210     8.4000    10.4090     2.4570    11.5360 
  168.0000   164.8120    -3.2680   -23.0790    -6.2970    62.2390     8.3400    10.3650     2.4450    10.9810 
  168.1250   164.9290    -3.2750   -23.1210    -6.3370    60.4770     8.4280    10.5080     2.4270    10.7590 
  168.2500   165.0470    -3.2830   -23.1630    -6.3800    59.6520     8.5040    10.6110     2.4260    10.7370 
  168.3750   165.1640    -3.2910   -23.2050    -6.4050    61.9630     8.5150    10.6070     2.4400    10.7370 
  168.5000   165.2820    -3.2980   -23.2470    -6.3520    64.1910     8.4300    10.4670     2.4560    10.7370 
  168.6250   165.3990    -3.3060   -23.2900    -6.1950    62.3430     8.3240    10.3010     2.4720    10.7370 
  168.7500   165.5160    -3.3150   -23.3320    -6.0510    59.9450     8.2860    10.2360     2.4890    10.7370 
  168.8750   165.6340    -3.3230   -23.3740    -6.0390    60.2710     8.3300    10.2550     2.5040    10.7370 
  169.0000   165.7510    -3.3320   -23.4160    -6.0940    62.0380     8.3940    10.2390     2.5060    10.7370 
  169.1250   165.8680    -3.3400   -23.4580    -6.1010    61.6950     8.4520    10.1890     2.4970    10.7190 
  169.2500   165.9860    -3.3490   -23.5000    -6.0410    61.1370     8.5600    10.1600     2.4850    10.5840 
  169.3750   166.1030    -3.3580   -23.5430    -6.0180    63.2110     8.7570    10.1990     2.4760    10.3550 
  169.5000   166.2200    -3.3670   -23.5850    -6.0830    65.5870     9.0160    10.2760     2.4780    10.1670 
  169.6250   166.3380    -3.3750   -23.6270    -6.1670    67.1110     9.2840    10.2890     2.4890    10.0080 
  169.7500   166.4550    -3.3840   -23.6700    -6.2480    66.0860     9.4590    10.1870     2.5030     9.7660 
  169.8750   166.5720    -3.3930   -23.7120    -6.3110    63.0440     9.4490     9.9310     2.5220     9.4920 
  170.0000   166.6900    -3.4010   -23.7540    -6.3580    60.3410     9.2380     9.5500     2.5350     9.0700 
  170.1250   166.8070    -3.4090   -23.7970    -6.4400    59.2470     8.7120     8.9440     2.5170     8.3870 
  170.2500   166.9240    -3.4180   -23.8390    -6.5530    58.3040     7.9540     8.1620     2.4650     7.7260 
  170.3750   167.0420    -3.4260   -23.8810    -6.5860    55.9160     7.1300     7.3740     2.4050     7.2130 
  170.5000   167.1590    -3.4330   -23.9240    -6.5270    53.3070     6.3610     6.6520     2.3680     6.6890 
  170.6250   167.2760    -3.4410   -23.9660    -6.5020    51.2100     5.7380     6.0920     2.3550     6.0110 
  170.7500   167.3940    -3.4490   -24.0080    -6.5050    49.6760     5.2840     5.6580     2.3520     5.3310 
  170.8750   167.5110    -3.4570   -24.0500    -6.4850    49.4750     4.9210     5.2930     2.3490     4.9170 
  171.0000   167.6280    -3.4650   -24.0930    -6.4350    51.1700     4.7590     5.1260     2.3510     4.9270 
  171.1250   167.7460    -3.4730   -24.1350    -6.4550    53.7030     5.0170     5.4570     2.3610     5.2510 
  171.2500   167.8630    -3.4810   -24.1770    -6.5890    57.7220     5.7530     6.3720     2.3560     5.3720 
  171.3750   167.9810    -3.4880   -24.2200    -6.7280    62.9420     7.6480     8.4910     2.3090     7.5530 
  171.5000   168.0980    -3.4960   -24.2620    -6.8350    66.6880    12.0240    13.2500     2.2430    24.0180 
  171.6250   168.2150    -3.5030   -24.3040    -6.8240    65.8020    20.2470    22.7370     2.1990    47.0300 
  171.7500   168.3330    -3.5110   -24.3470    -6.7690    62.8800    32.9010    36.6080     2.1850    61.7140 
  171.8750   168.4500    -3.5190   -24.3890    -6.6870    61.0310    46.2250    50.7830     2.1800    72.3160 
  172.0000   168.5670    -3.5270   -24.4310    -6.6010    62.8400    57.2220    61.8210     2.1740    71.1400 
  172.1250   168.6850    -3.5350   -24.4740    -6.5360    67.5100    64.8490    68.9970     2.1720    62.6560 
  172.2500   168.8020    -3.5440   -24.5160    -6.4530    71.6200    70.6540    75.5050     2.1700    56.8510 
  172.3750   168.9190    -3.5520   -24.5590    -6.3460    73.0320    77.7780    83.7440     2.1600    58.1490 
  172.5000   169.0360    -3.5610   -24.6020    -6.2890    72.7590    87.7860    95.4760     2.1500    71.1840 
  172.6250   169.1530    -3.5690   -24.6450    -6.2860    71.5580    99.0750   107.8530     2.1470    99.6300 
  172.7500   169.2700    -3.5780   -24.6870    -6.3140    69.8330   107.9100   116.9420     2.1480   139.6540 
  172.8750   169.3880    -3.5860   -24.7300    -6.2730    68.5910   110.6010   122.1530     2.1510   165.6010 
  173.0000   169.5050    -3.5950   -24.7730    -6.1290    67.7120   107.3330   118.1840     2.1550   190.2410 
  173.1250   169.6220    -3.6040   -24.8160    -6.0130    66.0210   100.2130   109.7030     2.1590   228.7360 
  173.2500   169.7390    -3.6130   -24.8590    -5.9140    63.2740    93.8750   102.3320     2.1630   215.7380 
  173.3750   169.8560    -3.6210   -24.9020    -5.8100    62.2630    90.4710    97.8540     2.1610   143.7740 
  173.5000   169.9730    -3.6300   -24.9460    -5.6270    64.0850    88.6970    95.1530     2.1590    87.8280 
  173.6250   170.0900    -3.6380   -24.9890    -5.4060    66.6520    87.6210    93.5880     2.1570    63.9650 
  173.7500   170.2070    -3.6460   -25.0320    -5.2630    68.5210    85.2510    92.2240     2.1550    84.6860 
  173.8750   170.3240    -3.6550   -25.0750    -5.2570    69.0460    81.3370    87.9410     2.1570   104.5710 
  174.0000   170.4410    -3.6630   -25.1180    -5.2610    69.5660    77.2420    82.3500     2.1700   131.2840 
  174.1250   170.5580    -3.6710   -25.1620    -5.2010    70.0100    73.6900    77.9060     2.1870   158.3430 
  174.2500   170.6750    -3.6800   -25.2050    -5.1130    69.7260    71.1380    74.6680     2.1910   149.7180 
  174.3750   170.7920    -3.6880   -25.2480    -5.0820    69.1000    70.1990    73.3160     2.1850   104.1860 
  174.5000   170.9090    -3.6960   -25.2910    -5.0980    69.4100    70.4440    73.3310     2.1820    67.9010 
