~V
VERS. 2.00: Ver 2.00
~W
STRT.M 11.0000:
STOP.M 273.0000:
STEP.M 0.1250:
NULL. -999.2500:
UWI. FD11023:
~C
DEPT.M :
TVD. :
DX. :
DY. :
GR.API :
RML.OHMM :
RI. :
RXO.OHMM :
CALI.CM :
DEN.GM/CC :
SP.MV :
~A
# ...
  118.2500   118.0980    -3.2890     0.9830    81.6260     5.7270     5.0270     5.0400    25.2510     2.2200   -17.5220 
  118.3750   118.2220    -3.3020     0.9890    75.0640     6.0530     5.2270     5.3550    25.1490     2.2470   -17.6620 
  118.5000   118.3460    -3.3160     0.9950    67.9960     6.7050     5.6660     5.9250    24.9490     2.2920   -17.8070 
  118.6250   118.4700    -3.3300     1.0010    62.5730     7.7960     6.4510     7.0280    24.6840     2.3410   -17.9720 
  118.7500   118.5940    -3.3430     1.0060    59.9840     9.1270     7.4640     8.4160    24.5290     2.3600   -18.1540 
  118.8750   118.7180    -3.3570     1.0120    60.2610    10.4040     8.5080     9.8640    24.4800     2.3200   -18.3390 
  119.0000   118.8420    -3.3740     1.0190    60.3780    11.2570     9.3060    10.8240    24.4760     2.2370   -18.5050 
  119.1250   118.9660    -3.3900     1.0260    57.8320    11.2750     9.5070     9.9790    24.4760     2.1710   -18.6160 
  119.2500   119.0900    -3.4060     1.0320    55.3970    10.6560     9.1750     8.8840    24.4760     2.1370   -18.6650 
  119.3750   119.2130    -3.4230     1.0390    55.2480     9.8220     8.5780     8.4380    24.4760     2.1240   -18.6410 
  119.5000   119.3370    -3.4390     1.0450    57.6390     9.2500     8.0700     8.6450    24.4760     2.1150   -18.5470 
  119.6250   119.4610    -3.4560     1.0520    58.7740     9.3320     7.9880     9.5030    24.4760     2.1010   -18.3830 
  119.7500   119.5840    -3.4720     1.0580    57.5070    10.0080     8.3670    10.8720    24.4760     2.0870   -18.1740 
  119.8750   119.7080    -3.4890     1.0650    55.7630    11.1760     9.1940    12.5900    24.4890     2.0810   -17.9400 
  120.0000   119.8320    -3.5050     1.0710    53.7890    12.6930    10.4040    14.5920    24.5410     2.0890   -17.6910 
  120.1250   119.9560    -3.5210     1.0780    49.9830    14.4260    11.9410    16.6350    24.6580     2.1110   -17.4160 
  120.2500   120.0790    -3.5380     1.0850    46.5120    16.2180    13.6510    18.8030    24.7330     2.1390   -17.1300 
  120.3750   120.2030    -3.5540     1.0910    45.5520    18.0060    15.4580    21.0770    24.7250     2.1700   -16.8430 
  120.5000   120.3270    -3.5710     1.0980    46.2520    19.7400    17.2930    22.8010    24.6950     2.2050   -16.5640 
  120.6250   120.4510    -3.5870     1.1040    45.4680    21.2460    19.0010    23.6690    24.6840     2.2520   -16.3080 
  120.7500   120.5740    -3.6030     1.1110    43.3820    22.2150    20.2950    24.5090    24.6830     2.3090   -16.0450 
  120.8750   120.6980    -3.6200     1.1170    41.5170    22.2260    20.7720    26.0760    24.6830     2.3630   -15.7690 
  121.0000   120.8220    -3.6360     1.1240    42.0360    20.9530    20.0680    27.6470    24.6830     2.3830   -15.4800 
  121.1250   120.9460    -3.6530     1.1310    45.0750    18.2720    17.9410    27.6910    24.6830     2.3470   -15.1800 
  121.2500   121.0690    -3.6690     1.1370    48.3170    14.9990    15.0950    24.6000    24.6830     2.2920   -14.9040 
  121.3750   121.1930    -3.6850     1.1440    52.6800    11.8840    12.2290    17.2620    24.6830     2.2570   -14.6600 
  121.5000   121.3170    -3.7020     1.1500    58.8530     9.4940     9.9020    10.1140    24.6800     2.2550   -14.4470 
  121.6250   121.4410    -3.7180     1.1570    63.1160     8.1570     8.4660     7.5440    24.6600     2.2750   -14.2940 
  121.7500   121.5640    -3.7350     1.1630    63.5790     7.5500     7.7020     6.7950    24.6230     2.2940   -14.1930 
  121.8750   121.6880    -3.7510     1.1700    63.0280     7.3970     7.4090     6.6550    24.5920     2.3010   -14.1210 
  122.0000   121.8120    -3.7680     1.1770    62.3060     7.4180     7.3630     6.7100    24.5810     2.2980   -14.0560 
  122.1250   121.9360    -3.7840     1.1830    60.5160     7.3630     7.3420     6.7360    24.5820     2.2880   -13.9820 
  122.2500   122.0590    -3.8000     1.1900    60.2120     7.1540     7.2160     6.5780    24.5800     2.2750   -13.9030 
  122.3750   122.1830    -3.8170     1.1960    63.1070     6.8450     6.9900     6.1920    24.5740     2.2680   -13.8440 
  122.5000   122.3070    -3.8330     1.2030    66.1460     6.5600     6.7460     5.8530    24.5480     2.2740   -13.8300 
  122.6250   122.4300    -3.8500     1.2090    64.8430     6.4710     6.6250     6.0010    24.4870     2.3040   -13.8550 
  122.7500   122.5540    -3.8660     1.2160    60.7930     6.6730     6.7280     6.5160    24.4350     2.3490   -13.8860 
  122.8750   122.6780    -3.8820     1.2220    56.9550     7.2710     7.1560     7.3050    24.4100     2.4040   -13.9090 
  123.0000   122.8020    -3.8990     1.2290    55.6230     8.3450     7.9930     8.4730    24.3950     2.4660   -13.9230 
  123.1250   122.9250    -3.9150     1.2360    57.1290     9.9960     9.3560    10.5760    24.3730     2.5200   -13.9110 
  123.2500   123.0490    -3.9320     1.2420    56.5150    12.0540    11.1260    13.4550    24.3600     2.5510   -13.8750 
  123.3750   123.1730    -3.9480     1.2490    51.8270    14.3470    13.1770    16.8640    24.3460     2.5570   -13.8420 
  123.5000   123.2970    -3.9640     1.2550    45.8720    16.6490    15.3130    20.3390    24.3230     2.5550   -13.8130 
  123.6250   123.4200    -3.9810     1.2620    41.7840    18.6990    17.2730    21.9510    24.3120     2.5580   -13.7860 
  123.7500   123.5440    -3.9970     1.2680    38.4180    20.4590    18.9510    22.2970    24.3090     2.5640   -13.7630 
  123.8750   123.6680    -4.0140     1.2750    36.6220    22.0060    20.3760    23.7720    24.3040     2.5620   -13.7390 
  124.0000   123.7920    -4.0300     1.2820    37.5720    23.4250    21.6340    26.6730    24.2910     2.5460   -13.7310 
  124.1250   123.9150    -4.0470     1.2880    39.3020    24.6610    22.7400    27.2560    24.2690     2.5200   -13.7510 
  124.2500   124.0390    -4.0630     1.2950    37.8260    25.5890    23.6390    25.8440    24.2600     2.4970   -13.7880 
  124.3750   124.1630    -4.0790     1.3010    34.1270    26.0630    24.2060    24.2040    24.2570     2.4820   -13.8400 
  124.5000   124.2870    -4.0960     1.3080    32.4650    26.0390    24.3570    23.2120    24.2570     2.4680   -13.8860 
  124.6250   124.4100    -4.1120     1.3140    34.4980    25.5960    24.0920    22.5390    24.2500     2.4500   -13.9100 
  124.7500   124.5340    -4.1290     1.3210    37.6010    25.0080    23.6320    21.5550    24.2320     2.4330   -13.9250 
  124.8750   124.6580    -4.1450     1.3280    39.7090    24.4000    23.1020    20.3090    24.2110     2.4200   -13.9390 
  125.0000   124.7820    -4.1610     1.3340    40.0910    23.8210    22.5710    19.4900    24.2010     2.4140   -13.9620 
  125.1250   124.9050    -4.1780     1.3410    39.3170    23.2820    22.0760    19.0850    24.2000     2.4080   -13.9940 
  125.2500   125.0290    -4.1940     1.3470    37.3810    22.7620    21.6120    18.7030    24.2000     2.4000   -14.0050 
  125.3750   125.1530    -4.2110     1.3540    35.9050    22.2510    21.1700    18.2080    24.1960     2.3980   -13.9730 
  125.5000   125.2770    -4.2270     1.3600    35.9720    21.7700    20.7610    17.9650    24.1820     2.4100   -13.9050 
  125.6250   125.4000    -4.2430     1.3670    36.7840    21.4150    20.4550    17.7050    24.1460     2.4320   -13.8450 
  125.7500   125.5240    -4.2600     1.3730    37.7700    21.2800    20.3260    17.7120    24.1150     2.4510   -13.8160 
  125.8750   125.6480    -4.2760     1.3800    38.9940    21.4350    20.4420    18.0550    24.0960     2.4620   -13.8140 
  126.0000   125.7710    -4.2930     1.3870    39.7810    21.8770    20.8130    18.6550    24.0900     2.4730   -13.8200 
  126.1250   125.8950    -4.3090     1.3930    38.6210    22.5370    21.3960    19.4190    24.0890     2.4910   -13.8310 
  126.2500   126.0190    -4.3260     1.4000    36.3950    23.2280    22.0370    19.8120    24.0850     2.5070   -13.8390 
  126.3750   126.1430    -4.3420     1.4060    35.7400    23.8190    22.6200    20.2270    24.0750     2.5140   -13.8490 
