~V
VERS. 2.00: Ver 2.00
~W
STRT.M 10.0000:
STOP.M 230.0000:
STEP.M 0.1250:
NULL. -999.2500:
UWI. FD11119:
~C
DEPT.M :
TVD. :
DX. :
DY. :
SP.MV :
DEN.GM/CC :
GR.API :
RML.OHMM :
RI. :
RXO.OHMM :
CALI.CM :
~A
# ...
  166.7500   163.2520   -23.8410    -9.4360   -31.9900     2.2320    62.6450   114.3840   102.7760    33.5040    21.4860 
  166.8750   163.3690   -23.8800    -9.4530   -32.3720     2.2090    59.6750   130.1800   117.2470    30.4810    21.4300 
  167.0000   163.4870   -23.9180    -9.4690   -32.7470     2.1930    59.2250   145.2100   131.0420    27.4090    21.4260 
  167.1250   163.6050   -23.9570    -9.4860   -33.0670     2.1890    60.9430   158.6310   143.4280    26.9190    21.4290 
  167.2500   163.7220   -23.9960    -9.5030   -33.3390     2.1910    62.1370   170.2020   154.3980    28.8460    21.4440 
  167.3750   163.8400   -24.0340    -9.5190   -33.5780     2.1940    61.9870   178.7940   163.2320    32.3450    21.4840 
  167.5000   163.9580   -24.0730    -9.5360   -33.7660     2.1960    61.1740   182.7780   168.5590    35.0770    21.4990 
  167.6250   164.0750   -24.1120    -9.5530   -33.8740     2.1970    61.5630   180.0760   168.1400    34.8100    21.4800 
  167.7500   164.1930   -24.1510    -9.5700   -33.9210     2.2000    63.9260   172.3940   162.8010    32.1130    21.4040 
  167.8750   164.3110   -24.1890    -9.5860   -33.9630     2.2050    66.3920   161.8670   154.0820    28.2520    21.3490 
  168.0000   164.4280   -24.2280    -9.6030   -33.9790     2.2130    64.6310   150.9110   144.2100    25.3240    21.3390 
  168.1250   164.5460   -24.2670    -9.6200   -33.9940     2.2220    61.3350   141.5590   135.3930    24.4890    21.3390 
  168.2500   164.6640   -24.3050    -9.6360   -34.0090     2.2300    62.0400   134.2950   128.4880    25.4680    21.3390 
  168.3750   164.7810   -24.3440    -9.6530   -34.0150     2.2370    65.7450   129.2970   123.7380    27.1030    21.3390 
  168.5000   164.8990   -24.3830    -9.6700   -34.0270     2.2430    67.0140   126.6610   121.2360    28.6360    21.3390 
  168.6250   165.0170   -24.4220    -9.6860   -34.0600     2.2470    66.5390   126.7850   121.3590    29.2180    21.3390 
  168.7500   165.1340   -24.4600    -9.7030   -34.0930     2.2480    67.9690   129.0470   123.5420    27.7900    21.3390 
  168.8750   165.2520   -24.4990    -9.7200   -34.0950     2.2470    69.1040   132.8630   127.3150    25.0290    21.3390 
  169.0000   165.3700   -24.5380    -9.7370   -34.0750     2.2420    68.0480   137.0020   131.7170    22.7480    21.3390 
  169.1250   165.4870   -24.5760    -9.7530   -33.9920     2.2380    65.3590   138.8400   134.5560    22.7600    21.3390 
  169.2500   165.6050   -24.6150    -9.7700   -33.8670     2.2340    62.7420   136.5050   133.7940    24.5880    21.3390 
  169.3750   165.7230   -24.6540    -9.7870   -33.7100     2.2310    62.0900   129.6250   128.5510    27.1720    21.3390 
  169.5000   165.8400   -24.6930    -9.8030   -33.5000     2.2270    64.4220   119.8410   119.7920    28.8190    21.3390 
  169.6250   165.9580   -24.7310    -9.8200   -33.2290     2.2240    67.1320   110.4220   110.1380    28.3920    21.3390 
  169.7500   166.0760   -24.7700    -9.8370   -32.9260     2.2260    67.2000   104.1170   102.5820    27.6690    21.3390 
  169.8750   166.1940   -24.8090    -9.8540   -32.6200     2.2370    67.1580   102.3580    98.8150    26.4750    21.3390 
  170.0000   166.3110   -24.8470    -9.8700   -32.2730     2.2560    68.8600   105.8610    99.7090    25.8650    21.3450 
  170.1250   166.4290   -24.8860    -9.8870   -31.9220     2.2740    70.3110   115.9860   106.5370    26.5160    21.3850 
  170.2500   166.5470   -24.9250    -9.9040   -31.5400     2.2840    68.9990   132.1490   118.7370    28.6730    21.5040 
  170.3750   166.6640   -24.9640    -9.9200   -31.1130     2.2800    66.6410   154.7700   136.6990    31.2890    21.5700 
  170.5000   166.7820   -25.0020    -9.9370   -30.6730     2.2650    65.5860   184.3300   160.9550    33.2670    21.5810 
  170.6250   166.9000   -25.0410    -9.9540   -30.1850     2.2420    64.1630   222.4220   193.1180    33.9530    21.5810 
  170.7500   167.0170   -25.0800    -9.9700   -29.6660     2.2170    59.3010   267.3520   231.6500    32.2250    21.5810 
  170.8750   167.1350   -25.1180    -9.9870   -29.1470     2.1920    53.6130   316.7750   274.3620    28.8180    21.5810 
  171.0000   167.2530   -25.1570   -10.0040   -28.6340     2.1700    51.8090   365.1220   316.5690    26.0480    21.5810 
  171.1250   167.3700   -25.1960   -10.0210   -28.1300     2.1540    53.7110   399.8460   348.9560    26.0830    21.5810 
  171.2500   167.4880   -25.2350   -10.0370   -27.6600     2.1470    54.3470   408.3660   362.8250    27.9250    21.5800 
  171.3750   167.6060   -25.2730   -10.0540   -27.2170     2.1460    54.2240   376.9820   347.1570    29.8710    21.5650 
  171.5000   167.7230   -25.3120   -10.0710   -26.8210     2.1480    56.8420   306.4240   296.7920    30.6720    21.4820 
  171.6250   167.8410   -25.3510   -10.0870   -26.4730     2.1500    62.3040   224.0390   224.5280    29.0120    21.1420 
  171.7500   167.9590   -25.3900   -10.1040   -26.1980     2.1540    65.5530   158.9810   159.1700    25.6770    20.7080 
  171.8750   168.0760   -25.4280   -10.1210   -25.9460     2.1670    65.1070   116.4930   112.3350    22.4260    20.4490 
  172.0000   168.1940   -25.4670   -10.1370   -25.7090     2.1940    62.7030    92.5040    84.2130    19.9650    20.3950 
  172.1250   168.3120   -25.5060   -10.1540   -25.5090     2.2310    62.8190    82.9200    71.8180    18.5940    20.3920 
  172.2500   168.4290   -25.5440   -10.1710   -25.3360     2.2630    64.1550    80.8370    67.5200    18.7870    20.3920 
  172.3750   168.5470   -25.5830   -10.1880   -25.1960     2.2770    63.9650    83.1460    67.8980    20.4210    20.3920 
  172.5000   168.6650   -25.6220   -10.2040   -25.0680     2.2730    62.1620    87.2040    70.5760    22.4940    20.3920 
  172.6250   168.7820   -25.6610   -10.2210   -24.9540     2.2570    60.8470    90.1170    73.3330    22.7720    20.3920 
  172.7500   168.9000   -25.6990   -10.2380   -24.8110     2.2430    61.1660    90.4400    74.5200    21.5830    20.3920 
  172.8750   169.0180   -25.7380   -10.2540   -24.6630     2.2390    62.3890    88.5680    73.9390    20.8160    20.3920 
  173.0000   169.1350   -25.7770   -10.2710   -24.5240     2.2440    65.1100    86.0950    72.4690    21.0980    20.3920 
  173.1250   169.2530   -25.8150   -10.2880   -24.3850     2.2530    66.6760    84.6440    71.4170    21.1450    20.3960 
  173.2500   169.3710   -25.8540   -10.3040   -24.2400     2.2600    64.5720    83.7970    70.9310    22.6710    20.4260 
  173.3750   169.4880   -25.8930   -10.3210   -24.0990     2.2630    61.6110    81.6400    69.7400    25.9290    20.5090 
  173.5000   169.6060   -25.9320   -10.3380   -23.9610     2.2600    63.3910    75.7540    65.8260    27.7670    20.7570 
  173.6250   169.7240   -25.9700   -10.3550   -23.8160     2.2560    69.5250    64.5490    57.3160    28.0350    21.0510 
  173.7500   169.8410   -26.0090   -10.3710   -23.6900     2.2570    72.9620    48.6620    46.3260    26.6390    21.1880 
  173.8750   169.9590   -26.0480   -10.3880   -23.5490     2.2660    73.6430    35.4180    35.5490    24.3840    21.2900 
  174.0000   170.0770   -26.0860   -10.4050   -23.4180     2.2850    76.6940    26.9120    26.9460    22.1550    21.3320 
  174.1250   170.1940   -26.1250   -10.4210   -23.3080     2.3120    83.3270    21.5090    21.4260    20.2020    21.3390 
  174.2500   170.3120   -26.1640   -10.4380   -23.2130     2.3400    88.8770    18.4740    18.0200    19.1600    21.3390 
  174.3750   170.4300   -26.2030   -10.4550   -23.1550     2.3600    92.0200    17.1430    16.1870    18.8200    21.3390 
  174.5000   170.5470   -26.2410   -10.4720   -23.1180     2.3690    91.3170    16.9300    15.5240    18.4480    21.3390 
  174.6250   170.6650   -26.2800   -10.4880   -23.1410     2.3670    88.5710    17.3560    15.7540    17.6830    21.3390 
  174.7500   170.7830   -26.3190   -10.5050   -23.1970     2.3590    86.7960    17.8420    16.3130    16.6100    21.3390 
  174.8750   170.9000   -26.3570   -10.5220   -23.2940     2.3500    84.9830    18.0370    16.7810    16.2110    21.3390 
