~V
VERS. 2.00: Ver 2.00
~W
STRT.M 35.0000:
STOP.M 279.0000:
STEP.M 0.1250:
NULL. -999.2500:
UWI. FD11183:
~C
DEPT.M :
TVD. :
DX. :
DY. :
SP.MV :
GR.API :
RI. :
RML.OHMM :
RXO.OHMM :
DEN.GM/CC :
~A
# ...
  144.5000   141.1830   -20.1380     5.4200  -106.9320    90.9220     5.1040     5.7790    11.8870     2.5260 
  144.6250   141.2990   -20.1850     5.4260  -107.2790    78.0480     5.5130     6.1680    13.7930     2.5730 
  144.7500   141.4140   -20.2330     5.4320  -107.5590    71.3850     5.3660     5.9120    10.7660     2.5180 
  144.8750   141.5300   -20.2810     5.4380  -107.7090    73.4700     4.6500     5.0340     6.7120     2.3860 
  145.0000   141.6450   -20.3290     5.4430  -107.7230    78.3510     3.7750     4.0370     4.7200     2.2610 
  145.1250   141.7600   -20.3760     5.4490  -107.7550    80.6750     3.0700     3.2610     4.3250     2.1940 
  145.2500   141.8760   -20.4240     5.4550  -107.9330    80.1660     2.6380     2.7880     3.9770     2.1820 
  145.3750   141.9910   -20.4720     5.4610  -108.2180    81.5080     2.4720     2.5970     3.2920     2.2070 
  145.5000   142.1060   -20.5200     5.4670  -108.5070    86.0110     2.5070     2.6410     2.8490     2.2390 
  145.6250   142.2220   -20.5680     5.4730  -108.6660    89.5890     2.7660     2.9600     3.0700     2.2510 
  145.7500   142.3370   -20.6150     5.4790  -108.6290    88.0430     3.3460     3.6300     4.0330     2.2540 
  145.8750   142.4520   -20.6630     5.4850  -108.5630    81.7650     4.3040     4.6700     5.5990     2.2630 
  146.0000   142.5680   -20.7110     5.4900  -108.7010    76.9230     5.4110     5.7830     6.6690     2.2660 
  146.1250   142.6830   -20.7590     5.4960  -109.0740    73.0380     6.0730     6.3730     6.6400     2.2620 
  146.2500   142.7980   -20.8070     5.5010  -109.4400    67.7350     6.0580     6.2650     7.6350     2.2990 
  146.3750   142.9140   -20.8550     5.5070  -109.5730    65.9810     5.3160     5.4320    11.4370     2.3690 
  146.5000   143.0290   -20.9030     5.5120  -109.4340    68.7500     4.2790     4.3400    12.6640     2.4010 
  146.6250   143.1440   -20.9510     5.5180  -109.1220    73.9070     3.4300     3.4840     7.9180     2.3640 
  146.7500   143.2600   -20.9980     5.5230  -108.7290    78.9860     2.8510     2.9270     3.9740     2.3150 
  146.8750   143.3750   -21.0460     5.5290  -108.2930    83.6350     2.5570     2.6830     3.3900     2.2960 
  147.0000   143.4900   -21.0940     5.5340  -107.8680    88.3380     2.4080     2.5830     3.3790     2.2980 
  147.1250   143.6060   -21.1420     5.5400  -107.5540    91.1550     2.3300     2.5230     3.3330     2.3020 
  147.2500   143.7210   -21.1900     5.5450  -107.4270    94.0920     2.3300     2.5210     3.1700     2.2990 
  147.3750   143.8360   -21.2380     5.5510  -107.4060    97.0770     2.4520     2.6550     2.9940     2.2930 
  147.5000   143.9520   -21.2860     5.5570  -107.3730    95.5360     2.7250     2.9680     3.0280     2.3070 
  147.6250   144.0670   -21.3340     5.5630  -107.4040    89.6080     3.1780     3.5240     4.2720     2.3540 
  147.7500   144.1820   -21.3820     5.5680  -107.6010    84.6350     3.7170     4.1910     6.1180     2.4220 
  147.8750   144.2970   -21.4300     5.5740  -107.9810    81.6060     4.0820     4.6110     6.2360     2.4560 
  148.0000   144.4130   -21.4780     5.5800  -108.5680    78.1920     4.0860     4.5940     5.3650     2.4080 
  148.1250   144.5280   -21.5260     5.5850  -109.1530    77.0440     3.7440     4.1600     4.9520     2.3080 
  148.2500   144.6430   -21.5740     5.5900  -109.5750    81.1630     3.2070     3.5170     4.4390     2.2430 
  148.3750   144.7590   -21.6220     5.5960  -109.8980    88.4940     2.9000     3.1790     3.7130     2.2420 
  148.5000   144.8740   -21.6700     5.6010  -110.0810    94.3150     2.8600     3.1580     3.3550     2.2510 
  148.6250   144.9890   -21.7180     5.6070  -110.0860    96.7990     3.1570     3.5340     3.5820     2.2460 
  148.7500   145.1050   -21.7660     5.6130  -109.9420    93.3010     3.7510     4.2810     4.7530     2.2520 
  148.8750   145.2200   -21.8140     5.6180  -109.8190    84.1650     4.5030     5.1610     7.7020     2.2820 
  149.0000   145.3350   -21.8620     5.6240  -109.8340    75.4490     5.2040     5.9350    10.6360     2.3000 
  149.1250   145.4500   -21.9100     5.6300  -109.9650    72.4910     5.6270     6.3330    10.1570     2.2810 
  149.2500   145.5660   -21.9580     5.6360  -110.0920    73.6640     5.6750     6.2640     7.3780     2.2360 
  149.3750   145.6810   -22.0060     5.6410  -110.1080    73.9580     5.5320     6.0240     5.7850     2.1830 
  149.5000   145.7960   -22.0540     5.6470  -110.0210    72.0190     5.3680     5.8070     5.7640     2.1330 
  149.6250   145.9110   -22.1020     5.6520  -109.8880    71.8710     5.2940     5.6910     5.9480     2.0940 
  149.7500   146.0270   -22.1500     5.6570  -109.7370    74.0980     5.2460     5.6310     5.8690     2.0740 
  149.8750   146.1420   -22.1980     5.6630  -109.5590    74.4460     5.2150     5.6050     5.7230     2.0770 
  150.0000   146.2570   -22.2460     5.6680  -109.3850    71.5840     5.1840     5.5940     5.4650     2.0950 
  150.1250   146.3730   -22.2940     5.6730  -109.2360    69.8880     5.1090     5.5420     5.1540     2.1110 
  150.2500   146.4880   -22.3420     5.6780  -109.1680    72.8080     4.9030     5.3540     5.2520     2.1130 
  150.3750   146.6030   -22.3900     5.6840  -109.2270    75.9650     4.5330     4.9510     5.6440     2.1130 
  150.5000   146.7180   -22.4380     5.6890  -109.3650    77.7290     4.0240     4.3810     5.5690     2.1310 
  150.6250   146.8330   -22.4860     5.6940  -109.4410    81.7610     3.4600     3.7460     4.7850     2.1780 
  150.7500   146.9490   -22.5350     5.6990  -109.3520    89.6130     2.9720     3.2020     3.8210     2.2350 
  150.8750   147.0640   -22.5830     5.7040  -109.2370    97.0130     2.6590     2.8610     3.1660     2.2720 
  151.0000   147.1790   -22.6310     5.7090  -109.1620    99.3050     2.5210     2.7240     2.8940     2.2770 
  151.1250   147.2940   -22.6790     5.7140  -109.0660    95.3740     2.6170     2.8390     3.0760     2.2510 
  151.2500   147.4100   -22.7280     5.7190  -108.9760    89.9330     2.9660     3.2170     3.6040     2.2260 
  151.3750   147.5250   -22.7760     5.7240  -108.9640    85.7630     3.6690     3.9680     4.0590     2.2500 
  151.5000   147.6400   -22.8240     5.7290  -109.0850    83.6500     4.7360     5.0710     4.6570     2.3420 
  151.6250   147.7550   -22.8720     5.7340  -109.3190    80.3580     6.0450     6.3950     7.5660     2.4680 
  151.7500   147.8700   -22.9210     5.7390  -109.5910    73.4040     7.2040     7.4800    13.1260     2.5590 
  151.8750   147.9850   -22.9690     5.7440  -109.7210    65.2880     7.5280     7.9250    17.7270     2.5540 
  152.0000   148.1010   -23.0180     5.7490  -109.7230    59.7040     7.1580     7.6060    17.9620     2.4550 
  152.1250   148.2160   -23.0660     5.7540  -109.7200    60.1530     6.1990     6.5160    13.6470     2.3120 
  152.2500   148.3310   -23.1140     5.7590  -109.8520    62.7190     5.3060     5.5300     8.9190     2.2010 
  152.3750   148.4460   -23.1630     5.7640  -110.0750    63.7040     4.7920     4.9890     6.7160     2.1560 
  152.5000   148.5610   -23.2110     5.7690  -110.3140    64.6010     4.6100     4.8180     5.9290     2.1480 
  152.6250   148.6760   -23.2600     5.7740  -110.4970    67.3110     4.6000     4.8820     5.5920     2.1430 
  152.7500   148.7910   -23.3080     5.7800  -110.6600    69.9900     4.6590     5.0260     5.5600     2.1300 
  152.8750   148.9070   -23.3560     5.7850  -110.8400    68.7370     4.7330     5.1590     5.6630     2.1130 
  153.0000   149.0220   -23.4050     5.7900  -111.0200    67.1140     4.7760     5.2170     5.8430     2.1000 
  153.1250   149.1370   -23.4530     5.7960  -111.2100    68.3510     4.7820     5.2110     5.9710     2.0960 
  153.2500   149.2520   -23.5010     5.8010  -111.3020    70.7170     4.7760     5.1760     5.8850     2.1030 
  153.3750   149.3670   -23.5500     5.8060  -111.3310    72.0490     4.7540     5.0910     5.7150     2.1210 
  153.5000   149.4820   -23.5980     5.8120  -111.4000    71.4570     4.6700     4.9170     5.5610     2.1330 
