~V
VERS. 2.00: Ver 2.00
~W
STRT.M 11.0000:
STOP.M 273.0000:
STEP.M 0.1250:
NULL. -999.2500:
UWI. FD11023:
~C
DEPT.M :
TVD. :
DX. :
DY. :
GR.API :
RML.OHMM :
RI. :
RXO.OHMM :
CALI.CM :
DEN.GM/CC :
SP.MV :
~A
# ...
  151.2500   150.5860    -8.6710     2.9010    78.6220     5.3560     4.4450     4.5030    23.4040     2.2500   -17.7230 
  151.3750   150.7080    -8.6970     2.9090    80.8290     5.6050     4.5980     4.5340    23.3800     2.2570   -17.7830 
  151.5000   150.8300    -8.7220     2.9170    78.6650     6.0330     4.8760     4.6530    23.3530     2.2730   -17.8520 
  151.6250   150.9530    -8.7470     2.9250    74.6420     6.6960     5.3260     4.9720    23.2840     2.2970   -17.9290 
  151.7500   151.0750    -8.7730     2.9330    72.9460     7.5200     5.9050     5.5550    23.2050     2.3040   -18.0200 
  151.8750   151.1970    -8.7980     2.9410    73.9510     8.3990     6.5530     6.3570    23.1530     2.2840   -18.1060 
  152.0000   151.3190    -8.8230     2.9490    74.2780     9.1880     7.1720     7.2430    23.1320     2.2530   -18.1750 
  152.1250   151.4410    -8.8490     2.9570    71.7450     9.6800     7.6150     8.0840    23.1310     2.2340   -18.2310 
  152.2500   151.5630    -8.8740     2.9650    69.1780     9.8440     7.8310     8.4940    23.1250     2.2220   -18.2760 
  152.3750   151.6850    -8.9000     2.9730    71.3900     9.7350     7.8350     8.4290    23.1110     2.2090   -18.3280 
  152.5000   151.8070    -8.9250     2.9820    77.8050     9.4920     7.7130     8.1520    23.0870     2.1980   -18.3960 
  152.6250   151.9300    -8.9500     2.9900    82.5470     9.2940     7.5940     7.8530    23.0710     2.1950   -18.4740 
  152.7500   152.0520    -8.9760     2.9980    83.3290     9.2510     7.5730     7.6120    23.0630     2.2040   -18.5640 
  152.8750   152.1740    -9.0010     3.0060    80.9420     9.3710     7.6730     7.9650    23.0650     2.2210   -18.6430 
  153.0000   152.2960    -9.0260     3.0140    76.5630     9.5930     7.8630     8.7610    23.0760     2.2410   -18.6920 
  153.1250   152.4180    -9.0520     3.0220    71.5710     9.8060     8.0720     9.5490    23.0860     2.2520   -18.7230 
  153.2500   152.5400    -9.0770     3.0300    69.6690     9.9110     8.2200     9.7820    23.0900     2.2500   -18.7590 
  153.3750   152.6620    -9.1020     3.0380    71.0690     9.8650     8.2640     8.9830    23.0890     2.2410   -18.8040 
  153.5000   152.7850    -9.1280     3.0460    74.2410     9.6800     8.1990     7.8240    23.0890     2.2290   -18.8490 
  153.6250   152.9070    -9.1530     3.0540    78.6410     9.3930     8.0430     7.2610    23.0890     2.2160   -18.8870 
  153.7500   153.0290    -9.1790     3.0630    80.3880     9.0570     7.8440     6.9900    23.0890     2.2020   -18.9170 
  153.8750   153.1510    -9.2040     3.0710    76.9910     8.6810     7.6190     6.8090    23.0890     2.1910   -18.9420 
  154.0000   153.2730    -9.2290     3.0790    71.7590     8.2770     7.3730     6.6940    23.0890     2.1890   -18.9810 
  154.1250   153.3950    -9.2550     3.0870    71.2910     7.8730     7.1150     6.6080    23.0890     2.1970   -19.0370 
  154.2500   153.5170    -9.2800     3.0950    74.2760     7.5160     6.8690     6.3770    23.0890     2.2090   -19.0970 
  154.3750   153.6390    -9.3050     3.1030    75.1590     7.2610     6.6730     5.9470    23.0860     2.2220   -19.1690 
  154.5000   153.7620    -9.3310     3.1110    73.7950     7.1470     6.5650     5.7270    23.0760     2.2370   -19.2520 
  154.6250   153.8840    -9.3560     3.1190    74.0730     7.2140     6.5940     5.8250    23.0550     2.2480   -19.3380 
  154.7500   154.0060    -9.3820     3.1270    76.8540     7.4290     6.7540     6.0460    23.0440     2.2510   -19.4120 
  154.8750   154.1280    -9.4070     3.1350    78.4020     7.7730     7.0420     6.3950    23.0450     2.2450   -19.4840 
  155.0000   154.2500    -9.4320     3.1430    77.1510     8.2110     7.4340     6.9610    23.0450     2.2330   -19.5630 
  155.1250   154.3720    -9.4580     3.1520    74.9950     8.7000     7.8960     7.7000    23.0100     2.2200   -19.6390 
  155.2500   154.4940    -9.4830     3.1600    72.8950     9.1950     8.3790     8.4650    22.9500     2.2130   -19.7170 
  155.3750   154.6160    -9.5080     3.1680    69.7700     9.6770     8.8530     9.2050    22.9070     2.2120   -19.7960 
  155.5000   154.7390    -9.5340     3.1760    66.9430    10.1410     9.3000     9.5380    22.8930     2.2160   -19.8690 
  155.6250   154.8610    -9.5590     3.1840    66.7660    10.5840     9.6950     9.2690    22.8930     2.2150   -19.9450 
  155.7500   154.9830    -9.5850     3.1920    67.2310    10.9740    10.0190     9.3190    22.8930     2.2080   -20.0180 
  155.8750   155.1040    -9.6130     3.2000    66.7540    11.2310    10.2170     9.7820    22.8930     2.1970   -20.0810 
  156.0000   155.2260    -9.6400     3.2090    67.3320    11.2510    10.2190    10.1290    22.8930     2.1930   -20.1330 
  156.1250   155.3480    -9.6680     3.2170    69.0130    10.9170     9.9380    10.3040    22.8930     2.2000   -20.1730 
  156.2500   155.4690    -9.6950     3.2250    69.7110    10.3520     9.4640    10.1580    22.8930     2.2170   -20.2110 
  156.3750   155.5910    -9.7230     3.2340    69.0030     9.7970     8.9740     9.7920    22.8930     2.2440   -20.2530 
  156.5000   155.7130    -9.7500     3.2420    69.0980     9.6100     8.7440     9.5000    22.8920     2.2750   -20.3160 
  156.6250   155.8340    -9.7770     3.2500    69.3000    10.3150     9.2150     9.7350    22.8840     2.2900   -20.4150 
  156.7500   155.9560    -9.8050     3.2580    66.8270    12.0420    10.5830    10.9930    22.8650     2.2760   -20.5330 
  156.8750   156.0780    -9.8320     3.2670    61.4980    14.7990    12.9950    13.1660    22.8480     2.2460   -20.6560 
  157.0000   156.1990    -9.8600     3.2750    53.9550    18.3070    16.3750    15.5900    22.8410     2.2200   -20.7620 
  157.1250   156.3210    -9.8870     3.2830    48.1710    21.8450    20.2820    16.6070    22.8410     2.2120   -20.8410 
  157.2500   156.4430    -9.9140     3.2910    46.0630    24.4770    23.7450    16.3280    22.8410     2.2140   -20.9080 
  157.3750   156.5640    -9.9420     3.3000    46.4700    25.5810    25.9400    15.6860    22.8410     2.2220   -20.9800 
  157.5000   156.6860    -9.9690     3.3080    48.7610    25.1370    26.4890    14.9260    22.8410     2.2310   -21.0630 
  157.6250   156.8080    -9.9970     3.3160    52.5860    23.7510    25.6560    13.7850    22.8120     2.2410   -21.1470 
  157.7500   156.9290   -10.0240     3.3250    58.2580    22.3240    24.4220    12.6220    22.7320     2.2480   -21.2340 
  157.8750   157.0510   -10.0520     3.3330    62.5690    21.0390    23.1140    11.8370    22.6210     2.2490   -21.3210 
  158.0000   157.1730   -10.0790     3.3410    62.4080    19.7100    21.6600    11.3960    22.5420     2.2420   -21.4000 
  158.1250   157.2940   -10.1060     3.3490    60.1000    17.9590    19.7430    10.9760    22.5120     2.2290   -21.4840 
  158.2500   157.4160   -10.1340     3.3580    59.7660    15.7230    17.3240    10.3080    22.4890     2.2210   -21.5670 
  158.3750   157.5380   -10.1610     3.3660    61.1950    13.1920    14.6030     9.3260    22.4730     2.2210   -21.6440 
  158.5000   157.6590   -10.1890     3.3740    62.2470    10.7700    11.9950     8.0730    22.4670     2.2290   -21.7200 
  158.6250   157.7810   -10.2160     3.3830    62.8560     9.0390    10.0640     6.9620    22.4680     2.2360   -21.7920 
  158.7500   157.9030   -10.2430     3.3910    64.2220     8.1950     8.9780     6.4070    22.4820     2.2390   -21.8860 
  158.8750   158.0240   -10.2710     3.3990    65.0540     8.3400     8.8260     6.5240    22.5420     2.2290   -22.0130 
  159.0000   158.1460   -10.2980     3.4070    66.0290     9.5560     9.7020     7.2160    22.6960     2.2020   -22.1580 
  159.1250   158.2680   -10.3260     3.4160    68.9530    12.2220    12.0400     8.4110    22.9140     2.1630   -22.3290 
  159.2500   158.3890   -10.3530     3.4240    70.3950    16.3700    15.9820     9.7830    23.1230     2.1250   -22.5130 
  159.3750   158.5110   -10.3810     3.4320    67.8970    22.1870    21.8430    11.0600    23.2550     2.0950   -22.6880 
