~V
VERS. 2.00: Ver 2.00
~W
STRT.M 35.0000:
STOP.M 279.0000:
STEP.M 0.1250:
NULL. -999.2500:
UWI. FD11183:
~C
DEPT.M :
TVD. :
DX. :
DY. :
SP.MV :
GR.API :
RI. :
RML.OHMM :
RXO.OHMM :
DEN.GM/CC :
~A
# ...
  208.3750   199.7100   -45.5720     8.0900  -112.2790    54.0920    34.6960    35.7150    32.8120     2.1960 
  208.5000   199.8230   -45.6240     8.0950  -111.7660    56.8560    34.7610    35.5300    35.1090     2.1840 
  208.6250   199.9370   -45.6770     8.1010  -111.3470    60.6930    33.4720    33.9250    37.6330     2.1630 
  208.7500   200.0500   -45.7290     8.1060  -111.0230    60.8550    31.2220    31.4060    38.3890     2.1470 
  208.8750   200.1630   -45.7810     8.1120  -110.8680    59.3030    28.3450    28.3600    36.7260     2.1450 
  209.0000   200.2770   -45.8330     8.1170  -110.7120    60.9890    25.8100    25.8050    32.9320     2.1540 
  209.1250   200.3900   -45.8860     8.1230  -110.4800    64.9390    23.9790    24.0500    29.6130     2.1670 
  209.2500   200.5040   -45.9380     8.1280  -110.2170    67.8380    23.1810    23.4040    28.1990     2.1760 
  209.3750   200.6170   -45.9900     8.1340  -109.8150    67.6360    23.5400    23.9640    27.5330     2.1710 
  209.5000   200.7300   -46.0430     8.1400  -109.3930    65.5790    24.7000    25.2920    27.2860     2.1530 
  209.6250   200.8440   -46.0950     8.1450  -108.9650    62.1080    26.1890    26.7460    30.5100     2.1310 
  209.7500   200.9570   -46.1480     8.1510  -108.4720    59.9770    27.1780    27.6310    36.4620     2.1210 
  209.8750   201.0700   -46.2000     8.1570  -107.8090    60.2490    27.8960    28.4510    39.6770     2.1340 
  210.0000   201.1840   -46.2520     8.1620  -106.9730    60.5330    29.0490    30.2670    38.7970     2.1580 
  210.1250   201.2970   -46.3050     8.1680  -106.1490    60.5870    33.0460    36.5770    35.3730     2.1830 
  210.2500   201.4100   -46.3570     8.1740  -105.3590    61.8150    35.6670    39.8580    32.8630     2.2270 
  210.3750   201.5240   -46.4100     8.1800  -104.6240    62.0820    31.9580    35.7740    46.2960     2.3300 
  210.5000   201.6370   -46.4620     8.1850  -103.8200    58.0240    23.8230    26.2250    75.4430     2.4750 
  210.6250   201.7500   -46.5150     8.1910  -102.8150    52.4620    12.5130    12.8880   106.3550     2.5630 
  210.7500   201.8640   -46.5670     8.1960  -101.6230    50.4670     5.1180     5.2410    86.0680     2.5290 
  210.8750   201.9770   -46.6200     8.2020  -100.4860    53.6850     3.0080     3.0660    31.3250     2.4250 
  211.0000   202.0900   -46.6720     8.2080   -99.4810    59.9370     2.1180     2.1630     4.6460     2.3540 
  211.1250   202.2030   -46.7250     8.2130   -98.5450    63.2180     1.7060     1.8020     1.8910     2.3460 
  211.2500   202.3170   -46.7780     8.2190   -97.8970    59.6180     1.6370     1.7960     1.8880     2.3620 
  211.3750   202.4300   -46.8300     8.2240   -97.6110    51.9850     1.7410     1.9410     1.9530     2.3820 
  211.5000   202.5430   -46.8830     8.2300   -97.4980    47.6390     1.8940     2.1170     1.9970     2.4040 
  211.6250   202.6560   -46.9350     8.2350   -97.4660    48.6860     2.0560     2.2690     2.0380     2.4170 
  211.7500   202.7700   -46.9880     8.2410   -97.3900    52.7650     2.1820     2.3780     2.1070     2.4110 
  211.8750   202.8830   -47.0400     8.2460   -97.2480    54.6170     2.2510     2.4280     2.2400     2.3810 
  212.0000   202.9960   -47.0930     8.2520   -97.1900    53.2380     2.2620     2.4140     2.3660     2.3440 
  212.1250   203.1100   -47.1460     8.2580   -97.2940    51.0540     2.2350     2.3690     2.3510     2.3260 
  212.2500   203.2230   -47.1980     8.2630   -97.4580    51.0360     2.2090     2.3350     2.2460     2.3300 
  212.3750   203.3360   -47.2510     8.2690   -97.6450    53.4710     2.2420     2.3880     2.2210     2.3410 
  212.5000   203.4490   -47.3030     8.2740   -97.9230    59.0200     2.3640     2.5690     2.3450     2.3520 
  212.6250   203.5630   -47.3560     8.2800   -98.3640    67.2690     2.5670     2.8540     2.6560     2.3670 
  212.7500   203.6760   -47.4080     8.2850   -98.9510    76.2760     2.8100     3.1790     3.3660     2.3860 
  212.8750   203.7890   -47.4610     8.2910   -99.6550    84.4270     3.0530     3.4810     4.4120     2.3980 
  213.0000   203.9030   -47.5130     8.2960  -100.2810    91.1350     3.2310     3.6950     5.0160     2.3960 
  213.1250   204.0160   -47.5650     8.3020  -100.7270    97.5010     3.3620     3.8550     4.9480     2.3900 
  213.2500   204.1290   -47.6180     8.3080  -101.0810   103.3670     3.4330     3.9450     4.7450     2.3930 
  213.3750   204.2430   -47.6700     8.3130  -101.4340   104.8520     3.4590     3.9560     4.6510     2.3950 
  213.5000   204.3560   -47.7230     8.3190  -101.7840   102.2970     3.4210     3.8670     4.8070     2.3860 
  213.6250   204.4690   -47.7750     8.3240  -102.0550    98.6830     3.3240     3.7130     5.1730     2.3710 
  213.7500   204.5830   -47.8270     8.3290  -102.2650    96.9750     3.1900     3.5570     5.2840     2.3620 
  213.8750   204.6960   -47.8800     8.3350  -102.4990    96.6250     3.0650     3.4690     4.9380     2.3650 
  214.0000   204.8100   -47.9320     8.3400  -102.8830    98.0950     3.0150     3.4880     4.3480     2.3720 
  214.1250   204.9230   -47.9840     8.3460  -103.3800    98.3700     3.0440     3.6100     3.8560     2.3770 
  214.2500   205.0360   -48.0370     8.3520  -103.9070    96.1500     3.1740     3.8340     4.0100     2.3670 
  214.3750   205.1500   -48.0890     8.3570  -104.5130    94.7960     3.3760     4.1020     4.7020     2.3460 
  214.5000   205.2630   -48.1410     8.3630  -105.3080    97.9280     3.5810     4.3410     5.1950     2.3340 
  214.6250   205.3770   -48.1940     8.3680  -106.3050   101.4060     3.7570     4.5100     5.4700     2.3440 
  214.7500   205.4900   -48.2460     8.3730  -107.3930    99.0330     3.8500     4.5840     5.6870     2.3590 
  214.8750   205.6030   -48.2980     8.3790  -108.2840    91.7070     3.9120     4.6260     5.7920     2.3600 
  215.0000   205.7170   -48.3500     8.3840  -108.7940    86.4350     3.9640     4.6650     5.9160     2.3490 
  215.1250   205.8300   -48.4030     8.3900  -109.0760    85.4560     4.0280     4.7190     5.9460     2.3400 
  215.2500   205.9440   -48.4550     8.3950  -109.2830    86.9910     4.1450     4.8420     5.7770     2.3270 
  215.3750   206.0570   -48.5070     8.4010  -109.4410    88.5330     4.2530     4.9720     5.4890     2.3040 
  215.5000   206.1700   -48.5600     8.4060  -109.4700    89.3550     4.2230     4.9810     5.2540     2.2750 
  215.6250   206.2840   -48.6120     8.4120  -109.3020    88.3820     4.0330     4.8390     5.3870     2.2610 
  215.7500   206.3970   -48.6640     8.4170  -109.0600    87.2530     3.7140     4.5560     5.4140     2.2720 
  215.8750   206.5100   -48.7170     8.4230  -108.6890    90.4090     3.3350     4.1760     4.4510     2.3000 
  216.0000   206.6240   -48.7690     8.4290  -108.1620    95.7080     3.0550     3.8700     3.3540     2.3340 
  216.1250   206.7370   -48.8220     8.4340  -107.4520    97.3350     2.9060     3.7140     3.3200     2.3580 
  216.2500   206.8500   -48.8740     8.4400  -106.6400    93.4220     2.8950     3.7360     3.6650     2.3620 
  216.3750   206.9640   -48.9260     8.4460  -105.9940    86.8150     3.0600     3.9780     3.8220     2.3530 
  216.5000   207.0770   -48.9790     8.4520  -105.7250    82.4100     3.3250     4.3330     4.3310     2.3480 
  216.6250   207.1900   -49.0310     8.4570  -105.9440    82.8840     3.6460     4.7100     5.1850     2.3580 
  216.7500   207.3040   -49.0840     8.4630  -106.4780    86.7470     3.9950     5.0610     5.9310     2.3640 
  216.8750   207.4170   -49.1370     8.4690  -107.0920    89.0570     4.3320     5.3500     6.5330     2.3530 
  217.0000   207.5300   -49.1890     8.4750  -107.7090    86.4470     4.6490     5.5900     6.6410     2.3300 
  217.1250   207.6430   -49.2420     8.4800  -108.2520    80.7780     4.9660     5.8720     6.1700     2.3130 
  217.2500   207.7570   -49.2950     8.4860  -108.6350    78.3720     5.4310     6.4300     5.9060     2.3170 
  217.3750   207.8700   -49.3470     8.4920  -108.8060    80.2750     5.9310     7.0400     6.6080     2.3450 
