~V
VERS. 2.00: Ver 2.00
~W
STRT.M 11.0000:
STOP.M 273.0000:
STEP.M 0.1250:
NULL. -999.2500:
UWI. FD11023:
~C
DEPT.M :
TVD. :
DX. :
DY. :
GR.API :
RML.OHMM :
RI. :
RXO.OHMM :
CALI.CM :
DEN.GM/CC :
SP.MV :
~A
# ...
  233.7500   229.4960   -31.2680    10.6200    87.7260    13.9840    12.2380    10.7110    23.4120     2.2750   -19.6120 
  233.8750   229.6140   -31.3060    10.6330    85.9920    16.6550    14.1540    13.2760    23.4140     2.2890   -19.5860 
  234.0000   229.7330   -31.3440    10.6470    79.1850    20.6710    17.4660    16.7010    23.4140     2.3190   -19.4520 
  234.1250   229.8510   -31.3830    10.6600    71.9630    25.3660    21.8320    19.8630    23.4130     2.3510   -19.1160 
  234.2500   229.9690   -31.4210    10.6740    66.2450    29.4480    26.0950    21.8870    23.4120     2.3570   -18.6360 
  234.3750   230.0870   -31.4590    10.6870    62.1180    31.7930    29.1100    22.8540    23.4140     2.3350   -18.0970 
  234.5000   230.2050   -31.4970    10.7010    59.6540    31.7290    29.9830    22.8180    23.4160     2.3080   -17.5920 
  234.6250   230.3240   -31.5360    10.7140    59.2160    29.3050    28.3940    20.8770    23.4170     2.3020   -17.1920 
  234.7500   230.4420   -31.5740    10.7280    59.9910    26.0770    25.6980    17.9670    23.4170     2.3120   -16.8870 
  234.8750   230.5600   -31.6120    10.7410    61.5150    23.0150    22.8610    15.6190    23.4170     2.3240   -16.6580 
  235.0000   230.6780   -31.6510    10.7550    61.8630    20.5750    20.4300    14.3460    23.4170     2.3270   -16.4920 
  235.1250   230.7970   -31.6890    10.7680    61.2630    18.8850    18.6380    13.8090    23.4170     2.3180   -16.4130 
  235.2500   230.9150   -31.7270    10.7820    62.2860    17.6420    17.2910    13.4160    23.4180     2.3010   -16.4280 
  235.3750   231.0330   -31.7660    10.7950    64.7120    16.6580    16.2440    13.0070    23.4210     2.2790   -16.5170 
  235.5000   231.1510   -31.8040    10.8080    66.3610    15.8050    15.3810    12.5120    23.4250     2.2580   -16.6200 
  235.6250   231.2690   -31.8420    10.8220    65.6330    15.0540    14.6650    12.0830    23.4350     2.2480   -16.6360 
  235.7500   231.3880   -31.8810    10.8350    63.9720    14.4130    14.0730    11.6010    23.4450     2.2440   -16.5300 
  235.8750   231.5060   -31.9190    10.8490    62.9080    13.9100    13.6210    11.4960    23.4500     2.2390   -16.3250 
  236.0000   231.6240   -31.9570    10.8620    63.9770    13.5610    13.3160    11.6610    23.4500     2.2310   -16.0670 
  236.1250   231.7420   -31.9960    10.8760    67.5340    13.3740    13.1560    11.6900    23.4480     2.2220   -15.8070 
  236.2500   231.8610   -32.0340    10.8890    69.7880    13.2860    13.0810    11.7620    23.4450     2.2170   -15.5840 
  236.3750   231.9790   -32.0720    10.9030    69.3910    13.2570    13.0480    11.7990    23.4330     2.2140   -15.4270 
  236.5000   232.0970   -32.1110    10.9160    68.3590    13.2550    13.0230    11.6000    23.4020     2.2150   -15.3670 
  236.6250   232.2150   -32.1490    10.9300    69.1960    13.2790    13.0020    11.1890    23.3640     2.2180   -15.4420 
  236.7500   232.3330   -32.1870    10.9430    71.4440    13.3400    13.0010    10.8430    23.3220     2.2210   -15.6050 
  236.8750   232.4520   -32.2260    10.9560    73.6120    13.4550    13.0430    10.9210    23.3010     2.2230   -15.7830 
  237.0000   232.5700   -32.2640    10.9700    73.8530    13.6370    13.1450    11.3410    23.2950     2.2310   -15.8820 
  237.1250   232.6880   -32.3020    10.9830    71.3320    13.9240    13.3530    11.7700    23.2840     2.2450   -15.8020 
  237.2500   232.8060   -32.3400    10.9970    69.1570    14.3470    13.6980    11.9100    23.2300     2.2610   -15.5650 
  237.3750   232.9240   -32.3790    11.0100    68.0790    14.9690    14.2380    11.8460    23.1070     2.2740   -15.2530 
  237.5000   233.0430   -32.4170    11.0240    66.5950    15.8610    15.0370    11.9090    22.9230     2.2820   -14.9890 
  237.6250   233.1610   -32.4550    11.0370    66.3800    17.1220    16.2040    12.6040    22.7900     2.2790   -14.8980 
  237.7500   233.2790   -32.4940    11.0510    70.6420    18.6570    17.6770    13.6700    22.6990     2.2680   -14.9670 
  237.8750   233.3970   -32.5320    11.0640    76.3290    20.3180    19.3500    14.7590    22.6610     2.2550   -15.1290 
  238.0000   233.5160   -32.5700    11.0780    75.9390    21.8650    21.0260    15.3940    22.6510     2.2460   -15.3020 
  238.1250   233.6340   -32.6090    11.0910    70.7460    22.8900    22.3310    15.4500    22.6500     2.2430   -15.4020 
  238.2500   233.7520   -32.6470    11.1040    70.8720    23.1730    22.9900    15.0840    22.6490     2.2440   -15.4140 
  238.3750   233.8700   -32.6850    11.1180    76.6410    22.5960    22.8180    14.4920    22.6480     2.2500   -15.3470 
  238.5000   233.9880   -32.7240    11.1310    80.3310    21.2320    21.8060    13.7520    22.6480     2.2610   -15.2270 
  238.6250   234.1070   -32.7620    11.1450    78.4120    19.3540    20.1350    12.7190    22.6930     2.2800   -15.0840 
  238.7500   234.2250   -32.8000    11.1580    77.0340    17.5340    18.3710    11.5670    22.8030     2.3000   -14.9400 
  238.8750   234.3430   -32.8390    11.1720    77.5960    16.1510    16.9100    10.6870    22.9410     2.3110   -14.7800 
  239.0000   234.4610   -32.8770    11.1850    76.7040    15.3770    15.9730    10.4660    23.0930     2.3050   -14.5700 
  239.1250   234.5800   -32.9150    11.1990    71.6190    15.2220    15.6350    11.0710    23.3080     2.2880   -14.2670 
  239.2500   234.6980   -32.9540    11.2120    67.1630    15.3330    15.6070    12.0830    23.5390     2.2710   -13.9010 
  239.3750   234.8160   -32.9920    11.2260    66.4280    15.4230    15.6400    12.8810    23.6410     2.2610   -13.5270 
  239.5000   234.9340   -33.0300    11.2390    67.1950    15.2760    15.5110    12.8590    23.6010     2.2610   -13.2070 
  239.6250   235.0520   -33.0690    11.2520    65.6310    14.8250    15.1040    12.0780    23.4990     2.2740   -13.0060 
  239.7500   235.1710   -33.1070    11.2660    62.5670    14.3520    14.6270    11.1970    23.4550     2.2980   -12.9310 
  239.8750   235.2890   -33.1450    11.2800    60.9170    14.2150    14.3930    10.8240    23.4460     2.3280   -12.9850 
  240.0000   235.4070   -33.1840    11.2930    61.6530    14.7580    14.7400    11.3010    23.4460     2.3570   -13.1540 
  240.1250   235.5250   -33.2230    11.3070    65.0790    16.3760    16.1010    12.7240    23.4460     2.3770   -13.3840 
  240.2500   235.6430   -33.2620    11.3210    67.9790    18.9450    18.4420    14.8000    23.4460     2.3810   -13.5800 
  240.3750   235.7610   -33.3010    11.3340    66.6940    22.2680    21.6320    17.1420    23.4460     2.3650   -13.6810 
  240.5000   235.8790   -33.3390    11.3480    60.9470    25.9210    25.2850    19.1050    23.4460     2.3270   -13.6790 
  240.6250   235.9970   -33.3780    11.3620    55.2120    29.1540    28.6530    20.0320    23.4460     2.2730   -13.6080 
  240.7500   236.1150   -33.4170    11.3750    52.9420    31.3880    31.0670    19.6880    23.4450     2.2230   -13.5220 
  240.8750   236.2330   -33.4560    11.3890    51.9710    32.4390    32.2580    18.5230    23.3980     2.1890   -13.4230 
  241.0000   236.3510   -33.4940    11.4030    50.8230    32.6260    32.4720    16.8160    23.1880     2.1750   -13.2840 
  241.1250   236.4690   -33.5330    11.4160    50.5620    32.6040    32.3140    14.5670    22.7200     2.1750   -13.0730 
  241.2500   236.5870   -33.5720    11.4300    50.8290    32.8800    32.3640    12.3550    22.4040     2.1760   -12.8080 
  241.3750   236.7050   -33.6110    11.4440    50.3910    33.5090    32.7640    10.5270    22.4870     2.1720   -12.5200 
  241.5000   236.8230   -33.6500    11.4580    49.9200    34.3320    33.4330     9.5860    22.7550     2.1640   -12.2400 
  241.6250   236.9410   -33.6880    11.4710    50.9020    35.0870    34.1850     9.7600    23.0450     2.1580   -11.9990 
  241.7500   237.0590   -33.7270    11.4850    51.6180    35.6110    34.8370    10.5070    23.2410     2.1550   -11.8000 
  241.8750   237.1770   -33.7660    11.4990    52.6330    35.8770    35.3230    11.4940    23.3260     2.1570   -11.6430 
