~V
VERS. 2.00: Ver 2.00
~W
STRT.M 30.0000:
STOP.M 284.0000:
STEP.M 0.1250:
NULL. -999.2500:
UWI. FD11172:
~C
DEPT.M :
TVD. :
DX. :
DY. :
SP.MV :
GR.API :
RI. :
RML.OHMM :
RXO.OHMM :
DEN.GM/CC :
~A
# ...
   66.5000    66.3400     2.8890     0.5580   -16.7450    61.5170     4.2090     4.8650     6.8920     2.0730 
   66.6250    66.4640     2.9090     0.5630   -16.6240    61.2320     4.1760     4.8280     6.9670     2.0760 
   66.7500    66.5870     2.9300     0.5680   -16.4100    61.8100     4.1580     4.8080     6.8380     2.0890 
   66.8750    66.7100     2.9510     0.5730   -16.0310    64.1020     4.1710     4.8430     6.8180     2.1000 
   67.0000    66.8330     2.9720     0.5790   -15.6270    66.8060     4.2270     4.9290     6.8950     2.1020 
   67.1250    66.9560     2.9930     0.5840   -15.3840    68.2800     4.3210     5.0610     6.8030     2.1050 
   67.2500    67.0790     3.0140     0.5890   -15.3450    70.1150     4.4260     5.1970     6.7200     2.1090 
   67.3750    67.2020     3.0350     0.5950   -15.4770    72.9390     4.5190     5.3030     6.8220     2.1060 
   67.5000    67.3250     3.0560     0.6000   -15.6890    72.2550     4.5630     5.3350     6.9970     2.1010 
   67.6250    67.4480     3.0770     0.6050   -15.9090    66.6750     4.5430     5.2990     7.2110     2.1020 
   67.7500    67.5710     3.0990     0.6110   -16.0720    62.6440     4.4830     5.2160     7.3640     2.1050 
   67.8750    67.6950     3.1200     0.6160   -16.1040    62.1710     4.3910     5.1040     7.2790     2.1050 
   68.0000    67.8180     3.1420     0.6220   -15.9830    61.8420     4.2960     5.0010     7.1130     2.1020 
   68.1250    67.9400     3.1630     0.6280   -15.7580    62.0170     4.2090     4.9080     7.0890     2.1050 
   68.2500    68.0630     3.1850     0.6330   -15.5620    64.0300     4.1300     4.8250     7.1070     2.1060 
   68.3750    68.1860     3.2070     0.6390   -15.5060    65.9970     4.0520     4.7440     7.0350     2.1010 
   68.5000    68.3090     3.2290     0.6440   -15.5820    65.9500     3.9840     4.6690     6.9460     2.0940 
   68.6250    68.4320     3.2510     0.6500   -15.7170    66.5650     3.9290     4.6090     6.8400     2.0970 
   68.7500    68.5550     3.2730     0.6560   -15.8000    67.7290     3.8790     4.5580     6.5580     2.1050 
   68.8750    68.6780     3.2950     0.6620   -15.8160    67.6400     3.8300     4.5000     6.2310     2.1070 
   69.0000    68.8010     3.3180     0.6670   -15.8880    65.7110     3.7630     4.4220     6.2430     2.1020 
   69.1250    68.9240     3.3400     0.6730   -16.0860    63.5740     3.7070     4.3460     6.6170     2.0990 
   69.2500    69.0470     3.3620     0.6790   -16.3180    62.6420     3.6840     4.3090     6.7810     2.1060 
   69.3750    69.1690     3.3850     0.6840   -16.5460    65.8710     3.7240     4.3460     6.4670     2.1210 
   69.5000    69.2920     3.4080     0.6900   -16.8940    71.5630     3.8250     4.4710     6.2690     2.1290 
   69.6250    69.4150     3.4300     0.6960   -17.5210    74.1720     3.9560     4.6370     6.5620     2.1220 
   69.7500    69.5380     3.4530     0.7020   -18.7050    68.6700     4.1330     4.8520     7.0880     2.1050 
   69.8750    69.6600     3.4760     0.7080   -19.4050    62.5570     4.1680     4.8710     7.1120     2.0910 
   70.0000    69.7830     3.4990     0.7140   -19.8400    60.6280     4.1330     4.7970     6.7740     2.0860 
   70.1250    69.9060     3.5220     0.7200   -20.1090    60.8170     4.0600     4.6940     6.3220     2.0890 
   70.2500    70.0290     3.5450     0.7260   -20.3270    59.6950     4.0000     4.6260     6.2890     2.0910 
   70.3750    70.1510     3.5680     0.7320   -20.4570    56.9980     4.0130     4.6580     6.7600     2.0920 
   70.5000    70.2740     3.5920     0.7380   -20.4260    56.5910     4.0440     4.7240     7.1470     2.0920 
   70.6250    70.3970     3.6150     0.7440   -20.1790    59.5850     4.0430     4.7470     7.1660     2.0910 
   70.7500    70.5190     3.6380     0.7500   -19.7540    62.7230     4.0010     4.7090     7.0790     2.0880 
   70.8750    70.6420     3.6620     0.7570   -19.1710    63.7200     3.9250     4.6220     6.9420     2.0890 
   71.0000    70.7640     3.6850     0.7630   -18.4190    63.3490     3.8410     4.5110     6.6070     2.1020 
   71.1250    70.8870     3.7090     0.7690   -17.4880    63.9270     3.7760     4.4250     6.3550     2.1260 
   71.2500    71.0100     3.7330     0.7760   -16.5600    67.0720     3.7420     4.3840     6.5360     2.1440 
   71.3750    71.1320     3.7560     0.7820   -15.9430    70.0390     3.7430     4.3810     6.7830     2.1470 
   71.5000    71.2550     3.7800     0.7890   -15.7140    69.4310     3.7790     4.4260     6.7380     2.1410 
   71.6250    71.3770     3.8040     0.7950   -15.7080    66.6050     3.8540     4.5270     6.7100     2.1390 
   71.7500    71.5000     3.8280     0.8020   -15.7490    65.9870     3.9780     4.6930     6.7250     2.1410 
   71.8750    71.6220     3.8520     0.8090   -15.8790    66.4010     4.1270     4.8980     6.7400     2.1400 
   72.0000    71.7450     3.8760     0.8150   -16.1260    64.4630     4.2830     5.1090     7.0480     2.1260 
   72.1250    71.8670     3.9010     0.8220   -16.3700    62.5460     4.3670     5.2180     7.3120     2.0990 
   72.2500    71.9890     3.9250     0.8290   -16.4160    62.3990     4.3610     5.1990     7.1460     2.0750 
   72.3750    72.1120     3.9490     0.8360   -16.1260    62.9480     4.2520     5.0410     6.7650     2.0750 
   72.5000    72.2340     3.9740     0.8430   -15.5730    63.7640     4.0530     4.7630     6.4260     2.0940 
   72.6250    72.3570     3.9980     0.8500   -14.9410    67.1560     3.8270     4.4700     6.2910     2.1150 
   72.7500    72.4790     4.0230     0.8570   -14.4810    72.7570     3.6480     4.2550     6.1390     2.1390 
   72.8750    72.6010     4.0470     0.8640   -14.4170    79.2320     3.5880     4.2000     5.8500     2.1770 
   73.0000    72.7240     4.0720     0.8710   -14.7820    83.7610     3.6470     4.3020     6.0020     2.2090 
   73.1250    72.8460     4.0970     0.8770   -15.5500    82.5230     3.7870     4.5000     6.6490     2.1950 
   73.2500    72.9680     4.1220     0.8850   -16.4770    74.9650     3.9460     4.7030     7.0620     2.1410 
   73.3750    73.0910     4.1470     0.8920   -17.1890    67.0360     4.0460     4.8060     7.0270     2.0920 
   73.5000    73.2130     4.1710     0.8990   -17.4370    63.9610     4.0520     4.7770     7.0050     2.0720 
   73.6250    73.3350     4.1970     0.9060   -17.1960    64.4670     3.9690     4.6310     7.1340     2.0760 
   73.7500    73.4570     4.2220     0.9130   -16.6910    64.2120     3.8680     4.4790     6.9480     2.0990 
   73.8750    73.5800     4.2470     0.9200   -16.1090    64.4020     3.8120     4.4050     6.4330     2.1300 
   74.0000    73.7020     4.2720     0.9270   -15.6150    67.6440     3.8230     4.4370     6.2830     2.1450 
   74.1250    73.8240     4.2970     0.9350   -15.2870    70.5580     3.8870     4.5440     6.6870     2.1300 
   74.2500    73.9460     4.3230     0.9420   -14.9330    70.1250     3.9370     4.6320     6.9960     2.1050 
   74.3750    74.0680     4.3480     0.9490   -14.2180    67.7760     3.9040     4.6080     6.7000     2.0960 
   74.5000    74.1910     4.3740     0.9560   -13.0440    65.0800     3.7660     4.4390     6.0870     2.1130 
   74.6250    74.3130     4.4000     0.9630   -11.5310    64.8740     3.5510     4.1780     5.6500     2.1490 
   74.7500    74.4350     4.4260     0.9710   -10.0190    68.5980     3.3280     3.9080     5.3190     2.1850 
   74.8750    74.5570     4.4510     0.9780    -8.9530    76.4870     3.1780     3.7380     5.0470     2.2040 
   75.0000    74.6790     4.4770     0.9850    -8.6150    83.3180     3.1330     3.6960     5.0790     2.2080 
   75.1250    74.8010     4.5030     0.9920    -9.0460    87.1720     3.2190     3.8130     5.1550     2.2030 
   75.2500    74.9230     4.5290     1.0000    -9.9310    88.9780     3.3990     4.0440     4.9910     2.1850 
   75.3750    75.0450     4.5550     1.0070   -11.1070    86.5440     3.6440     4.3510     5.1490     2.1500 
   75.5000    75.1670     4.5820     1.0150   -12.5140    80.7630     3.9170     4.6830     5.9770     2.1120 
