~V
VERS. 2.00: Ver 2.00
~W
STRT.M 10.0000:
STOP.M 230.0000:
STEP.M 0.1250:
NULL. -999.2500:
UWI. FD11119:
~C
DEPT.M :
TVD. :
DX. :
DY. :
SP.MV :
DEN.GM/CC :
GR.API :
RML.OHMM :
RI. :
RXO.OHMM :
CALI.CM :
~A
# ...
   59.5000    59.4950    -0.2760    -0.1100   -17.9420     2.1520   101.0920     7.2870     4.4510     4.3460    24.7410 
   59.6250    59.6200    -0.2810    -0.1120   -17.1120     2.1820   104.9470     7.3640     4.4450     4.3270    24.7100 
   59.7500    59.7440    -0.2870    -0.1140   -16.6170     2.2050   103.3290     7.5860     4.5070     4.3350    24.7050 
   59.8750    59.8690    -0.2920    -0.1160   -16.4480     2.2160    96.9310     7.9500     4.6380     4.4740    24.6960 
   60.0000    59.9940    -0.2970    -0.1180   -16.5440     2.2110    91.4990     8.4270     4.8410     4.7850    24.6320 
   60.1250    60.1190    -0.3020    -0.1200   -16.8260     2.1880    94.3500     8.9460     5.1230     5.0920    24.5820 
   60.2500    60.2440    -0.3070    -0.1220   -17.1510     2.1600    98.7510     9.3930     5.4440     5.4820    24.3760 
   60.3750    60.3690    -0.3120    -0.1240   -17.4850     2.1360    97.6000     9.6870     5.7580     5.9670    24.0430 
   60.5000    60.4940    -0.3170    -0.1260   -17.7270     2.1270    92.8550     9.8060     6.0080     6.4750    23.9300 
   60.6250    60.6190    -0.3230    -0.1280   -17.8630     2.1340    90.7830     9.7480     6.1460     7.0450    23.9180 
   60.7500    60.7430    -0.3280    -0.1290   -17.8980     2.1480    92.1760     9.5770     6.1820     7.1790    23.9440 
   60.8750    60.8680    -0.3330    -0.1310   -17.8730     2.1580    95.9170     9.3360     6.1240     6.7390    24.0700 
   61.0000    60.9930    -0.3380    -0.1330   -17.8120     2.1550    99.4020     9.0840     5.9880     6.3030    24.2540 
   61.1250    61.1180    -0.3430    -0.1350   -17.7030     2.1380    99.6110     8.8850     5.8110     6.7720    24.2040 
   61.2500    61.2430    -0.3480    -0.1370   -17.5920     2.1190    99.6890     8.7620     5.6550     6.6630    24.0470 
   61.3750    61.3680    -0.3540    -0.1390   -17.5310     2.1110   102.8200     8.7410     5.5600     5.6370    23.9990 
   61.5000    61.4930    -0.3590    -0.1410   -17.5300     2.1180   103.6630     8.8440     5.5510     5.2700    23.9540 
   61.6250    61.6180    -0.3640    -0.1430   -17.5880     2.1370    96.2910     9.0920     5.6360     6.0830    23.8170 
   61.7500    61.7420    -0.3690    -0.1450   -17.6520     2.1540    87.6780     9.4030     5.7690     7.1780    23.8060 
   61.8750    61.8670    -0.3740    -0.1470   -17.7020     2.1600    85.2880     9.6370     5.8920     7.3590    23.9460 
   62.0000    61.9920    -0.3790    -0.1490   -17.7370     2.1520    88.5420     9.6120     5.9080     6.5160    24.0400 
   62.1250    62.1170    -0.3840    -0.1510   -17.7940     2.1370    92.3480     9.1380     5.6930     6.3990    24.0100 
   62.2500    62.2420    -0.3900    -0.1530   -17.8590     2.1260    95.9160     8.4400     5.3100     6.5830    23.9300 
   62.3750    62.3670    -0.3950    -0.1550   -17.9470     2.1260    98.7340     7.9110     4.9310     6.2810    23.9170 
   62.5000    62.4920    -0.4000    -0.1570   -18.1150     2.1360   100.7490     8.0290     4.7910     5.5740    23.9150 
   62.6250    62.6170    -0.4050    -0.1580   -18.4490     2.1600    98.4740     9.5050     5.2420     5.1420    23.9060 
   62.7500    62.7410    -0.4100    -0.1600   -18.9480     2.1960    90.7420    12.5250     6.4520     6.3600    23.8530 
   62.8750    62.8660    -0.4150    -0.1620   -19.6210     2.2460    79.9710    17.1190     8.5900    10.4170    23.7690 
   63.0000    62.9910    -0.4210    -0.1640   -20.4580     2.3110    69.7110    22.5990    11.5700    20.1310    23.6980 
   63.1250    63.1160    -0.4260    -0.1660   -21.4850     2.3860    62.5210    26.2140    14.3370    29.8380    23.5980 
   63.2500    63.2410    -0.4310    -0.1680   -22.6310     2.4470    59.5930    25.3690    15.1210    30.9300    23.4600 
   63.3750    63.3660    -0.4360    -0.1700   -23.8220     2.4710    60.6750    20.6510    13.5350    21.7560    23.4090 
   63.5000    63.4910    -0.4410    -0.1720   -25.0050     2.4410    64.3270    15.2380    10.9140    12.1170    23.2960 
   63.6250    63.6150    -0.4460    -0.1740   -26.0820     2.3630    64.3610    11.7670     8.7550     9.0470    23.2600 
   63.7500    63.7400    -0.4510    -0.1760   -27.0980     2.2730    60.9310    10.1030     7.3800     8.4040    23.2270 
   63.8750    63.8650    -0.4570    -0.1780   -27.9990     2.1940    60.1000     9.6720     6.6760     8.6570    23.2860 
   64.0000    63.9900    -0.4620    -0.1800   -28.7820     2.1390    62.0560     9.9000     6.4500     9.1670    23.5560 
   64.1250    64.1150    -0.4670    -0.1820   -29.3680     2.1160    62.8830    10.2920     6.5220     9.3520    24.0210 
   64.2500    64.2400    -0.4720    -0.1840   -29.7950     2.1100    62.8350    10.5190     6.6510     9.2900    24.2630 
   64.3750    64.3650    -0.4770    -0.1860   -30.0620     2.1130    63.7690    10.5540     6.7250     9.0440    24.3130 
   64.5000    64.4890    -0.4840    -0.1880   -30.2090     2.1180    64.9650    10.4870     6.7170     8.9220    24.3180 
   64.6250    64.6140    -0.4940    -0.1910   -30.1960     2.1220    62.3440    10.3830     6.6430     9.0040    24.2890 
   64.7500    64.7390    -0.5040    -0.1940   -30.0570     2.1260    59.5140    10.2350     6.5480     9.0430    24.2120 
   64.8750    64.8630    -0.5130    -0.1970   -29.8260     2.1300    59.3810    10.0290     6.4510     8.8620    24.1680 
   65.0000    64.9880    -0.5230    -0.2000   -29.5440     2.1320    61.5020     9.7900     6.3570     8.6400    24.2550 
   65.1250    65.1120    -0.5330    -0.2040   -29.2200     2.1250    62.9960     9.5660     6.2650     8.8600    24.8410 
   65.2500    65.2370    -0.5430    -0.2070   -28.8930     2.1060    62.9110     9.3970     6.1830     9.1090    25.9020 
   65.3750    65.3610    -0.5530    -0.2100   -28.5850     2.0820    62.5120     9.3070     6.1220     9.0090    26.2830 
   65.5000    65.4860    -0.5630    -0.2130   -28.2980     2.0610    62.2310     9.2960     6.1070     8.8980    25.7630 
   65.6250    65.6110    -0.5730    -0.2160   -28.1020     2.0540    61.5020     9.3610     6.1770     8.8240    25.3800 
   65.7500    65.7350    -0.5820    -0.2190   -27.9280     2.0600    59.9190     9.4900     6.3220     8.6840    25.1310 
   65.8750    65.8600    -0.5920    -0.2220   -27.8230     2.0730    58.6070     9.6880     6.5180     8.6560    25.1880 
   66.0000    65.9840    -0.6020    -0.2250   -27.7420     2.0870    59.0800     9.9470     6.7210     8.8970    25.6100 
   66.1250    66.1090    -0.6120    -0.2290   -27.7060     2.0970    61.2840    10.2110     6.8720     8.6540    26.2980 
   66.2500    66.2330    -0.6220    -0.2320   -27.7170     2.1070    63.5530    10.3820     6.9460     8.1070    26.5510 
   66.3750    66.3580    -0.6320    -0.2350   -27.7820     2.1210    65.2200    10.3630     6.9250     6.8090    26.5790 
   66.5000    66.4830    -0.6420    -0.2380   -27.8870     2.1370    66.2300    10.1260     6.8120     5.9040    26.4900 
   66.6250    66.6070    -0.6510    -0.2410   -28.0250     2.1490    65.7010     9.7670     6.6360     5.8070    26.2120 
   66.7500    66.7320    -0.6610    -0.2440   -28.1800     2.1500    63.2590     9.4740     6.4510     5.7750    25.9830 
   66.8750    66.8560    -0.6710    -0.2470   -28.3130     2.1390    60.5050     9.3210     6.3030     5.5140    25.7930 
   67.0000    66.9810    -0.6810    -0.2500   -28.4180     2.1200    58.0320     9.2790     6.2130     5.1600    25.4100 
   67.1250    67.1050    -0.6910    -0.2540   -28.4830     2.1040    59.3480     9.2410     6.1680     5.2190    24.9730 
   67.2500    67.2300    -0.7010    -0.2570   -28.5180     2.0990    65.6120     9.1270     6.1160     5.3430    24.6380 
   67.3750    67.3540    -0.7110    -0.2600   -28.5260     2.1050    72.3740     8.9460     6.0330     5.1840    24.6940 
   67.5000    67.4790    -0.7200    -0.2630   -28.5150     2.1190    73.5610     8.7590     5.9270     5.1070    24.7790 
   67.6250    67.6040    -0.7300    -0.2660   -28.5040     2.1360    69.8740     8.6640     5.8470     5.3840    24.8430 
