~V
VERS. 2.00: Ver 2.00
~W
STRT.M 40.0000:
STOP.M 259.0000:
STEP.M 0.1250:
NULL. -999.2500:
UWI. FD11192:
~C
DEPT.M :
TVD. :
DX. :
DY. :
SP.MV :
GR.API :
RI. :
RML.OHMM :
RXO.OHMM :
DEN.GM/CC :
~A
# ...
  167.7500   162.7090    19.5490    21.8670  -215.3270    64.5780    83.9170    89.1070   108.2240     2.1640 
  167.8750   162.8240    19.5820    21.9050  -215.0980    64.1640    86.6440    93.5580   109.3690     2.1660 
  168.0000   162.9380    19.6160    21.9430  -214.8600    65.9660    86.0890    93.9300   106.8150     2.1720 
  168.1250   163.0520    19.6490    21.9800  -214.5590    66.8240    79.8160    85.9540    97.8950     2.1840 
  168.2500   163.1670    19.6820    22.0180  -214.0440    65.1870    71.1640    74.8990   111.9430     2.2120 
  168.3750   163.2810    19.7150    22.0560  -213.4220    64.0130    59.5140    62.0730   131.0760     2.2690 
  168.5000   163.3960    19.7490    22.0930  -212.8380    65.6550    51.4460    52.9940   114.0930     2.3200 
  168.6250   163.5100    19.7820    22.1310  -212.3300    71.3340    46.2770    47.2370    97.8460     2.3270 
  168.7500   163.6250    19.8160    22.1690  -211.8320    78.1500    41.9510    42.6240   123.2790     2.2940 
  168.8750   163.7390    19.8490    22.2060  -211.3970    82.5020    38.4580    38.8600   127.8310     2.2590 
  169.0000   163.8540    19.8830    22.2440  -211.1210    84.3060    34.8930    35.1410    76.6450     2.2430 
  169.1250   163.9680    19.9160    22.2810  -211.0330    85.3060    31.2010    31.3780    43.3090     2.2440 
  169.2500   164.0820    19.9500    22.3190  -210.9930    86.2930    28.0980    28.4140    37.6930     2.2610 
  169.3750   164.1970    19.9830    22.3570  -210.8700    86.7050    26.5870    26.9670    25.5200     2.2870 
  169.5000   164.3110    20.0170    22.3940  -210.5330    86.0260    26.6510    27.3710    18.6930     2.3050 
  169.6250   164.4250    20.0510    22.4320  -209.9880    84.9800    29.0160    30.3610    20.4610     2.2950 
  169.7500   164.5400    20.0840    22.4690  -209.4150    83.4100    33.2280    35.4160    21.3690     2.2630 
  169.8750   164.6540    20.1180    22.5070  -208.8890    81.8970    38.8550    41.8230    28.5690     2.2270 
  170.0000   164.7680    20.1520    22.5450  -208.4360    79.1110    44.0660    47.8500    53.3520     2.2000 
  170.1250   164.8830    20.1860    22.5820  -208.0980    75.5900    48.7140    53.0620    70.7230     2.1900 
  170.2500   164.9970    20.2200    22.6200  -207.5760    73.4950    52.3950    57.6170    59.9280     2.1910 
  170.3750   165.1110    20.2530    22.6570  -206.6260    73.2340    56.9110    63.5010    49.6250     2.1950 
  170.5000   165.2260    20.2870    22.6950  -205.6550    72.6870    63.0130    72.1130    53.2460     2.2000 
  170.6250   165.3400    20.3210    22.7330  -204.9870    70.9680    72.4610    85.1070    65.7330     2.2000 
  170.7500   165.4540    20.3550    22.7700  -204.3400    67.1740    83.3700   100.4200    96.3310     2.1840 
  170.8750   165.5680    20.3890    22.8080  -203.7950    62.0790    93.9000   115.1280   130.3460     2.1520 
  171.0000   165.6830    20.4230    22.8450  -203.4160    59.1150   101.5030   123.3380   131.0480     2.1240 
  171.1250   165.7970    20.4570    22.8830  -203.1500    58.1370   103.9250   122.5230    97.5280     2.1190 
  171.2500   165.9110    20.4910    22.9210  -202.9860    56.7520   104.5050   123.3840    65.4060     2.1260 
  171.3750   166.0260    20.5250    22.9580  -202.9280    54.9430   104.8670   124.2730    56.6710     2.1300 
  171.5000   166.1400    20.5590    22.9960  -202.9540    56.6550   105.7700   125.5670    67.7320     2.1280 
  171.6250   166.2540    20.5930    23.0330  -203.1590    59.9000   102.9320   121.6330    85.7890     2.1290 
  171.7500   166.3680    20.6270    23.0710  -203.6250    62.0870    94.6910   111.1780    93.1680     2.1310 
  171.8750   166.4820    20.6620    23.1080  -204.2170    62.5440    81.0260    94.3500    79.8840     2.1340 
  172.0000   166.5970    20.6960    23.1460  -204.8250    62.1340    66.5080    77.1790    60.4610     2.1440 
  172.1250   166.7110    20.7300    23.1830  -205.4750    64.4310    54.8380    63.3200    48.1160     2.1670 
  172.2500   166.8250    20.7640    23.2210  -206.3310    69.1670    47.2690    54.2830    41.2080     2.1980 
  172.3750   166.9390    20.7990    23.2580  -207.3450    70.5030    46.7460    53.9290    37.9380     2.2210 
  172.5000   167.0530    20.8330    23.2960  -208.1650    64.2130    51.8800    60.7770    36.9030     2.2240 
  172.6250   167.1680    20.8670    23.3330  -208.7250    55.2800    61.4740    73.3130    40.0180     2.2070 
  172.7500   167.2820    20.9020    23.3710  -209.3050    51.9520    70.6190    84.3370    50.2330     2.1830 
  172.8750   167.3960    20.9360    23.4080  -209.7900    54.3850    69.0430    81.4930    58.1360     2.1670 
  173.0000   167.5100    20.9710    23.4460  -210.0750    57.5280    61.2920    71.1300   104.4040     2.1700 
  173.1250   167.6240    21.0050    23.4830  -210.2290    58.9580    49.1610    55.2370   197.1340     2.1930 
  173.2500   167.7380    21.0390    23.5210  -210.3050    61.7690    37.7140    41.5050   192.5620     2.2170 
  173.3750   167.8530    21.0740    23.5590  -210.4240    68.5890    31.6440    34.5930    84.3810     2.2210 
  173.5000   167.9670    21.1080    23.5960  -210.5530    78.0150    27.2350    29.7580    25.2640     2.2090 
  173.6250   168.0810    21.1420    23.6340  -210.7200    84.9930    24.8570    27.5100    24.7450     2.2040 
  173.7500   168.1950    21.1770    23.6710  -211.0210    86.7650    23.4530    26.1420    26.0490     2.2150 
  173.8750   168.3090    21.2110    23.7090  -211.4730    84.5390    22.3930    25.0890    20.9810     2.2280 
  174.0000   168.4230    21.2460    23.7460  -211.8410    83.2400    21.1880    23.7510    15.8130     2.2310 
  174.1250   168.5380    21.2800    23.7840  -212.2380    85.4510    20.5570    23.3010    14.6870     2.2330 
  174.2500   168.6520    21.3140    23.8220  -212.6890    87.6420    21.2630    24.5160    15.7910     2.2380 
  174.3750   168.7660    21.3490    23.8590  -213.1620    86.6450    23.1230    27.0430    25.8770     2.2470 
  174.5000   168.8800    21.3830    23.8970  -213.5030    85.8490    25.8060    30.4420    39.7300     2.2550 
  174.6250   168.9940    21.4180    23.9340  -213.7760    86.0270    28.5420    33.7990    46.4840     2.2540 
  174.7500   169.1080    21.4520    23.9720  -214.0450    83.8660    30.9460    36.7500    50.4920     2.2430 
  174.8750   169.2220    21.4860    24.0100  -214.2930    79.8560    32.6510    38.8940    45.5100     2.2350 
  175.0000   169.3360    21.5210    24.0480  -214.5200    78.8140    33.8560    40.6070    33.4670     2.2370 
  175.1250   169.4510    21.5550    24.0850  -214.7780    80.6380    35.0330    42.3550    27.1080     2.2390 
  175.2500   169.5650    21.5900    24.1230  -215.0900    79.0720    36.2490    44.1070    26.3740     2.2320 
  175.3750   169.6790    21.6240    24.1610  -215.4630    74.6180    37.5680    45.9460    32.1950     2.2270 
  175.5000   169.7930    21.6580    24.1980  -215.8080    72.5110    38.9310    47.7290    41.1970     2.2290 
  175.6250   169.9070    21.6930    24.2360  -216.0930    74.5440    40.1010    49.1760    43.9410     2.2240 
  175.7500   170.0210    21.7270    24.2730  -216.2490    75.4650    40.7050    49.6740    39.6600     2.2040 
  175.8750   170.1350    21.7610    24.3110  -216.2290    72.3060    40.4460    48.9640    31.3120     2.1770 
  176.0000   170.2490    21.7960    24.3490  -216.1030    68.8110    39.8720    47.7840    24.6910     2.1660 
  176.1250   170.3640    21.8300    24.3860  -215.9930    70.7810    38.8220    45.8140    31.5430     2.1820 
  176.2500   170.4780    21.8650    24.4240  -216.0050    76.0130    37.1650    43.1260    48.1000     2.2110 
  176.3750   170.5920    21.8990    24.4610  -216.0780    81.5070    34.9370    39.8690    55.3110     2.2350 
  176.5000   170.7060    21.9340    24.4990  -216.1100    86.2260    31.8430    35.7550    47.6710     2.2400 
  176.6250   170.8200    21.9680    24.5360  -216.0780    88.9550    28.1450    31.3000    35.1810     2.2390 
  176.7500   170.9340    22.0030    24.5730  -216.0760    89.5150    24.5980    27.1560    30.2280     2.2440 
