~V
VERS. 2.00: Ver 2.00
~W
STRT.M 45.0000:
STOP.M 272.0000:
STEP.M 0.1250:
NULL. -999.2500:
UWI. FD11191:
~C
DEPT.M :
TVD. :
DX. :
DY. :
SP.MV :
GR.API :
RI. :
RML.OHMM :
RXO.OHMM :
DEN.GM/CC :
~A
   45.0000    45.0000     0.0000     0.0000   -31.7890    31.5740    42.6950    28.1460     1.6220     2.6100 
   45.1250    45.1250     0.0010    -0.0010   -32.2940    31.8860    42.6950    28.1460     1.8240     2.4530 
   45.2500    45.2500     0.0010    -0.0020   -33.1110    34.7310    42.6950    28.1460     2.0620     2.2750 
   45.3750    45.3750     0.0020    -0.0030   -34.0240    37.8700    42.6950    28.1460     2.2880     2.2270 
   45.5000    45.5000     0.0020    -0.0040   -34.7790    39.6000    42.6950    28.1460     2.3550     2.2520 
   45.6250    45.6250     0.0030    -0.0050   -35.1880    39.3660    42.6950    28.1460     2.0960     2.2690 
   45.7500    45.7500     0.0030    -0.0050   -35.2400    38.3780    42.6950    28.1460     2.1100     2.2680 
   45.8750    45.8750     0.0040    -0.0060   -34.9490    39.9770    42.6950    28.1460     1.9500     2.2520 
   46.0000    46.0000     0.0040    -0.0070   -34.4110    44.9050    42.6940    28.1460     1.4320     2.2410 
   46.1250    46.1250     0.0050    -0.0080   -33.6960    50.3450    42.6920    28.1460     1.2380     2.2470 
   46.2500    46.2500     0.0050    -0.0090   -32.9290    53.3120    42.6910    28.1460     1.3490     2.2570 
   46.3750    46.3750     0.0060    -0.0100   -32.2530    53.7890    42.6890    28.1460     1.6900     2.2620 
   46.5000    46.5000     0.0060    -0.0110   -31.7980    53.2000    42.6890    28.1460     2.2980     2.2630 
   46.6250    46.6250     0.0070    -0.0120   -31.6650    51.1870    42.6890    28.1460     2.6450     2.2580 
   46.7500    46.7500     0.0070    -0.0130   -31.8000    47.4590    42.6890    28.1460     2.5770     2.2430 
   46.8750    46.8750     0.0080    -0.0140   -32.0930    42.8200    42.6890    28.1460     1.9750     2.2320 
   47.0000    47.0000     0.0080    -0.0150   -32.3810    39.0800    42.6890    28.1460     1.2220     2.2420 
   47.1250    47.1250     0.0090    -0.0160   -32.5600    37.0530    42.6890    28.1470     1.0440     2.2660 
   47.2500    47.2500     0.0090    -0.0170   -32.6230    36.6090    42.6890    28.1470     1.1520     2.2820 
   47.3750    47.3750     0.0090    -0.0180   -32.6130    36.9550    42.6890    28.1480     1.1070     2.2820 
   47.5000    47.5000     0.0100    -0.0190   -32.5960    36.9810    42.6890    28.1480     1.0540     2.2770 
   47.6250    47.6250     0.0100    -0.0200   -32.6070    36.7090    42.6890    28.1490     1.1480     2.2690 
   47.7500    47.7500     0.0100    -0.0210   -32.6450    36.8560    42.6890    28.1490     1.3240     2.2630 
   47.8750    47.8750     0.0100    -0.0220   -32.6960    37.6530    42.6890    28.1500     1.3850     2.2700 
   48.0000    48.0000     0.0110    -0.0230   -32.7380    37.7800    42.6890    28.1500     1.3550     2.2750 
   48.1250    48.1250     0.0110    -0.0240   -32.7550    37.3310    42.6890    28.1500     1.4220     2.2690 
   48.2500    48.2500     0.0110    -0.0250   -32.7390    37.3490    42.6890    28.1500     1.2850     2.2610 
   48.3750    48.3750     0.0110    -0.0260   -32.6790    37.2480    42.6890    28.1500     0.9260     2.2650 
   48.5000    48.5000     0.0110    -0.0270   -32.5790    36.7640    42.6890    28.1500     0.6470     2.2760 
   48.6250    48.6250     0.0120    -0.0280   -32.4480    37.0820    42.6890    28.1500     0.4620     2.2920 
   48.7500    48.7500     0.0120    -0.0290   -32.3070    39.3630    42.6890    28.1500     0.3780     2.3120 
   48.8750    48.8750     0.0120    -0.0300   -32.1780    42.9590    42.6880    28.1500     0.3750     2.3160 
   49.0000    49.0000     0.0120    -0.0310   -32.0740    46.0260    42.6870    28.1500     0.3810     2.2960 
   49.1250    49.1250     0.0120    -0.0320   -32.0000    47.2830    42.6860    28.1500     0.4120     2.2660 
   49.2500    49.2500     0.0120    -0.0330   -31.9500    46.3770    42.6840    28.1500     0.4680     2.2460 
   49.3750    49.3750     0.0130    -0.0340   -31.9280    43.7630    42.6840    28.1500     0.4350     2.2440 
   49.5000    49.5000     0.0130    -0.0350   -31.9400    42.8800    42.6830    28.1500     0.3500     2.2540 
   49.6250    49.6250     0.0130    -0.0360   -32.0080    45.1600    42.6830    28.1500     0.3480     2.2540 
   49.7500    49.7500     0.0130    -0.0370   -32.1450    47.0770    42.6830    28.1500     0.4260     2.2340 
   49.8750    49.8750     0.0130    -0.0380   -32.3610    45.6330    42.6830    28.1500     0.5390     2.2070 
   50.0000    50.0000     0.0130    -0.0390   -32.6300    43.3960    42.6830    28.1500     0.6330     2.2010 
   50.1250    50.1250     0.0130    -0.0400   -32.9190    43.1480    42.6840    28.1500     0.5830     2.2140 
   50.2500    50.2500     0.0130    -0.0410   -33.1880    44.4380    42.6850    28.1510     0.4910     2.2280 
   50.3750    50.3750     0.0130    -0.0420   -33.4060    46.1000    42.6850    28.1520     0.4930     2.2290 
   50.5000    50.5000     0.0130    -0.0420   -33.5610    47.9230    42.6850    28.1530     0.4390     2.2220 
   50.6250    50.6250     0.0130    -0.0430   -33.6430    48.8710    42.6860    28.1540     0.3930     2.2130 
   50.7500    50.7500     0.0130    -0.0440   -33.6650    48.6830    42.6880    28.1540     0.3630     2.2070 
   50.8750    50.8750     0.0130    -0.0450   -33.6360    48.9320    42.6900    28.1540     0.2560     2.2130 
   51.0000    51.0000     0.0130    -0.0460   -33.5850    48.7120    42.6900    28.1540     0.2080     2.2340 
   51.1250    51.1250     0.0130    -0.0470   -33.5410    47.1210    42.6910    28.1540     0.2210     2.2810 
   51.2500    51.2500     0.0130    -0.0480   -33.5270    45.1050    42.6940    28.1540     0.2480     2.3390 
   51.3750    51.3750     0.0130    -0.0490   -33.5580    43.3810    42.6970    28.1540     0.2970     2.3800 
   51.5000    51.5000     0.0130    -0.0490   -33.6180    41.6330    42.6970    28.1540     0.3160     2.3770 
   51.6250    51.6250     0.0130    -0.0500   -33.6770    40.7520    42.6960    28.1520     0.3350     2.3320 
   51.7500    51.7500     0.0130    -0.0510   -33.6970    41.0410    42.6920    28.1520     0.3520     2.2810 
   51.8750    51.8750     0.0130    -0.0520   -33.6440    41.4730    42.6900    28.1520     0.3090     2.2480 
   52.0000    52.0000     0.0130    -0.0530   -33.5230    40.5580    42.6900    28.1500     0.2710     2.2240 
   52.1250    52.1250     0.0130    -0.0540   -33.3600    39.8610    42.6910    28.1500     0.2480     2.2090 
   52.2500    52.2500     0.0130    -0.0550   -33.2110    40.3600    42.6940    28.1470     0.2950     2.2150 
   52.3750    52.3750     0.0130    -0.0560   -33.1420    41.2360    42.6940    28.1470     0.5210     2.2480 
   52.5000    52.5000     0.0130    -0.0560   -33.1940    41.6760    42.6940    28.1470     0.8070     2.2810 
   52.6250    52.6250     0.0130    -0.0570   -33.3990    41.7240    42.6940    28.1480     0.8140     2.2950 
   52.7500    52.7500     0.0130    -0.0580   -33.7310    42.5620    42.6940    28.1480     0.5130     2.2980 
   52.8750    52.8750     0.0120    -0.0590   -34.1590    43.8100    42.6920    28.1490     0.3360     2.2970 
   53.0000    53.0000     0.0120    -0.0600   -34.6240    44.5870    42.6900    28.1500     0.3260     2.2940 
   53.1250    53.1250     0.0120    -0.0610   -35.0710    44.4580    40.4140    26.3960     0.2620     2.2880 
   53.2500    53.2500     0.0120    -0.0620   -35.4620    43.5210    29.2850    18.8830     0.2170     2.2860 
   53.3750    53.3750     0.0120    -0.0630   -35.7740    42.6980    17.4750    11.1240     0.2420     2.2890 
   53.5000    53.5000     0.0120    -0.0630   -36.0200    41.9690     5.6620     3.3660     0.2780     2.3040 
   53.6250    53.6250     0.0120    -0.0640   -36.2280    41.2400     0.1650     0.2280     0.2840     2.3310 
   53.7500    53.7500     0.0110    -0.0650   -36.4480    40.2150     0.1620     0.2400     0.2670     2.3490 
   53.8750    53.8750     0.0110    -0.0660   -36.7530    38.8900     0.1480     0.2450     0.2380     2.3460 
   54.0000    54.0000     0.0110    -0.0670   -37.2190    39.2320     0.1230     0.2200     0.2250     2.3430 
