~V
VERS. 2.00: Ver 2.00
~W
STRT.M 56.0000:
STOP.M 276.0000:
STEP.M 0.1250:
NULL. -999.2500:
UWI. FD11178:
~C
DEPT.M :
TVD. :
DX. :
DY. :
SP.MV :
GR.API :
RI. :
RML.OHMM :
DEN.GM/CC :
RXO.OHMM :
~A
# ...
   74.2500    74.2230     0.3050    -0.8720   -10.0430    80.2450     6.4130     7.6500     2.1410     7.8040 
   74.3750    74.3470     0.3080    -0.8820   -11.5780    76.5400     6.6040     7.8070     2.1080     7.9400 
   74.5000    74.4720     0.3100    -0.8930   -12.9060    76.7200     6.6080     7.7310     2.0970     7.3740 
   74.6250    74.5960     0.3120    -0.9040   -13.8090    74.1770     6.5370     7.5980     2.1050     7.0360 
   74.7500    74.7210     0.3150    -0.9150   -14.3960    67.8920     6.4730     7.5170     2.1110     7.2620 
   74.8750    74.8450     0.3170    -0.9260   -14.7920    63.8280     6.4820     7.5870     2.1060     7.6180 
   75.0000    74.9700     0.3200    -0.9370   -15.0150    64.6810     6.5260     7.7190     2.0940     7.8700 
   75.1250    75.0940     0.3220    -0.9480   -15.1380    65.7060     6.5340     7.7850     2.0850     7.9180 
   75.2500    75.2190     0.3240    -0.9590   -15.2130    64.7380     6.4920     7.7540     2.0840     7.8090 
   75.3750    75.3430     0.3270    -0.9710   -15.3040    63.8960     6.4080     7.6630     2.0890     7.5820 
   75.5000    75.4680     0.3290    -0.9820   -15.3740    63.8940     6.3890     7.6440     2.0950     7.3180 
   75.6250    75.5920     0.3310    -0.9930   -15.4460    63.2380     6.5570     7.8660     2.1110     7.2190 
   75.7500    75.7170     0.3340    -1.0040   -15.5520    62.2580     6.8400     8.2260     2.1770     7.2640 
   75.8750    75.8410     0.3360    -1.0160   -15.5800    62.6010     7.1460     8.6240     2.3160     7.1930 
   76.0000    75.9660     0.3380    -1.0270   -15.5610    63.8390     7.3540     8.8960     2.4450     6.9210 
   76.1250    76.0900     0.3410    -1.0390   -15.4850    62.1880     7.3610     8.8940     2.4380     6.7600 
   76.2500    76.2150     0.3430    -1.0500   -15.2980    57.5750     7.1890     8.6420     2.3060     6.8840 
   76.3750    76.3390     0.3450    -1.0620   -15.2320    54.2780     6.8950     8.2260     2.1610     7.0160 
   76.5000    76.4630     0.3480    -1.0740   -15.2550    56.3400     6.5840     7.7300     2.0890     6.9820 
   76.6250    76.5880     0.3500    -1.0850   -15.4140    62.6120     6.3690     7.6250     2.0840     6.7600 
   76.7500    76.7120     0.3520    -1.0970   -15.6030    67.4860     6.2790     7.5320     2.0990     6.5080 
   76.8750    76.8370     0.3550    -1.1090   -15.5920    68.5190     6.2360     7.4610     2.1090     6.4030 
   77.0000    76.9610     0.3570    -1.1210   -15.5300    68.5820     6.1900     7.4070     2.1090     6.4330 
   77.1250    77.0860     0.3590    -1.1330   -15.4100    68.7930     6.1200     7.3550     2.1050     6.5080 
   77.2500    77.2100     0.3610    -1.1450   -15.2330    69.0050     6.0560     7.3120     2.0970     6.5830 
   77.3750    77.3340     0.3640    -1.1570   -15.1900    68.8200     6.0340     7.3040     2.0860     6.7180 
   77.5000    77.4590     0.3660    -1.1690   -15.1840    69.3710     6.0540     7.3040     2.0790     6.8930 
   77.6250    77.5830     0.3680    -1.1820   -15.2780    70.7610     6.1270     7.3040     2.0840     7.0650 
   77.7500    77.7070     0.3700    -1.1940   -15.4090    71.1770     6.2240     7.3120     2.0980     7.1270 
   77.8750    77.8320     0.3730    -1.2060   -15.5400    71.2660     6.3220     7.3610     2.1150     7.0120 
   78.0000    77.9560     0.3750    -1.2190   -15.7740    71.2610     6.3970     7.4380     2.1270     6.8340 
   78.1250    78.0810     0.3770    -1.2310   -15.8290    70.8580     6.4270     7.4940     2.1250     6.6760 
   78.2500    78.2050     0.3790    -1.2440   -15.7210    70.5780     6.4030     7.5370     2.1130     6.5990 
   78.3750    78.3290     0.3810    -1.2560   -15.5320    68.5390     6.3370     7.5890     2.1040     6.7010 
   78.5000    78.4540     0.3830    -1.2690   -15.2920    65.3320     6.2660     7.6080     2.0990     6.8850 
   78.6250    78.5780     0.3850    -1.2820   -15.0940    64.1530     6.2080     7.5750     2.0940     6.9330 
   78.7500    78.7020     0.3870    -1.2950   -14.9480    66.2340     6.1930     7.4780     2.0950     6.9120 
   78.8750    78.8270     0.3880    -1.3080   -14.7450    69.0030     6.2240     7.3410     2.1030     6.9520 
   79.0000    78.9510     0.3900    -1.3210   -14.5120    68.9790     6.2700     7.2330     2.1100     6.8510 
   79.1250    79.0750     0.3920    -1.3340   -14.4120    66.9380     6.3060     7.2060     2.1100     6.5740 
   79.2500    79.1990     0.3940    -1.3470   -14.4390    64.4930     6.3000     7.2110     2.1100     6.4420 
   79.3750    79.3240     0.3960    -1.3600   -14.5500    64.0070     6.2410     7.2290     2.1080     6.4820 
   79.5000    79.4480     0.3980    -1.3730   -14.7320    66.5330     6.1940     7.2260     2.1030     6.4310 
   79.6250    79.5720     0.4000    -1.3870   -14.8970    71.9360     6.2360     7.3370     2.1000     6.2470 
   79.7500    79.6970     0.4020    -1.4000   -15.0010    75.0460     6.3370     7.4940     2.1050     6.2200 
   79.8750    79.8210     0.4030    -1.4130   -15.0430    72.5090     6.4780     7.6310     2.1120     6.7020 
   80.0000    79.9450     0.4050    -1.4270   -15.0340    68.4020     6.5890     7.7790     2.1170     7.2710 
   80.1250    80.0690     0.4070    -1.4400   -14.9660    66.9570     6.6050     7.8690     2.1200     7.0900 
   80.2500    80.1940     0.4080    -1.4540   -14.8180    68.9980     6.5410     7.9750     2.1230     6.4700 
   80.3750    80.3180     0.4100    -1.4670   -14.7120    72.1260     6.4340     7.9610     2.1210     6.1130 
   80.5000    80.4420     0.4120    -1.4810   -14.7820    73.8460     6.3290     7.7120     2.1140     6.0670 
   80.6250    80.5660     0.4130    -1.4950   -14.9480    70.4600     6.2900     7.5060     2.1030     6.3040 
   80.7500    80.6910     0.4150    -1.5080   -15.0320    62.6170     6.2900     7.4620     2.0890     6.5470 
   80.8750    80.8150     0.4160    -1.5220   -15.0310    59.3100     6.3070     7.4570     2.0770     6.5870 
   81.0000    80.9390     0.4180    -1.5360   -14.9110    62.8570     6.3140     7.4520     2.0740     6.5860 
   81.1250    81.0630     0.4190    -1.5500   -14.7680    67.0100     6.3150     7.4180     2.0800     6.4930 
   81.2500    81.1870     0.4210    -1.5640   -14.5800    67.1690     6.2930     7.3650     2.0860     6.2980 
   81.3750    81.3120     0.4230    -1.5770   -14.4180    65.6380     6.2510     7.2800     2.0900     6.1790 
   81.5000    81.4360     0.4240    -1.5910   -14.2220    66.0040     6.2110     7.2100     2.0930     6.2520 
   81.6250    81.5600     0.4260    -1.6050   -13.9940    66.2130     6.1730     7.1640     2.0940     6.3640 
   81.7500    81.6840     0.4270    -1.6190   -13.8510    65.2110     6.1280     7.1130     2.0910     6.3750 
   81.8750    81.8080     0.4280    -1.6340   -13.7040    63.6330     6.0640     7.0280     2.0840     6.4010 
   82.0000    81.9330     0.4290    -1.6480   -13.5370    62.5410     5.9710     6.8870     2.0820     6.4100 
   82.1250    82.0570     0.4310    -1.6620   -13.3700    63.5830     5.8660     6.7190     2.0860     6.3000 
   82.2500    82.1810     0.4320    -1.6760   -13.0640    67.6040     5.7600     6.5450     2.0960     6.0820 
   82.3750    82.3050     0.4330    -1.6910   -12.7310    71.5940     5.6840     6.4310     2.1000     6.0180 
   82.5000    82.4290     0.4340    -1.7050   -12.4180    72.5510     5.6720     6.4220     2.0890     6.1690 
   82.6250    82.5540     0.4350    -1.7200   -12.1150    71.9240     5.7260     6.5030     2.0690     6.3320 
   82.7500    82.6780     0.4360    -1.7340   -11.8030    70.2990     5.9220     6.7890     2.0560     6.4430 
   82.8750    82.8020     0.4370    -1.7490   -11.3070    66.3320     6.3670     7.3800     2.0600     6.4160 
   83.0000    82.9260     0.4380    -1.7630   -10.6510    61.5700     6.8620     8.0070     2.0950     6.3150 
   83.1250    83.0500     0.4390    -1.7780    -9.7030    61.5800     7.0650     8.2490     2.1930     6.8610 
   83.2500    83.1740     0.4390    -1.7920    -8.4960    65.5430     6.8760     7.9980     2.3330     8.7190 
