~V
VERS. 2.00: Ver 2.00
~W
STRT.M 15.0000:
STOP.M 219.0000:
STEP.M 0.1250:
NULL. -999.2500:
UWI. FD11101:
~C
DEPT.M :
TVD. :
DX. :
DY. :
GR.API :
RML.OHMM :
RI. :
RXO.OHMM :
CALI.CM :
SP.MV :
DEN.GM/CC :
~A
   15.0000    15.0000     0.0000     0.0000  -999.2500  -999.2500  -999.2500  -999.2500  -999.2500  -999.2500  -999.2500 
   15.1250    15.1250     0.0000     0.0000  -999.2500  -999.2500  -999.2500  -999.2500  -999.2500  -999.2500  -999.2500 
   15.2500    15.2500     0.0000     0.0000  -999.2500  -999.2500  -999.2500  -999.2500  -999.2500  -999.2500  -999.2500 
   15.3750    15.3750     0.0000     0.0000  -999.2500  -999.2500  -999.2500  -999.2500  -999.2500  -999.2500  -999.2500 
   15.5000    15.5000     0.0000     0.0000  -999.2500  -999.2500  -999.2500  -999.2500  -999.2500  -999.2500  -999.2500 
   15.6250    15.6250     0.0000     0.0000  -999.2500  -999.2500  -999.2500  -999.2500  -999.2500  -999.2500  -999.2500 
   15.7500    15.7500     0.0000     0.0000  -999.2500  -999.2500  -999.2500  -999.2500  -999.2500  -999.2500  -999.2500 
   15.8750    15.8750     0.0000     0.0000  -999.2500  -999.2500  -999.2500  -999.2500  -999.2500  -999.2500  -999.2500 
   16.0000    16.0000     0.0000     0.0000  -999.2500  -999.2500  -999.2500  -999.2500  -999.2500     0.0000  -999.2500 
   16.1250    16.1250     0.0000     0.0000  -999.2500  -999.2500  -999.2500  -999.2500  -999.2500     0.0000  -999.2500 
   16.2500    16.2500     0.0000     0.0000  -999.2500  -999.2500  -999.2500  -999.2500  -999.2500   109.7720  -999.2500 
   16.3750    16.3750     0.0000     0.0000  -999.2500  -999.2500  -999.2500  -999.2500  -999.2500   219.5910     2.1250 
   16.5000    16.5000     0.0000     0.0000  -999.2500  -999.2500  -999.2500  -999.2500  -999.2500   219.3840     2.1250 
   16.6250    16.6250     0.0000     0.0000  -999.2500  -999.2500  -999.2500  -999.2500  -999.2500   218.7410     2.1570 
   16.7500    16.7500     0.0000     0.0000  -999.2500  -999.2500  -999.2500  -999.2500  -999.2500   217.8000     2.1550 
   16.8750    16.8750     0.0000     0.0000  -999.2500  -999.2500  -999.2500  -999.2500  -999.2500   216.7110     2.1170 
   17.0000    17.0000     0.0000     0.0000  -999.2500  -999.2500  -999.2500  -999.2500  -999.2500   215.5010     2.0560 
   17.1250    17.1250     0.0000     0.0000  -999.2500  -999.2500  -999.2500  -999.2500  -999.2500   214.2770     2.0010 
   17.2500    17.2500     0.0000     0.0000  -999.2500  -999.2500  -999.2500  -999.2500  -999.2500   213.2270     1.9650 
   17.3750    17.3750     0.0000     0.0000  -999.2500  -999.2500  -999.2500  -999.2500  -999.2500   212.4250     1.9390 
   17.5000    17.5000     0.0000     0.0000  -999.2500  -999.2500  -999.2500  -999.2500  -999.2500   211.8940     1.9100 
   17.6250    17.6250     0.0000     0.0000  -999.2500  -999.2500  -999.2500  -999.2500  -999.2500   211.6610     1.8770 
   17.7500    17.7500     0.0000     0.0000  -999.2500  -999.2500  -999.2500  -999.2500  -999.2500   211.6030     1.8580 
   17.8750    17.8750     0.0000     0.0000  -999.2500  -999.2500  -999.2500  -999.2500  -999.2500   211.6830     1.8670 
   18.0000    18.0000     0.0000     0.0000  -999.2500  -999.2500  -999.2500  -999.2500  -999.2500   211.8440     1.9040 
   18.1250    18.1250     0.0000     0.0000  -999.2500  -999.2500  -999.2500  -999.2500  -999.2500   211.8650     1.9510 
   18.2500    18.2500     0.0000     0.0000    44.5430    27.2940     0.2920     0.2200    25.8200   211.5940     1.9780 
   18.3750    18.3750     0.0000     0.0000    44.5430    27.2940     0.2920     0.2200    25.8200   210.8140     1.9740 
   18.5000    18.5000     0.0000     0.0000    44.6020    24.3970     0.2840     0.2200    25.8200   209.1950     1.9470 
   18.6250    18.6250     0.0000     0.0000    44.0690    20.7660     0.2730     0.2200    25.8200   206.4270     1.9200 
   18.7500    18.7500     0.0000     0.0000    45.0260    18.1630     0.2630     0.2200    25.8200   202.6210     1.9090 
   18.8750    18.8750     0.0000     0.0000    46.1510    17.1590     0.2580     0.2200    25.8200   197.7940     1.9160 
   19.0000    19.0000     0.0000     0.0000    44.5370    17.5990     0.2580     0.2200    25.8200   192.1470     1.9320 
   19.1250    19.1250     0.0000     0.0000    43.5180    18.7160     0.2570     0.2200    25.8200   185.7320     1.9450 
   19.2500    19.2500     0.0000     0.0000    44.0730    19.1180     0.2490     0.2200    25.8200   178.7800     1.9510 
   19.3750    19.3750     0.0000     0.0000    44.4930    17.5720     0.2320     0.2200    25.8200   171.4940     1.9550 
   19.5000    19.5000     0.0000     0.0000    44.9100    13.5730     0.2100     0.2200    25.8200   164.2050     1.9620 
   19.6250    19.6250     0.0000     0.0000    44.6710     8.1300     0.1890     0.2200    25.8200   156.8760     1.9780 
   19.7500    19.7500     0.0000     0.0000    42.3510     3.5200     0.1760     0.2200    25.8160   149.5470     2.0070 
   19.8750    19.8750     0.0000     0.0000    38.2720     0.6880     0.1730     0.2200    25.7990   142.0760     2.0630 
   20.0000    20.0000     0.0000     0.0000    37.0610    -0.5880     0.1770     0.2240    25.7630   134.0770     2.1670 
   20.1250    20.1250     0.0000     0.0000    42.4200    -0.7770     0.2180     0.3470    25.7440   124.8320     2.3340 
   20.2500    20.2500     0.0000     0.0000    49.1930    -0.2580     0.4480     1.2520    25.7360   113.9660     2.5210 
   20.3750    20.3750     0.0000     0.0000    52.9310     1.2240     1.2060     3.2530    25.7630   101.6080     2.6740 
   20.5000    20.5000     0.0000     0.0000    53.9650     4.4670     3.0340     6.8620    25.9050    88.3920     2.7350 
   20.6250    20.6250     0.0000     0.0000    55.2920    12.5080     6.8990     8.3450    26.3510    74.9810     2.6490 
   20.7500    20.7500     0.0000     0.0000    57.2020    26.7630    12.2730     8.0950    27.2050    61.8200     2.4510 
   20.8750    20.8750     0.0000     0.0000    56.9380    43.7710    17.3600     6.6670    28.5750    49.1990     2.1830 
   21.0000    21.0000     0.0000     0.0000    56.7880    55.1870    19.9280     5.8540    29.6260    37.4330     1.9000 
   21.1250    21.1250     0.0000     0.0000    56.8220    53.9890    19.0420     6.5790    29.8460    27.3240     1.6600 
   21.2500    21.2500     0.0000     0.0000    53.2110    47.0220    17.1160     6.7370    30.0530    19.2780     1.4870 
   21.3750    21.3750     0.0000     0.0000    47.9310    41.3860    15.7620     5.4040    30.2270    13.1910     1.3810 
   21.5000    21.5000     0.0000     0.0000    48.1510    39.3620    15.2000     4.0570    30.3790     8.4650     1.3280 
   21.6250    21.6250     0.0000     0.0000    55.9030    39.2250    14.8230     3.7590    30.6740     4.7120     1.3110 
   21.7500    21.7500     0.0000     0.0000    60.0180    38.8600    14.2300     4.1650    31.3330     1.4340     1.3090 
   21.8750    21.8750     0.0000     0.0000    56.2520    37.7610    13.4740     4.8790    31.3330    -1.5140     1.3170 
   22.0000    22.0000     0.0000     0.0000    49.9980    36.0920    12.7380     5.1490    31.3270    -4.1760     1.3310 
   22.1250    22.1250     0.0000     0.0000    49.1500    34.3740    12.2040     5.2390    31.2890    -6.5790     1.3470 
   22.2500    22.2500     0.0000     0.0000    51.5550    33.0660    11.8670     5.5440    31.2110    -8.7380     1.3610 
   22.3750    22.3750     0.0000     0.0000    52.9130    32.3190    11.6600     5.9850    31.1840   -10.6140     1.3700 
   22.5000    22.5000     0.0000     0.0000    51.6630    32.0310    11.4760     6.3760    31.0940   -12.2940     1.3720 
   22.6250    22.6250     0.0000     0.0000    49.9900    31.9040    11.2020     6.3610    31.1160   -13.7370     1.3650 
   22.7500    22.7500     0.0000     0.0000    49.9470    31.6380    10.8170     5.7260    31.1860   -14.9550     1.3530 
   22.8750    22.8750     0.0000     0.0000    51.3710    31.1880    10.3540     4.8500    31.1980   -16.0310     1.3380 
   23.0000    23.0000     0.0000     0.0000    52.5760    30.7060     9.8840     4.2280    31.1930   -16.9510     1.3220 
   23.1250    23.1250     0.0000     0.0000    51.4010    30.5910     9.4970     3.8650    31.1460   -17.6840     1.3070 
