~V
VERS. 2.00: Ver 2.00
~W
STRT.M 20.0000:
STOP.M 277.0000:
STEP.M 0.1250:
NULL. -999.2500:
UWI. FD11024:
~C
DEPT.M :
TVD. :
DX. :
DY. :
DEN.GM/CC :
GR.API :
RML.OHMM :
RI. :
RXO.OHMM :
CALI.CM :
SP.MV :
~A
# ...
   86.0000    85.8130     1.9460     3.0290     2.1460    66.3450     7.3790     6.8310     8.2330    21.9930    -8.6000 
   86.1250    85.9360     1.9550     3.0450     2.1610    70.1130     7.0200     6.4730     7.2510    21.7360    -7.7010 
   86.2500    86.0600     1.9640     3.0620     2.1830    72.7330     6.7140     6.1370     6.0510    21.7450    -6.7980 
   86.3750    86.1830     1.9730     3.0780     2.2050    74.4490     6.5590     5.9180     5.3570    21.7870    -5.9180 
   86.5000    86.3070     1.9820     3.0950     2.2180    75.9330     6.5810     5.8500     5.4010    21.8120    -5.0990 
   86.6250    86.4300     1.9920     3.1110     2.2180    76.7990     6.7200     5.9060     6.3420    21.7490    -4.3400 
   86.7500    86.5540     2.0010     3.1280     2.2130    77.6310     6.8360     5.9740     7.2310    21.8590    -3.6570 
   86.8750    86.6770     2.0100     3.1440     2.2090    79.1950     6.8550     5.9850     6.9850    22.1550    -3.1200 
   87.0000    86.8010     2.0190     3.1610     2.2080    79.6420     6.7780     5.9230     5.9680    22.3220    -2.7700 
   87.1250    86.9250     2.0280     3.1770     2.2090    80.1340     6.6630     5.8240     5.5090    22.3200    -2.5840 
   87.2500    87.0480     2.0380     3.1940     2.2090    83.4160     6.5670     5.7400     5.4360    22.1490    -2.4630 
   87.3750    87.1720     2.0470     3.2100     2.2080    87.4860     6.4850     5.6880     5.6980    21.7730    -2.4050 
   87.5000    87.2950     2.0560     3.2270     2.2090    86.8860     6.3940     5.6570     6.0550    21.5860    -2.3750 
   87.6250    87.4190     2.0650     3.2430     2.2110    81.5920     6.2970     5.6360     6.5150    21.5600    -2.4200 
   87.7500    87.5420     2.0740     3.2600     2.2110    79.0060     6.2510     5.6380     6.5040    21.5730    -2.5720 
   87.8750    87.6660     2.0840     3.2760     2.2060    80.4770     6.3160     5.6990     6.2600    21.6700    -2.7740 
   88.0000    87.7890     2.0930     3.2930     2.1970    82.9010     6.5140     5.8410     6.5550    21.7140    -2.9330 
   88.1250    87.9130     2.1020     3.3090     2.1870    84.5610     6.7830     6.0360     7.5880    21.7370    -2.9720 
   88.2500    88.0370     2.1110     3.3260     2.1830    85.5540     6.9600     6.1840     7.8270    21.7680    -2.8910 
   88.3750    88.1600     2.1200     3.3420     2.1920    86.9090     6.9120     6.1950     7.6360    21.6690    -2.6550 
   88.5000    88.2840     2.1300     3.3590     2.2130    88.6990     6.6050     6.0310     7.0150    21.5210    -2.3740 
   88.6250    88.4070     2.1390     3.3750     2.2400    90.5890     6.1410     5.7310     5.9160    21.2370    -2.0980 
   88.7500    88.5310     2.1480     3.3920     2.2620    92.0550     5.7400     5.4330     5.0430    21.0820    -1.8220 
   88.8750    88.6540     2.1570     3.4080     2.2700    91.8010     5.5220     5.2240     4.7790    21.1400    -1.5510 
   89.0000    88.7780     2.1660     3.4250     2.2630    90.6280     5.4980     5.1450     4.8830    21.3860    -1.2890 
   89.1250    88.9010     2.1760     3.4410     2.2460    90.3040     5.6120     5.2010     5.0460    21.8310    -1.1510 
   89.2500    89.0250     2.1850     3.4580     2.2300    93.2220     5.7570     5.3200     5.2160    22.0610    -1.0860 
   89.3750    89.1490     2.1940     3.4740     2.2210    98.3070     5.8710     5.4450     5.3220    22.1560    -1.1220 
   89.5000    89.2720     2.2030     3.4910     2.2200   102.1630     5.9110     5.5240     5.2810    22.1900    -1.2490 
   89.6250    89.3960     2.2120     3.5070     2.2280   100.6370     5.8250     5.5040     5.1880    21.9370    -1.4340 
   89.7500    89.5190     2.2240     3.5250     2.2390    95.5520     5.6140     5.3720     5.1930    21.8670    -1.6530 
   89.8750    89.6420     2.2360     3.5440     2.2520    92.9690     5.3200     5.1380     5.2280    22.0330    -1.9080 
   90.0000    89.7650     2.2480     3.5630     2.2670    94.4830     5.0860     4.8780     5.0810    22.2740    -2.2460 
   90.1250    89.8880     2.2610     3.5810     2.2890    96.6520     5.1980     4.7860     4.9540    22.4210    -2.7290 
   90.2500    90.0110     2.2730     3.6000     2.3210    98.1950     5.7870     5.0140     4.8870    22.5240    -3.4010 
   90.3750    90.1340     2.2860     3.6190     2.3620    97.6880     6.9060     5.6660     5.0890    22.4370    -4.2920 
   90.5000    90.2570     2.2980     3.6380     2.4030    92.4720     8.4740     6.7700     6.6800    22.3130    -5.4100 
   90.6250    90.3800     2.3110     3.6570     2.4120    79.3430    10.1250     8.1880    12.3570    22.1830    -6.6980 
   90.7500    90.5020     2.3230     3.6750     2.3790    66.3680    11.1420     9.3500    21.1690    22.0570    -8.0870 
   90.8750    90.6250     2.3360     3.6940     2.3120    60.5780    11.0130     9.6940    20.7630    21.7340    -9.4760 
   91.0000    90.7480     2.3480     3.7130     2.2330    60.9350     9.8680     9.0900    13.5040    21.5270   -10.7950 
   91.1250    90.8710     2.3610     3.7320     2.1710    62.9100     8.4510     7.9810    10.3870    21.4000   -11.9450 
   91.2500    90.9940     2.3730     3.7510     2.1340    62.7500     7.4300     7.0160     8.9380    21.2500   -12.8990 
   91.3750    91.1170     2.3860     3.7690     2.1190    61.1370     6.9360     6.4190     8.0930    21.0310   -13.6610 
   91.5000    91.2400     2.3980     3.7880     2.1170    60.8540     6.8440     6.1890     7.7690    20.9710   -14.1610 
   91.6250    91.3630     2.4110     3.8070     2.1210    62.9790     6.9540     6.2370     8.0200    21.0750   -14.4170 
   91.7500    91.4860     2.4230     3.8260     2.1270    64.3490     7.0770     6.3740     8.4990    21.3760   -14.5610 
   91.8750    91.6090     2.4350     3.8450     2.1310    63.6620     7.1620     6.5080     8.9810    21.5830   -14.6280 
   92.0000    91.7320     2.4480     3.8630     2.1360    63.5740     7.2110     6.5960     9.3210    21.6390   -14.6630 
   92.1250    91.8550     2.4600     3.8820     2.1440    66.3070     7.2350     6.6250     9.3310    21.6210   -14.6940 
   92.2500    91.9780     2.4730     3.9010     2.1550    69.3320     7.2450     6.6210     8.8930    21.4610   -14.7130 
   92.3750    92.1010     2.4850     3.9200     2.1660    70.9870     7.2440     6.6040     8.2160    21.0320   -14.7230 
   92.5000    92.2240     2.4980     3.9390     2.1730    69.3780     7.2400     6.5800     7.9490    20.8110   -14.7200 
   92.6250    92.3470     2.5100     3.9570     2.1710    62.7650     7.2510     6.5440     8.1850    21.0700   -14.6670 
   92.7500    92.4700     2.5230     3.9760     2.1580    57.9560     7.2600     6.4900     8.5260    21.4740   -14.5690 
   92.8750    92.5920     2.5350     3.9950     2.1380    60.2220     7.2250     6.4130     8.8210    21.7890   -14.4470 
   93.0000    92.7150     2.5480     4.0140     2.1190    66.7380     7.1120     6.3110     8.8520    22.1660   -14.2950 
   93.1250    92.8380     2.5600     4.0330     2.1080    69.3360     6.9410     6.1870     8.4470    22.7660   -14.1110 
   93.2500    92.9610     2.5730     4.0510     2.1090    66.5920     6.8030     6.0670     7.7660    22.5060   -13.9060 
   93.3750    93.0840     2.5850     4.0700     2.1200    62.8980     6.7580     5.9730     7.3130    21.6040   -13.6680 
   93.5000    93.2070     2.5980     4.0890     2.1320    62.1600     6.8190     5.9220     7.2020    21.2460   -13.4000 
   93.6250    93.3300     2.6100     4.1080     2.1400    63.4080     6.9560     5.9170     7.4880    21.2960   -13.1200 
   93.7500    93.4530     2.6230     4.1270     2.1440    61.7810     7.0940     5.9300     8.0120    21.5150   -12.8280 
   93.8750    93.5760     2.6350     4.1450     2.1490    59.3310     7.1990     5.9430     8.3610    21.6570   -12.5120 
   94.0000    93.6990     2.6470     4.1640     2.1580    61.0120     7.2460     5.9390     8.2830    21.6150   -12.2060 
   94.1250    93.8220     2.6600     4.1830     2.1670    66.7340     7.2090     5.9090     7.7830    21.4780   -11.8950 
