~V
VERS. 2.00: Ver 2.00
~W
STRT.M 50.0000:
STOP.M 268.0000:
STEP.M 0.1250:
NULL. -999.2500:
UWI. FD11187:
~C
DEPT.M :
TVD. :
DX. :
DY. :
SP.MV :
GR.API :
RI. :
RML.OHMM :
RXO.OHMM :
DEN.GM/CC :
~A
# ...
   95.6250    95.5590     1.4760    -0.8150   -27.9490    60.8270     4.9810     5.6770     5.6000     2.0320 
   95.7500    95.6830     1.4910    -0.8190   -27.8710    58.7510     5.0630     5.7520     5.2830     2.0470 
   95.8750    95.8070     1.5050    -0.8240   -27.7850    56.4520     5.0040     5.6370     5.1290     2.0540 
   96.0000    95.9320     1.5190    -0.8280   -27.7590    54.7820     4.8960     5.4990     5.3840     2.0460 
   96.1250    96.0560     1.5330    -0.8330   -27.7640    52.3990     4.8120     5.3910     5.9530     2.0330 
   96.2500    96.1800     1.5480    -0.8370   -27.7820    50.6960     4.8150     5.3890     6.1090     2.0310 
   96.3750    96.3040     1.5620    -0.8420   -27.8000    49.6270     4.9370     5.5370     5.7840     2.0520 
   96.5000    96.4280     1.5770    -0.8470   -27.7970    50.0370     5.0830     5.7070     5.5600     2.0870 
   96.6250    96.5520     1.5910    -0.8510   -27.7670    51.4080     5.3510     6.0210     5.9600     2.1390 
   96.7500    96.6760     1.6050    -0.8560   -27.7360    50.7260     5.5260     6.2100     6.3330     2.1460 
   96.8750    96.8000     1.6200    -0.8610   -27.6790    48.5500     5.7060     6.3610     6.3250     2.1020 
   97.0000    96.9240     1.6350    -0.8660   -27.6330    47.6210     5.7310     6.3520     6.3700     2.0610 
   97.1250    97.0480     1.6490    -0.8700   -27.5450    46.9060     5.6570     6.2190     6.4810     2.0320 
   97.2500    97.1720     1.6640    -0.8750   -27.4730    46.8380     5.5680     6.0960     6.2900     2.0300 
   97.3750    97.2960     1.6790    -0.8800   -27.3480    45.3860     5.3940     5.8920     6.0940     2.0380 
   97.5000    97.4200     1.6930    -0.8840   -27.2620    43.5590     5.2000     5.6590     6.0530     2.0410 
   97.6250    97.5440     1.7080    -0.8890   -27.1510    41.8560     4.7440     5.1250     5.9320     2.0540 
   97.7500    97.6680     1.7230    -0.8940   -27.1050    43.7820     4.3610     4.6710     5.8620     2.0850 
   97.8750    97.7920     1.7380    -0.8990   -27.0970    49.8760     3.7950     4.0140     5.0950     2.1610 
   98.0000    97.9160     1.7530    -0.9030   -27.1350    54.4210     3.4960     3.6710     4.2220     2.2090 
   98.1250    98.0400     1.7680    -0.9080   -27.2420    60.8970     3.1730     3.2990     3.7480     2.2450 
   98.2500    98.1640     1.7830    -0.9130   -27.3370    65.3410     3.0620     3.1750     3.9610     2.2510 
   98.3750    98.2880     1.7980    -0.9170   -27.5000    69.6080     3.0830     3.1980     4.0480     2.2550 
   98.5000    98.4120     1.8130    -0.9220   -27.6180    69.7880     3.2190     3.3450     3.7430     2.2450 
   98.6250    98.5360     1.8280    -0.9270   -27.8090    68.8890     3.5520     3.7100     3.7150     2.2010 
   98.7500    98.6600     1.8430    -0.9320   -27.9410    67.1590     3.8320     4.0230     4.2760     2.1750 
   98.8750    98.7840     1.8580    -0.9370   -28.1340    63.2370     4.3400     4.5830     4.7870     2.1740 
   99.0000    98.9080     1.8730    -0.9420   -28.2480    60.7700     4.6320     4.8990     4.7790     2.1780 
   99.1250    99.0320     1.8880    -0.9470   -28.3850    59.5100     4.8040     5.0630     5.1900     2.1580 
   99.2500    99.1560     1.9030    -0.9520   -28.4490    58.6470     4.7370     4.9710     5.8440     2.1370 
   99.3750    99.2800     1.9190    -0.9570   -28.5040    57.6390     4.5200     4.7230     6.3710     2.1200 
   99.5000    99.4040     1.9340    -0.9620   -28.5150    58.9670     4.5220     4.7320     6.0500     2.1340 
   99.6250    99.5280     1.9490    -0.9670   -28.5010    62.5530     4.9710     5.2860     5.8590     2.2110 
   99.7500    99.6520     1.9650    -0.9720   -28.4750    64.0160     5.7600     6.2670     9.6830     2.2900 
   99.8750    99.7760     1.9800    -0.9770   -28.4230    64.0160     8.3490     9.4790    22.1090     2.4040 
  100.0000    99.9000     1.9960    -0.9820   -28.3840    63.3870    11.3790    13.0550    32.7750     2.4660 
  100.1250   100.0240     2.0110    -0.9870   -28.3260    61.0800    16.0860    18.2940    51.8440     2.5370 
  100.2500   100.1480     2.0270    -0.9920   -28.2940    58.8220    17.5540    19.6700    54.9530     2.5540 
  100.3750   100.2720     2.0420    -0.9970   -28.2710    53.8140    16.3670    17.8390    39.5470     2.4970 
  100.5000   100.3960     2.0580    -1.0020   -28.2740    50.1750    13.6090    14.5430    29.7270     2.4010 
  100.6250   100.5200     2.0740    -1.0070   -28.2950    48.5280     9.5620     9.9940    20.9130     2.2340 
  100.7500   100.6440     2.0890    -1.0120   -28.3040    50.4950     7.6690     7.9960    15.6760     2.1530 
  100.8750   100.7670     2.1050    -1.0170   -28.2860    54.3760     6.2030     6.5060     9.0820     2.0980 
  101.0000   100.8910     2.1210    -1.0220   -28.2500    56.1750     5.6010     5.9110     6.9440     2.0870 
  101.1250   101.0150     2.1370    -1.0270   -28.1790    57.4660     5.1910     5.5440     6.5050     2.0900 
  101.2500   101.1390     2.1520    -1.0320   -28.1370    58.2110     5.1130     5.4890     6.2810     2.0980 
  101.3750   101.2630     2.1680    -1.0370   -28.1100    60.2520     5.1180     5.5050     5.8410     2.1060 
  101.5000   101.3870     2.1840    -1.0420   -28.1250    61.4730     5.1360     5.5200     5.6370     2.1070 
  101.6250   101.5110     2.2000    -1.0470   -28.1940    61.7460     5.0890     5.4460     5.7570     2.1210 
  101.7500   101.6350     2.2160    -1.0520   -28.2650    60.9780     4.9970     5.3300     5.9370     2.1480 
  101.8750   101.7590     2.2320    -1.0570   -28.3990    60.7760     4.7830     5.0820     5.9490     2.2020 
  102.0000   101.8820     2.2480    -1.0630   -28.4980    62.7390     4.6130     4.8930     5.6110     2.2250 
  102.1250   102.0060     2.2630    -1.0680   -28.6560    67.3890     4.4370     4.7160     4.9080     2.2230 
  102.2500   102.1300     2.2790    -1.0730   -28.7620    69.5130     4.4200     4.7270     4.9800     2.2020 
  102.3750   102.2540     2.2950    -1.0780   -28.9090    67.7410     4.6200     5.0270     5.4190     2.1700 
  102.5000   102.3780     2.3110    -1.0830   -28.9890    65.1620     4.8520     5.3440     5.5160     2.1590 
  102.6250   102.5020     2.3270    -1.0880   -29.0640    63.7450     5.2790     5.9110     5.7320     2.1520 
  102.7500   102.6260     2.3440    -1.0930   -29.0810    63.6740     5.5210     6.2200     5.8920     2.1420 
  102.8750   102.7500     2.3600    -1.0980   -29.0690    62.5100     5.7130     6.4560     6.0130     2.1170 
  103.0000   102.8730     2.3760    -1.1030   -29.0530    60.6860     5.7500     6.4990     6.0460     2.1040 
  103.1250   102.9970     2.3920    -1.1080   -29.0380    58.4860     5.7040     6.4440     5.7000     2.1060 
  103.2500   103.1210     2.4080    -1.1130   -29.0390    57.6110     5.6340     6.3690     5.0930     2.1180 
  103.3750   103.2450     2.4240    -1.1180   -29.0440    56.7150     5.5440     6.2800     4.2200     2.1320 
  103.5000   103.3690     2.4400    -1.1230   -29.0390    56.1360     5.4810     6.2170     3.9260     2.1280 
  103.6250   103.4930     2.4570    -1.1290   -29.0020    53.1710     5.4030     6.1460     3.7730     2.1080 
  103.7500   103.6160     2.4730    -1.1340   -28.9550    50.1730     5.3620     6.1080     3.7570     2.0930 
  103.8750   103.7400     2.4890    -1.1390   -28.8630    49.9180     5.3060     6.0700     3.6070     2.0800 
  104.0000   103.8640     2.5050    -1.1440   -28.7960    52.5980     5.2770     6.0550     3.2620     2.0810 
  104.1250   103.9880     2.5220    -1.1490   -28.7060    54.6140     5.2360     6.0330     2.5890     2.0960 
  104.2500   104.1120     2.5380    -1.1540   -28.6650    52.6770     5.2140     6.0210     2.3610     2.1080 
  104.3750   104.2360     2.5540    -1.1590   -28.6420    51.2760     5.1880     6.0060     2.4680     2.1110 
  104.5000   104.3590     2.5710    -1.1650   -28.6540    52.7720     5.1830     6.0050     2.5010     2.1060 
  104.6250   104.4830     2.5870    -1.1700   -28.7070    54.5770     5.1810     6.0100     2.1460     2.1040 
