~V
VERS. 2.00: Ver 2.00
~W
STRT.M 10.0000:
STOP.M 249.0000:
STEP.M 0.1250:
NULL. -999.2500:
UWI. FD11114:
~C
DEPT.M :
TVD. :
DX. :
DY. :
GR.API :
RML.OHMM :
RI. :
RXO.OHMM :
CALI.CM :
SP.MV :
DEN.GM/CC :
~A
# ...
  183.2500   181.2660    15.9100    -2.4090    53.0580    10.7230    10.1270     6.5770    23.7840   -22.1810     2.4110 
  183.3750   181.3830    15.9540    -2.4170    56.0480    10.5980     9.9460     6.8130    23.8580   -22.2580     2.3940 
  183.5000   181.5000    15.9980    -2.4250    57.1790    10.5790     9.9210     7.4810    23.9330   -22.3620     2.3820 
  183.6250   181.6170    16.0420    -2.4330    55.6490    10.5420     9.9260     7.8920    23.9880   -22.4730     2.3800 
  183.7500   181.7340    16.0850    -2.4410    52.9750    10.4390     9.8840     7.5270    24.0060   -22.5730     2.3890 
  183.8750   181.8500    16.1290    -2.4490    53.0180    10.3240     9.8140     7.0500    24.0080   -22.6420     2.3990 
  184.0000   181.9670    16.1730    -2.4570    56.1070    10.2650     9.7560     6.7200    24.0170   -22.6840     2.4010 
  184.1250   182.0840    16.2160    -2.4640    57.7410    10.3130     9.7520     6.5590    24.0350   -22.7150     2.3930 
  184.2500   182.2010    16.2600    -2.4720    55.5190    10.4940     9.8260     6.5700    24.0560   -22.7510     2.3840 
  184.3750   182.3180    16.3040    -2.4800    52.7280    10.7270     9.9260     6.8100    24.0680   -22.7970     2.3830 
  184.5000   182.4350    16.3480    -2.4880    52.2620    10.9110     9.9750     7.1880    24.0720   -22.8580     2.3900 
  184.6250   182.5510    16.3910    -2.4960    52.8660    10.9540     9.8960     7.6970    24.0730   -22.9440     2.3960 
  184.7500   182.6680    16.4350    -2.5040    52.3700    10.7890     9.6300     7.5550    24.0710   -23.0480     2.3910 
  184.8750   182.7850    16.4790    -2.5120    51.9280    10.4880     9.2400     6.6480    24.0690   -23.1680     2.3760 
  185.0000   182.9020    16.5220    -2.5200    51.8290    10.1320     8.7980     5.7230    24.0690   -23.2930     2.3580 
  185.1250   183.0190    16.5660    -2.5270    51.5470     9.8010     8.3750     5.3730    24.0680   -23.4050     2.3430 
  185.2500   183.1360    16.6100    -2.5350    51.6790     9.6010     8.0570     5.6010    24.0670   -23.4940     2.3360 
  185.3750   183.2520    16.6540    -2.5430    52.1690     9.5840     7.8870     5.8680    24.0680   -23.5770     2.3390 
  185.5000   183.3690    16.6970    -2.5510    53.1970     9.7790     7.8910     5.8850    24.0720   -23.6580     2.3540 
  185.6250   183.4860    16.7410    -2.5590    53.4300    10.1630     8.0540     5.9300    24.0760   -23.7380     2.3810 
  185.7500   183.6030    16.7850    -2.5670    52.2210    10.6540     8.3220     6.1440    24.0810   -23.8160     2.4050 
  185.8750   183.7200    16.8290    -2.5750    50.7550    11.0970     8.5770     6.4480    24.0850   -23.8800     2.4130 
  186.0000   183.8370    16.8720    -2.5830    50.5550    11.3910     8.7480     6.4830    24.0840   -23.9300     2.4010 
  186.1250   183.9540    16.9160    -2.5910    52.6420    11.5340     8.8250     6.1640    24.0790   -23.9630     2.3770 
  186.2500   184.0700    16.9600    -2.5980    54.3510    11.6450     8.8870     5.7000    24.0750   -23.9680     2.3600 
  186.3750   184.1870    17.0030    -2.6060    53.4750    11.9000     9.0520     5.7920    24.0780   -23.9370     2.3570 
  186.5000   184.3040    17.0470    -2.6140    50.6510    12.4100     9.4050     6.3190    24.0640   -23.8710     2.3670 
  186.6250   184.4210    17.0910    -2.6220    47.8540    13.2140     9.9850     7.1890    23.9900   -23.7770     2.3870 
  186.7500   184.5380    17.1350    -2.6300    46.6660    14.3000    10.8120     8.1530    23.8630   -23.6340     2.4100 
  186.8750   184.6550    17.1780    -2.6380    45.5310    15.5330    11.7900     9.0600    23.7660   -23.4500     2.4350 
  187.0000   184.7710    17.2220    -2.6460    44.9440    16.7910    12.8330     9.7820    23.7310   -23.2130     2.4590 
  187.1250   184.8880    17.2660    -2.6540    45.7160    17.8430    13.7780    10.2870    23.7220   -22.9190     2.4770 
  187.2500   185.0050    17.3090    -2.6610    46.2900    18.1190    14.1990    10.0320    23.7020   -22.5530     2.4860 
  187.3750   185.1220    17.3530    -2.6690    47.1920    17.2830    13.7980     9.7430    23.6780   -22.1390     2.4870 
  187.5000   185.2390    17.3970    -2.6770    50.0070    15.3070    12.5050    10.1530    23.6520   -21.7010     2.4830 
  187.6250   185.3560    17.4410    -2.6850    54.0490    12.6480    10.6160    10.6730    23.6140   -21.2760     2.4770 
  187.7500   185.4720    17.4840    -2.6930    54.8300    10.1160     8.6890     8.8160    23.5660   -20.9170     2.4710 
  187.8750   185.5890    17.5280    -2.7010    51.8890     8.2300     7.1390     6.3800    23.5320   -20.6500     2.4690 
  188.0000   185.7060    17.5720    -2.7090    47.8910     7.0790     6.0810     5.0460    23.5200   -20.4990     2.4720 
  188.1250   185.8230    17.6160    -2.7170    44.9050     6.5500     5.4850     4.7340    23.5190   -20.4710     2.4760 
  188.2500   185.9400    17.6590    -2.7250    44.1160     6.5060     5.3040     4.9450    23.5260   -20.5710     2.4740 
  188.3750   186.0570    17.7030    -2.7320    44.7190     6.6670     5.3480     5.1350    23.5540   -20.7520     2.4640 
  188.5000   186.1730    17.7470    -2.7400    47.1700     6.8750     5.5000     5.1960    23.6010   -20.9780     2.4510 
  188.6250   186.2900    17.7900    -2.7480    50.7750     7.0350     5.6650     5.1760    23.6420   -21.2340     2.4400 
  188.7500   186.4070    17.8340    -2.7560    52.2580     7.1160     5.7910     5.1160    23.6590   -21.5190     2.4370 
  188.8750   186.5240    17.8780    -2.7640    49.9780     7.1630     5.8810     5.0040    23.6610   -21.8260     2.4400 
  189.0000   186.6410    17.9220    -2.7720    47.9190     7.2050     5.9490     4.8860    23.6590   -22.1510     2.4440 
  189.1250   186.7580    17.9650    -2.7800    49.6770     7.2570     6.0040     4.8890    23.6530   -22.5060     2.4450 
  189.2500   186.8740    18.0090    -2.7880    53.1910     7.3280     6.0500     5.1000    23.6470   -22.9210     2.4400 
  189.3750   186.9910    18.0530    -2.7950    54.8080     7.4180     6.0910     5.2840    23.6470   -23.4070     2.4360 
  189.5000   187.1080    18.0960    -2.8030    54.3980     7.5340     6.1350     5.2890    23.6530   -23.9610     2.4350 
  189.6250   187.2250    18.1400    -2.8110    54.7100     7.6830     6.1940     5.1150    23.6600   -24.5720     2.4400 
  189.7500   187.3420    18.1840    -2.8190    59.2150     7.8710     6.2770     5.0180    23.6610   -25.2240     2.4460 
  189.8750   187.4590    18.2280    -2.8270    67.8140     8.0800     6.3750     5.0210    23.6620   -25.8940     2.4460 
  190.0000   187.5750    18.2710    -2.8350    79.5010     8.2840     6.4700     5.1280    23.6660   -26.5630     2.4380 
  190.1250   187.6920    18.3150    -2.8430    91.4330     8.4450     6.5430     5.1110    23.6820   -27.2060     2.4270 
  190.2500   187.8090    18.3590    -2.8510   100.8990     8.5190     6.5640     4.8910    23.7150   -27.7970     2.4170 
  190.3750   187.9260    18.4030    -2.8590   106.6360     8.5200     6.5390     4.7100    23.7450   -28.3470     2.4100 
  190.5000   188.0430    18.4460    -2.8660   107.9150     8.4800     6.4850     4.8600    23.7590   -28.8700     2.4060 
  190.6250   188.1600    18.4900    -2.8740   104.6670     8.4360     6.4250     5.2070    23.7560   -29.3840     2.4010 
  190.7500   188.2760    18.5350    -2.8820    97.3910     8.4220     6.3910     5.2410    23.7570   -29.8880     2.3950 
  190.8750   188.3920    18.5800    -2.8890    90.4520     8.4520     6.3960     5.1320    23.8350   -30.3830     2.3890 
  191.0000   188.5090    18.6250    -2.8960    87.5660     8.5360     6.4490     5.0880    24.0270   -30.8480     2.3840 
  191.1250   188.6250    18.6700    -2.9030    89.1040     8.6780     6.5500     5.2320    24.2510   -31.2610     2.3820 
  191.2500   188.7410    18.7150    -2.9100    92.1750     8.8890     6.7010     5.4720    24.3520   -31.5930     2.3820 
  191.3750   188.8580    18.7600    -2.9180    94.1840     9.1450     6.8880     5.6930    24.3390   -31.8390     2.3830 
