~V
VERS. 2.00: Ver 2.00
~W
STRT.M 11.0000:
STOP.M 273.0000:
STEP.M 0.1250:
NULL. -999.2500:
UWI. FD11023:
~C
DEPT.M :
TVD. :
DX. :
DY. :
GR.API :
RML.OHMM :
RI. :
RXO.OHMM :
CALI.CM :
DEN.GM/CC :
SP.MV :
~A
# ...
  250.2500   245.0850   -36.3670    12.4170    55.8720    11.2020     9.6060     8.3410    23.7110     2.4340    -7.6130 
  250.3750   245.2030   -36.4070    12.4310    54.0680    10.9420     9.3770     8.4640    23.5750     2.4360    -7.6080 
  250.5000   245.3210   -36.4460    12.4450    52.7340    10.7940     9.2120     8.6290    23.5070     2.4420    -7.6480 
  250.6250   245.4380   -36.4850    12.4590    54.1240    10.8810     9.2180     8.7160    23.4920     2.4520    -7.6730 
  250.7500   245.5560   -36.5250    12.4730    57.3650    11.1670     9.3890     8.8020    23.4920     2.4600    -7.6620 
  250.8750   245.6740   -36.5640    12.4860    59.4750    11.5650     9.6750     8.8640    23.4920     2.4580    -7.6260 
  251.0000   245.7920   -36.6030    12.5000    57.7710    11.9390     9.9850     8.8130    23.4900     2.4450    -7.5630 
  251.1250   245.9100   -36.6420    12.5140    55.1650    12.1350    10.1980     8.7290    23.4720     2.4300    -7.4620 
  251.2500   246.0280   -36.6820    12.5280    55.4510    12.1650    10.2920     8.8360    23.4350     2.4220    -7.3660 
  251.3750   246.1460   -36.7210    12.5420    57.4360    12.1400    10.3260     9.2310    23.4010     2.4220    -7.3040 
  251.5000   246.2630   -36.7600    12.5560    58.0250    12.2260    10.4170     9.7850    23.3880     2.4280    -7.2770 
  251.6250   246.3810   -36.8000    12.5700    56.8410    12.6000    10.7160    10.2410    23.3880     2.4420    -7.2670 
  251.7500   246.4990   -36.8390    12.5830    56.3060    13.2210    11.2260    10.5630    23.3880     2.4560    -7.2400 
  251.8750   246.6170   -36.8780    12.5970    56.8420    13.9630    11.8770    11.1490    23.3880     2.4640    -7.1990 
  252.0000   246.7350   -36.9180    12.6110    57.1670    14.6360    12.5280    11.7910    23.3880     2.4680    -7.1910 
  252.1250   246.8530   -36.9570    12.6250    55.4570    15.0140    12.9880    11.9520    23.3880     2.4720    -7.2660 
  252.2500   246.9700   -36.9960    12.6390    52.6230    15.0950    13.2040    11.9690    23.3880     2.4740    -7.3740 
  252.3750   247.0880   -37.0360    12.6530    51.0890    14.9810    13.2230    12.1580    23.3880     2.4720    -7.4510 
  252.5000   247.2060   -37.0750    12.6660    52.3240    14.8440    13.1690    12.4570    23.3870     2.4690    -7.4850 
  252.6250   247.3240   -37.1140    12.6800    54.0200    14.8590    13.1870    12.7750    23.3860     2.4660    -7.5270 
  252.7500   247.4420   -37.1530    12.6940    53.3060    15.0240    13.3090    13.0980    23.3870     2.4590    -7.5950 
  252.8750   247.5600   -37.1930    12.7080    49.8990    15.2340    13.4710    13.3840    23.3880     2.4450    -7.6440 
  253.0000   247.6780   -37.2320    12.7220    47.3190    15.3360    13.5580    13.2810    23.3880     2.4290    -7.6290 
  253.1250   247.7950   -37.2710    12.7360    50.0160    15.1520    13.4170    12.7730    23.3880     2.4210    -7.5320 
  253.2500   247.9130   -37.3110    12.7500    54.8360    14.6880    13.0400    12.1110    23.3880     2.4250    -7.4130 
  253.3750   248.0310   -37.3500    12.7630    57.4220    14.0330    12.4860    11.5170    23.3880     2.4370    -7.3360 
  253.5000   248.1490   -37.3890    12.7770    56.0260    13.3380    11.8790    11.1110    23.3880     2.4450    -7.3190 
  253.6250   248.2670   -37.4290    12.7910    53.7780    12.7890    11.3800    10.6690    23.3840     2.4380    -7.3320 
  253.7500   248.3850   -37.4680    12.8050    53.6470    12.4550    11.0620     9.9980    23.3700     2.4200    -7.3520 
  253.8750   248.5020   -37.5070    12.8190    54.2980    12.3330    10.9380     9.0360    23.3470     2.4030    -7.3940 
  254.0000   248.6200   -37.5460    12.8330    55.0720    12.3630    10.9750     7.9480    23.3240     2.3920    -7.4780 
  254.1250   248.7380   -37.5860    12.8470    55.5410    12.4590    11.1100     7.3140    23.3080     2.3880    -7.5800 
  254.2500   248.8560   -37.6250    12.8600    55.6230    12.5190    11.2380     7.1910    23.3030     2.3860    -7.6470 
  254.3750   248.9740   -37.6640    12.8740    55.2830    12.4920    11.2970     7.3540    23.3020     2.3850    -7.6360 
  254.5000   249.0920   -37.7040    12.8880    54.2950    12.3670    11.2570     7.5680    23.3020     2.3810    -7.5380 
  254.6250   249.2100   -37.7430    12.9020    53.3920    12.1680    11.1170     7.7500    23.3050     2.3810    -7.4080 
  254.7500   249.3270   -37.7820    12.9160    53.0500    11.9620    10.9420     7.9760    23.3140     2.3890    -7.3260 
  254.8750   249.4450   -37.8220    12.9300    54.2360    11.7940    10.7780     8.3540    23.3270     2.3970    -7.3320 
  255.0000   249.5630   -37.8610    12.9440    56.0750    11.6860    10.6580     8.6630    23.3340     2.3970    -7.4180 
  255.1250   249.6810   -37.9000    12.9570    56.0460    11.6470    10.6050     8.7240    23.3350     2.3950    -7.5290 
  255.2500   249.7990   -37.9400    12.9710    54.9280    11.6490    10.6010     8.5860    23.3340     2.3990    -7.6130 
  255.3750   249.9170   -37.9790    12.9850    54.2330    11.6760    10.6360     8.3210    23.3430     2.4070    -7.6760 
  255.5000   250.0350   -38.0180    12.9990    53.9930    11.7140    10.6940     8.1000    23.3660     2.4080    -7.7240 
  255.6250   250.1520   -38.0570    13.0130    52.4080    11.7450    10.7570     8.2000    23.4120     2.3940    -7.7210 
  255.7500   250.2700   -38.0970    13.0270    50.8020    11.7500    10.8010     8.3190    23.4320     2.3730    -7.6410 
  255.8750   250.3880   -38.1360    13.0410    51.5250    11.7160    10.8140     8.2230    23.4360     2.3590    -7.5120 
  256.0000   250.5060   -38.1750    13.0540    53.4650    11.6470    10.7950     7.9450    23.4360     2.3610    -7.4080 
  256.1250   250.6240   -38.2150    13.0680    53.6830    11.5820    10.7670     7.6390    23.4360     2.3800    -7.4520 
  256.2500   250.7420   -38.2540    13.0820    53.5330    11.5750    10.7750     7.7190    23.4360     2.3980    -7.6310 
  256.3750   250.8590   -38.2930    13.0960    55.1850    11.6650    10.8490     8.1910    23.4360     2.4110    -7.8430 
  256.5000   250.9770   -38.3330    13.1100    56.7260    11.8540    10.9960     9.0560    23.4350     2.4180    -7.9600 
  256.6250   251.0950   -38.3720    13.1240    55.8110    12.1090    11.1940    10.0420    23.4470     2.4160    -7.9000 
  256.7500   251.2130   -38.4110    13.1370    54.8340    12.3520    11.3870    10.7490    23.4830     2.4100    -7.7320 
  256.8750   251.3310   -38.4500    13.1510    55.3750    12.5330    11.5360    10.7230    23.5320     2.4050    -7.5570 
  257.0000   251.4490   -38.4900    13.1650    56.3310    12.6320    11.6230     9.6910    23.5610     2.4030    -7.4780 
  257.1250   251.5670   -38.5290    13.1790    55.5430    12.6590    11.6520     8.7570    23.5660     2.4060    -7.5580 
  257.2500   251.6840   -38.5680    13.1930    54.7610    12.6650    11.6590     8.3310    23.5670     2.4170    -7.7020 
  257.3750   251.8020   -38.6080    13.2070    54.6040    12.6860    11.6740     8.3840    23.5770     2.4350    -7.7890 
  257.5000   251.9200   -38.6470    13.2210    55.1010    12.7460    11.7190     8.6640    23.6070     2.4470    -7.7410 
  257.6250   252.0380   -38.6860    13.2340    56.3310    12.8600    11.8110     8.9050    23.6620     2.4410    -7.5820 
  257.7500   252.1560   -38.7260    13.2480    57.7510    13.0160    11.9420     9.0890    23.6880     2.4220    -7.4720 
  257.8750   252.2740   -38.7650    13.2620    58.4540    13.1980    12.0970     9.3460    23.6770     2.4030    -7.5130 
  258.0000   252.3910   -38.8040    13.2760    58.1890    13.3780    12.2530     9.8410    23.6280     2.3980    -7.6910 
  258.1250   252.5090   -38.8440    13.2900    57.3640    13.5160    12.3760    10.5830    23.6030     2.4120    -7.8620 
  258.2500   252.6270   -38.8830    13.3040    55.9580    13.6130    12.4590    11.2870    23.5950     2.4340    -7.9080 
  258.3750   252.7450   -38.9220    13.3180    55.0230    13.6940    12.5230    11.6490    23.5950     2.4540    -7.8440 
