~V
VERS. 2.00: Ver 2.00
~W
STRT.M 20.0000:
STOP.M 277.0000:
STEP.M 0.1250:
NULL. -999.2500:
UWI. FD11024:
~C
DEPT.M :
TVD. :
DX. :
DY. :
DEN.GM/CC :
GR.API :
RML.OHMM :
RI. :
RXO.OHMM :
CALI.CM :
SP.MV :
~A
# ...
  218.0000   213.6930    20.7060    29.2600     2.1990    69.1270    31.9460    25.4850    16.6840    20.1570    -8.7840 
  218.1250   213.8120    20.7290    29.2900     2.1890    67.4950    33.3500    27.1330    18.5190    20.1430    -8.9130 
  218.2500   213.9320    20.7510    29.3190     2.1820    67.9330    33.5470    27.8660    19.8540    20.1100    -9.0600 
  218.3750   214.0510    20.7740    29.3490     2.1820    68.2280    32.6390    27.6250    20.8760    20.1030    -9.2250 
  218.5000   214.1700    20.7960    29.3780     2.1870    66.8280    31.0470    26.6530    20.4630    20.1030    -9.3780 
  218.6250   214.2900    20.8190    29.4070     2.1960    66.5660    29.4110    25.4200    17.8760    20.1040    -9.5260 
  218.7500   214.4090    20.8410    29.4370     2.2050    66.8930    28.2740    24.4440    15.1510    20.1060    -9.6940 
  218.8750   214.5280    20.8640    29.4660     2.2090    64.9100    27.8720    23.9820    14.0120    20.1200    -9.8530 
  219.0000   214.6480    20.8860    29.4960     2.2080    61.9770    28.2060    24.1190    14.9450    20.1950   -10.0340 
  219.1250   214.7670    20.9090    29.5250     2.2020    62.4340    29.0810    24.7790    18.4610    20.2870   -10.1950 
  219.2500   214.8870    20.9310    29.5550     2.1960    64.6400    29.9470    25.5350    21.8640    20.3080   -10.3460 
  219.3750   215.0060    20.9540    29.5850     2.1920    66.2610    30.3940    26.0340    23.6410    20.3870   -10.5070 
  219.5000   215.1250    20.9780    29.6140     2.1920    66.3990    30.2720    26.0840    20.9130    20.4210   -10.7070 
  219.6250   215.2440    21.0010    29.6440     2.1960    65.4050    29.9280    25.8590    17.1440    20.4470   -10.9170 
  219.7500   215.3630    21.0240    29.6740     2.1990    65.0490    30.1690    25.9430    15.0840    20.4750   -11.1360 
  219.8750   215.4820    21.0470    29.7040     2.2000    64.9980    31.6430    26.8380    15.5760    20.4770   -11.3640 
  220.0000   215.6010    21.0710    29.7340     2.1990    63.4760    34.7340    28.9180    17.8530    20.4530   -11.6010 
  220.1250   215.7200    21.0940    29.7640     2.2000    63.1780    39.6750    32.5680    22.3520    20.4260   -11.8510 
  220.2500   215.8400    21.1170    29.7940     2.2060    65.8330    45.6140    37.3240    24.1630    20.4220   -12.1210 
  220.3750   215.9590    21.1400    29.8240     2.2160    67.7280    51.5910    42.5170    24.7500    20.4300   -12.3710 
  220.5000   216.0780    21.1640    29.8540     2.2230    65.0170    56.5760    47.2590    25.0300    20.4710   -12.6040 
  220.6250   216.1970    21.1870    29.8840     2.2170    60.4420    59.7270    50.6650    25.3720    20.7240   -12.8240 
  220.7500   216.3160    21.2100    29.9140     2.1970    58.1580    61.5780    52.9310    26.5190    21.1800   -13.0380 
  220.8750   216.4350    21.2330    29.9440     2.1690    57.3990    62.7160    54.5200    27.2370    22.0680   -13.2750 
  221.0000   216.5540    21.2570    29.9740     2.1490    57.6870    63.4130    55.7870    28.6340    22.6600   -13.5340 
  221.1250   216.6730    21.2800    30.0040     2.1590    58.7540    63.0230    56.3510    30.3210    22.7480   -13.7880 
  221.2500   216.7930    21.3030    30.0330     2.1970    59.3950    60.8580    55.5320    26.4970    22.3240   -14.0440 
  221.3750   216.9120    21.3260    30.0630     2.2490    59.5720    56.6640    52.8880    20.4390    21.5230   -14.3060 
  221.5000   217.0310    21.3500    30.0930     2.2940    60.4470    51.0020    48.6550    16.6120    20.1790   -14.5740 
  221.6250   217.1500    21.3730    30.1230     2.3050    63.4060    45.1040    43.7400    15.5630    19.6230   -14.8170 
  221.7500   217.2690    21.3960    30.1530     2.2880    66.6870    40.1110    39.3410    15.6320    19.6890   -15.0420 
  221.8750   217.3880    21.4190    30.1830     2.2580    69.0900    36.4260    35.9770    16.0580    20.1780   -15.2340 
  222.0000   217.5070    21.4430    30.2130     2.2310    71.8480    33.9680    33.6590    16.6500    20.7000   -15.4120 
  222.1250   217.6260    21.4660    30.2430     2.2220    74.0330    32.4990    32.1890    16.9930    20.8780   -15.5760 
  222.2500   217.7450    21.4890    30.2730     2.2300    72.6430    31.5230    31.1240    16.5350    20.9250   -15.7090 
  222.3750   217.8650    21.5120    30.3030     2.2510    68.8180    30.9480    30.3740    15.3990    20.8250   -15.8330 
  222.5000   217.9840    21.5360    30.3330     2.2720    66.3850    30.9660    30.0980    14.7210    20.7530   -15.9570 
  222.6250   218.1030    21.5590    30.3630     2.2790    66.7130    32.1870    30.8470    16.0230    20.8320   -16.1030 
  222.7500   218.2220    21.5820    30.3930     2.2680    67.4040    34.7910    32.8540    18.4070    21.1520   -16.2730 
  222.8750   218.3410    21.6050    30.4230     2.2450    66.7780    38.7810    36.2140    21.0360    21.6330   -16.4430 
  223.0000   218.4600    21.6290    30.4520     2.2190    63.8410    43.7600    40.6890    22.0730    22.1220   -16.6190 
  223.1250   218.5790    21.6520    30.4820     2.2030    59.5870    48.8190    45.5620    23.8500    22.6010   -16.7960 
  223.2500   218.6980    21.6750    30.5120     2.1970    58.2320    52.9480    49.7470    22.1930    22.7020   -16.9710 
  223.3750   218.8170    21.6980    30.5420     2.1970    60.1720    55.7790    52.7030    20.7470    22.6220   -17.1270 
  223.5000   218.9370    21.7220    30.5720     2.1970    61.9320    57.6490    54.5710    21.8650    22.3460   -17.2740 
  223.6250   219.0560    21.7450    30.6020     2.1930    62.1650    59.2280    55.9390    25.7890    22.3110   -17.3970 
  223.7500   219.1750    21.7680    30.6320     2.1860    61.7100    60.8020    57.3010    29.6100    22.3690   -17.4890 
  223.8750   219.2940    21.7920    30.6620     2.1780    60.8630    61.9170    58.4740    32.2430    22.3920   -17.5850 
  224.0000   219.4130    21.8150    30.6920     2.1740    61.1220    61.7820    58.8650    32.7290    22.5720   -17.6610 
  224.1250   219.5320    21.8380    30.7220     2.1760    61.3760    59.6050    57.6490    31.6780    22.5980   -17.7410 
  224.2500   219.6510    21.8610    30.7520     2.1830    60.3680    56.2500    55.2300    28.4020    22.3300   -17.8020 
  224.3750   219.7700    21.8850    30.7820     2.1900    59.5670    52.9500    52.4820    26.8980    22.1400   -17.8730 
  224.5000   219.8900    21.9080    30.8120     2.1960    61.8570    50.9160    50.4560    27.0250    21.9410   -17.9190 
  224.6250   220.0090    21.9310    30.8410     2.1980    64.7350    51.2040    50.2390    27.4520    21.9060   -17.9920 
  224.7500   220.1280    21.9540    30.8710     2.1960    67.1750    53.2760    51.6980    28.7530    21.9030   -18.0640 
  224.8750   220.2470    21.9780    30.9010     2.1950    70.6170    56.0930    54.1380    31.1370    21.8980   -18.1180 
  225.0000   220.3660    22.0010    30.9310     2.1980    72.3690    58.0240    56.1870    34.6420    21.9030   -18.1530 
  225.1250   220.4850    22.0240    30.9610     2.2080    67.6380    56.7220    55.5550    35.5340    21.9000   -18.1860 
  225.2500   220.6040    22.0470    30.9910     2.2270    61.1590    52.1360    51.7160    33.3350    21.8910   -18.2160 
  225.3750   220.7230    22.0710    31.0210     2.2530    58.9060    45.7300    45.7360    28.6840    21.8680   -18.2500 
  225.5000   220.8420    22.0940    31.0510     2.2820    61.3990    39.7910    39.7250    23.2670    21.8730   -18.3140 
  225.6250   220.9620    22.1170    31.0810     2.3030    66.1520    36.6200    35.9120    20.9100    21.8840   -18.3850 
  225.7500   221.0810    22.1400    31.1110     2.3080    69.3860    36.6960    34.9020    20.7200    21.8910   -18.4650 
  225.8750   221.2000    22.1640    31.1410     2.2950    68.7700    40.3400    37.1030    21.4450    21.8870   -18.5680 
  226.0000   221.3190    22.1870    31.1710     2.2680    64.2160    47.5900    42.7920    26.5280    21.8910   -18.6700 
  226.1250   221.4380    22.2100    31.2010     2.2380    60.4160    58.2460    52.2270    33.1970    21.8640   -18.7810 
