~V
VERS. 2.00: Ver 2.00
~W
STRT.M 10.0000:
STOP.M 230.0000:
STEP.M 0.1250:
NULL. -999.2500:
UWI. FD11119:
~C
DEPT.M :
TVD. :
DX. :
DY. :
SP.MV :
DEN.GM/CC :
GR.API :
RML.OHMM :
RI. :
RXO.OHMM :
CALI.CM :
~A
# ...
  199.7500   194.1650   -34.4270   -14.0380   -24.9920     2.3540    86.5870     9.0740     8.6090     7.6310    22.2630 
  199.8750   194.2810   -34.4690   -14.0560   -25.3320     2.3540    87.0740     8.9730     8.4920     7.8030    22.2010 
  200.0000   194.3970   -34.5110   -14.0750   -25.5560     2.3590    89.3140     8.5640     8.1660     7.8240    21.9280 
  200.1250   194.5140   -34.5530   -14.0930   -25.7370     2.3660    89.2510     8.0170     7.7280     7.4450    21.7600 
  200.2500   194.6300   -34.5950   -14.1120   -25.8640     2.3720    86.9630     7.6010     7.3670     6.8600    21.7280 
  200.3750   194.7460   -34.6370   -14.1300   -25.9580     2.3730    84.7330     7.4330     7.2100     6.5980    21.7180 
  200.5000   194.8630   -34.6790   -14.1480   -26.0130     2.3720    84.1310     7.5380     7.3310     6.7040    21.7230 
  200.6250   194.9790   -34.7210   -14.1670   -25.9900     2.3740    84.3700     7.9260     7.7690     7.1320    21.7240 
  200.7500   195.0950   -34.7630   -14.1850   -25.9150     2.3840    82.2940     8.4820     8.3730     8.0640    21.7240 
  200.8750   195.2110   -34.8050   -14.2040   -25.7990     2.4070    78.8630     9.0670     8.9550     9.6330    21.7240 
  201.0000   195.3280   -34.8470   -14.2220   -25.6460     2.4420    77.8900     9.4980     9.2830    11.8190    21.7240 
  201.1250   195.4440   -34.8890   -14.2410   -25.3910     2.4830    78.7370     9.5450     9.1170    12.4280    21.7270 
  201.2500   195.5600   -34.9310   -14.2590   -25.0540     2.5120    78.8450     9.2710     8.5910    11.9080    21.7490 
  201.3750   195.6760   -34.9730   -14.2780   -24.6340     2.5130    81.0100     8.8450     7.9100     9.2470    21.8780 
  201.5000   195.7930   -35.0150   -14.2960   -24.1440     2.4800    86.8250     8.4590     7.2670     7.4640    22.0060 
  201.6250   195.9090   -35.0570   -14.3150   -23.5790     2.4200    92.6520     8.2410     6.8170     7.0810    22.0220 
  201.7500   196.0250   -35.0990   -14.3330   -23.0050     2.3580    94.7660     8.1650     6.5570     7.1920    21.9780 
  201.8750   196.1420   -35.1410   -14.3520   -22.4410     2.3080    94.0560     8.2070     6.4730     7.2420    21.7580 
  202.0000   196.2580   -35.1830   -14.3700   -21.8970     2.2790    91.3280     8.3690     6.5540     7.1450    21.6540 
  202.1250   196.3740   -35.2250   -14.3880   -21.3810     2.2730    90.0260     8.7010     6.8280     7.1700    21.6360 
  202.2500   196.4900   -35.2670   -14.4070   -20.8290     2.2830    92.2980     9.2030     7.2560     7.7360    21.6360 
  202.3750   196.6070   -35.3090   -14.4250   -20.2260     2.3050    94.1730     9.6360     7.7920     8.6580    21.6360 
  202.5000   196.7230   -35.3510   -14.4440   -19.5530     2.3330    92.1950    10.1700     8.3560     9.8000    21.6360 
  202.6250   196.8390   -35.3930   -14.4620   -18.8010     2.3610    85.7630    10.5710     8.8610    10.5020    21.6340 
  202.7500   196.9560   -35.4350   -14.4810   -17.9410     2.3790    79.6710    11.6590     9.3340    10.6910    21.6210 
  202.8750   197.0720   -35.4770   -14.4990   -17.0040     2.3840    79.1390    12.8170     9.8880    10.9590    21.5400 
  203.0000   197.1880   -35.5190   -14.5180   -15.9820     2.3800    86.2040    14.0230    10.6630    11.4210    21.5000 
  203.1250   197.3040   -35.5610   -14.5360   -14.8480     2.3790    95.6360    15.1820    11.7500    12.3930    21.4930 
  203.2500   197.4210   -35.6030   -14.5550   -13.6930     2.3920    98.4310    16.0050    12.8720    14.2130    21.4930 
  203.3750   197.5370   -35.6450   -14.5730   -12.5370     2.4210    92.4170    16.0310    13.5330    17.0910    21.4970 
  203.5000   197.6530   -35.6870   -14.5910   -11.3910     2.4560    81.9530    14.9040    13.2250    18.1500    21.5270 
  203.6250   197.7690   -35.7290   -14.6100   -10.2770     2.4800    73.8680    12.6930    11.7570    16.3460    21.6600 
  203.7500   197.8860   -35.7710   -14.6280    -9.2210     2.4810    69.1920    10.3230     9.8730    11.3070    21.8700 
  203.8750   198.0020   -35.8130   -14.6470    -8.1880     2.4560    63.8190     8.3920     8.1420     6.6440    21.9400 
  204.0000   198.1180   -35.8550   -14.6650    -7.2100     2.4160    55.3270     7.1040     6.8640     5.4200    21.9420 
  204.1250   198.2350   -35.8970   -14.6840    -6.3500     2.3780    48.2940     6.4320     6.1490     4.8450    21.8840 
  204.2500   198.3510   -35.9390   -14.7020    -5.5860     2.3540    46.1000     6.0940     5.7820     4.4110    21.8920 
  204.3750   198.4670   -35.9810   -14.7210    -4.9400     2.3500    48.4050     5.9530     5.6080     4.1650    21.9330 
  204.5000   198.5830   -36.0230   -14.7390    -4.4500     2.3580    54.8770     5.9190     5.4930     4.1150    21.9520 
  204.6250   198.7000   -36.0650   -14.7580    -4.1630     2.3680    64.7140     5.8890     5.3600     4.1940    21.9540 
  204.7500   198.8160   -36.1070   -14.7760    -3.9800     2.3690    74.9930     5.8240     5.2210     4.1910    21.9220 
  204.8750   198.9320   -36.1490   -14.7940    -3.8880     2.3640    81.7660     5.8210     5.1020     4.0880    21.7740 
  205.0000   199.0480   -36.1920   -14.8140    -3.8390     2.3580    84.1770     5.8070     5.0210     3.9700    21.1630 
  205.1250   199.1640   -36.2350   -14.8330    -3.8470     2.3610    82.8630     5.8090     4.9910     3.8440    20.8470 
  205.2500   199.2800   -36.2780   -14.8520    -3.9000     2.3730    81.8460     5.8430     5.0030     3.7630    20.7990 
  205.3750   199.3950   -36.3210   -14.8710    -3.9850     2.3880    82.7050     5.9060     5.0590     3.8150    20.8810 
  205.5000   199.5110   -36.3640   -14.8900    -4.0890     2.3960    83.3780     5.9780     5.1530     3.9640    21.3210 
  205.6250   199.6270   -36.4070   -14.9100    -4.1830     2.3860    83.8170     6.0430     5.2770     4.2450    22.0490 
  205.7500   199.7420   -36.4510   -14.9290    -4.2870     2.3630    84.1910     6.0860     5.4090     4.5100    22.4420 
  205.8750   199.8580   -36.4940   -14.9480    -4.3950     2.3340    83.5270     6.1290     5.5290     4.9320    22.5450 
  206.0000   199.9740   -36.5370   -14.9670    -4.5030     2.3080    81.9670     6.3170     5.6100     5.5100    22.4550 
  206.1250   200.0900   -36.5800   -14.9870    -4.5590     2.2960    83.9490     6.3850     5.6020     6.1350    22.1440 
  206.2500   200.2050   -36.6230   -15.0060    -4.6160     2.2980    88.8020     6.3570     5.5040     6.3520    21.9110 
  206.3750   200.3210   -36.6660   -15.0250    -4.6630     2.3100    89.9180     6.2560     5.3380     6.3210    21.8720 
  206.5000   200.4370   -36.7100   -15.0440    -4.6920     2.3260    84.3860     6.1490     5.1690     6.1330    21.8670 
  206.6250   200.5530   -36.7530   -15.0640    -4.7240     2.3410    76.1790     6.1960     5.1140     5.9990    21.8670 
  206.7500   200.6680   -36.7960   -15.0830    -4.7590     2.3520    72.9910     6.4900     5.2330     6.1950    21.8670 
  206.8750   200.7840   -36.8390   -15.1020    -4.8120     2.3590    76.2760     7.0510     5.5450     6.6950    21.8670 
  207.0000   200.9000   -36.8820   -15.1210    -4.8920     2.3600    82.3530     7.8160     6.0420     7.5130    21.8670 
  207.1250   201.0150   -36.9250   -15.1410    -5.0420     2.3500    85.6020     8.6810     6.7380     9.2680    21.8670 
  207.2500   201.1310   -36.9680   -15.1600    -5.2220     2.3320    84.5600     9.5620     7.5980    11.3050    21.8670 
  207.3750   201.2470   -37.0120   -15.1790    -5.4340     2.3080    81.0390    10.4830     8.6190    11.7710    21.8670 
  207.5000   201.3630   -37.0550   -15.1980    -5.6610     2.2850    75.3130    11.5250     9.7760    12.1540    21.8660 
  207.6250   201.4780   -37.0980   -15.2170    -5.8820     2.2670    70.3970    12.7220    11.0030    13.2310    21.8540 
  207.7500   201.5940   -37.1410   -15.2370    -6.0940     2.2560    69.3660    13.9030    12.1610    15.1440    21.8210 
  207.8750   201.7100   -37.1840   -15.2560    -6.2870     2.2530    70.9660    14.8250    13.0800    15.1890    21.8040 
