~V
VERS. 2.00: Ver 2.00
~W
STRT.M 10.0000:
STOP.M 249.0000:
STEP.M 0.1250:
NULL. -999.2500:
UWI. FD11114:
~C
DEPT.M :
TVD. :
DX. :
DY. :
GR.API :
RML.OHMM :
RI. :
RXO.OHMM :
CALI.CM :
SP.MV :
DEN.GM/CC :
~A
# ...
  133.7500   133.6040     3.2020     0.1140    48.9750    20.9850    17.2710    13.6480    25.5170   -21.4700     2.3620 
  133.8750   133.7280     3.2230     0.1110    46.8080    21.6050    17.7790    14.7270    25.1890   -21.4080     2.3720 
  134.0000   133.8510     3.2440     0.1080    47.0210    22.0110    18.1830    16.4710    24.8500   -21.4170     2.4370 
  134.1250   133.9740     3.2650     0.1040    52.2280    22.0160    18.3060    17.4870    24.6760   -21.4990     2.5330 
  134.2500   134.0970     3.2860     0.1010    58.8960    21.6740    18.1270    15.7960    24.6800   -21.6530     2.5890 
  134.3750   134.2200     3.3070     0.0980    62.2780    21.3700    17.9030    13.7870    24.7090   -21.8500     2.5850 
  134.5000   134.3440     3.3280     0.0950    61.8200    21.3900    17.8480    13.1150    24.7220   -22.0720     2.5400 
  134.6250   134.4670     3.3490     0.0910    60.4120    21.8640    18.0860    13.8480    24.7250   -22.2950     2.4840 
  134.7500   134.5900     3.3700     0.0880    61.0850    22.7930    18.6720    15.8140    24.7160   -22.4810     2.4410 
  134.8750   134.7130     3.3910     0.0850    63.6220    23.9530    19.4710    17.3110    24.6980   -22.6220     2.4280 
  135.0000   134.8360     3.4120     0.0820    65.0900    25.2950    20.4370    17.3630    24.6800   -22.7160     2.4500 
  135.1250   134.9590     3.4330     0.0790    63.2390    26.8970    21.6080    17.0630    24.6690   -22.7630     2.5030 
  135.2500   135.0830     3.4540     0.0750    60.1270    28.8930    23.0890    17.2500    24.6700   -22.7600     2.5700 
  135.3750   135.2060     3.4740     0.0720    58.2680    31.0390    24.7440    18.3040    24.6820   -22.7250     2.6240 
  135.5000   135.3290     3.4950     0.0690    55.8220    32.8950    26.2840    20.6620    24.7030   -22.6750     2.6430 
  135.6250   135.4520     3.5160     0.0660    52.1490    33.9330    27.3220    24.9870    24.7270   -22.6300     2.6230 
  135.7500   135.5750     3.5370     0.0620    50.1360    33.6640    27.4230    26.2580    24.7130   -22.6000     2.5770 
  135.8750   135.6990     3.5580     0.0590    51.2950    32.5340    26.8070    22.3810    24.6350   -22.5770     2.5370 
  136.0000   135.8220     3.5790     0.0560    53.4440    31.0750    25.8240    18.9130    24.5240   -22.5510     2.5280 
  136.1250   135.9450     3.6000     0.0530    53.8960    29.7040    24.7940    20.0080    24.4420   -22.5130     2.5560 
  136.2500   136.0680     3.6210     0.0490    54.0700    28.6270    23.9180    20.6270    24.4200   -22.4620     2.5980 
  136.3750   136.1910     3.6420     0.0460    55.0310    27.7680    23.2040    19.5940    24.4230   -22.3910     2.6180 
  136.5000   136.3140     3.6630     0.0430    55.8740    27.0450    22.6140    17.5500    24.4410   -22.2910     2.6020 
  136.6250   136.4380     3.6840     0.0400    55.0860    26.3980    22.0980    16.3060    24.4720   -22.1630     2.5590 
  136.7500   136.5610     3.7050     0.0360    53.0630    25.9010    21.6820    15.8740    24.4900   -22.0220     2.5140 
  136.8750   136.6840     3.7260     0.0330    52.4150    25.6320    21.4240    16.4190    24.4890   -21.9000     2.4860 
  137.0000   136.8070     3.7470     0.0300    53.9500    25.6020    21.3560    16.6850    24.4830   -21.8260     2.4850 
  137.1250   136.9300     3.7670     0.0270    58.0840    25.7410    21.4420    16.5360    24.4830   -21.8160     2.5040 
  137.2500   137.0540     3.7880     0.0240    63.0390    25.9640    21.6230    15.6390    24.4830   -21.8680     2.5290 
  137.3750   137.1770     3.8090     0.0200    64.9010    26.2010    21.8270    16.2170    24.4810   -21.9530     2.5440 
  137.5000   137.3000     3.8300     0.0170    62.5270    26.4560    22.0400    17.0100    24.4830   -22.0560     2.5460 
  137.6250   137.4230     3.8510     0.0140    58.6560    26.7880    22.2990    17.4420    24.4870   -22.1550     2.5370 
  137.7500   137.5460     3.8720     0.0110    55.6230    27.3320    22.7160    17.8970    24.4670   -22.2330     2.5260 
  137.8750   137.6700     3.8930     0.0070    52.1360    28.1170    23.3380    18.2630    24.4230   -22.2930     2.5190 
  138.0000   137.7930     3.9140     0.0040    47.9540    29.1300    24.1660    17.7870    24.3780   -22.3380     2.5230 
  138.1250   137.9160     3.9350     0.0010    45.2250    30.2720    25.1380    17.2620    24.3530   -22.3800     2.5350 
  138.2500   138.0390     3.9560    -0.0020    45.5440    31.2610    26.0580    17.2220    24.3740   -22.4430     2.5500 
  138.3750   138.1620     3.9770    -0.0060    46.2730    31.7630    26.6440    17.7240    24.4480   -22.5210     2.5580 
  138.5000   138.2850     3.9980    -0.0090    47.7540    31.5570    26.6800    18.5080    24.5610   -22.5930     2.5570 
  138.6250   138.4090     4.0190    -0.0120    51.4600    30.6360    26.1190    19.1390    24.6640   -22.6260     2.5480 
  138.7500   138.5320     4.0390    -0.0150    55.9570    29.1780    25.0560    19.3570    24.7120   -22.5700     2.5350 
  138.8750   138.6550     4.0600    -0.0190    58.7420    27.6320    23.8550    17.9830    24.7270   -22.4460     2.5220 
  139.0000   138.7780     4.0810    -0.0220    59.2560    26.2970    22.7720    16.4830    24.7230   -22.2830     2.5120 
  139.1250   138.9010     4.1020    -0.0250    58.7000    25.3560    21.9840    15.7640    24.7060   -22.1100     2.5080 
  139.2500   139.0250     4.1230    -0.0280    55.6500    24.9180    21.6130    15.6860    24.6890   -21.9350     2.5180 
  139.3750   139.1480     4.1440    -0.0310    51.0230    24.8300    21.5540    15.0260    24.6780   -21.7630     2.5360 
  139.5000   139.2710     4.1650    -0.0350    48.7430    24.9860    21.7240    14.9030    24.6760   -21.6090     2.5560 
  139.6250   139.3940     4.1860    -0.0380    48.6070    25.2970    22.0420    15.4890    24.6780   -21.4870     2.5680 
  139.7500   139.5170     4.2070    -0.0410    48.8470    25.7630    22.4910    15.8450    24.6770   -21.4060     2.5670 
  139.8750   139.6400     4.2280    -0.0440    49.6060    26.3680    23.0570    15.7830    24.6640   -21.3460     2.5640 
  140.0000   139.7640     4.2490    -0.0480    51.6700    27.0210    23.6870    15.5510    24.6340   -21.3000     2.5710 
  140.1250   139.8870     4.2700    -0.0510    52.9960    27.4660    24.1990    15.6500    24.5990   -21.2690     2.6000 
  140.2500   140.0100     4.2910    -0.0540    51.1690    27.1850    24.1800    16.2450    24.5560   -21.2540     2.6390 
  140.3750   140.1330     4.3120    -0.0570    48.9410    26.0290    23.4490    16.5050    24.4950   -21.2420     2.6610 
  140.5000   140.2560     4.3320    -0.0610    49.8240    24.1530    22.0720    15.8180    24.4990   -21.2120     2.6470 
  140.6250   140.3800     4.3530    -0.0640    53.1130    22.0310    20.3980    14.4040    24.6970   -21.1550     2.6000 
  140.7500   140.5030     4.3740    -0.0670    54.6350    20.3260    18.9450    13.2160    25.0870   -21.0880     2.5360 
  140.8750   140.6260     4.3950    -0.0700    53.8040    19.3190    17.9950    12.9020    25.4160   -21.0540     2.4810 
  141.0000   140.7490     4.4160    -0.0740    53.8560    19.0020    17.5900    13.3100    25.5570   -21.0830     2.4530 
  141.1250   140.8720     4.4370    -0.0770    55.9370    19.1720    17.6160    14.6190    25.5650   -21.1730     2.4580 
  141.2500   140.9950     4.4580    -0.0800    56.7270    19.5300    17.8710    16.2920    25.5450   -21.3130     2.4910 
  141.3750   141.1190     4.4790    -0.0830    55.2840    19.7810    18.0890    16.1350    25.5460   -21.4610     2.5180 
  141.5000   141.2420     4.5000    -0.0860    53.8240    19.8260    18.1520    13.8670    25.5930   -21.5990     2.5200 
  141.6250   141.3650     4.5210    -0.0900    53.9880    19.7210    18.0610    12.1860    25.6880   -21.7180     2.4940 
  141.7500   141.4880     4.5420    -0.0930    54.5370    19.6120    17.9080    12.4740    25.7810   -21.8150     2.4480 
  141.8750   141.6110     4.5630    -0.0960    54.3250    19.6130    17.8080    12.8370    25.8080   -21.8950     2.4020 
