~V
VERS. 2.00: Ver 2.00
~W
STRT.M 25.0000:
STOP.M 287.0000:
STEP.M 0.1250:
NULL. -999.2500:
UWI. FD11174:
~C
DEPT.M :
TVD. :
DX. :
DY. :
SP.MV :
GR.API :
RI. :
RML.OHMM :
RXO.OHMM :
DEN.GM/CC :
~A
# ...
  244.0000   230.0520   -25.1520   -62.6050   -24.4270    62.5130    12.4770    13.0560    14.4720     2.2800 
  244.1250   230.1620   -25.1750   -62.6590   -24.4460    63.7780    12.1620    12.7280    28.8510     2.1860 
  244.2500   230.2730   -25.1990   -62.7130   -24.3350    67.6560    11.8380    12.3880    39.7490     2.1410 
  244.3750   230.3830   -25.2230   -62.7660   -24.1610    67.0430    11.5830    12.1270    31.3440     2.1370 
  244.5000   230.4930   -25.2470   -62.8200   -23.9830    63.4580    11.4040    11.9390    16.8260     2.1410 
  244.6250   230.6040   -25.2700   -62.8740   -23.8100    63.1640    11.1840    11.6990    11.2590     2.1430 
  244.7500   230.7140   -25.2940   -62.9280   -23.5450    66.0130    10.9520    11.4650    10.7490     2.1450 
  244.8750   230.8240   -25.3180   -62.9810   -23.1940    66.7220    10.7910    11.3070    10.3870     2.1470 
  245.0000   230.9340   -25.3420   -63.0350   -22.8840    66.2530    10.7910    11.3370    10.0770     2.1490 
  245.1250   231.0450   -25.3650   -63.0890   -22.7590    66.9240    10.9760    11.5550    10.4070     2.1510 
  245.2500   231.1550   -25.3890   -63.1430   -22.8330    67.7960    11.2510    11.8660    11.2110     2.1580 
  245.3750   231.2650   -25.4120   -63.1970   -22.8480    67.1480    11.4620    12.0960    12.0200     2.1730 
  245.5000   231.3760   -25.4360   -63.2510   -22.6940    64.9840    11.4860    12.1240    12.6080     2.1900 
  245.6250   231.4860   -25.4590   -63.3050   -22.4770    62.2800    11.2850    11.9080    12.8110     2.1970 
  245.7500   231.5960   -25.4820   -63.3590   -22.3590    60.2070    10.8970    11.4780    12.4350     2.1910 
  245.8750   231.7060   -25.5060   -63.4130   -22.3210    60.5780    10.4370    10.7650    11.4240     2.1800 
  246.0000   231.8170   -25.5290   -63.4670   -22.3480    63.7550     9.9740    10.2820    10.5170     2.1790 
  246.1250   231.9270   -25.5530   -63.5210   -22.4960    65.5450     9.5990     9.9050    10.2140     2.1840 
  246.2500   232.0370   -25.5760   -63.5750   -22.7420    65.4730     9.3250     9.6470    10.1170     2.1840 
  246.3750   232.1480   -25.6000   -63.6290   -23.0520    64.6630     9.1860     9.5330    10.2870     2.1790 
  246.5000   232.2580   -25.6230   -63.6830   -23.4200    63.8060     9.1660     9.5440    10.9010     2.1740 
  246.6250   232.3680   -25.6460   -63.7370   -23.7180    63.6400     9.2390     9.6530    11.6130     2.1700 
  246.7500   232.4780   -25.6700   -63.7910   -23.8780    66.0420     9.3900     9.8590    11.9560     2.1710 
  246.8750   232.5890   -25.6930   -63.8450   -24.1150    68.6830     9.6040    10.1360    11.5480     2.1770 
  247.0000   232.6990   -25.7170   -63.8990   -24.4950    66.6670     9.7580    10.3430    10.7790     2.1860 
  247.1250   232.8090   -25.7400   -63.9530   -24.8560    63.2060     9.7630    10.3780    10.7340     2.1990 
  247.2500   232.9200   -25.7630   -64.0070   -25.0850    63.7950     9.5550    10.1520    11.7350     2.2160 
  247.3750   233.0300   -25.7870   -64.0610   -25.1540    66.4120     9.1650     9.7120    12.5700     2.2280 
  247.5000   233.1400   -25.8100   -64.1150   -25.1660    67.1480     8.7450     9.2400    12.1160     2.2210 
  247.6250   233.2510   -25.8330   -64.1690   -25.2630    67.7170     8.3990     8.8620    10.9200     2.2020 
  247.7500   233.3610   -25.8560   -64.2230   -25.3760    70.0630     8.1780     8.6290    10.0890     2.2010 
  247.8750   233.4710   -25.8790   -64.2770   -25.4340    70.8170     8.0880     8.5680    10.0420     2.2290 
  248.0000   233.5820   -25.9020   -64.3310   -25.4810    69.2590     8.2250     8.7900    11.9570     2.2570 
  248.1250   233.6920   -25.9250   -64.3850   -25.5560    68.7540     8.5030     9.1370    15.6940     2.2630 
  248.2500   233.8020   -25.9480   -64.4390   -25.6480    70.9920     8.7080     9.3820    16.4500     2.2640 
  248.3750   233.9130   -25.9710   -64.4930   -25.7020    74.5860     8.8040     9.4680    13.5550     2.2780 
  248.5000   234.0230   -25.9940   -64.5470   -25.6480    76.5160     8.7080     9.3140    12.8410     2.2800 
  248.6250   234.1340   -26.0170   -64.6000   -25.5510    75.4760     8.5220     9.0470    14.4740     2.2440 
  248.7500   234.2440   -26.0400   -64.6540   -25.4580    72.6190     8.3230     8.7760    13.9710     2.1930 
  248.8750   234.3540   -26.0630   -64.7080   -25.4000    69.6710     8.1920     8.6080    11.5970     2.1660 
  249.0000   234.4650   -26.0860   -64.7620   -25.3700    68.3490     8.1750     8.6030    10.2550     2.1640 
  249.1250   234.5750   -26.1090   -64.8160   -25.2860    67.1130     8.3570     8.8250    10.1680     2.1710 
  249.2500   234.6860   -26.1330   -64.8700   -25.1360    66.5110     8.6410     9.1390    10.5620     2.1780 
  249.3750   234.7960   -26.1560   -64.9230   -25.0270    66.4130     8.8990     9.4110    11.8580     2.1790 
  249.5000   234.9070   -26.1790   -64.9770   -24.9460    66.7080     9.1180     9.6590    13.5970     2.1760 
  249.6250   235.0170   -26.2020   -65.0310   -24.8360    67.2710     9.2050     9.7530    13.8270     2.1740 
  249.7500   235.1280   -26.2240   -65.0850   -24.6910    68.5850     9.1010     9.6570    12.5160     2.1770 
  249.8750   235.2380   -26.2470   -65.1390   -24.5350    68.5440     8.8100     9.3640    11.4890     2.1780 
  250.0000   235.3480   -26.2700   -65.1920   -24.4510    66.7940     8.4310     8.9520    11.2600     2.1780 
  250.1250   235.4590   -26.2940   -65.2460   -24.4130    67.1620     8.0630     8.5440    11.3440     2.1860 
  250.2500   235.5690   -26.3170   -65.3000   -24.4030    70.6400     7.7600     8.2130    11.2770     2.2010 
  250.3750   235.6800   -26.3400   -65.3540   -24.2740    74.1670     7.5500     8.0370    10.8040     2.2090 
  250.5000   235.7900   -26.3630   -65.4070   -24.0170    75.2590     7.5110     8.1130    10.4000     2.2050 
  250.6250   235.9010   -26.3870   -65.4610   -23.6840    75.7050     7.7620     8.5360    10.5010     2.2080 
  250.7500   236.0110   -26.4100   -65.5140   -23.4060    75.3410     8.1390     9.0670    10.6330     2.2470 
  250.8750   236.1220   -26.4340   -65.5680   -23.2100    73.5830     8.5240     9.5040    10.3370     2.3180 
  251.0000   236.2320   -26.4570   -65.6220   -23.0600    70.9740     8.8540     9.7800     9.7940     2.3680 
  251.1250   236.3430   -26.4810   -65.6750   -22.9180    70.5550     9.1450     9.8790     9.3160     2.3540 
  251.2500   236.4530   -26.5040   -65.7290   -22.7180    71.7400     9.5020    10.0290     9.2120     2.3110 
  251.3750   236.5630   -26.5270   -65.7830   -22.4470    72.0320    10.1140    10.5240     9.5220     2.3200 
  251.5000   236.6740   -26.5500   -65.8370   -22.0160    71.0860    11.1460    11.6230     9.6560     2.4120 
  251.6250   236.7840   -26.5740   -65.8900   -21.2940    68.9400    12.9680    13.7460    11.0330     2.5420 
  251.7500   236.8950   -26.5970   -65.9440   -20.3580    66.7730    15.2710    16.5690    18.3030     2.6470 
  251.8750   237.0050   -26.6200   -65.9980   -19.2000    64.2440    17.0560    18.8540    30.9450     2.7050 
  252.0000   237.1150   -26.6430   -66.0520   -17.9130    61.7640    16.8150    18.6390    43.7350     2.7400 
  252.1250   237.2260   -26.6660   -66.1060   -16.6160    60.5000    14.0200    15.4520    63.1280     2.7570 
  252.2500   237.3360   -26.6890   -66.1600   -15.2380    60.7130     9.9130    10.6740    80.0500     2.7280 
  252.3750   237.4470   -26.7120   -66.2140   -13.9150    61.6570     5.9160     6.1470    84.7050     2.6200 
  252.5000   237.5570   -26.7340   -66.2680   -12.9250    62.6790     3.3060     3.3660    99.3360     2.4710 
  252.6250   237.6670   -26.7570   -66.3220   -12.2350    63.8380     2.0220     2.0710   100.5420     2.3530 
  252.7500   237.7780   -26.7800   -66.3770   -11.6540    64.8850     1.3120     1.3860    57.9410     2.2920 
  252.8750   237.8880   -26.8020   -66.4310   -11.2690    64.6280     0.9820     1.0980    14.9130     2.2670 
  253.0000   237.9980   -26.8250   -66.4850   -11.0700    63.3890     0.8640     1.0170     2.0950     2.2540 
