~V
VERS. 2.00: Ver 2.00
~W
STRT.M 25.0000:
STOP.M 287.0000:
STEP.M 0.1250:
NULL. -999.2500:
UWI. FD11174:
~C
DEPT.M :
TVD. :
DX. :
DY. :
SP.MV :
GR.API :
RI. :
RML.OHMM :
RXO.OHMM :
DEN.GM/CC :
~A
# ...
   79.7500    79.5850    -1.1490    -3.0330   -24.7580    65.1770     6.2580     7.0200     7.4150     2.1360 
   79.8750    79.7090    -1.1580    -3.0530   -24.7110    66.3430     6.1610     6.9010     7.3670     2.0990 
   80.0000    79.8320    -1.1660    -3.0720   -24.7560    67.5900     6.1030     6.8350     7.3200     2.0950 
   80.1250    79.9550    -1.1750    -3.0920   -24.8210    66.4570     6.1040     6.8290     7.4730     2.1010 
   80.2500    80.0780    -1.1840    -3.1110   -24.8350    64.9440     6.1390     6.8490     7.7880     2.1040 
   80.3750    80.2010    -1.1920    -3.1310   -24.7950    65.7000     6.1790     6.8600     7.9230     2.1060 
   80.5000    80.3240    -1.2010    -3.1510   -24.7760    66.7030     6.2150     6.8450     7.7930     2.1070 
   80.6250    80.4470    -1.2100    -3.1710   -24.8260    67.3090     6.2470     6.8210     7.6580     2.1040 
   80.7500    80.5700    -1.2190    -3.1900   -24.8900    66.7020     6.2880     6.8040     7.6020     2.0980 
   80.8750    80.6940    -1.2280    -3.2100   -24.9600    63.3980     6.3640     6.8310     7.5860     2.0910 
   81.0000    80.8170    -1.2360    -3.2300   -24.9550    60.0640     6.4620     6.9050     7.7200     2.0880 
   81.1250    80.9400    -1.2450    -3.2510   -24.9210    61.3880     6.5820     7.0230     7.9880     2.0930 
   81.2500    81.0630    -1.2540    -3.2710   -24.8480    65.3410     6.6680     7.1150     8.1310     2.1000 
   81.3750    81.1860    -1.2630    -3.2910   -24.6100    66.1890     6.6080     7.0380     8.0600     2.1080 
   81.5000    81.3090    -1.2730    -3.3110   -24.2360    64.3100     6.3590     6.7460     7.8480     2.1190 
   81.6250    81.4320    -1.2820    -3.3320   -23.7710    65.8880     5.9770     6.2960     7.4460     2.1380 
   81.7500    81.5550    -1.2910    -3.3520   -23.2440    70.9510     5.5370     5.8000     6.7550     2.1620 
   81.8750    81.6780    -1.3000    -3.3730   -22.6960    77.2680     5.2220     5.4590     6.0320     2.1770 
   82.0000    81.8010    -1.3100    -3.3930   -22.1780    81.9450     5.0540     5.2880     6.1030     2.1730 
   82.1250    81.9240    -1.3190    -3.4140   -21.7730    83.2430     5.1780     5.4420     6.9620     2.1510 
   82.2500    82.0460    -1.3280    -3.4340   -21.5560    80.4200     5.5870     5.9010     7.5490     2.1330 
   82.3750    82.1690    -1.3380    -3.4550   -21.4630    76.1850     6.1550     6.5070     7.8330     2.1430 
   82.5000    82.2920    -1.3470    -3.4760   -21.3810    74.9610     6.6450     6.9920    13.0230     2.1960 
   82.6250    82.4150    -1.3570    -3.4970   -21.1170    74.9360     6.8630     7.1580    28.2080     2.2820 
   82.7500    82.5380    -1.3660    -3.5180   -20.6570    75.2100     6.9100     7.1130    38.0760     2.3490 
   82.8750    82.6610    -1.3760    -3.5390   -20.0280    78.3200     6.9480     7.0790    27.3180     2.3430 
   83.0000    82.7840    -1.3860    -3.5600   -19.4100    82.5270     7.1160     7.2430    12.0170     2.3000 
   83.1250    82.9070    -1.3950    -3.5810   -18.8900    83.2420     7.3850     7.5930     7.3860     2.3130 
   83.2500    83.0290    -1.4050    -3.6020   -18.5370    80.7140     7.5100     7.8170    10.0330     2.3980 
   83.3750    83.1520    -1.4150    -3.6230   -18.1880    78.7090     7.1600     7.4670    15.2760     2.4680 
   83.5000    83.2750    -1.4250    -3.6440   -17.6800    78.2060     6.3430     6.5360    16.0610     2.4490 
   83.6250    83.3980    -1.4350    -3.6660   -16.9640    80.7780     5.2400     5.2690    10.1440     2.3680 
   83.7500    83.5200    -1.4450    -3.6870   -16.2750    88.1250     4.3160     4.2430     5.1110     2.3090 
   83.8750    83.6430    -1.4550    -3.7080   -15.7940    97.4660     4.1250     4.1150     3.8510     2.3080 
   84.0000    83.7660    -1.4650    -3.7300   -15.5680   101.8520     4.5520     4.7010     4.4390     2.3430 
   84.1250    83.8890    -1.4750    -3.7510   -15.6360    97.4070     5.6540     6.0550     8.3080     2.3970 
   84.2500    84.0110    -1.4860    -3.7730   -15.9360    88.8990     7.1560     7.8710    14.7960     2.4410 
   84.3750    84.1340    -1.4960    -3.7940   -16.5260    81.8420     8.4850     9.3910    18.4620     2.4270 
   84.5000    84.2570    -1.5070    -3.8160   -17.3580    77.1700     9.0250     9.9160    16.8870     2.3450 
   84.6250    84.3790    -1.5180    -3.8380   -18.3930    73.7200     8.6300     9.3310    12.6510     2.2370 
   84.7500    84.5020    -1.5280    -3.8590   -19.5900    72.6380     7.5880     8.0160     9.1230     2.1580 
   84.8750    84.6250    -1.5390    -3.8810   -20.8200    72.0830     6.6110     6.8770     7.6120     2.1230 
   85.0000    84.7470    -1.5500    -3.9030   -21.9040    70.1080     6.1570     6.3980     7.3220     2.1110 
   85.1250    84.8700    -1.5610    -3.9250   -22.6600    66.3440     6.0300     6.3090     7.4020     2.1090 
   85.2500    84.9920    -1.5720    -3.9470   -23.1540    63.2820     6.0490     6.3870     7.4290     2.1090 
   85.3750    85.1150    -1.5830    -3.9690   -23.4910    63.0560     6.0960     6.4870     7.2010     2.0990 
   85.5000    85.2370    -1.5940    -3.9910   -23.7520    64.4790     6.1190     6.5490     7.0850     2.0790 
   85.6250    85.3600    -1.6040    -4.0130   -23.8960    66.4820     6.0980     6.5520     7.3720     2.0630 
   85.7500    85.4820    -1.6150    -4.0350   -23.9510    69.1080     6.0530     6.5170     7.5610     2.0650 
   85.8750    85.6050    -1.6260    -4.0570   -23.9770    71.6010     5.9760     6.4440     7.2530     2.0790 
   86.0000    85.7270    -1.6380    -4.0800   -23.9720    72.2830     5.8880     6.3520     6.7620     2.0910 
   86.1250    85.8500    -1.6490    -4.1020   -24.0100    70.4240     5.7950     6.2620     6.5420     2.0920 
   86.2500    85.9720    -1.6600    -4.1240   -24.0650    67.5930     5.7250     6.2020     6.7490     2.0830 
   86.3750    86.0950    -1.6710    -4.1470   -24.0930    65.4190     5.7140     6.2240     7.3810     2.0720 
   86.5000    86.2170    -1.6820    -4.1690   -24.0500    64.2840     5.7770     6.3420     8.0770     2.0700 
   86.6250    86.3400    -1.6940    -4.1920   -24.0050    66.3000     5.9310     6.5690     8.0510     2.0890 
   86.7500    86.4620    -1.7050    -4.2150   -23.9160    69.7950     6.1170     6.8320     7.3460     2.1270 
   86.8750    86.5850    -1.7160    -4.2370   -23.8170    72.6190     6.2800     7.0620     6.9170     2.1710 
   87.0000    86.7070    -1.7280    -4.2600   -23.6840    75.6420     6.3650     7.1760     7.7180     2.1980 
   87.1250    86.8290    -1.7390    -4.2830   -23.5080    79.4970     6.3280     7.1330     9.7250     2.1930 
   87.2500    86.9520    -1.7510    -4.3060   -23.4410    81.5780     6.2200     6.9990    10.6020     2.1680 
   87.3750    87.0740    -1.7620    -4.3290   -23.4270    80.6040     6.0780     6.8190     9.2150     2.1410 
   87.5000    87.1960    -1.7740    -4.3520   -23.4460    77.5100     5.9590     6.6750     7.9370     2.1230 
   87.6250    87.3190    -1.7850    -4.3750   -23.4620    73.6480     5.8860     6.5830     7.8590     2.1180 
   87.7500    87.4410    -1.7970    -4.3980   -23.4300    70.6020     5.8390     6.5310     7.7490     2.1230 
   87.8750    87.5630    -1.8080    -4.4210   -23.3800    68.6020     5.8440     6.5420     7.1820     2.1270 
   88.0000    87.6850    -1.8200    -4.4440   -23.2690    67.5700     5.8970     6.6270     6.6820     2.1260 
   88.1250    87.8080    -1.8320    -4.4670   -23.1770    69.5820     5.9840     6.7610     6.4310     2.1270 
   88.2500    87.9300    -1.8440    -4.4910   -23.1080    77.0610     6.0740     6.8910     6.2740     2.1380 
   88.3750    88.0520    -1.8560    -4.5140   -23.0100    83.7190     6.1200     6.9660     6.1880     2.1510 
   88.5000    88.1740    -1.8680    -4.5370   -22.9060    83.1370     6.0760     6.9190     6.2000     2.1480 
   88.6250    88.2970    -1.8800    -4.5610   -22.7820    78.4830     5.9730     6.7900     6.2290     2.1300 
   88.7500    88.4190    -1.8920    -4.5840   -22.7080    77.2420     5.8210     6.6010     6.1980     2.1150 
