~V
VERS. 2.00: Ver 2.00
~W
STRT.M 30.0000:
STOP.M 272.0000:
STEP.M 0.1250:
NULL. -999.2500:
UWI. FD11176:
~C
DEPT.M :
TVD. :
DX. :
DY. :
SP.MV :
GR.API :
RI. :
RML.OHMM :
RXO.OHMM :
DEN.GM/CC :
~A
# ...
  185.1250   177.9760    37.4050   -17.2960   -11.8610    66.5810    27.3340    29.3480    35.4530     2.1590 
  185.2500   178.0900    37.4500   -17.3180   -11.7790    69.8050    24.8670    26.6660    29.7150     2.1770 
  185.3750   178.2050    37.4950   -17.3400   -11.7220    73.0940    23.4810    25.2720    22.7500     2.1910 
  185.5000   178.3190    37.5400   -17.3620   -11.6930    73.4140    23.3250    25.3020    20.4410     2.1930 
  185.6250   178.4340    37.5860   -17.3830   -11.7090    70.9090    24.3570    26.6170    19.3880     2.1840 
  185.7500   178.5480    37.6310   -17.4050   -11.7720    69.1300    26.0960    28.6400    20.7970     2.1800 
  185.8750   178.6630    37.6760   -17.4270   -11.8700    71.4220    27.9300    30.6300    26.1730     2.1820 
  186.0000   178.7770    37.7210   -17.4480   -11.9710    73.9540    29.5180    32.3070    31.3660     2.1790 
  186.1250   178.8920    37.7660   -17.4700   -12.0430    72.9490    30.7690    33.5440    34.3690     2.1670 
  186.2500   179.0060    37.8110   -17.4920   -12.0790    71.8750    31.5570    34.2420    34.6800     2.1590 
  186.3750   179.1210    37.8560   -17.5140   -12.0880    72.5060    31.8860    34.4630    34.3640     2.1700 
  186.5000   179.2350    37.9010   -17.5360   -12.0810    73.1640    31.9960    34.4550    32.3860     2.1880 
  186.6250   179.3500    37.9460   -17.5580   -12.0490    72.7790    31.9320    34.2870    25.5820     2.1910 
  186.7500   179.4640    37.9910   -17.5800   -12.0000    73.3490    31.8660    34.1460    21.8640     2.1780 
  186.8750   179.5790    38.0360   -17.6020   -11.9610    73.9910    31.9030    34.1600    27.1890     2.1690 
  187.0000   179.6930    38.0810   -17.6240   -11.9640    73.1040    32.0760    34.3730    33.0290     2.1690 
  187.1250   179.8080    38.1260   -17.6460   -12.0280    71.5050    32.3680    34.6930    34.8570     2.1700 
  187.2500   179.9220    38.1720   -17.6680   -12.1210    70.3100    32.5620    34.8330    34.8890     2.1670 
  187.3750   180.0370    38.2170   -17.6900   -12.1900    69.1970    32.5220    34.6480    34.2110     2.1700 
  187.5000   180.1510    38.2620   -17.7130   -12.2130    69.1130    32.3550    34.2990    32.5830     2.1820 
  187.6250   180.2660    38.3060   -17.7350   -12.2070    69.7870    32.3350    34.1360    28.3360     2.1980 
  187.7500   180.3800    38.3510   -17.7570   -12.2010    69.3650    32.6490    34.3600    24.4200     2.2120 
  187.8750   180.4950    38.3970   -17.7790   -12.1920    67.9610    33.3940    35.0460    27.1370     2.2140 
  188.0000   180.6090    38.4420   -17.8010   -12.1670    67.5780    34.1780    35.7480    34.3770     2.2020 
  188.1250   180.7240    38.4870   -17.8230   -12.1460    67.5530    34.7440    36.2070    37.9280     2.1850 
  188.2500   180.8380    38.5320   -17.8450   -12.1710    68.4760    35.1160    36.4800    36.7690     2.1770 
  188.3750   180.9530    38.5770   -17.8670   -12.2550    71.2980    35.1460    36.3900    33.6490     2.1850 
  188.5000   181.0670    38.6220   -17.8890   -12.3590    74.9750    34.7490    35.9010    30.7260     2.1970 
  188.6250   181.1820    38.6670   -17.9110   -12.4460    77.0620    34.1390    35.2540    30.2890     2.2020 
  188.7500   181.2960    38.7120   -17.9330   -12.5160    77.0920    33.8340    34.9530    33.3030     2.2020 
  188.8750   181.4110    38.7580   -17.9550   -12.6010    75.8410    34.0570    35.2400    35.2830     2.2090 
  189.0000   181.5250    38.8030   -17.9770   -12.7270    75.0090    35.4730    36.8190    36.9060     2.2260 
  189.1250   181.6400    38.8480   -17.9990   -12.8840    75.5280    38.5660    40.1900    43.6410     2.2330 
  189.2500   181.7540    38.8930   -18.0210   -13.0060    76.4310    43.7210    45.6480    47.4430     2.2150 
  189.3750   181.8680    38.9380   -18.0430   -13.0510    74.1930    50.2580    52.3310    47.0800     2.1830 
  189.5000   181.9830    38.9830   -18.0650   -13.0810    68.8200    56.4680    58.4070    43.2040     2.1690 
  189.6250   182.0970    39.0280   -18.0880   -13.1470    64.4220    60.2920    61.7710    34.8080     2.1800 
  189.7500   182.2120    39.0740   -18.1090   -13.2270    63.7840    60.7280    64.0690    57.8690     2.1940 
  189.8750   182.3260    39.1190   -18.1310   -13.2750    64.3690    58.5970    61.3140    90.1340     2.1930 
  190.0000   182.4410    39.1640   -18.1530   -13.2750    62.0030    55.7460    58.0280    67.5870     2.1910 
  190.1250   182.5550    39.2090   -18.1750   -13.2350    58.8800    53.6060    55.7800    37.1740     2.1970 
  190.2500   182.6700    39.2550   -18.1970   -13.1880    59.4150    53.2270    55.4670    41.7110     2.2040 
  190.3750   182.7840    39.3000   -18.2190   -13.1620    62.2950    53.4970    55.6950    50.7670     2.2030 
  190.5000   182.8990    39.3450   -18.2410   -13.1710    61.8350    53.5930    55.6280    55.2220     2.1950 
  190.6250   183.0130    39.3900   -18.2630   -13.2300    58.6650    53.7770    55.5420    58.7230     2.1880 
  190.7500   183.1270    39.4360   -18.2850   -13.3400    58.2990    54.5040    56.0330    62.9430     2.1870 
  190.8750   183.2420    39.4810   -18.3070   -13.4890    61.5020    56.6710    58.1070    82.4250     2.1900 
  191.0000   183.3560    39.5260   -18.3290   -13.6300    65.0850    62.4540    64.0580   199.9070     2.1900 
  191.1250   183.4710    39.5710   -18.3510   -13.7210    65.8470    72.5990    74.7780   308.8040     2.1780 
  191.2500   183.5850    39.6160   -18.3730   -13.7660    63.7240    85.2350    87.7890   215.2610     2.1590 
  191.3750   183.7000    39.6620   -18.3950   -13.7950    60.8990    96.0910    98.5490    96.9820     2.1390 
  191.5000   183.8140    39.7070   -18.4160   -13.8200    58.8630   101.8770   103.8430    77.7400     2.1210 
  191.6250   183.9280    39.7520   -18.4380   -13.8200    57.7900   101.2340   102.3290    64.9090     2.1130 
  191.7500   184.0430    39.7980   -18.4600   -13.7930    59.4960    96.2350    97.0190    41.9280     2.1260 
  191.8750   184.1570    39.8430   -18.4820   -13.7820    64.5410    91.1930    92.1060    69.7980     2.1540 
  192.0000   184.2720    39.8880   -18.5040   -13.8240    67.2080    87.8560    89.0550   297.4240     2.1720 
  192.1250   184.3860    39.9340   -18.5260   -13.9220    65.2480    88.9640    90.7300   503.4570     2.1700 
  192.2500   184.5010    39.9790   -18.5480   -14.0300    61.6660    95.9580    98.6290   388.3830     2.1580 
  192.3750   184.6150    40.0240   -18.5700   -14.0990    61.3270   107.2440   111.2760   217.4540     2.1520 
  192.5000   184.7290    40.0700   -18.5920   -14.1090    62.8090   122.5320   128.2030   138.2060     2.1500 
  192.6250   184.8440    40.1150   -18.6130   -14.0510    63.0980   139.0440   146.1130    86.6500     2.1430 
  192.7500   184.9580    40.1610   -18.6350   -13.9360    61.3570   151.2190   158.7790    78.3520     2.1350 
  192.8750   185.0720    40.2060   -18.6570   -13.7670    59.0930   155.3540   162.5790   108.9060     2.1300 
  193.0000   185.1870    40.2510   -18.6790   -13.5710    57.7910   150.8440   157.3380   407.9890     2.1240 
  193.1250   185.3010    40.2970   -18.7010   -13.3820    56.1580   141.6550   147.5030   695.0230     2.1130 
  193.2500   185.4160    40.3420   -18.7230   -13.2180    54.2260   134.8620   140.5350   446.7590     2.1120 
  193.3750   185.5300    40.3880   -18.7450   -13.0780    53.3640   133.5940   139.6430   197.4680     2.1270 
  193.5000   185.6440    40.4330   -18.7670   -12.9350    53.2280   138.2390   144.9690   109.7250     2.1390 
  193.6250   185.7590    40.4790   -18.7890   -12.7730    54.4460   146.2910   153.2480   102.9020     2.1380 
  193.7500   185.8730    40.5240   -18.8110   -12.6130    55.0970   152.6180   165.5890    93.2620     2.1310 
  193.8750   185.9870    40.5700   -18.8320   -12.4830    54.0400   153.9460   165.9610    91.5620     2.1260 
  194.0000   186.1020    40.6150   -18.8550   -12.3650    52.5390   150.4410   161.0840    95.8970     2.1240 
  194.1250   186.2160    40.6600   -18.8770   -12.1980    52.4740   143.2650   152.6890    74.4740     2.1260 
