~V
VERS. 2.00: Ver 2.00
~W
STRT.M 35.0000:
STOP.M 279.0000:
STEP.M 0.1250:
NULL. -999.2500:
UWI. FD11183:
~C
DEPT.M :
TVD. :
DX. :
DY. :
SP.MV :
GR.API :
RI. :
RML.OHMM :
RXO.OHMM :
DEN.GM/CC :
~A
   35.0000    35.0000     0.0000     0.0000  -147.1930    35.4670     0.1150     0.3710     1.0560     2.0910 
   35.1250    35.1250     0.0000     0.0000  -145.2950    33.2300     0.1120     0.4030     1.0530     2.0910 
   35.2500    35.2500    -0.0010    -0.0010  -142.5970    32.2540     0.1060     0.4320     1.0520     2.0910 
   35.3750    35.3750    -0.0010    -0.0010  -138.5540    34.0400     0.1110     0.3970     1.0490     2.0910 
   35.5000    35.5000    -0.0010    -0.0020  -132.9740    36.0700     0.1170     0.4010     1.0440     2.0910 
   35.6250    35.6250    -0.0020    -0.0020  -125.8860    35.9020     0.1300     0.3990     1.0390     2.0910 
   35.7500    35.7500    -0.0020    -0.0030  -117.9630    34.7550     0.1270     0.3960     1.0350     2.0910 
   35.8750    35.8750    -0.0020    -0.0030  -110.1980    33.8970     0.1250     0.3930     1.0340     2.0910 
   36.0000    36.0000    -0.0030    -0.0040  -103.6360    33.4200     0.1110     0.3910     1.0350     2.0910 
   36.1250    36.1250    -0.0030    -0.0040   -99.0160    34.2230     0.0980     0.3910     1.0330     2.0910 
   36.2500    36.2500    -0.0030    -0.0050   -96.2970    36.9710     0.0950     0.3910     1.0290     2.0910 
   36.3750    36.3750    -0.0040    -0.0050   -95.2470    39.7310     0.1010     0.3920     1.0230     2.0910 
   36.5000    36.5000    -0.0040    -0.0060   -95.1050    40.8580     0.1010     0.3920     1.0190     2.0910 
   36.6250    36.6250    -0.0040    -0.0060   -95.3940    40.7110     0.1030     0.3920     1.0120     2.0910 
   36.7500    36.7500    -0.0050    -0.0070   -95.7740    39.9260     0.1060     0.3910     0.9980     2.0910 
   36.8750    36.8750    -0.0050    -0.0070   -96.1250    39.5830     0.1030     0.3910     0.9850     2.0910 
   37.0000    37.0000    -0.0050    -0.0070   -96.4630    40.5000     0.1060     0.3900     0.9700     2.0910 
   37.1250    37.1250    -0.0060    -0.0080   -96.8250    40.5630     0.1030     0.3910     0.9500     2.0910 
   37.2500    37.2500    -0.0060    -0.0080   -97.2180    38.1080     0.1110     0.3920     0.9250     2.0910 
   37.3750    37.3750    -0.0060    -0.0090   -97.6290    34.6800     0.1130     0.3930     0.8930     2.0910 
   37.5000    37.5000    -0.0070    -0.0090   -98.0260    33.0090     0.1210     0.3940     0.8530     2.0910 
   37.6250    37.6250    -0.0070    -0.0100   -98.3700    32.8710     0.1160     0.3950     0.8050     2.0910 
   37.7500    37.7500    -0.0070    -0.0100   -98.6390    33.1830     0.1210     0.3960     0.7500     2.0910 
   37.8750    37.8750    -0.0080    -0.0110   -98.8060    34.5350     0.1110     0.3930     0.6890     2.0910 
   38.0000    38.0000    -0.0080    -0.0110   -98.8710    36.5920     0.1160     0.3930     0.6250     2.0910 
   38.1250    38.1250    -0.0080    -0.0120   -98.8250    37.8720     0.1080     0.3900     0.5630     2.0910 
   38.2500    38.2500    -0.0090    -0.0120   -98.6730    37.9730     0.1050     0.3890     0.5070     2.0910 
   38.3750    38.3750    -0.0090    -0.0130   -98.4030    38.2350     0.0970     0.3900     0.4590     2.0910 
   38.5000    38.5000    -0.0090    -0.0130   -98.0190    39.9870     0.0940     0.3880     0.4160     2.0910 
   38.6250    38.6250    -0.0100    -0.0140   -97.5050    41.7620     0.0990     0.3870     0.3780     2.0910 
   38.7500    38.7500    -0.0100    -0.0140   -96.8740    42.3530     0.0990     0.3860     0.3440     2.0910 
   38.8750    38.8750    -0.0100    -0.0150   -96.1270    42.3320     0.0990     0.3850     0.3140     2.0910 
   39.0000    39.0000    -0.0110    -0.0150   -95.2980    42.8120     0.0990     0.3840     0.2890     2.0910 
   39.1250    39.1250    -0.0110    -0.0160   -94.4280    42.1980     0.1020     0.3840     0.2720     2.0910 
   39.2500    39.2500    -0.0110    -0.0160   -93.5820    40.8460     0.1160     0.3860     0.2670     2.0910 
   39.3750    39.3750    -0.0120    -0.0170   -92.8500    40.4970     0.1220     0.3860     0.2750     2.0910 
   39.5000    39.5000    -0.0120    -0.0170   -92.3160    42.0750     0.1210     0.3860     0.3000     2.0950 
   39.6250    39.6250    -0.0120    -0.0180   -92.0920    43.4210     0.1180     0.3830     0.3340     2.1020 
   39.7500    39.7500    -0.0130    -0.0180   -92.2130    43.1390     0.1040     0.3770     0.3000     2.0980 
   39.8750    39.8750    -0.0130    -0.0190   -92.7180    42.3680     0.1060     0.3740     0.1700     2.0870 
   40.0000    40.0000    -0.0130    -0.0200   -93.5260    41.6750     0.1140     0.3690     0.0620     2.0740 
   40.1250    40.1250    -0.0140    -0.0200   -94.5470    40.8770     0.1210     0.3690     0.0330     2.0670 
   40.2500    40.2500    -0.0140    -0.0210   -95.6350    40.2420     0.1350     0.3700     0.0280     2.0710 
   40.3750    40.3750    -0.0140    -0.0210   -96.6620    39.4320     0.1400     0.3710     0.0270     2.0780 
   40.5000    40.5000    -0.0150    -0.0220   -97.5400    38.7910     0.1400     0.3700     0.0270     2.0790 
   40.6250    40.6250    -0.0150    -0.0220   -98.2030    39.4260     0.1410     0.3680     0.0230     2.0810 
   40.7500    40.7500    -0.0150    -0.0230   -98.6580    39.9630     0.1410     0.3660     0.0190     2.0930 
   40.8750    40.8750    -0.0160    -0.0230   -98.9070    38.9100     0.1410     0.3650     0.0160     2.1040 
   41.0000    41.0000    -0.0160    -0.0240   -98.9990    37.6090     0.1420     0.3620     0.0150     2.1140 
   41.1250    41.1250    -0.0160    -0.0250   -98.9670    38.5750     0.1420     0.3590     0.0150     2.1320 
   41.2500    41.2500    -0.0170    -0.0250   -98.8610    40.7070     0.1420     0.3550     0.0170     2.1440 
   41.3750    41.3750    -0.0170    -0.0260   -98.7160    40.5540     0.1420     0.3510     0.0180     2.1330 
   41.5000    41.5000    -0.0170    -0.0260   -98.5570    38.4570     0.1430     0.3470     0.0180     2.1130 
   41.6250    41.6250    -0.0180    -0.0270   -98.3880    37.1110     0.1420     0.3440     0.0160     2.1060 
   41.7500    41.7500    -0.0180    -0.0280   -98.1910    38.3110     0.1430     0.3430     0.0150     2.1110 
   41.8750    41.8750    -0.0190    -0.0280   -97.9260    40.3230     0.1430     0.3420     0.0150     2.1210 
   42.0000    42.0000    -0.0190    -0.0290   -97.5520    40.7000     0.1430     0.3400     0.0150     2.1340 
   42.1250    42.1250    -0.0200    -0.0290   -97.0130    39.5170     0.1430     0.3340     0.0150     2.1480 
   42.2500    42.2500    -0.0200    -0.0300   -96.2840    38.0360     0.1430     0.3280     0.0150     2.1600 
   42.3750    42.3750    -0.0210    -0.0300   -95.3170    37.2770     0.1570     0.3220     0.0150     2.1760 
   42.5000    42.5000    -0.0210    -0.0310   -94.1060    37.7480     0.1700     0.3170     0.0150     2.1890 
   42.6250    42.6250    -0.0210    -0.0320   -92.6070    37.9660     0.1830     0.3130     0.0150     2.1930 
   42.7500    42.7500    -0.0220    -0.0320   -90.8150    36.3510     0.1910     0.3070     0.0150     2.1900 
   42.8750    42.8750    -0.0220    -0.0330   -88.6750    35.6380     0.1910     0.2900     0.0150     2.1830 
   43.0000    43.0000    -0.0230    -0.0330   -86.1930    36.9940     0.1910     0.2740     0.0150     2.1740 
   43.1250    43.1250    -0.0240    -0.0340   -83.3320    39.5390     0.1900     0.2590     0.0160     2.1820 
   43.2500    43.2500    -0.0240    -0.0340   -80.1510    41.9880     0.1900     0.2500     0.0160     2.2150 
   43.3750    43.3750    -0.0250    -0.0350   -76.7140    44.8860     0.1910     0.2520     0.0150     2.2560 
   43.5000    43.5000    -0.0250    -0.0360   -73.2030    46.8920     0.1910     0.2500     0.0150     2.2850 
   43.6250    43.6250    -0.0260    -0.0360   -69.8910    46.6640     0.1910     0.2480     0.0160     2.2970 
   43.7500    43.7500    -0.0260    -0.0370   -67.0880    45.4140     0.1910     0.2420     0.0160     2.3010 
   43.8750    43.8750    -0.0270    -0.0370   -65.1780    44.6480     0.2040     0.2410     0.0160     2.3080 
   44.0000    44.0000    -0.0280    -0.0380   -64.3380    44.1680     0.2070     0.2450     0.0160     2.3190 
