~V
VERS. 2.00: Ver 2.00
~W
STRT.M 15.0000:
STOP.M 219.0000:
STEP.M 0.1250:
NULL. -999.2500:
UWI. FD11101:
~C
DEPT.M :
TVD. :
DX. :
DY. :
GR.API :
RML.OHMM :
RI. :
RXO.OHMM :
CALI.CM :
SP.MV :
DEN.GM/CC :
~A
# ...
  163.5000   155.8790     6.8980    37.0840    84.8140    58.2080    56.0540     9.7410    20.1170   -34.7100     2.2950 
  163.6250   155.9870     6.9070    37.1450    84.1160    64.8420    61.2110     9.9840    20.0740   -34.9520     2.2880 
  163.7500   156.0950     6.9170    37.2070    79.4030    75.8380    70.5070    10.2980    20.0540   -35.2540     2.2840 
  163.8750   156.2030     6.9270    37.2690    76.5020    91.7330    84.5060    10.6420    20.0470   -35.5290     2.2810 
  164.0000   156.3120     6.9360    37.3310    75.9400   112.4210   102.9870    11.0200    20.0430   -35.7430     2.2780 
  164.1250   156.4200     6.9460    37.3930    74.7100   137.0380   124.8460    11.1200    20.0470   -35.9820     2.2720 
  164.2500   156.5280     6.9560    37.4550    73.2070   162.3310   147.0330    10.8940    20.0490   -36.2590     2.2630 
  164.3750   156.6360     6.9660    37.5160    72.6740   185.2700   167.0640    10.4170    20.0500   -36.4890     2.2540 
  164.5000   156.7440     6.9750    37.5780    71.9330   202.4710   182.4810    10.0150    20.0500   -36.7320     2.2430 
  164.6250   156.8530     6.9850    37.6400    69.3000   208.2440   189.1490     9.9540    20.0500   -36.9990     2.2320 
  164.7500   156.9610     6.9950    37.7020    67.1430   201.5600   186.0560    10.0780    20.0500   -37.2170     2.2210 
  164.8750   157.0690     7.0040    37.7640    68.0850   183.5550   173.3010    10.4650    20.0500   -37.3490     2.2120 
  165.0000   157.1770     7.0140    37.8250    71.3640   158.9520   153.6890    11.1480    20.0500   -37.4830     2.2100 
  165.1250   157.2860     7.0240    37.8870    73.8010   134.7530   132.2430    11.6470    20.0490   -37.6510     2.2160 
  165.2500   157.3940     7.0340    37.9490    74.2330   115.6870   113.8810    11.7050    20.0470   -37.7550     2.2290 
  165.3750   157.5020     7.0430    38.0110    75.0900   102.9700   100.6160    11.4410    20.0480   -37.8090     2.2430 
  165.5000   157.6100     7.0530    38.0730    79.9240    96.0530    92.7010    11.1050    20.0470   -37.8070     2.2550 
  165.6250   157.7180     7.0630    38.1350    86.1270    94.2370    89.9240    10.9490    20.0430   -37.8030     2.2610 
  165.7500   157.8270     7.0720    38.1960    86.3100    95.3080    90.1920    11.0270    20.0350   -37.7830     2.2630 
  165.8750   157.9350     7.0820    38.2580    79.7860    98.1840    92.3780    11.1370    20.0320   -37.7730     2.2650 
  166.0000   158.0430     7.0920    38.3200    74.2870   102.1120    95.6430    11.2380    20.0320   -37.7960     2.2670 
  166.1250   158.1510     7.1020    38.3820    75.2580   106.8210    99.6310    11.1550    20.0320   -37.7530     2.2690 
  166.2500   158.2590     7.1110    38.4440    77.6160   112.1330   104.1470    10.8240    20.0330   -37.6130     2.2710 
  166.3750   158.3680     7.1210    38.5050    77.8040   117.9740   109.1450    10.3320    20.0350   -37.4410     2.2710 
  166.5000   158.4760     7.1310    38.5670    75.8940   123.9940   114.3520     9.9340    20.0350   -37.3020     2.2680 
  166.6250   158.5840     7.1400    38.6290    75.4230   129.2890   118.9840     9.6460    20.0550   -37.0350     2.2590 
  166.7500   158.6920     7.1500    38.6910    76.6000   133.0930   122.2810     9.4570    20.0870   -36.6890     2.2500 
  166.8750   158.8000     7.1600    38.7530    76.7070   135.0660   123.8050     9.2200    20.1230   -36.3240     2.2430 
  167.0000   158.9090     7.1700    38.8140    74.4250   135.5400   123.7070     9.0430    20.1560   -35.9170     2.2400 
  167.1250   159.0170     7.1790    38.8760    74.3290   135.4290   122.7280     9.0510    20.1850   -35.5490     2.2410 
  167.2500   159.1250     7.1890    38.9380    78.8330   135.5730   121.8740     9.4010    20.2050   -35.2400     2.2440 
  167.3750   159.2330     7.1990    39.0000    83.4540   135.4970   121.0620     9.7880    20.2300   -34.9580     2.2440 
  167.5000   159.3420     7.2080    39.0620    84.2230   133.4450   119.0550    10.0750    20.2460   -34.6480     2.2390 
  167.6250   159.4500     7.2180    39.1240    82.0420   126.4330   113.3190     9.9280    20.2540   -34.4060     2.2300 
  167.7500   159.5580     7.2280    39.1850    80.1600   114.8260   103.6350     9.5780    20.2550   -34.2150     2.2230 
  167.8750   159.6660     7.2380    39.2470    79.7070   100.8620    91.4350     9.3140    20.2700   -34.0010     2.2240 
  168.0000   159.7740     7.2470    39.3090    80.2010    87.9350    79.4460     9.1940    20.3270   -33.7210     2.2370 
  168.1250   159.8830     7.2570    39.3710    81.6120    79.6530    71.0230     9.0820    20.5040   -33.4740     2.2600 
  168.2500   159.9910     7.2670    39.4330    82.9610    76.1550    66.8920     8.7690    20.6650   -33.3300     2.2800 
  168.3750   160.0990     7.2760    39.4940    83.0310    76.5310    66.6180     8.8150    20.7790   -33.1920     2.2900 
  168.5000   160.2070     7.2860    39.5560    80.1660    79.1550    68.8950     9.1630    20.8180   -33.0200     2.2880 
  168.6250   160.3150     7.2960    39.6180    76.6580    82.2310    72.0970     9.5330    20.8140   -32.8300     2.2790 
  168.7500   160.4240     7.3060    39.6800    78.1410    84.5160    74.8130     9.6630    20.8130   -32.7300     2.2700 
  168.8750   160.5320     7.3150    39.7420    82.4110    85.5780    76.5190     9.7680    20.7920   -32.7210     2.2640 
  169.0000   160.6400     7.3250    39.8040    84.4280    84.9070    76.7550     9.9350    20.6720   -32.7270     2.2570 
  169.1250   160.7480     7.3350    39.8650    81.7020    80.7910    74.0100     9.9470    20.3870   -32.6040     2.2580 
  169.2500   160.8560     7.3440    39.9270    79.2990    72.6720    67.5190    10.3000    20.1430   -32.3430     2.2820 
  169.3750   160.9650     7.3540    39.9890    79.9650    60.5810    57.3590    11.2420    20.0500   -32.0360     2.3390 
  169.5000   161.0730     7.3640    40.0510    82.1000    46.1940    45.1700    12.9710    20.0620   -31.6900     2.4180 
  169.6250   161.1810     7.3740    40.1130    86.7590    33.1850    33.8400    14.5650    20.1580   -31.2920     2.4840 
  169.7500   161.2890     7.3830    40.1740    93.0280    24.0320    25.1670    13.8100    20.3710   -30.8570     2.5060 
  169.8750   161.3970     7.3930    40.2360    97.8640    18.8560    19.4810    11.7130    20.6570   -30.4270     2.4810 
  170.0000   161.5060     7.4030    40.2980    99.4290    16.5400    16.3730    10.2180    20.8930   -30.0490     2.4280 
  170.1250   161.6140     7.4120    40.3600    99.7250    16.6400    15.6590     9.9280    21.0940   -29.6980     2.3740 
  170.2500   161.7220     7.4220    40.4220    99.7740    18.6800    16.7700     9.6470    21.2220   -29.4270     2.3330 
  170.3750   161.8300     7.4320    40.4840    95.3700    22.3380    19.6310    10.5220    21.3160   -29.2920     2.3030 
  170.5000   161.9390     7.4420    40.5450    86.3840    26.8870    23.8610    11.3940    21.3560   -29.3170     2.2820 
  170.6250   162.0470     7.4510    40.6070    80.8150    30.6670    28.1320    11.8220    21.3470   -29.4240     2.2710 
  170.7500   162.1550     7.4610    40.6690    80.5530    32.0710    30.5030    12.7930    21.3180   -29.5100     2.2740 
  170.8750   162.2630     7.4710    40.7310    81.6620    30.4770    29.8940    13.3880    21.2920   -29.6130     2.2930 
  171.0000   162.3710     7.4800    40.7930    85.5260    26.6100    26.6660    12.3340    21.2530   -29.7880     2.3250 
  171.1250   162.4800     7.4900    40.8540    95.7230    22.2480    22.4330    10.9020    21.2020   -30.0550     2.3620 
  171.2500   162.5880     7.5000    40.9160   105.5600    18.9920    18.9750    10.2270    21.1800   -30.3220     2.3940 
  171.3750   162.6960     7.5100    40.9780   106.3210    17.2780    16.8540     9.9890    21.1790   -30.5480     2.4140 
  171.5000   162.8040     7.5190    41.0400    99.2280    16.9090    16.0030     9.8230    21.1700   -30.7650     2.4220 
  171.6250   162.9120     7.5290    41.1020    95.5820    17.4560    16.1740     9.8190    21.1220   -31.0230     2.4260 
